timestamp,timestamp_sample,xyz[0],xyz[1],xyz[2]
3264000,3264000,0.0007573137,0.0007672126,-6.969779e-05
3268000,3268000,0.0007466166,0.0011273003,-0.00019246455
3284000,3284000,-0.00080283196,1.1333119e-05,0.00049419276
3304000,3304000,-0.0011355374,0.0003926037,-1.896278e-05
3324000,3324000,0.00044064503,-0.0009180215,2.1637637e-05
3344000,3344000,0.0010342007,-0.00022010427,-0.00022120606
3364000,3364000,0.0001785595,0.0003369921,0.00022703994
3384000,3384000,0.0010222065,0.0011461761,8.292184e-05
3404000,3404000,6.604097e-05,0.001300006,0.00018674474
3424000,3424000,0.000604715,0.0011806324,0.000238572
3444000,3444000,7.938616e-05,-0.0005916916,-0.00023164996
3464000,3464000,0.0005531992,0.0018581508,-0.00033536568
3484000,3484000,-6.364916e-05,0.00033675265,0.00019080333
3500000,3500000,0.022345567,0.02402539,0.00031580916
3520000,3520000,0.022541953,0.024986414,-0.00045487998
3544000,3544000,0.021614982,0.023746861,0.0002486045
3564000,3564000,0.020797497,0.023726504,-0.00013396713
3584000,3584000,0.020841865,0.025069416,8.098681e-05
3604000,3604000,0.02160929,0.022487251,0.00023088537
3624000,3624000,0.019382048,0.023832768,0.0003806704
3640000,3640000,0.01956628,0.023577197,8.904384e-05
3664000,3664000,0.018529743,0.023183841,2.0162226e-05
3684000,3684000,0.019574324,0.022617666,0.0005708101
3704000,3704000,0.019997995,0.023347761,0.00045078975
3720000,3720000,0.01924233,0.024013404,-0.0002513314
3744000,3744000,0.019114045,0.023382695,0.00022932517
3764000,3764000,0.019383028,0.023237186,0.0005006434
3784000,3784000,0.020402398,0.023444645,0.00016892732
3800000,3800000,0.020532725,0.024064168,-0.0003290041
3820000,3820000,0.020559795,0.023685398,0.0006816118
3844000,3844000,0.020459613,0.023982426,9.2323105e-05
3864000,3864000,0.01994893,0.023409175,-0.00024203419
3880000,3880000,0.019042797,0.025116999,5.4622426e-05
3900000,3900000,0.019807784,0.02372924,1.0761316e-05
3920000,3920000,0.019138075,0.024437195,-8.548091e-05
3944000,3944000,0.018988937,0.023731953,-8.196269e-05
3964000,3964000,0.02013389,0.025179163,0.00031458796
3984000,3984000,0.019496562,0.023567127,0.00015841587
4004000,4004000,0.020292927,0.024194786,4.360389e-05
4024000,4024000,0.020394074,0.023108216,-7.261329e-05
4044000,4044000,0.018285997,0.024785127,0.00028158794
4060000,4060000,0.020423423,0.02497797,0.0003145316
4080000,4080000,0.020580068,0.023217447,0.0008531627
4100000,4100000,0.019817814,0.023429535,0.0002967792
4124000,4124000,0.020485124,0.022842936,0.0007764228
4144000,4144000,0.019658187,0.02359087,-0.00020952863
4164000,4164000,0.020789871,0.02307348,9.311473e-05
4184000,4184000,0.019375462,0.022882272,-0.0002539708
4204000,4204000,0.019132165,0.022299403,3.7333277e-05
4224000,4224000,0.019901732,0.023114095,-0.000389799
4240000,4240000,0.01930699,0.023359163,-0.0002455656
4264000,4264000,0.019547923,0.022954628,-3.3725777e-05
4284000,4284000,0.018507076,0.023129888,-0.00019859057
4304000,4304000,0.019783974,0.022602241,0.0003019698
4324000,4324000,0.019135939,0.022661706,-0.00040271413
4344000,4344000,0.01910224,0.023583952,-0.00014857347
4364000,4364000,0.020098895,0.02308926,0.00022335959
4384000,4384000,0.020004652,0.021606019,-2.5513466e-06
4404000,4404000,0.019587148,0.021712262,0.00018620731
4424000,4424000,0.019292232,0.022986466,-0.00061375805
4444000,4444000,0.01874417,0.02165482,-0.00052756444
4460000,4460000,0.020294186,0.022835422,-9.053974e-05
4480000,4480000,0.019030422,0.022201171,7.57694e-05
4504000,4504000,0.018877586,0.021375973,-0.00030939784
4524000,4524000,0.018959628,0.021765461,-0.00022237445
4544000,4544000,0.01925493,0.022250302,-0.0006549521
4564000,4564000,0.02004081,0.022030845,-0.00060254906
4584000,4584000,0.019787133,0.020892179,-0.00038518602
4604000,4604000,0.019737817,0.020526823,-0.00024006823
4624000,4624000,0.019827982,0.021451,-0.0005672388
4644000,4644000,0.01881401,0.022864247,-0.00074887194
4664000,4664000,0.020247484,0.020978743,-0.0007715854
4684000,4684000,0.01967672,0.02050447,-0.00030662198
4704000,4704000,0.019581696,0.02131905,-0.00039012023
4724000,4724000,0.02026416,0.021793572,-0.0004658345
4744000,4744000,0.019660264,0.020972535,-0.00067820767
4764000,4764000,0.019147687,0.020306138,-0.0005854589
4784000,4784000,0.018613575,0.021399993,-1.3958989e-05
4804000,4804000,0.017606389,0.021005603,-1.5729818e-05
4824000,4824000,0.01894318,0.021756953,0.0007037389
4844000,4844000,0.01887798,0.02091459,-8.110176e-05
4864000,4864000,0.019282734,0.021374684,6.672175e-05
4884000,4884000,0.017990101,0.020817602,1.866368e-05
4904000,4904000,0.019149907,0.020975119,-0.000327329
4924000,4924000,0.017715307,0.021036062,-0.00020988219
4944000,4944000,0.019567462,0.020353708,0.00020470563
4964000,4964000,0.01771573,0.021312747,0.00015647248
4984000,4984000,0.019129504,0.020674173,-0.00079668773
5004000,5004000,0.017808512,0.020120323,-0.0005740813
5024000,5024000,0.018713493,0.02127435,-8.1502556e-05
5044000,5044000,0.017779496,0.020933967,0.00013713227
5064000,5064000,0.017820302,0.020609716,6.902381e-06
5084000,5084000,0.017013194,0.020842306,7.736467e-05
5104000,5104000,0.01808406,0.021101002,-0.00018648115
5120000,5120000,0.017473858,0.019939447,-0.000103124185
5144000,5144000,0.018322766,0.021153929,-0.00034189268
5164000,5164000,0.018351104,0.02089774,0.0002614193
5184000,5184000,0.017435426,0.021047708,-0.0003857677
5204000,5204000,0.018604439,0.02036724,0.0001819901
5220000,5220000,0.017964762,0.020609984,0.00020156468
5244000,5244000,0.018754395,0.020170933,-0.00020385711
5264000,5264000,0.01750657,0.019467648,-0.00062472903
5284000,5284000,0.017441966,0.021154072,5.5982127e-05
5304000,5304000,0.018214956,0.020431777,-6.650577e-05
5324000,5324000,0.017140087,0.020455018,0.00043083355
5344000,5344000,0.017215168,0.01964286,-0.00057971844
5364000,5364000,0.018317357,0.021935103,-0.00047667473
5384000,5384000,0.016836803,0.020572962,2.762687e-05
5404000,5404000,0.017941032,0.020202436,-6.786902e-05
5424000,5424000,0.017012581,0.020471346,-9.3498384e-05
5444000,5444000,0.01708141,0.020804098,-8.125473e-05
5464000,5464000,0.018154992,0.020419057,-0.0006465837
5484000,5484000,0.017728597,0.020390747,5.724972e-05
5504000,5504000,0.017571343,0.020488588,-8.24924e-05
5524000,5524000,0.018226052,0.020834038,-0.0005001696
5544000,5544000,0.017165951,0.020805657,-0.00011403286
5564000,5564000,0.017293252,0.020764325,-6.95884e-05
5584000,5584000,0.018113555,0.021149274,-0.00018885509
5604000,5604000,0.01771768,0.02004412,-0.00016505022
5624000,5624000,0.018036172,0.020882148,0.00079768675
5644000,5644000,0.017233215,0.02045659,-0.00012921145
5660000,5660000,0.016874392,0.020745734,3.1835796e-05
5684000,5684000,0.017536072,0.019991187,-0.000307567
5704000,5704000,0.017631551,0.019935856,-0.00016967917
5724000,5724000,0.018985583,0.021488972,9.0859845e-05
5744000,5744000,0.017786326,0.020070987,9.78629e-05
5764000,5764000,0.01783625,0.019719917,-0.00045823245
5784000,5784000,0.018136643,0.02052851,7.9043e-05
5804000,5804000,0.018829795,0.020184588,0.00017670529
5824000,5824000,0.018280981,0.020977506,-6.366392e-05
5840000,5840000,0.017297875,0.02188353,0.0002855578
5864000,5864000,0.018130267,0.02092578,0.0002692501
5880000,5880000,0.017585674,0.01998015,-0.00038284212
5900000,5900000,0.018059315,0.019280396,-6.294819e-05
5920000,5920000,0.018178904,0.020468347,-0.0003776827
5944000,5944000,0.017781926,0.02099673,0.00017575185
5964000,5964000,0.01855397,0.020492218,-0.00037870134
5984000,5984000,0.017097048,0.020142099,-0.0005330295
6004000,6004000,0.017684842,0.020432837,-0.00022580715
6024000,6024000,0.018686958,0.01967899,-2.7720851e-05
6044000,6044000,0.018324183,0.020039689,-0.0005344377
6064000,6064000,0.017891925,0.020312386,-0.0004501871
6084000,6084000,0.018345516,0.02065431,6.469397e-05
6104000,6104000,0.01669017,0.019993456,3.4060435e-05
6124000,6124000,0.018677538,0.020901935,-0.00022196746
6144000,6144000,0.019197349,0.020893527,-0.00030848928
6164000,6164000,0.016952708,0.021183576,0.0003384115
6180000,6180000,0.018037803,0.01970585,-0.0002871585
6204000,6204000,0.01777188,0.020974096,0.00057179335
6220000,6220000,0.017909143,0.02080598,-0.0008175688
6240000,6240000,0.016780145,0.01983195,0.0003048198
6260000,6260000,0.017264845,0.020798054,-0.00019655528
6280000,6280000,0.016944163,0.019747525,-0.00096195
6300000,6300000,0.018035505,0.020570971,9.594147e-05
6320000,6320000,0.017583657,0.020768205,-0.00035006055
6340000,6340000,0.017307412,0.019589491,9.477046e-05
6360000,6360000,0.01792174,0.019485548,-0.0002643426
6380000,6380000,0.01794522,0.020183917,-0.00050507596
6400000,6400000,0.01795995,0.021671992,0.00038382155
6424000,6424000,0.017655866,0.018924024,5.8367616e-05
6444000,6444000,0.017725306,0.020099718,0.0002987688
6464000,6464000,0.017686326,0.019581474,-0.0005106876
6484000,6484000,0.017774632,0.020865006,0.00047865006
6504000,6504000,0.017784048,0.02040755,0.00027586168
6524000,6524000,0.017070752,0.020505052,0.00020901016
6544000,6544000,0.017582215,0.020167124,9.4723655e-05
6564000,6564000,0.0159237,0.019982332,-0.000665073
6584000,6584000,0.01784254,0.019490397,-0.00044905138
6604000,6604000,0.0183493,0.020061817,4.5481193e-05
6624000,6624000,0.016213393,0.021214362,-0.0003715375
6644000,6644000,0.017701782,0.019985141,-1.3416039e-05
6664000,6664000,0.016155422,0.020745456,0.00012846847
6684000,6684000,0.017908966,0.02041368,-0.00026675648
6704000,6704000,0.017014997,0.02078577,0.0004298298
6724000,6724000,0.016738476,0.020403732,0.00042175848
6744000,6744000,0.017943405,0.020560343,-0.00023375373
6764000,6764000,0.018469268,0.019654606,0.00052567205
6784000,6784000,0.017284585,0.020173158,-5.1144045e-05
6804000,6804000,0.016668972,0.020668171,6.7749446e-05
6824000,6824000,0.016940055,0.020215606,0.0006003679
6844000,6844000,0.016430646,0.020895476,0.0007008615
6864000,6864000,0.017522484,0.020643618,0.00010180776
6884000,6884000,0.015742186,0.020542277,-3.4144916e-05
6904000,6904000,0.018161347,0.019431328,0.00014390088
6924000,6924000,0.015926167,0.022023235,0.00040815404
6944000,6944000,0.017114446,0.020203242,0.0002682873
6964000,6964000,0.017272387,0.020660726,0.00060231186
6984000,6984000,0.016950028,0.018964102,0.00012741257
7004000,7004000,0.016776733,0.02080753,0.0001792851
7020000,7020000,0.01614528,0.021285001,0.00030064714
7040000,7040000,0.01699365,0.019472867,0.00034324705
7060000,7060000,0.017947156,0.021041345,5.1165163e-05
7080000,7080000,0.017795006,0.020842195,0.0006988304
7100000,7100000,0.01637939,0.020432213,0.0006307267
7120000,7120000,0.017151488,0.020171622,0.00065312226
7144000,7144000,0.0167518,0.021724058,0.00055194617
7164000,7164000,0.017554214,0.021491302,0.0003455077
7184000,7184000,0.017976578,0.01954126,-0.0001262219
7200000,7200000,0.016586052,0.021193903,0.00057217915
7224000,7224000,0.018130042,0.021018164,8.904869e-05
7244000,7244000,0.01632799,0.02080933,0.0008580125
7264000,7264000,0.01717405,0.020506043,0.00017146043
7280000,7280000,0.016595382,0.020333081,0.00027625842
7300000,7300000,0.016519055,0.019471934,9.409202e-05
7320000,7320000,0.017145172,0.019980961,-0.000132371
7340000,7340000,0.01798583,0.02195727,7.6053024e-05
7360000,7360000,0.018212214,0.020067222,0.00054131646
7380000,7380000,0.017797017,0.021007784,-5.6980178e-05
7400000,7400000,0.017229933,0.019762268,0.00050235086
7424000,7424000,0.017516688,0.021943616,0.00060534105
7444000,7444000,0.017000187,0.019445857,0.00086394476
7464000,7464000,0.017375274,0.0215463,0.0007861496
7484000,7484000,0.017373031,0.019974343,0.00023504822
7504000,7504000,0.01764717,0.021044984,0.00044209464
7524000,7524000,0.01712362,0.020507105,0.0009828259
7544000,7544000,0.017141523,0.020560013,0.00066964794
7564000,7564000,0.017348628,0.020869866,0.000670253
7584000,7584000,0.016639205,0.021091005,0.0010916785
7604000,7604000,0.017442696,0.020752534,0.0006924822
7620000,7620000,0.018019827,0.021686409,0.0008077763
7644000,7644000,0.016390389,0.020362725,0.000653869
7660000,7660000,0.016793763,0.019785753,0.00035159054
7680000,7680000,0.017192734,0.020440564,0.00062701677
7700000,7700000,0.018075176,0.021306805,0.00040529185
7720000,7720000,0.01750946,0.021149699,0.0002445711
7744000,7744000,0.01777027,0.020523297,0.00056008034
7764000,7764000,0.017241769,0.020180998,0.00035501248
7784000,7784000,0.017326152,0.02065443,0.00034225182
7804000,7804000,0.016990311,0.019088918,0.00048707688
7824000,7824000,0.018458338,0.019311741,0.0004460844
7844000,7844000,0.01675126,0.020173026,0.00054911786
7864000,7864000,0.0170714,0.02026205,0.0006810572
7884000,7884000,0.018756928,0.019735346,0.00029243666
7904000,7904000,0.017213112,0.020032741,0.0010107175
7924000,7924000,0.017593948,0.0205329,0.0013519779
7944000,7944000,0.01740613,0.020022348,0.0005993505
7964000,7964000,0.017374568,0.020676961,0.00040131455
7980000,7980000,0.018476006,0.02093988,0.00022383025
8004000,8004000,0.017989239,0.020420866,0.0003003631
8024000,8024000,0.017859075,0.020451518,0.00061557064
8044000,8044000,0.017622013,0.02086887,0.0009374087
8064000,8064000,0.01704313,0.01993135,0.00047024875
8084000,8084000,0.017426176,0.020896964,0.0007692187
8104000,8104000,0.017599145,0.020015761,0.00067956524
8124000,8124000,0.017746618,0.01944379,0.00065292645
8144000,8144000,0.017918618,0.020248707,0.00046635847
8164000,8164000,0.015952948,0.020709138,0.0006835678
8184000,8184000,0.017243052,0.019457648,0.00080478715
8204000,8204000,0.017678954,0.019455364,0.00027954686
8220000,8220000,0.017037146,0.021081716,0.000618363
8240000,8240000,0.017623015,0.020092547,0.00016196242
8260000,8260000,0.017662564,0.020278137,0.0010572275
8280000,8280000,0.017799426,0.020051582,0.0007197318
8300000,8300000,0.018259346,0.02032301,0.00025280897
8320000,8320000,0.018076254,0.019303389,0.0002173808
8340000,8340000,0.0178731,0.02058498,0.00041393796
8360000,8360000,0.018183263,0.020330453,0.0006710122
8380000,8380000,0.017306633,0.019938095,0.00040227352
8400000,8400000,0.01684227,0.019948136,0.00063166546
8424000,8424000,0.017631287,0.02057139,0.00076988054
8444000,8444000,0.0174864,0.019807195,0.00015991674
8464000,8464000,0.017446753,0.02019076,0.00025417862
8484000,8484000,0.01729171,0.020274969,0.000481739
8504000,8504000,0.01685343,0.019753557,0.00097002863
8524000,8524000,0.017553221,0.019967934,7.762958e-05
8544000,8544000,0.016836094,0.020068757,0.000490777
8564000,8564000,0.017572362,0.020179214,0.00047404776
8584000,8584000,0.017160734,0.020649247,0.0004964177
8604000,8604000,0.016907332,0.020542389,0.00021517194
8624000,8624000,0.017384345,0.020003308,0.00018319405
8640000,8640000,0.017228732,0.02036554,-7.680827e-06
8664000,8664000,0.016677847,0.020105533,0.00058245566
8684000,8684000,0.018329103,0.019268144,0.00054081867
8700000,8700000,0.01737916,0.0195834,0.00046904004
8720000,8720000,0.017565846,0.019341445,0.0006372544
8740000,8740000,0.017522985,0.02008968,0.000102114536
8764000,8764000,0.017304087,0.019410348,0.0008802332
8780000,8780000,0.017415736,0.019606944,0.00079154124
8800000,8800000,0.017851293,0.020000627,0.0008107546
8820000,8820000,0.016716413,0.022020392,0.0005624755
8844000,8844000,0.01794973,0.019608824,0.0006350942
8864000,8864000,0.017050799,0.019723324,0.00057893526
8884000,8884000,0.017835928,0.021823116,0.00054110464
8904000,8904000,0.015863381,0.020012317,0.00021693145
8924000,8924000,0.018042823,0.0201996,0.00058453385
8944000,8944000,0.016852958,0.020018123,0.000555779
8964000,8964000,0.017621981,0.019741056,0.0002661432
8984000,8984000,0.016691998,0.021172024,0.00027784347
9004000,9004000,0.017911352,0.020092575,0.00068680494
9024000,9024000,0.017560203,0.020181695,0.0005567697
9044000,9044000,0.016681172,0.02094262,0.000344146
9064000,9064000,0.017793221,0.019400299,0.0004211693
9084000,9084000,0.016342528,0.02000535,0.00048571583
9104000,9104000,0.017388709,0.02019625,0.00025415744
9124000,9124000,0.017779112,0.019764615,0.0002866558
9144000,9144000,0.018203456,0.021609908,0.00036922292
9164000,9164000,0.017134426,0.019942014,0.00078468537
9184000,9184000,0.017060816,0.019677376,0.0008293328
9204000,9204000,0.01758568,0.01977584,0.00034270855
9224000,9224000,0.017525064,0.020279402,0.00091959274
9244000,9244000,0.016968109,0.021412587,6.170115e-05
9264000,9264000,0.016484851,0.019695967,-9.595051e-05
9284000,9284000,0.017267425,0.021034453,0.0006786454
9300000,9300000,0.016991457,0.019167988,0.00019302704
9320000,9320000,0.017205821,0.019766632,-0.00036675716
9340000,9340000,0.01679399,0.02042477,0.00084070937
9360000,9360000,0.01743244,0.020229878,0.000409164
9384000,9384000,0.01859937,0.020567108,0.0001723121
9400000,9400000,0.01724573,0.018227218,0.00013888875
9424000,9424000,0.017258827,0.019200318,-0.00039012596
9444000,9444000,0.017335813,0.020139193,0.00010493739
9464000,9464000,0.016917836,0.020868603,0.0006058955
9480000,9480000,0.017771583,0.01977432,0.0004164828
9504000,9504000,0.01717852,0.019280544,0.0004748839
9520000,9520000,0.018102054,0.020281674,0.00036135293
9544000,9544000,0.016974468,0.019142834,0.00040465803
9564000,9564000,0.017426768,0.021020148,0.0005760425
9580000,9580000,0.016809823,0.019132955,0.0002643157
9600000,9600000,0.017246427,0.019979317,0.00023263604
9620000,9620000,0.017325416,0.020319406,9.555734e-05
9644000,9644000,0.018119875,0.019726053,0.00039630188
9664000,9664000,0.016269417,0.020306965,0.00024615772
9680000,9680000,0.01756678,0.018099926,9.2569426e-05
9700000,9700000,0.016870942,0.020045372,0.0005401589
9724000,9724000,0.016791387,0.019991584,0.00031232976
9744000,9744000,0.016491797,0.020326095,-8.759975e-05
9764000,9764000,0.017242603,0.020282794,0.0006869356
9784000,9784000,0.018037897,0.01972383,0.00064629846
9804000,9804000,0.017321637,0.019879095,0.00030262233
9824000,9824000,0.016899697,0.018863864,0.0005361866
9840000,9840000,0.017268393,0.019872645,0.0007241262
9864000,9864000,0.016476898,0.018534422,0.0003078938
9884000,9884000,0.01837169,0.020068463,0.00013609987
9900000,9900000,0.015928373,0.019840011,0.00053038105
9920000,9920000,0.017351625,0.020262314,0.00039935095
9940000,9940000,0.015453912,0.01992861,0.00030471396
9964000,9964000,0.017203664,0.020303955,0.00028117318
9980000,9980000,0.016076354,0.017953172,0.00033375595
10000000,10000000,0.016919635,0.019900572,0.00015232524
10020000,10020000,0.017791452,0.019543247,0.00015673634
10040000,10040000,0.017218528,0.018908747,0.0007583696
10060000,10060000,0.017769955,0.020445025,0.00046922624
10080000,10080000,0.01690597,0.020389369,0.0007824149
10100000,10100000,0.016483566,0.019701034,0.0002973467
10124000,10124000,0.016989384,0.019029433,0.0005829302
10144000,10144000,0.01754252,0.019292764,0.0005018992
10164000,10164000,0.017793806,0.020936681,0.00032391056
10180000,10180000,0.016955081,0.018231489,0.00015351138
10204000,10204000,0.016450418,0.019444231,0.00024702074
10224000,10224000,0.017398952,0.020395277,2.8258528e-05
10244000,10244000,0.01722248,0.018882176,0.00042441275
10264000,10264000,0.016933605,0.01893041,0.00046285923
10284000,10284000,0.015618588,0.019505428,0.0008467763
10304000,10304000,0.017904688,0.019263016,0.000501586
10320000,10320000,0.016933283,0.019486587,0.00059608836
10344000,10344000,0.017550115,0.019325756,0.0004294578
10360000,10360000,0.016615774,0.019680478,0.00028267398
10384000,10384000,0.018282006,0.01981613,0.00024928013
10404000,10404000,0.01702995,0.019944225,-7.157914e-05
10424000,10424000,0.016922269,0.019277478,0.00028126812
10440000,10440000,0.017320825,0.019326275,8.3048726e-05
10464000,10464000,0.016792169,0.02131655,-0.0002470692
10484000,10484000,0.016814066,0.019811101,0.00066392263
10504000,10504000,0.018162437,0.01788417,1.4453195e-05
10524000,10524000,0.017644584,0.020927146,0.00027562227
10544000,10544000,0.017480751,0.019044649,0.00049037114
10564000,10564000,0.016414667,0.020060642,0.0003560699
10584000,10584000,0.016609324,0.019823197,9.916612e-05
10604000,10604000,0.016966715,0.02038722,0.00022283397
10624000,10624000,0.01653557,0.019594673,0.000119460354
10644000,10644000,0.016999343,0.019758228,0.00026395553
10664000,10664000,0.016573869,0.019004604,-0.00025625297
10684000,10684000,0.01750495,0.019701507,0.0003426473
10704000,10704000,0.015963353,0.018897574,0.0004096998
10720000,10720000,0.016475372,0.019744186,0.0008383592
10744000,10744000,0.017378638,0.018680153,-0.000121401834
10764000,10764000,0.017016247,0.01898669,-3.6975347e-05
10780000,10780000,0.01714094,0.018001318,-0.00012000904
10804000,10804000,0.016487649,0.019693581,-0.00021858983
10820000,10820000,0.016656635,0.019115133,-0.00025796297
10844000,10844000,0.016595129,0.019350484,6.353812e-05
10864000,10864000,0.01669676,0.020194598,0.00016987375
10880000,10880000,0.016916668,0.020082159,0.00029758
10904000,10904000,0.016391592,0.019636156,0.00059569016
10920000,10920000,0.017153107,0.019677227,0.00025301674
10944000,10944000,0.016863273,0.020518338,0.00030753348
10964000,10964000,0.016926905,0.019422237,0.00045005418
10980000,10980000,0.016720215,0.01984563,0.00036045484
11004000,11004000,0.01714799,0.019721556,0.0004293986
11024000,11024000,0.016842673,0.017270237,-7.535797e-07
11044000,11044000,0.016881762,0.020204267,4.890843e-05
11064000,11064000,0.018154576,0.01908974,0.000108045526
11084000,11084000,0.016519494,0.0200378,-0.0004189048
11104000,11104000,0.016895536,0.02017222,4.0590614e-05
11124000,11124000,0.017032433,0.019258013,0.0010025523
11140000,11140000,0.015857985,0.019140024,0.00035985207
11164000,11164000,0.017174646,0.01942015,0.00015645385
11180000,11180000,0.016837984,0.018489897,0.00024106917
11204000,11204000,0.017197268,0.019000268,0.0007506438
11220000,11220000,0.016351882,0.019341772,0.0003316335
11240000,11240000,0.017215254,0.01933386,0.0002521326
11264000,11264000,0.016581139,0.019363776,2.1760306e-05
11280000,11280000,0.016933335,0.018265072,-0.0002200555
11300000,11300000,0.015830329,0.020582236,0.000108703694
11320000,11320000,0.017350568,0.018818907,-0.0003753088
11340000,11340000,0.017354773,0.019104876,0.00014329496
11360000,11360000,0.016612928,0.020782052,0.00011617108
11380000,11380000,0.017819956,0.01849611,0.0006226667
11400000,11400000,0.016406838,0.020544002,-0.00019707483
11424000,11424000,0.016778478,0.018292174,-0.0004571794
11440000,11440000,0.017340126,0.01929162,-9.796715e-05
11464000,11464000,0.01696863,0.019395655,0.00011585076
11484000,11484000,0.016255239,0.018552125,0.00032682365
11500000,11500000,0.01701234,0.018820781,0.000109844426
11520000,11520000,0.016805647,0.020219386,0.00030211508
11544000,11544000,0.016907375,0.018830333,0.00023676179
11564000,11564000,0.01719966,0.019065216,0.00033959674
11584000,11584000,0.01696963,0.02068007,0.00031089268
11604000,11604000,0.017367695,0.019684082,-0.00013912767
11624000,11624000,0.015829885,0.017878316,1.0446779e-05
11640000,11640000,0.017959088,0.020532968,0.0002082825
11664000,11664000,0.017448153,0.019307707,-0.00016141763
11684000,11684000,0.017088475,0.018671794,0.00038441434
11704000,11704000,0.017107964,0.018654004,0.00023349909
11724000,11724000,0.017095052,0.019750124,1.5936414e-05
11744000,11744000,0.017524732,0.019722557,0.0002543748
11760000,11760000,0.017689304,0.019566407,0.00029336833
11780000,11780000,0.016427336,0.01709564,0.00045683948
11804000,11804000,0.017976342,0.019023078,0.0003695398
11824000,11824000,0.016983466,0.0186719,2.249565e-05
11840000,11840000,0.016913412,0.019865397,0.0002198468
11864000,11864000,0.016307287,0.018751204,0.00052388513
11884000,11884000,0.016936645,0.0187548,0.00046270518
11904000,11904000,0.017279316,0.019186208,0.0004242806
11924000,11924000,0.017475037,0.019889636,0.00030783212
11944000,11944000,0.016581494,0.019021085,0.00044680573
11964000,11964000,0.01726037,0.018828258,0.00034447823
11984000,11984000,0.016933335,0.01968814,0.00020872592
12000000,12000000,0.01665296,0.017493302,0.00022476072
12020000,12020000,0.01660692,0.019091368,0.0001430336
12044000,12044000,0.016889907,0.018846346,-0.00017111185
12064000,12064000,0.017015664,0.017725592,-0.00015644012
12084000,12084000,0.016703546,0.019031627,-0.00012427439
12104000,12104000,0.016805518,0.019052928,-3.3179673e-05
12124000,12124000,0.017373215,0.018155107,0.0006011368
12144000,12144000,0.016534287,0.019989697,0.00042522853
12164000,12164000,0.015645694,0.018177146,0.00023088705
12184000,12184000,0.016502285,0.018262902,-2.9761159e-05
12204000,12204000,0.016504845,0.019732824,0.00042325072
12224000,12224000,0.016127788,0.019200735,0.00048259666
12244000,12244000,0.016621025,0.018709272,0.00018734651
12264000,12264000,0.016725041,0.01888177,0.00011705155
12284000,12284000,0.016044771,0.018550454,0.00037907483
12304000,12304000,0.016480694,0.018216688,0.00040105087
12324000,12324000,0.016045367,0.019607004,0.00018386407
12340000,12340000,0.016228734,0.017391317,-7.975495e-05
12364000,12364000,0.01694057,0.019517224,-0.0004326545
12380000,12380000,0.016406212,0.018258682,-0.00042046697
12400000,12400000,0.015690401,0.019586485,0.00015566291
12420000,12420000,0.01632567,0.019409083,0.00031402792
12444000,12444000,0.01662367,0.02005702,0.00024210734
12460000,12460000,0.016454592,0.01888379,0.00018963915
12484000,12484000,0.017176086,0.018710824,-3.5125016e-05
12504000,12504000,0.016508736,0.0182815,-3.6663387e-05
12524000,12524000,0.017602643,0.017908057,3.679594e-05
12544000,12544000,0.01680538,0.019149076,-6.4010885e-05
12564000,12564000,0.017104307,0.019011177,0.00010306477
12584000,12584000,0.016768107,0.01956144,0.0002489595
12604000,12604000,0.016192753,0.018340768,0.00010305401
12624000,12624000,0.016420554,0.017917361,0.0007404984
12644000,12644000,0.017443338,0.019300193,0.00047947076
12664000,12664000,0.01684094,0.01942765,-6.000223e-05
12684000,12684000,0.01631922,0.019602936,0.00036445152
12704000,12704000,0.016984642,0.0193656,0.0005778621
12724000,12724000,0.0163832,0.01889073,0.0005176114
12744000,12744000,0.017478762,0.019150173,0.00021461245
12764000,12764000,0.015072882,0.018544164,2.733745e-05
12784000,12784000,0.016393885,0.019771492,4.903849e-05
12804000,12804000,0.016566364,0.019346526,-3.827722e-05
12824000,12824000,0.01661711,0.018277274,0.00047456814
12844000,12844000,0.016633693,0.019854939,0.0007838076
12864000,12864000,0.016437178,0.01911122,0.00022540892
12884000,12884000,0.016231267,0.018959347,0.00022476593
12904000,12904000,0.015950954,0.019822376,0.0004317862
12924000,12924000,0.015654512,0.017866256,-0.00041562226
12944000,12944000,0.016132357,0.02068313,0.0003749049
12964000,12964000,0.016020529,0.01942483,4.6034518e-05
12984000,12984000,0.016117979,0.020385591,0.0003836309
13004000,13004000,0.015727796,0.019250812,0.00030844743
13024000,13024000,0.016101526,0.019625073,-7.759731e-05
13044000,13044000,0.016990574,0.019790253,0.00033684977
13064000,13064000,0.016638424,0.018864619,-0.00012775538
13084000,13084000,0.016919214,0.01797529,-9.616893e-05
13104000,13104000,0.016208716,0.018701036,0.0005286647
13124000,13124000,0.016941734,0.019845378,-0.00024374826
13144000,13144000,0.016821004,0.02066257,0.0002505649
13160000,13160000,0.015892377,0.018501315,-0.00015439722
13184000,13184000,0.01682583,0.019015824,0.00041031788
13200000,13200000,0.016153092,0.018790774,-0.0002194376
13220000,13220000,0.016214184,0.019116223,-8.491106e-05
13244000,13244000,0.016267097,0.018687729,-8.457095e-05
13264000,13264000,0.016351342,0.018220283,4.0614483e-05
13280000,13280000,0.016709186,0.01972054,0.0003254933
13304000,13304000,0.016530285,0.018163964,0.0008409338
13324000,13324000,0.016578063,0.018871224,0.0001942922
13344000,13344000,0.017197628,0.019330919,0.00056463253
13360000,13360000,0.015817398,0.019536363,0.00016483525
13384000,13384000,0.016852673,0.01825042,-0.00020259125
13404000,13404000,0.01652737,0.019308807,0.0009781845
13424000,13424000,0.016795946,0.019227173,0.00015452989
13444000,13444000,0.016012236,0.018726217,1.7324219e-05
13464000,13464000,0.017353915,0.018946711,0.00015503053
13480000,13480000,0.016137505,0.019826647,-0.00015082581
13500000,13500000,0.015604636,0.018967135,2.8819592e-05
13520000,13520000,0.015738567,0.019664673,-9.2009075e-05
13544000,13544000,0.015832953,0.019627962,0.000226851
13564000,13564000,0.016058268,0.018736286,5.1841344e-05
13584000,13584000,0.01614316,0.019016635,-0.00030633374
13604000,13604000,0.015705187,0.018881071,0.00034255043
13620000,13620000,0.015875194,0.019318921,-0.0002891545
13644000,13644000,0.017063461,0.019976046,-5.250296e-06
13660000,13660000,0.015606769,0.01757141,0.0007513032
13684000,13684000,0.015648276,0.019099066,0.00013111874
13704000,13704000,0.01549277,0.020061724,0.00011370761
13724000,13724000,0.016522968,0.018752746,-7.1986266e-05
13744000,13744000,0.016692039,0.018224489,-0.00013241784
13764000,13764000,0.016873373,0.019885039,0.00022506066
13784000,13784000,0.016251974,0.019209633,0.0004928966
13804000,13804000,0.017550727,0.019293731,0.00038704873
13824000,13824000,0.016290931,0.019072583,-0.00018465305
13844000,13844000,0.016118858,0.01931208,0.00060347834
13864000,13864000,0.015408976,0.019005354,0.00040209285
13884000,13884000,0.016904816,0.01809275,0.00038823395
13904000,13904000,0.016805727,0.019524934,-0.00018821264
13924000,13924000,0.017124308,0.019113716,0.00023528778
13944000,13944000,0.015427593,0.017824067,0.0002188338
13964000,13964000,0.01657124,0.018499779,-0.00030083276
13984000,13984000,0.015592376,0.01830724,-0.00018723575
14004000,14004000,0.017235812,0.017476454,0.00016817897
14024000,14024000,0.015788512,0.01851034,-9.643722e-05
14044000,14044000,0.016045004,0.018651344,-0.00033499472
14064000,14064000,0.016747283,0.018327717,0.00030282335
14084000,14084000,0.015763957,0.018437427,0.00013488506
14104000,14104000,0.016009852,0.018704785,0.0002660578
14124000,14124000,0.015779266,0.019233141,0.00042159995
14144000,14144000,0.016997162,0.018540155,1.6812783e-05
14164000,14164000,0.015506831,0.018778704,0.0003388866
14184000,14184000,0.016568905,0.018575769,0.00029276914
14204000,14204000,0.01521776,0.019350322,0.00055290206
14224000,14224000,0.016683243,0.01933029,9.072747e-06
14244000,14244000,0.017340893,0.01908385,0.00038697323
14264000,14264000,0.015785765,0.017577363,-9.7157856e-05
14284000,14284000,0.016617741,0.018416388,0.0004166673
14304000,14304000,0.0151316365,0.018350784,0.00027676803
14324000,14324000,0.016928853,0.019135656,0.00039432524
14344000,14344000,0.01616827,0.01833891,0.000248866
14364000,14364000,0.015551435,0.019114308,0.00028291778
14384000,14384000,0.015931202,0.01776923,0.00025497153
14400000,14400000,0.016377585,0.018659396,0.0002044393
14424000,14424000,0.016112676,0.020021848,0.00017529032
14440000,14440000,0.017275969,0.017949915,0.0002782582
14464000,14464000,0.015236446,0.019248348,0.00072640023
14480000,14480000,0.01703215,0.017800631,-0.0001202663
14504000,14504000,0.01539349,0.019635066,3.5608887e-06
14524000,14524000,0.016725542,0.017233646,0.0002594739
14544000,14544000,0.015591378,0.018375106,-0.00042353515
14560000,14560000,0.016195457,0.018414596,-7.709498e-05
14584000,14584000,0.01679081,0.018551938,0.00010887987
14600000,14600000,0.015339957,0.018365702,4.5457786e-05
14620000,14620000,0.015906602,0.01855786,0.00048568202
14640000,14640000,0.016000768,0.018530574,-0.00025635996
14664000,14664000,0.015721623,0.019159624,-2.118639e-05
14684000,14684000,0.016578158,0.018006783,0.000112066446
14704000,14704000,0.015886698,0.016584657,-0.00045892084
14724000,14724000,0.015584774,0.018764518,0.0004344446
14744000,14744000,0.01783025,0.017553352,-1.6338448e-05
14764000,14764000,0.01613358,0.017862134,-1.8097926e-06
14784000,14784000,0.01590822,0.018651983,0.0003638918
14800000,14800000,0.017580945,0.018518997,3.822881e-05
14820000,14820000,0.015809016,0.018695075,-0.00023842153
14844000,14844000,0.015489411,0.017883446,0.00023013994
14864000,14864000,0.015287787,0.017894475,7.923021e-05
14884000,14884000,0.016584635,0.019276869,0.0005206553
14900000,14900000,0.01693692,0.017311463,0.00032036644
14920000,14920000,0.01571373,0.017908916,-0.00016644064
14944000,14944000,0.01706504,0.017426636,-9.949063e-05
14964000,14964000,0.016328258,0.01797955,-0.0001615509
14984000,14984000,0.017985612,0.018960118,0.0006428907
15004000,15004000,0.015967283,0.017587742,0.00043040863
15024000,15024000,0.015927395,0.018973758,1.5615708e-05
15040000,15040000,0.015871346,0.018685816,-0.00060645194
15060000,15060000,0.015771829,0.018251982,0.00031858287
15080000,15080000,0.016199697,0.016977258,0.00014184589
15104000,15104000,0.016273653,0.01829898,0.0006232411
15124000,15124000,0.015845956,0.018307617,1.4965423e-06
15144000,15144000,0.017485863,0.019063532,0.00029791126
15164000,15164000,0.015624259,0.017860563,-0.00015879834
15184000,15184000,0.015984528,0.018420497,0.00022777995
15204000,15204000,0.01692215,0.01760012,0.0005883462
15220000,15220000,0.016151562,0.018778382,0.0004263139
15240000,15240000,0.015880685,0.018764652,0.0002544108
15264000,15264000,0.016640754,0.017426752,0.000489599
15280000,15280000,0.017253954,0.017722953,-8.77477e-05
15304000,15304000,0.016751638,0.01726501,0.0004753285
15324000,15324000,0.015671916,0.018407056,-0.00010896572
15344000,15344000,0.015902866,0.018432278,-0.00021607424
15364000,15364000,0.015899394,0.017097855,-0.0004200771
15380000,15380000,0.017236454,0.017842645,0.0004374614
15404000,15404000,0.015892534,0.01697561,-9.959764e-05
15424000,15424000,0.015689185,0.018140933,-0.0002398971
15440000,15440000,0.016344674,0.017691802,0.0001526491
15464000,15464000,0.016680934,0.017519513,-0.00010599091
15484000,15484000,0.015204769,0.01754047,0.0005200114
15504000,15504000,0.015620983,0.017783321,0.00028895502
15520000,15520000,0.016554313,0.017606657,-3.4784574e-05
15544000,15544000,0.015350265,0.017011305,-0.00029289257
15560000,15560000,0.016969632,0.016897693,0.00072723196
15584000,15584000,0.016674897,0.01784413,0.00024493845
15604000,15604000,0.01618152,0.018840415,0.00015289207
15620000,15620000,0.015805634,0.017833704,-0.00045495012
15640000,15640000,0.01621012,0.0169168,0.0002982413
15664000,15664000,0.015517901,0.016366621,-0.00041148416
15680000,15680000,0.016793095,0.018323965,6.527917e-05
15700000,15700000,0.015422086,0.017299583,6.474024e-05
15724000,15724000,0.015796814,0.017648185,-5.7570403e-05
15744000,15744000,0.016005956,0.016671205,-0.0004151329
15764000,15764000,0.016194072,0.016674833,2.7135096e-05
15784000,15784000,0.017102672,0.01787597,-7.39177e-05
15804000,15804000,0.016313773,0.017345585,0.00017392011
15824000,15824000,0.016805168,0.017710414,0.00021236239
15840000,15840000,0.017480576,0.017226974,4.501528e-05
15864000,15864000,0.016914302,0.018489046,0.00019528151
15884000,15884000,0.01732217,0.01778133,-0.00022769874
15904000,15904000,0.016520929,0.018228682,-0.00010655483
15924000,15924000,0.016754601,0.016721658,-0.00019046063
15944000,15944000,0.017031923,0.017230533,0.00029035547
15964000,15964000,0.017871914,0.017126769,5.3575834e-05
15984000,15984000,0.016952757,0.01607538,0.0006914712
16004000,16004000,0.016610637,0.017070243,0.00037031743
16024000,16024000,0.017213723,0.016431173,-0.000120736055
16044000,16044000,0.017303046,0.016548948,9.600875e-05
16060000,16060000,0.016894372,0.016168669,-6.933962e-05
16080000,16080000,0.017224029,0.01846371,0.0005360515
16100000,16100000,0.016875867,0.017389448,2.840191e-05
16124000,16124000,0.016632333,0.016817894,0.00021558444
16140000,16140000,0.015747083,0.017347872,0.00027952454
16160000,16160000,0.018271867,0.016165396,-0.00023540885
16180000,16180000,0.017314998,0.017709278,-7.3519324e-05
16200000,16200000,0.017987324,0.017898336,0.00062676467
16220000,16220000,0.017250048,0.015558416,0.0004912969
16244000,16244000,0.016847543,0.017225612,0.000628424
16264000,16264000,0.018359542,0.018281473,0.00017128294
16284000,16284000,0.016850935,0.017526152,1.6076374e-06
16300000,16300000,0.018940274,0.017608218,-0.00028970407
16324000,16324000,0.017233565,0.016368223,0.00038496417
16344000,16344000,0.017712314,0.018095274,4.0478993e-05
16364000,16364000,0.017085372,0.017316757,0.0005551839
16384000,16384000,0.017879207,0.017889183,0.00014107018
16404000,16404000,0.018233664,0.017815277,0.0003362937
16424000,16424000,0.018463088,0.017726816,4.3742035e-05
16444000,16444000,0.017556988,0.017816773,0.0002002188
16464000,16464000,0.01784155,0.016296998,0.00019579013
16484000,16484000,0.017293625,0.019078618,-0.00019311019
16504000,16504000,0.01735436,0.018261444,0.00041199345
16524000,16524000,0.018507347,0.017350014,-0.0002020342
16544000,16544000,0.017740343,0.018558621,5.7277844e-05
16564000,16564000,0.017406372,0.019510277,0.00017712997
16580000,16580000,0.019011153,0.01903701,-1.7295071e-05
16600000,16600000,0.020442696,0.019261392,0.00030919386
16620000,16620000,0.019399835,0.019758115,2.8305967e-05
16640000,16640000,0.021343717,0.021348013,-9.73015e-05
16660000,16660000,0.021315584,0.021787338,0.00010750809
16680000,16680000,0.020625526,0.020157665,1.742443e-05
16700000,16700000,0.022036273,0.021412322,0.00054674555
16720000,16720000,0.022029465,0.022257533,1.4463054e-05
16744000,16744000,0.022800662,0.021396495,0.00051585824
16764000,16764000,0.02354704,0.022860002,-1.9946783e-06
16780000,16780000,0.023935024,0.02259957,-0.00027204637
16804000,16804000,0.024269238,0.023106629,-3.6874095e-05
16824000,16824000,0.024898177,0.024064433,-0.0003688657
16844000,16844000,0.027495168,0.025883641,0.00015550059
16864000,16864000,0.025701808,0.025989726,0.000119172866
16884000,16884000,0.027810892,0.026280994,-0.00030833122
16904000,16904000,0.02693245,0.025745954,0.00020891329
16924000,16924000,0.02746278,0.025773218,-9.045982e-05
16944000,16944000,0.028331166,0.028394055,0.00010349571
16964000,16964000,0.028195936,0.027256528,8.647482e-05
16984000,16984000,0.029954726,0.028277406,0.0003412523
17000000,17000000,0.030039238,0.028661726,0.00026414843
17020000,17020000,0.030206485,0.02866922,-0.00028962927
17040000,17040000,0.030500824,0.030987617,0.0005714158
17060000,17060000,0.031540755,0.030867854,-9.189098e-05
17080000,17080000,0.031847924,0.030529741,0.0001892088
17100000,17100000,0.03194116,0.03177849,-4.2671403e-05
17120000,17120000,0.032157507,0.03070038,5.184646e-05
17144000,17144000,0.033605784,0.031442285,0.00023839361
17164000,17164000,0.034059085,0.03299264,0.00042490888
17184000,17184000,0.035400745,0.033654135,0.0002515822
17204000,17204000,0.035117906,0.033376638,0.00013651681
17224000,17224000,0.037141755,0.03377652,0.00012256656
17244000,17244000,0.0363077,0.03349381,0.00041745973
17264000,17264000,0.036967702,0.034128804,0.00025142863
17284000,17284000,0.037746996,0.03464473,-0.000112497524
17300000,17300000,0.03755019,0.036246274,-5.8081263e-05
17320000,17320000,0.03856572,0.0353202,0.00029084308
17340000,17340000,0.03949104,0.03598074,-2.6548307e-05
17360000,17360000,0.03852675,0.035768434,0.0006815388
17384000,17384000,0.039855186,0.037073206,-0.0002725005
17404000,17404000,0.040836044,0.036718372,0.0005436206
17424000,17424000,0.04009932,0.03800362,0.00018681506
17444000,17444000,0.040907826,0.03940044,0.00068396016
17464000,17464000,0.04089487,0.038606774,-6.654147e-06
17484000,17484000,0.042222165,0.039328482,7.731242e-05
17500000,17500000,0.041995056,0.040786527,7.266871e-05
17524000,17524000,0.044194743,0.04075659,0.0003582891
17544000,17544000,0.043842636,0.040370017,0.00045903464
17564000,17564000,0.0437805,0.0406544,0.0010760973
17584000,17584000,0.04482497,0.041198142,-0.00022352405
17604000,17604000,0.044848997,0.042203136,0.00029889616
17620000,17620000,0.045395337,0.04287672,-5.9772356e-05
17644000,17644000,0.046547953,0.042186406,0.00037102203
17664000,17664000,0.046317473,0.042720422,0.00014808227
17684000,17684000,0.0465893,0.044208903,0.00019899131
17700000,17700000,0.04641377,0.043017443,0.0002762214
17724000,17724000,0.04794321,0.043279003,0.00037699967
17744000,17744000,0.047966864,0.045632333,-0.000120146244
17764000,17764000,0.048883654,0.044626944,8.464025e-05
17784000,17784000,0.05018662,0.04646364,0.0002944891
17804000,17804000,0.04909597,0.04631323,-0.00040420596
17824000,17824000,0.04982847,0.047010627,0.00036877935
17840000,17840000,0.051034197,0.046955083,0.00022136598
17864000,17864000,0.050749533,0.046217415,-5.3177573e-05
17884000,17884000,0.05264872,0.04802682,0.00044337084
17904000,17904000,0.051483788,0.04757403,0.00029610528
17924000,17924000,0.052811507,0.048996598,0.00030297163
17940000,17940000,0.05353393,0.04930155,0.00051571656
17964000,17964000,0.053219818,0.049147967,0.0005293157
17984000,17984000,0.05465912,0.05000303,8.1131744e-05
18004000,18004000,0.05500011,0.05056367,0.0005049659
18024000,18024000,0.056105107,0.04919951,0.00021971374
18044000,18044000,0.055152964,0.05078299,0.00023174137
18064000,18064000,0.05574361,0.051041752,-9.421934e-05
18084000,18084000,0.056577947,0.05234703,0.00038228687
18104000,18104000,0.05737388,0.053316027,0.0005287214
18124000,18124000,0.057756647,0.05224779,0.00035139796
18144000,18144000,0.05997004,0.05284566,-0.0004923889
18164000,18164000,0.05833482,0.053938776,0.00045264
18184000,18184000,0.060243268,0.05328925,0.00012400627
18204000,18204000,0.060369737,0.054588355,4.8603473e-05
18224000,18224000,0.061244003,0.05552065,0.00029950053
18244000,18244000,0.062299076,0.05445174,0.0005924189
18264000,18264000,0.062369805,0.056783766,0.00024170824
18280000,18280000,0.062005177,0.055306178,0.0003906096
18300000,18300000,0.06280985,0.057357296,0.0003940694
18320000,18320000,0.0636168,0.0562381,0.00046120855
18344000,18344000,0.06266769,0.057265986,-0.00013610964
18360000,18360000,0.06522934,0.057835948,0.00031607854
18380000,18380000,0.06560955,0.05948102,-0.00034494273
18400000,18400000,0.064764306,0.05863343,0.0008523796
18420000,18420000,0.06652153,0.058249485,3.8164966e-05
18440000,18440000,0.066546336,0.05910177,-0.00017805111
18460000,18460000,0.06657352,0.061159097,0.00010943849
18480000,18480000,0.06863602,0.05999793,0.00013363069
18500000,18500000,0.067616485,0.060266938,0.00015152764
18520000,18520000,0.06869543,0.06111278,0.00015409237
18544000,18544000,0.07037107,0.061639033,0.0003817041
18564000,18564000,0.07016494,0.06285988,0.00013648967
18580000,18580000,0.07017249,0.06242066,0.000353558
18600000,18600000,0.07199992,0.06264425,0.00028138683
18620000,18620000,0.07187906,0.06406044,-8.209479e-05
18640000,18640000,0.07224256,0.06382487,-7.061062e-05
18660000,18660000,0.07342647,0.064019814,0.00045600787
18680000,18680000,0.07365989,0.0650851,0.00012095616
18700000,18700000,0.075454526,0.0645657,0.00058945187
18720000,18720000,0.07507295,0.06524801,-2.4706838e-05
18740000,18740000,0.07467537,0.06498691,0.0003402792
18764000,18764000,0.07577713,0.06626012,-0.00045521528
18784000,18784000,0.07696305,0.06753882,0.00030014757
18804000,18804000,0.07805346,0.066164434,0.00052659
18824000,18824000,0.07779277,0.06928738,0.0004574965
18844000,18844000,0.079113185,0.067788444,5.509323e-05
18864000,18864000,0.08012793,0.06711572,0.00034512754
18884000,18884000,0.080385745,0.0684397,0.00073772133
18904000,18904000,0.08020258,0.06858901,0.0011367614
18924000,18924000,0.081710145,0.069415376,0.00039849288
18944000,18944000,0.081375554,0.06985295,0.000488981
18964000,18964000,0.0822164,0.06912623,0.00032274413
18984000,18984000,0.08332511,0.06996125,3.132991e-05
19004000,19004000,0.085145675,0.07035102,0.0002448705
19024000,19024000,0.08469882,0.07060846,0.00053432275
19044000,19044000,0.08466598,0.071955204,-7.746274e-05
19064000,19064000,0.08513092,0.07191229,0.00043199945
19084000,19084000,0.08534055,0.07262559,0.0001060453
19104000,19104000,0.086751394,0.07291846,2.6684938e-05
19124000,19124000,0.08676656,0.07274343,0.0009144676
19140000,19140000,0.08673996,0.07349358,0.0010473209
19164000,19164000,0.0875942,0.07409084,0.00063840364
19184000,19184000,0.08647617,0.07424064,0.00019504053
19204000,19204000,0.084019534,0.074322544,0.000523648
19224000,19224000,0.08127747,0.07519132,0.0010019257
19244000,19244000,0.075939484,0.07578698,0.00055338343
19264000,19264000,0.071200036,0.07635746,0.0001225454
19284000,19284000,0.06324448,0.07638356,0.0010055433
19304000,19304000,0.05813789,0.07681906,0.0010002179
19324000,19324000,0.054097485,0.0733101,0.00024222695
19344000,19344000,0.049190506,0.06903385,-0.0008811192
19364000,19364000,0.043315858,0.063478634,-0.0010715973
19384000,19384000,0.03728462,0.058860354,-0.0028633652
19404000,19404000,0.029997017,0.05040155,-0.0043366803
19424000,19424000,0.024783898,0.042886198,-0.0055117067
19444000,19444000,0.017769968,0.032243572,-0.0069429306
19464000,19464000,0.010069332,0.025295397,-0.008656599
19484000,19484000,0.0035490422,0.014741643,-0.008957312
19504000,19504000,-0.0032558898,0.0036776369,-0.009468437
19524000,19524000,-0.012800708,-0.008612797,-0.007677821
19544000,19544000,-0.019416604,-0.01725113,-0.00574563
19564000,19564000,-0.022412922,-0.019198898,-0.0044705304
19584000,19584000,-0.020547064,-0.022835772,-0.0037050415
19604000,19604000,-0.01961718,-0.020452904,-0.0026419987
19624000,19624000,-0.017338809,-0.023125013,-0.0018274622
19640000,19640000,-0.01689724,-0.020169346,-0.0015338117
19664000,19664000,-0.012904888,-0.016901236,-0.00041445653
19684000,19684000,-0.008661753,-0.012345019,-0.0007646631
19704000,19704000,-0.006267795,-0.008824186,-0.00065213535
19724000,19724000,-0.0035555765,-0.0066834516,-0.0011258452
19744000,19744000,-0.0019734737,-0.002698002,-0.0004993118
19764000,19764000,0.0015071107,0.001601543,-0.0008791381
19784000,19784000,0.00077983947,0.005095127,-0.0005483518
19804000,19804000,0.003167558,0.0073371376,-0.00053015177
19824000,19824000,0.0017668928,0.009358654,-0.0005454885
19844000,19844000,0.005708911,0.012869251,-0.0012871879
19864000,19864000,0.006511076,0.012769732,-0.0001997691
19884000,19884000,0.004618682,0.013735252,-0.00072363677
19904000,19904000,0.0051717386,0.013670436,-0.001043021
19924000,19924000,0.0049830656,0.014243241,-0.0003629031
19944000,19944000,0.006573231,0.013929638,-0.00069866655
19964000,19964000,0.0030189557,0.013033319,-0.00032174453
19984000,19984000,0.0046226303,0.011727068,-0.00065021607
20004000,20004000,0.0032735316,0.012100557,-0.0010905778
20024000,20024000,0.0020023594,0.0091308355,0.00019955495
20044000,20044000,0.0021916248,0.00918461,-0.00039054133
20064000,20064000,0.0022062007,0.008627781,-0.00015329523
20084000,20084000,0.0013796746,0.007150423,-0.00035086594
20104000,20104000,0.0013616025,0.0057589565,-0.00042531278
20124000,20124000,0.00105363,0.004285526,-0.00046903163
20144000,20144000,0.0001248761,0.0058507114,0.00011684117
20164000,20164000,-0.00031001196,0.005540798,-0.0005088645
20184000,20184000,0.001298595,0.001942046,-9.753599e-05
20204000,20204000,-0.00062499085,0.002763998,5.932979e-05
20224000,20224000,-0.00040172593,0.003307888,-0.0005246994
20244000,20244000,0.00067742966,0.0023018883,-0.00020318091
20264000,20264000,-0.0007528616,0.0019121178,-0.0005429458
20284000,20284000,-6.750919e-05,0.0035071927,9.12057e-05
20304000,20304000,-0.0003555438,0.003861577,2.5627902e-05
20324000,20324000,0.00051878963,0.004690018,-3.7944206e-05
20340000,20340000,-0.00094949803,0.0048744427,-0.00028422894
20364000,20364000,-0.00059332006,0.0047277138,8.390815e-05
20384000,20384000,0.0015101121,0.00617385,-0.00025534577
20404000,20404000,0.001632173,0.006254681,0.00013477996
20424000,20424000,0.0012366336,0.0051201247,-0.00030571438
20444000,20444000,0.00046244566,0.006011453,0.00022301596
20464000,20464000,0.0010918996,0.006546796,-0.0005755078
20484000,20484000,0.0017916539,0.0054764864,-6.4574415e-06
20504000,20504000,0.0017918621,0.00536588,-0.00012465642
20520000,20520000,0.0023610243,0.0068554673,-9.248988e-05
20544000,20544000,0.0020782687,0.0057011796,0.0001500445
20564000,20564000,0.0018077749,0.007889215,-8.322805e-05
20580000,20580000,0.0029826115,0.0044863466,-0.0005570818
20604000,20604000,0.001731901,0.004995964,0.0003032593
20620000,20620000,0.0014734475,0.004669823,0.00029376178
20640000,20640000,0.00074895076,0.004896346,0.00032705624
20660000,20660000,-0.00038782402,0.0057095923,0.00019453577
20684000,20684000,0.0018963986,0.0047111386,-4.790534e-05
20704000,20704000,0.0005554394,0.0041853404,-0.00015291732
20724000,20724000,0.00066914805,0.0042253695,0.00048768122
20744000,20744000,-0.00092640065,0.003833876,-0.0005104972
20764000,20764000,0.0002225363,0.005221134,0.000197357
20784000,20784000,0.000708699,0.004139663,-0.0004052333
20804000,20804000,0.0013935106,0.003088904,9.383247e-05
20824000,20824000,0.00018548337,0.0052164374,-0.00022540544
20840000,20840000,0.0017806663,0.0054027955,-0.0002467231
20864000,20864000,0.0013439378,0.005996663,0.00041886963
20884000,20884000,0.00020320085,0.004653658,-0.00035947736
20900000,20900000,0.0021700128,0.0057317046,-0.00029493673
20924000,20924000,0.00084405346,0.0055085258,-0.0003972857
20944000,20944000,0.0009856984,0.00499972,0.000232043
20964000,20964000,0.0013152714,0.005501991,-0.00028277398
20984000,20984000,0.00069215865,0.0045111743,-0.00077128154
21004000,21004000,0.0007822862,0.0054602707,0.0002470979
21020000,21020000,-4.22867e-05,0.0052773245,3.7728692e-05
21044000,21044000,-0.0011256278,0.0054671867,-0.00032689012
21064000,21064000,-0.0011632838,0.0043047513,-6.2546605e-05
21080000,21080000,0.00018412113,0.0042232964,-0.00015370778
21100000,21100000,7.071086e-05,0.005056095,0.0003794385
21120000,21120000,0.0017084373,0.00552515,0.0005694231
21140000,21140000,-0.00018887676,0.005395303,0.0006623211
21164000,21164000,0.00043264305,0.0049101813,-0.00034406115
21180000,21180000,-0.001168251,0.0028812806,0.00013826802
21204000,21204000,-0.0010528644,0.0035395774,-0.000110530105
21224000,21224000,-0.00021594757,0.004130944,0.00041243696
21244000,21244000,0.00067400245,0.003970906,-0.0001451723
21264000,21264000,0.0008339048,0.0045212554,-1.8337392e-05
21284000,21284000,-8.939518e-05,0.0051399097,0.00053789373
21304000,21304000,0.0006693751,0.005135589,7.5526856e-05
21324000,21324000,0.000353936,0.0047156704,0.0007993337
21344000,21344000,0.00039993323,0.0033919893,0.000106051855
21364000,21364000,6.1117025e-05,0.004022822,0.00010315582
21384000,21384000,0.00048421472,0.004641043,-0.00042692223
21400000,21400000,0.0013276763,0.0056104157,-0.00037401836
21420000,21420000,-0.00025282492,0.004917113,0.0006877238
21440000,21440000,-0.0004960618,0.004167467,-8.495319e-05
21464000,21464000,0.000118010386,0.004661301,0.00033283944
21484000,21484000,-0.001369735,0.0038157979,-0.00060162996
21500000,21500000,-0.00032508283,0.0044259746,0.00017702003
21520000,21520000,-0.00031055938,0.0038139867,1.2878678e-05
21540000,21540000,-0.0007557081,0.0037419251,-0.000100345555
21560000,21560000,-0.001982355,0.004200688,-0.000149895
21580000,21580000,-0.00013748923,0.0035504003,0.00058303296
21604000,21604000,0.00029915117,0.004945016,0.00019885317
21624000,21624000,0.000529375,0.004448015,-0.00017255219
21644000,21644000,8.390816e-05,0.0027250657,-0.000448754
21664000,21664000,-0.0011034966,0.004308072,-0.00018459585
21684000,21684000,0.0005949551,0.003995942,4.0535757e-05
21704000,21704000,0.00015059677,0.0041790414,0.00038213588
21720000,21720000,-0.0008396873,0.0038969188,0.00013068685
21744000,21744000,0.00018891323,0.004225592,-0.0003479524
21760000,21760000,0.0005161767,0.0033264947,0.00016631726
21784000,21784000,0.0017230101,0.0031807718,0.00017451895
21804000,21804000,-0.00026363708,0.0049057696,-0.00012665498
21824000,21824000,-0.0011890389,0.0028137239,4.7009817e-05
21844000,21844000,0.00071899226,0.0034272522,0.000150491
21864000,21864000,-0.0020413068,0.0043665743,-0.00016544528
21884000,21884000,0.00013725925,0.003226735,-0.00021036406
21904000,21904000,-0.00035444382,0.004765358,0.00038223853
21924000,21924000,-0.0008569024,0.004705741,7.35747e-05
21944000,21944000,0.0008465232,0.0045701917,0.00040844036
21964000,21964000,-0.001147833,0.003735952,0.0008609169
21984000,21984000,-2.1452375e-05,0.0026297076,-2.1967993e-05
22000000,22000000,-0.00023549257,0.003101943,2.8308525e-05
22024000,22024000,0.00026828417,0.0031897742,-2.753333e-05
22044000,22044000,0.00015066625,0.0040991055,0.0004274687
22060000,22060000,0.00036371252,0.00509004,0.00029609236
22080000,22080000,-0.00037606235,0.004421356,4.7330977e-06
22100000,22100000,-0.00012717722,0.0038125422,-0.0005276926
22120000,22120000,-0.00171967,0.004397743,-4.2202286e-05
22140000,22140000,-0.000100703706,0.005111684,0.0003273279
22160000,22160000,0.00044474378,0.0039325957,0.0001510482
22184000,22184000,0.00020508026,0.0044526244,0.0001772978
22204000,22204000,-0.00082437467,0.0028506378,3.277669e-05
22224000,22224000,-0.0012520184,0.0038182111,0.0002826784
22244000,22244000,-0.0013922378,0.004466936,-0.00069798774
22264000,22264000,-0.00054809026,0.0036514446,-0.000965326
22284000,22284000,-0.0015389752,0.0033488164,9.830939e-05
22304000,22304000,0.00042863813,0.0029195866,4.8180038e-05
22324000,22324000,-0.0010559942,0.0024277857,-0.00052111293
22344000,22344000,-0.00048319055,0.0037476344,-0.0003393453
22364000,22364000,-0.0007337226,0.0044272267,0.0005870242
22384000,22384000,-0.000994094,0.0037203375,-0.00010026741
22404000,22404000,-0.00024141405,0.0045670844,-0.0003684705
22424000,22424000,-0.0007407663,0.0038423832,0.0003529424
22444000,22444000,0.0011958883,0.0033458075,0.0012910491
22460000,22460000,-0.00074751716,0.004690702,-4.881939e-05
22480000,22480000,-0.00073958235,0.0046423706,3.539349e-05
22504000,22504000,-0.0018378748,0.0048026624,-0.00026426153
22520000,22520000,0.0014019301,0.0048509734,-0.00017103014
22540000,22540000,-0.0002026756,0.004420818,7.957812e-05
22564000,22564000,0.0007807348,0.004016864,-0.00010003986
22584000,22584000,0.0005922359,0.0054111504,-0.00028961018
22604000,22604000,-8.474657e-05,0.0045795445,0.00025939278
22624000,22624000,-7.801085e-05,0.0039337883,-5.2648684e-05
22644000,22644000,-0.0023508659,0.004334406,-0.00036036767
22664000,22664000,0.0005533305,0.0025762923,0.00018764568
22684000,22684000,-0.00017814533,0.004008421,0.00048130774
22704000,22704000,-0.0006437386,0.0035755266,-0.00014658162
22724000,22724000,-0.0013437584,0.0039441334,0.00028818386
22744000,22744000,-0.0015206203,0.003919213,-0.00020478788
22764000,22764000,-0.0010192393,0.00523106,6.110454e-05
22784000,22784000,0.00038163085,0.002550119,0.00019595426
22800000,22800000,-0.0011731498,0.003598118,0.00040100882
22824000,22824000,-0.0011176583,0.0037713817,0.00010434693
22844000,22844000,7.978457e-05,0.0027747622,-7.904166e-05
22864000,22864000,-0.0010634183,0.0036480997,0.00033026113
22884000,22884000,-1.3066732e-05,0.0030399153,0.000101449186
22904000,22904000,0.00019317277,0.0027958073,-0.0002175518
22924000,22924000,0.0011726273,0.0030888773,3.5825775e-05
22944000,22944000,-0.0012031391,0.004703118,0.00014920291
22964000,22964000,0.00052100496,0.0037641965,-0.00026811968
22984000,22984000,-0.00058518717,0.003518148,0.0001466132
23004000,23004000,-0.0009216964,0.003175285,8.5898675e-05
23020000,23020000,0.0006670607,0.004001897,0.00024976002
23040000,23040000,-4.7608366e-05,0.006284509,0.00044227624
23060000,23060000,0.00089241494,0.0038854808,-0.0004171107
23084000,23084000,0.001276907,0.0038956003,0.0002490346
23104000,23104000,0.0009457466,0.004064102,0.00013432832
23124000,23124000,-8.530798e-06,0.004440361,0.00019503396
23144000,23144000,-0.00045469226,0.005666017,7.894658e-05
23164000,23164000,3.407798e-05,0.0050626076,-2.1402644e-05
23184000,23184000,-0.00014859177,0.004559403,-0.0005140603
23204000,23204000,-0.00075490744,0.003121377,0.0002686371
23224000,23224000,0.0013164039,0.0030058674,0.0005549389
23244000,23244000,-0.0012240506,0.004645103,-1.28530155e-05
23264000,23264000,-0.0012759725,0.0029745447,-0.00038636755
23284000,23284000,0.000109440356,0.004323867,-0.00031707523
23300000,23300000,-0.0010325869,0.0026867483,-5.3180127e-05
23324000,23324000,-0.00030956964,0.0033048382,-0.0003639346
23344000,23344000,-0.0024284567,0.0039105387,-0.0002749476
23364000,23364000,-0.00068346836,0.0043325922,0.0003644267
23380000,23380000,-0.0018774621,0.003863647,-3.5106033e-05
23404000,23404000,-9.826571e-05,0.0039868574,-1.3060795e-05
23424000,23424000,0.00012563737,0.0039242175,0.00028109076
23444000,23444000,-0.0011219067,0.0032150133,0.00047085388
23464000,23464000,0.00036531937,0.003305179,0.00045385092
23484000,23484000,-0.0020825253,0.004847997,0.00012548249
23504000,23504000,-0.0014288845,0.0034083298,-0.0001172716
23524000,23524000,-0.000315517,0.003968474,0.00010263725
23544000,23544000,-0.0007866432,0.0046324795,-0.00055894325
23564000,23564000,0.0011402157,0.0047236374,7.4073323e-06
23584000,23584000,-0.0006557386,0.004127804,0.0003804233
23604000,23604000,-0.0003717324,0.0042294883,-0.00014766394
23624000,23624000,-0.0013319305,0.0038825835,1.54609e-05
23644000,23644000,5.1337032e-05,0.0036517002,0.00026668273
23664000,23664000,-0.00085248606,0.0034750302,-0.00041574502
23684000,23684000,-0.00056517846,0.004636401,0.00021506601
23704000,23704000,0.00083135284,0.0031700686,0.0008305877
23724000,23724000,-0.00018641661,0.004371967,0.00017160633
23744000,23744000,0.000372443,0.005085852,-0.0003870307
23764000,23764000,0.00079608214,0.0032594935,0.00059487834
23784000,23784000,0.00016656026,0.003210253,-0.00047650136
23804000,23804000,0.0013274136,0.00415138,-0.0003882504
23824000,23824000,0.00017226406,0.003896747,-0.00016141013
23844000,23844000,6.365826e-05,0.003809971,0.000119221106
23864000,23864000,5.6842553e-05,0.005206902,-0.00045069048
23884000,23884000,-0.0011380573,0.0044121197,-0.00040102372
23904000,23904000,-0.0005743314,0.0047184094,-0.0007243019
23920000,23920000,0.00030476466,0.0043014153,-0.00035491592
23944000,23944000,0.0004895954,0.0049274093,-0.00014897928
23960000,23960000,4.0048766e-05,0.0040270207,3.8958067e-05
23984000,23984000,0.0007724769,0.0038333973,-0.00018280497
24000000,24000000,-0.00015965884,0.004007517,-7.86611e-05
24024000,24024000,0.0015303169,0.004958995,-0.00043145064
24044000,24044000,-0.00017302981,0.0039517344,0.0007172843
24064000,24064000,-0.00026229158,0.00398078,-0.00061061693
24084000,24084000,0.0007674154,0.004015135,0.0003049951
24100000,24100000,-0.0005967171,0.0048218807,0.00054348377
24120000,24120000,6.372957e-05,0.0042270883,0.00031509856
24144000,24144000,0.00057771197,0.0035079035,1.8689767e-05
24164000,24164000,0.0001483927,0.0038210626,0.00012385205
24180000,24180000,0.0020449748,0.0054238983,-0.000624957
24204000,24204000,-0.0002155412,0.002859435,4.2007836e-05
24224000,24224000,-0.0013076126,0.002682151,-0.00025242264
24244000,24244000,-0.0012126192,0.0036777733,0.0006105152
24264000,24264000,-0.0013104831,0.0030177338,-0.00021640543
24284000,24284000,-0.0015441353,0.0028932923,1.20648765e-05
24300000,24300000,-0.0024707178,0.003533959,-0.00026969408
24320000,24320000,-0.0013503367,0.0039655576,0.00027681165
24344000,24344000,-0.00061145896,0.003643638,-0.0002754135
24364000,24364000,-0.0003844041,0.00343141,0.0008905978
24384000,24384000,-0.0005568117,0.004134125,-0.0005153126
24404000,24404000,-0.0011368545,0.00494113,5.7189434e-05
24424000,24424000,0.000856971,0.0042918436,9.930521e-05
24440000,24440000,0.0011367326,0.0038570673,-0.00010817809
24464000,24464000,0.001115531,0.005431045,0.0003577736
24480000,24480000,0.0008067158,0.006033214,7.591942e-05
24504000,24504000,0.0006185523,0.003627735,0.00039041496
24524000,24524000,0.0008900213,0.0041051717,-8.009641e-05
24544000,24544000,0.0006507109,0.004346056,0.00037044776
24560000,24560000,-0.0004388435,0.0052478244,0.00056458823
24584000,24584000,0.0004985968,0.004610651,0.0005716382
24604000,24604000,-0.0004747153,0.0050595477,0.00055438606
24624000,24624000,-0.0011954699,0.004591574,0.0005788715
24644000,24644000,-0.0006017537,0.0035879244,0.00021730813
24664000,24664000,0.0007342553,0.0034819865,0.00067852286
24684000,24684000,-0.00049453066,0.0039723376,0.00013500641
24704000,24704000,-0.000262179,0.0050811735,0.00026133066
24724000,24724000,-0.0011314459,0.0037827282,0.00052968395
24744000,24744000,-0.00063795404,0.0028870117,0.00024883478
24764000,24764000,0.0003129156,0.0044164658,-1.542559e-06
24784000,24784000,-0.00043351797,0.004280017,0.00024794947
24800000,24800000,0.000101263046,0.004354448,-0.00020998859
24824000,24824000,7.960963e-05,0.004373258,0.00078880996
