timestamp,timestamp_sample,gps_hvel[0],gps_hvel[1],gps_vvel,gps_hpos[0],gps_hpos[1],gps_vpos,ev_hvel[0],ev_hvel[1],ev_vvel,ev_hpos[0],ev_hpos[1],ev_vpos,rng_vpos,baro_vpos,aux_hvel[0],aux_hvel[1],aux_vvel,flow[0],flow[1],terr_flow[0],terr_flow[1],heading,mag_field[0],mag_field[1],mag_field[2],gravity[0],gravity[1],gravity[2],drag[0],drag[1],airspeed,beta,hagl,hagl_rate
3264000,3184000,0.0,0.0,0.0,0.0,0.0,0.0,0.0,0.0,0.0,0.0,0.0,0.0,0.0,0.0,0.0,0.0,nan,0.0,0.0,0.0,0.0,0.0,0.0,0.0,0.0,0.0006857185,0.0,0.0,0.0,0.0,0.0,0.0,0.0,0.0
3272000,3192000,0.0,0.0,0.0,0.0,0.0,0.0,0.0,0.0,0.0,0.0,0.0,0.0,0.0,6.041784e-14,0.0,0.0,nan,0.0,0.0,0.0,0.0,0.0,0.0,0.0,0.0,0.00093420723,0.0,0.0,0.0,0.0,0.0,0.0,0.0,0.0
3280000,3200000,0.0,0.0,0.0,0.0,0.0,0.0,0.0,0.0,0.0,0.0,0.0,0.0,0.0,6.041784e-14,0.0,0.0,nan,0.0,0.0,0.0,0.0,0.0,0.0,0.0,0.0,0.0005815741,0.0,0.0,0.0,0.0,0.0,0.0,0.0,0.0
3288000,3208000,0.0,0.0,0.0,0.0,0.0,0.0,0.0,0.0,0.0,0.0,0.0,0.0,0.0,6.041784e-14,0.0,0.0,nan,0.0,0.0,0.0,0.0,0.0,inf,0.0,0.0,0.000745873,0.0,0.0,0.0,0.0,0.0,0.0,0.0,0.0
3296000,3216000,0.0,0.0,0.0,0.0,0.0,0.0,0.0,0.0,0.0,0.0,0.0,0.0,0.0,6.041784e-14,0.0,0.0,nan,0.0,0.0,0.0,0.0,0.0,inf,0.0,0.0,0.0012378662,0.0,0.0,0.0,0.0,0.0,0.0,0.0,0.0
3304000,3224000,0.0,0.0,0.0,0.0,0.0,0.0,0.0,0.0,0.0,0.0,0.0,0.0,0.0,6.041784e-14,0.0,0.0,nan,0.0,0.0,0.0,0.0,0.0,inf,0.0,0.0,0.0021243028,0.0,0.0,0.0,0.0,0.0,0.0,0.0,0.0
3312000,3232000,0.0,0.0,0.0,0.0,0.0,0.0,0.0,0.0,0.0,0.0,0.0,0.0,0.0,6.041784e-14,0.0,0.0,nan,0.0,0.0,0.0,0.0,0.0,inf,0.0,0.0,0.0008343505,0.0,0.0,0.0,0.0,0.0,0.0,0.0,0.0
3320000,3240000,0.0,0.0,0.0,0.0,0.0,0.0,0.0,0.0,0.0,0.0,0.0,0.0,0.0,6.041784e-14,0.0,0.0,nan,0.0,0.0,0.0,0.0,0.0,inf,0.0,0.0,0.0013418368,0.0,0.0,0.0,0.0,0.0,0.0,0.0,0.0
3328000,3248000,0.0,0.0,0.0,0.0,0.0,0.0,0.0,0.0,0.0,0.0,0.0,0.0,0.0,6.041784e-14,0.0,0.0,nan,0.0,0.0,0.0,0.0,0.0,inf,0.0,0.0,0.00041221184,0.0,0.0,0.0,0.0,0.0,0.0,0.0,0.0
3336000,3256000,0.0,0.0,0.0,0.0,0.0,0.0,0.0,0.0,0.0,0.0,0.0,0.0,0.0,5.7381147e-08,0.0,0.0,nan,0.0,0.0,0.0,0.0,0.0,inf,0.0,0.0,0.00023918255,0.0,0.0,0.0,0.0,0.0,0.0,0.0,0.0
3344000,3264000,0.0,0.0,0.0,0.0,0.0,0.0,0.0,0.0,0.0,0.0,0.0,0.0,0.0,5.7381147e-08,0.0,0.0,nan,0.0,0.0,0.0,0.0,0.0,inf,0.0,0.0,0.0017785296,0.0,0.0,0.0,0.0,0.0,0.0,0.0,0.0
3352000,3272000,0.0,0.0,0.0,0.0,0.0,0.0,0.0,0.0,0.0,0.0,0.0,0.0,0.0,5.7381147e-08,0.0,0.0,nan,0.0,0.0,0.0,0.0,0.0,inf,0.0,0.0,0.0006350335,0.0,0.0,0.0,0.0,0.0,0.0,0.0,0.0
3360000,3280000,0.0,0.0,0.0,0.0,0.0,0.0,0.0,0.0,0.0,0.0,0.0,0.0,0.0,5.7381147e-08,0.0,0.0,nan,0.0,0.0,0.0,0.0,0.0,inf,0.0,0.0,0.00058347126,0.0,0.0,0.0,0.0,0.0,0.0,0.0,0.0
3368000,3288000,0.0,0.0,0.0,0.0,0.0,0.0,0.0,0.0,0.0,0.0,0.0,0.0,0.0,5.7381147e-08,0.0,0.0,nan,0.0,0.0,0.0,0.0,0.0,inf,0.0,0.0,0.0014746689,0.0,0.0,0.0,0.0,0.0,0.0,0.0,0.0
3376000,3296000,0.0,0.0,0.0,0.0,0.0,0.0,0.0,0.0,0.0,0.0,0.0,0.0,0.0,5.7381147e-08,0.0,0.0,nan,0.0,0.0,0.0,0.0,0.0,inf,0.0,0.0,0.0012992456,0.0,0.0,0.0,0.0,0.0,0.0,0.0,0.0
3384000,3304000,0.0,0.0,0.0,0.0,0.0,0.0,0.0,0.0,0.0,0.0,0.0,0.0,0.0,5.7381147e-08,0.0,0.0,nan,0.0,0.0,0.0,0.0,0.0,inf,0.0,0.0,0.00018817962,0.0,0.0,0.0,0.0,0.0,0.0,0.0,0.0
3392000,3312000,0.0,0.0,0.0,0.0,0.0,0.0,0.0,0.0,0.0,0.0,0.0,0.0,0.0,5.6386684e-10,0.0,0.0,nan,0.0,0.0,0.0,0.0,0.0,inf,0.0,0.0,0.0001727914,0.0,0.0,0.0,0.0,0.0,0.0,0.0,0.0
3400000,3320000,0.0,0.0,0.0,0.0,0.0,0.0,0.0,0.0,0.0,0.0,0.0,0.0,0.0,5.6386684e-10,0.0,0.0,nan,0.0,0.0,0.0,0.0,0.0,inf,0.0,0.0,0.0009671549,0.0,0.0,0.0,0.0,0.0,0.0,0.0,0.0
3408000,3328000,7.964957e-06,0.0,0.00028082982,4.381379e-11,0.0,94.35477,0.0,0.0,0.0,0.0,0.0,0.0,0.0,5.6386684e-10,0.0,0.0,nan,0.0,0.0,0.0,0.0,0.0,inf,0.0,0.0,0.00031482746,0.0,0.0,0.0,0.0,0.0,0.0,0.0,0.0
3416000,3336000,7.964957e-06,0.0,0.00028082982,4.381379e-11,0.0,94.35477,0.0,0.0,0.0,0.0,0.0,0.0,0.0,5.6386684e-10,0.0,0.0,nan,0.0,0.0,0.0,0.0,0.0,inf,0.0,0.0,0.0004859311,0.0,0.0,0.0,0.0,0.0,0.0,0.0,0.0
3424000,3344000,7.964957e-06,0.0,0.00028082982,4.381379e-11,0.0,94.35477,0.0,0.0,0.0,0.0,0.0,0.0,0.0,5.6386684e-10,0.0,0.0,nan,0.0,0.0,0.0,0.0,0.0,inf,0.0,0.0,0.0009765748,0.0,0.0,0.0,0.0,0.0,0.0,0.0,0.0
3432000,3352000,7.964957e-06,0.0,0.00028082982,4.381379e-11,0.0,94.35477,0.0,0.0,0.0,0.0,0.0,0.0,0.0,5.6386684e-10,0.0,0.0,nan,0.0,0.0,0.0,0.0,0.0,inf,0.0,0.0,0.0009174071,0.0,0.0,0.0,0.0,0.0,0.0,0.0,0.0
3440000,3360000,7.964957e-06,0.0,0.00028082982,4.381379e-11,0.0,94.35477,0.0,0.0,0.0,0.0,0.0,0.0,0.0,5.6386684e-10,0.0,0.0,nan,0.0,0.0,0.0,0.0,0.0,inf,0.0,0.0,0.00045092512,0.0,0.0,0.0,0.0,0.0,0.0,0.0,0.0
3448000,3368000,7.964957e-06,0.0,0.00028082982,4.381379e-11,0.0,94.35477,0.0,0.0,0.0,0.0,0.0,0.0,0.0,5.6386684e-10,0.0,0.0,nan,0.0,0.0,0.0,0.0,0.0,inf,0.0,0.0,0.000995182,0.0,0.0,0.0,0.0,0.0,0.0,0.0,0.0
3456000,3376000,7.964957e-06,0.0,0.00028082982,4.381379e-11,0.0,94.35477,0.0,0.0,0.0,0.0,0.0,0.0,0.0,1.6009615e-07,0.0,0.0,nan,0.0,0.0,0.0,0.0,0.0,inf,0.0,0.0,0.0012674009,0.0,0.0,0.0,0.0,0.0,0.0,0.0,0.0
3464000,3384000,7.964957e-06,0.0,0.00028082982,4.381379e-11,0.0,94.35477,0.0,0.0,0.0,0.0,0.0,0.0,0.0,1.6009615e-07,0.0,0.0,nan,0.0,0.0,0.0,0.0,0.0,inf,0.0,0.0,0.0016892292,0.0,0.0,0.0,0.0,0.0,0.0,0.0,0.0
3472000,3392000,7.964957e-06,0.0,0.00028082982,4.381379e-11,0.0,94.35477,0.0,0.0,0.0,0.0,0.0,0.0,0.0,1.6009615e-07,0.0,0.0,nan,0.0,0.0,0.0,0.0,0.0,inf,0.0,0.0,0.0008536535,0.0,0.0,0.0,0.0,0.0,0.0,0.0,0.0
3480000,3400000,7.964957e-06,0.0,0.00028082982,4.381379e-11,0.0,94.35477,0.0,0.0,0.0,0.0,0.0,0.0,0.0,1.6009615e-07,0.0,0.0,nan,0.0,0.0,0.0,0.0,0.0,inf,0.0,0.0,0.00047851852,0.0,0.0,0.0,0.0,0.0,0.0,0.0,0.0
3488000,3408000,7.964957e-06,0.0,0.00028082982,4.381379e-11,0.0,94.35477,0.0,0.0,0.0,0.0,0.0,0.0,0.0,1.6009615e-07,0.0,0.0,nan,0.0,0.0,0.0,0.0,0.0,inf,0.0,0.0,0.00028238352,0.0,0.0,0.0,0.0,0.0,0.0,0.0,0.0
3496000,3416000,7.964957e-06,0.0,0.00028082982,4.381379e-11,0.0,94.35477,0.0,0.0,0.0,0.0,0.0,0.0,0.0,1.6009615e-07,0.0,0.0,nan,0.0,0.0,0.0,0.0,7.8600366e-05,inf,0.0,0.0,0.0005757135,0.0,0.0,0.0,0.0,0.0,0.0,0.0,0.0
3504000,3424000,7.964957e-06,0.0,0.00028082982,4.381379e-11,0.0,94.35477,0.0,0.0,0.0,0.0,0.0,0.0,0.0,1.6009615e-07,0.0,0.0,nan,0.0,0.0,0.0,0.0,7.8600366e-05,inf,0.0,0.0,8.618011e-05,0.0,0.0,0.0,0.0,0.0,0.0,0.0,0.0
3512000,3432000,7.964957e-06,0.0,0.00028082982,4.381379e-11,0.0,94.35477,0.0,0.0,0.0,0.0,0.0,0.0,0.0,1.2995856e-07,0.0,0.0,nan,0.0,0.0,0.0,0.0,7.8600366e-05,inf,0.0,0.0,0.00045640275,0.0,0.0,0.0,0.0,0.0,0.0,0.0,0.0
3520000,3440000,7.964957e-06,0.0,0.00028082982,4.381379e-11,0.0,94.35477,0.0,0.0,0.0,0.0,0.0,0.0,0.0,1.2995856e-07,0.0,0.0,nan,0.0,0.0,0.0,0.0,7.8600366e-05,inf,0.0,0.0,0.00039241937,0.0,0.0,0.0,0.0,0.0,0.0,0.0,0.0
3528000,3448000,7.964957e-06,0.0,0.00028082982,4.381379e-11,0.0,94.35477,0.0,0.0,0.0,0.0,0.0,0.0,0.0,1.2995856e-07,0.0,0.0,nan,0.0,0.0,0.0,0.0,7.8600366e-05,inf,0.0,0.0,0.00012077712,0.0,0.0,0.0,0.0,0.0,0.0,0.0,0.0
3536000,3456000,7.964957e-06,0.0,0.00028082982,4.381379e-11,0.0,94.35477,0.0,0.0,0.0,0.0,0.0,0.0,0.0,1.2995856e-07,0.0,0.0,nan,0.0,0.0,0.0,0.0,7.8600366e-05,inf,0.0,0.0,5.2167445e-05,0.0,0.0,0.0,0.0,0.0,0.0,0.0,0.0
3544000,3464000,7.964957e-06,0.0,0.00028082982,4.381379e-11,0.0,94.35477,0.0,0.0,0.0,0.0,0.0,0.0,0.0,1.2995856e-07,0.0,0.0,nan,0.0,0.0,0.0,0.0,7.8600366e-05,inf,0.0,0.0,0.00027753293,0.0,0.0,0.0,0.0,0.0,0.0,0.0,0.0
3552000,3472000,7.964957e-06,0.0,0.00028082982,4.381379e-11,0.0,94.35477,0.0,0.0,0.0,0.0,0.0,0.0,0.0,1.2995856e-07,0.0,0.0,nan,0.0,0.0,0.0,0.0,7.8600366e-05,inf,0.0,0.0,0.000630935,0.0,0.0,0.0,0.0,0.0,0.0,0.0,0.0
3560000,3480000,7.964957e-06,0.0,0.00028082982,4.381379e-11,0.0,94.35477,0.0,0.0,0.0,0.0,0.0,0.0,0.0,1.2995856e-07,0.0,0.0,nan,0.0,0.0,0.0,0.0,0.00013582055,inf,0.0,0.0,0.00021424127,0.0,0.0,0.0,0.0,0.0,0.0,0.0,0.0
3568000,3488000,7.964957e-06,0.0,0.00028082982,4.381379e-11,0.0,94.35477,0.0,0.0,0.0,0.0,0.0,0.0,0.0,4.079177e-07,0.0,0.0,nan,0.0,0.0,0.0,0.0,0.00013582055,inf,0.0,0.0,0.00012052266,0.0,0.0,0.0,0.0,0.0,0.0,0.0,0.0
3576000,3496000,7.964957e-06,0.0,0.00028082982,4.381379e-11,0.0,94.35477,0.0,0.0,0.0,0.0,0.0,0.0,0.0,4.079177e-07,0.0,0.0,nan,0.0,0.0,0.0,0.0,0.00013582055,inf,0.0,0.0,0.00015803678,0.0,0.0,0.0,0.0,0.0,0.0,0.0,0.0
3584000,3504000,7.964957e-06,0.0,0.00028082982,4.381379e-11,0.0,94.35477,0.0,0.0,0.0,0.0,0.0,0.0,0.0,4.079177e-07,0.0,0.0,nan,0.0,0.0,0.0,0.0,0.00013582055,inf,0.0,0.0,0.00016233916,0.0,0.0,0.0,0.0,0.0,0.0,0.0,0.0
3592000,3512000,7.964957e-06,0.0,0.00028082982,4.381379e-11,0.0,94.35477,0.0,0.0,0.0,0.0,0.0,0.0,0.0,4.079177e-07,0.0,0.0,nan,0.0,0.0,0.0,0.0,0.00013582055,inf,0.0,0.0,0.00011038277,0.0,0.0,0.0,0.0,0.0,0.0,0.0,0.0
3600000,3520000,7.964957e-06,0.0,0.00028082982,4.381379e-11,0.0,94.35477,0.0,0.0,0.0,0.0,0.0,0.0,0.0,4.079177e-07,0.0,0.0,nan,0.0,0.0,0.0,0.0,0.00013582055,inf,0.0,0.0,8.07166e-05,0.0,0.0,0.0,0.0,0.0,0.0,0.0,0.0
3608000,3528000,7.964957e-06,0.0,0.00028082982,4.381379e-11,0.0,94.35477,0.0,0.0,0.0,0.0,0.0,0.0,0.0,4.079177e-07,0.0,0.0,nan,0.0,0.0,0.0,0.0,0.00013582055,inf,0.0,0.0,0.0004666919,0.0,0.0,0.0,0.0,0.0,0.0,0.0,0.0
3616000,3536000,7.964957e-06,0.0,0.00028082982,4.381379e-11,0.0,94.35477,0.0,0.0,0.0,0.0,0.0,0.0,0.0,4.079177e-07,0.0,0.0,nan,0.0,0.0,0.0,0.0,0.00013582055,inf,0.0,0.0,0.0004994322,0.0,0.0,0.0,0.0,0.0,0.0,0.0,0.0
3624000,3544000,7.964957e-06,0.0,0.00028082982,4.381379e-11,0.0,94.35477,0.0,0.0,0.0,0.0,0.0,0.0,0.0,8.556682e-07,0.0,0.0,nan,0.0,0.0,0.0,0.0,0.00013582055,inf,0.0,0.0,0.00012222397,0.0,0.0,0.0,0.0,0.0,0.0,0.0,0.0
3632000,3552000,7.964957e-06,0.0,0.00028082982,4.381379e-11,0.0,94.35477,0.0,0.0,0.0,0.0,0.0,0.0,0.0,8.556682e-07,0.0,0.0,nan,0.0,0.0,0.0,0.0,0.0001542471,inf,0.0,0.0,0.00018296967,0.0,0.0,0.0,0.0,0.0,0.0,0.0,0.0
3640000,3560000,7.964957e-06,0.0,0.00028082982,4.381379e-11,0.0,94.35477,0.0,0.0,0.0,0.0,0.0,0.0,0.0,8.556682e-07,0.0,0.0,nan,0.0,0.0,0.0,0.0,0.0001542471,inf,0.0,0.0,0.0005604105,0.0,0.0,0.0,0.0,0.0,0.0,0.0,0.0
3648000,3568000,7.964957e-06,0.0,0.00028082982,4.381379e-11,0.0,94.35477,0.0,0.0,0.0,0.0,0.0,0.0,0.0,8.556682e-07,0.0,0.0,nan,0.0,0.0,0.0,0.0,0.0001542471,inf,0.0,0.0,0.00065773533,0.0,0.0,0.0,0.0,0.0,0.0,0.0,0.0
3656000,3576000,7.964957e-06,0.0,0.00028082982,4.381379e-11,0.0,94.35477,0.0,0.0,0.0,0.0,0.0,0.0,0.0,8.556682e-07,0.0,0.0,nan,0.0,0.0,0.0,0.0,0.0001542471,inf,0.0,0.0,6.0829636e-05,0.0,0.0,0.0,0.0,0.0,0.0,0.0,0.0
3664000,3584000,7.964957e-06,0.0,0.00028082982,4.381379e-11,0.0,94.35477,0.0,0.0,0.0,0.0,0.0,0.0,0.0,8.556682e-07,0.0,0.0,nan,0.0,0.0,0.0,0.0,0.0001542471,inf,0.0,0.0,0.00083863497,0.0,0.0,0.0,0.0,0.0,0.0,0.0,0.0
3672000,3592000,7.964957e-06,0.0,0.00028082982,4.381379e-11,0.0,94.35477,0.0,0.0,0.0,0.0,0.0,0.0,0.0,8.556682e-07,0.0,0.0,nan,0.0,0.0,0.0,0.0,0.0001542471,inf,0.0,0.0,0.00012811772,0.0,0.0,0.0,0.0,0.0,0.0,0.0,0.0
3680000,3600000,7.964957e-06,0.0,0.00028082982,4.381379e-11,0.0,94.35477,0.0,0.0,0.0,0.0,0.0,0.0,0.0,7.8524365e-10,0.0,0.0,nan,0.0,0.0,0.0,0.0,0.0001542471,inf,0.0,0.0,0.0004424262,0.0,0.0,0.0,0.0,0.0,0.0,0.0,0.0
3688000,3608000,7.964957e-06,0.0,0.00028082982,4.381379e-11,0.0,94.35477,0.0,0.0,0.0,0.0,0.0,0.0,0.0,7.8524365e-10,0.0,0.0,nan,0.0,0.0,0.0,0.0,0.0001542471,inf,0.0,0.0,7.549554e-05,0.0,0.0,0.0,0.0,0.0,0.0,0.0,0.0
3696000,3616000,7.964957e-06,0.0,0.00028082982,4.381379e-11,0.0,94.35477,0.0,0.0,0.0,0.0,0.0,0.0,0.0,7.8524365e-10,0.0,0.0,nan,0.0,0.0,0.0,0.0,0.0001542471,inf,0.0,0.0,7.247717e-05,0.0,0.0,0.0,0.0,0.0,0.0,0.0,0.0
3704000,3624000,7.964957e-06,0.0,0.00028082982,4.381379e-11,0.0,94.35477,0.0,0.0,0.0,0.0,0.0,0.0,0.0,7.8524365e-10,0.0,0.0,nan,0.0,0.0,0.0,0.0,2.6263568e-05,inf,0.0,0.0,0.00043500646,0.0,0.0,0.0,0.0,0.0,0.0,0.0,0.0
3712000,3632000,7.964957e-06,0.0,0.00028082982,4.381379e-11,0.0,94.35477,0.0,0.0,0.0,0.0,0.0,0.0,0.0,7.8524365e-10,0.0,0.0,nan,0.0,0.0,0.0,0.0,2.6263568e-05,inf,0.0,0.0,0.00034200834,0.0,0.0,0.0,0.0,0.0,0.0,0.0,0.0
3720000,3640000,7.964957e-06,0.0,0.00028082982,4.381379e-11,0.0,94.35477,0.0,0.0,0.0,0.0,0.0,0.0,0.0,7.8524365e-10,0.0,0.0,nan,0.0,0.0,0.0,0.0,2.6263568e-05,inf,0.0,0.0,8.687151e-05,0.0,0.0,0.0,0.0,0.0,0.0,0.0,0.0
3728000,3648000,7.964957e-06,0.0,0.00028082982,4.381379e-11,0.0,94.35477,0.0,0.0,0.0,0.0,0.0,0.0,0.0,7.8524365e-10,0.0,0.0,nan,0.0,0.0,0.0,0.0,2.6263568e-05,inf,0.0,0.0,0.0009165242,0.0,0.0,0.0,0.0,0.0,0.0,0.0,0.0
3736000,3656000,7.964957e-06,0.0,0.00028082982,4.381379e-11,0.0,94.35477,0.0,0.0,0.0,0.0,0.0,0.0,0.0,7.8524365e-10,0.0,0.0,nan,0.0,0.0,0.0,0.0,2.6263568e-05,inf,0.0,0.0,0.0003011232,0.0,0.0,0.0,0.0,0.0,0.0,0.0,0.0
3744000,3664000,7.964957e-06,0.0,0.00028082982,4.381379e-11,0.0,94.35477,0.0,0.0,0.0,0.0,0.0,0.0,0.0,1.8253504e-06,0.0,0.0,nan,0.0,0.0,0.0,0.0,2.6263568e-05,inf,0.0,0.0,0.00035702367,0.0,0.0,0.0,0.0,0.0,0.0,0.0,0.0
3752000,3672000,7.964957e-06,0.0,0.00028082982,4.381379e-11,0.0,94.35477,0.0,0.0,0.0,0.0,0.0,0.0,0.0,1.8253504e-06,0.0,0.0,nan,0.0,0.0,0.0,0.0,2.6263568e-05,inf,0.0,0.0,0.0003881427,0.0,0.0,0.0,0.0,0.0,0.0,0.0,0.0
3760000,3680000,7.964957e-06,0.0,0.00028082982,4.381379e-11,0.0,94.35477,0.0,0.0,0.0,0.0,0.0,0.0,0.0,1.8253504e-06,0.0,0.0,nan,0.0,0.0,0.0,0.0,2.6263568e-05,inf,0.0,0.0,0.0002129468,0.0,0.0,0.0,0.0,0.0,0.0,0.0,0.0
3768000,3688000,7.964957e-06,0.0,0.00028082982,4.381379e-11,0.0,94.35477,0.0,0.0,0.0,0.0,0.0,0.0,0.0,1.8253504e-06,0.0,0.0,nan,0.0,0.0,0.0,0.0,0.00020425153,inf,0.0,0.0,5.1972052e-05,0.0,0.0,0.0,0.0,0.0,0.0,0.0,0.0
3776000,3696000,7.964957e-06,0.0,0.00028082982,4.381379e-11,0.0,94.35477,0.0,0.0,0.0,0.0,0.0,0.0,0.0,1.8253504e-06,0.0,0.0,nan,0.0,0.0,0.0,0.0,0.00020425153,inf,0.0,0.0,0.0010270774,0.0,0.0,0.0,0.0,0.0,0.0,0.0,0.0
3784000,3704000,7.964957e-06,0.0,0.00028082982,4.381379e-11,0.0,94.35477,0.0,0.0,0.0,0.0,0.0,0.0,0.0,1.8253504e-06,0.0,0.0,nan,0.0,0.0,0.0,0.0,0.00020425153,inf,0.0,0.0,8.14045e-05,0.0,0.0,0.0,0.0,0.0,0.0,0.0,0.0
3792000,3712000,7.964957e-06,0.0,0.00028082982,4.381379e-11,0.0,94.35477,0.0,0.0,0.0,0.0,0.0,0.0,0.0,1.8253504e-06,0.0,0.0,nan,0.0,0.0,0.0,0.0,0.00020425153,inf,0.0,0.0,5.3718974e-05,0.0,0.0,0.0,0.0,0.0,0.0,0.0,0.0
3800000,3720000,7.964957e-06,0.0,0.00028082982,4.381379e-11,0.0,94.35477,0.0,0.0,0.0,0.0,0.0,0.0,0.0,1.1656943e-05,0.0,0.0,nan,0.0,0.0,0.0,0.0,0.00020425153,inf,0.0,0.0,0.00045554287,0.0,0.0,0.0,0.0,0.0,0.0,0.0,0.0
3808000,3728000,1.8700055e-06,0.0,2.1894733e-05,1.4658492e-09,0.0,277.57455,0.0,0.0,0.0,0.0,0.0,0.0,0.0,1.1656943e-05,0.0,0.0,nan,0.0,0.0,0.0,0.0,0.00020425153,inf,0.0,0.0,0.00069416873,0.0,0.0,0.0,0.0,0.0,0.0,0.0,0.0
3816000,3736000,1.8700055e-06,0.0,2.1894733e-05,1.4658492e-09,0.0,277.57455,0.0,0.0,0.0,0.0,0.0,0.0,0.0,1.1656943e-05,0.0,0.0,nan,0.0,0.0,0.0,0.0,0.00020425153,inf,0.0,0.0,0.0004472756,0.0,0.0,0.0,0.0,0.0,0.0,0.0,0.0
3824000,3744000,1.8700055e-06,0.0,2.1894733e-05,1.4658492e-09,0.0,277.57455,0.0,0.0,0.0,0.0,0.0,0.0,0.0,1.1656943e-05,0.0,0.0,nan,0.0,0.0,0.0,0.0,0.00020425153,inf,0.0,0.0,0.00029929838,0.0,0.0,0.0,0.0,0.0,0.0,0.0,0.0
3832000,3752000,1.8700055e-06,0.0,2.1894733e-05,1.4658492e-09,0.0,277.57455,0.0,0.0,0.0,0.0,0.0,0.0,0.0,1.1656943e-05,0.0,0.0,nan,0.0,0.0,0.0,0.0,0.00020425153,inf,0.0,0.0,0.00033824376,0.0,0.0,0.0,0.0,0.0,0.0,0.0,0.0
3840000,3760000,1.8700055e-06,0.0,2.1894733e-05,1.4658492e-09,0.0,277.57455,0.0,0.0,0.0,0.0,0.0,0.0,0.0,1.1656943e-05,0.0,0.0,nan,0.0,0.0,0.0,0.0,1.955407e-05,inf,0.0,0.0,0.00056061975,0.0,0.0,0.0,0.0,0.0,0.0,0.0,0.0
3848000,3768000,1.8700055e-06,0.0,2.1894733e-05,1.4658492e-09,0.0,277.57455,0.0,0.0,0.0,0.0,0.0,0.0,0.0,1.1656943e-05,0.0,0.0,nan,0.0,0.0,0.0,0.0,1.955407e-05,inf,0.0,0.0,8.215606e-05,0.0,0.0,0.0,0.0,0.0,0.0,0.0,0.0
3856000,3776000,1.8700055e-06,0.0,2.1894733e-05,1.4658492e-09,0.0,277.57455,0.0,0.0,0.0,0.0,0.0,0.0,0.0,1.1656943e-05,0.0,0.0,nan,0.0,0.0,0.0,0.0,1.955407e-05,inf,0.0,0.0,0.0008200614,0.0,0.0,0.0,0.0,0.0,0.0,0.0,0.0
3864000,3784000,1.8700055e-06,0.0,2.1894733e-05,1.4658492e-09,0.0,277.57455,0.0,0.0,0.0,0.0,0.0,0.0,0.0,3.248722e-07,0.0,0.0,nan,0.0,0.0,0.0,0.0,1.955407e-05,inf,0.0,0.0,0.0003222477,0.0,0.0,0.0,0.0,0.0,0.0,0.0,0.0
3872000,3792000,1.8700055e-06,0.0,2.1894733e-05,1.4658492e-09,0.0,277.57455,0.0,0.0,0.0,0.0,0.0,0.0,0.0,3.248722e-07,0.0,0.0,nan,0.0,0.0,0.0,0.0,1.955407e-05,inf,0.0,0.0,0.00056247745,0.0,0.0,0.0,0.0,0.0,0.0,0.0,0.0
3880000,3800000,1.8700055e-06,0.0,2.1894733e-05,1.4658492e-09,0.0,277.57455,0.0,0.0,0.0,0.0,0.0,0.0,0.0,3.248722e-07,0.0,0.0,nan,0.0,0.0,0.0,0.0,1.955407e-05,inf,0.0,0.0,0.00013500868,0.0,0.0,0.0,0.0,0.0,0.0,0.0,0.0
3888000,3808000,1.8700055e-06,0.0,2.1894733e-05,1.4658492e-09,0.0,277.57455,0.0,0.0,0.0,0.0,0.0,0.0,0.0,3.248722e-07,0.0,0.0,nan,0.0,0.0,0.0,0.0,1.955407e-05,inf,0.0,0.0,0.00015971155,0.0,0.0,0.0,0.0,0.0,0.0,0.0,0.0
3896000,3816000,1.8700055e-06,0.0,2.1894733e-05,1.4658492e-09,0.0,277.57455,0.0,0.0,0.0,0.0,0.0,0.0,0.0,3.248722e-07,0.0,0.0,nan,0.0,0.0,0.0,0.0,1.955407e-05,inf,0.0,0.0,0.00054950954,0.0,0.0,0.0,0.0,0.0,0.0,0.0,0.0
3904000,3824000,1.8700055e-06,0.0,2.1894733e-05,1.4658492e-09,0.0,277.57455,0.0,0.0,0.0,0.0,0.0,0.0,0.0,3.248722e-07,0.0,0.0,nan,0.0,0.0,0.0,0.0,0.0002084616,inf,0.0,0.0,0.00036448726,0.0,0.0,0.0,0.0,0.0,0.0,0.0,0.0
3912000,3832000,1.8700055e-06,0.0,2.1894733e-05,1.4658492e-09,0.0,277.57455,0.0,0.0,0.0,0.0,0.0,0.0,0.0,3.248722e-07,0.0,0.0,nan,0.0,0.0,0.0,0.0,0.0002084616,inf,0.0,0.0,9.548186e-05,0.0,0.0,0.0,0.0,0.0,0.0,0.0,0.0
3920000,3840000,1.8700055e-06,0.0,2.1894733e-05,1.4658492e-09,0.0,277.57455,0.0,0.0,0.0,0.0,0.0,0.0,0.0,8.1499815e-07,0.0,0.0,nan,0.0,0.0,0.0,0.0,0.0002084616,inf,0.0,0.0,0.0014571018,0.0,0.0,0.0,0.0,0.0,0.0,0.0,0.0
3928000,3848000,1.8700055e-06,0.0,2.1894733e-05,1.4658492e-09,0.0,277.57455,0.0,0.0,0.0,0.0,0.0,0.0,0.0,8.1499815e-07,0.0,0.0,nan,0.0,0.0,0.0,0.0,0.0002084616,inf,0.0,0.0,0.0014236659,0.0,0.0,0.0,0.0,0.0,0.0,0.0,0.0
3936000,3856000,1.8700055e-06,0.0,2.1894733e-05,1.4658492e-09,0.0,277.57455,0.0,0.0,0.0,0.0,0.0,0.0,0.0,8.1499815e-07,0.0,0.0,nan,0.0,0.0,0.0,0.0,0.0002084616,inf,0.0,0.0,0.0016456611,0.0,0.0,0.0,0.0,0.0,0.0,0.0,0.0
3944000,3864000,1.8700055e-06,0.0,2.1894733e-05,1.4658492e-09,0.0,277.57455,0.0,0.0,0.0,0.0,0.0,0.0,0.0,8.1499815e-07,0.0,0.0,nan,0.0,0.0,0.0,0.0,0.0002084616,inf,0.0,0.0,8.924065e-05,0.0,0.0,0.0,0.0,0.0,0.0,0.0,0.0
3952000,3872000,1.8700055e-06,0.0,2.1894733e-05,1.4658492e-09,0.0,277.57455,0.0,0.0,0.0,0.0,0.0,0.0,0.0,8.1499815e-07,0.0,0.0,nan,0.0,0.0,0.0,0.0,0.0002084616,inf,0.0,0.0,0.00034628654,0.0,0.0,0.0,0.0,0.0,0.0,0.0,0.0
3960000,3880000,1.8700055e-06,0.0,2.1894733e-05,1.4658492e-09,0.0,277.57455,0.0,0.0,0.0,0.0,0.0,0.0,0.0,8.1499815e-07,0.0,0.0,nan,0.0,0.0,0.0,0.0,0.0002084616,inf,0.0,0.0,0.00040409446,0.0,0.0,0.0,0.0,0.0,0.0,0.0,0.0
3968000,3888000,1.8700055e-06,0.0,2.1894733e-05,1.4658492e-09,0.0,277.57455,0.0,0.0,0.0,0.0,0.0,0.0,0.0,8.1499815e-07,0.0,0.0,nan,0.0,0.0,0.0,0.0,0.0002084616,inf,0.0,0.0,0.002250413,0.0,0.0,0.0,0.0,0.0,0.0,0.0,0.0
3976000,3896000,1.8700055e-06,0.0,2.1894733e-05,1.4658492e-09,0.0,277.57455,0.0,0.0,0.0,0.0,0.0,0.0,0.0,8.1499815e-07,0.0,0.0,nan,0.0,0.0,0.0,0.0,0.00018715393,inf,0.0,0.0,0.00022907263,0.0,0.0,0.0,0.0,0.0,0.0,0.0,0.0
3984000,3904000,1.8700055e-06,0.0,2.1894733e-05,1.4658492e-09,0.0,277.57455,0.0,0.0,0.0,0.0,0.0,0.0,0.0,2.1515212e-05,0.0,0.0,nan,0.0,0.0,0.0,0.0,0.00018715393,inf,0.0,0.0,0.000760577,0.0,0.0,0.0,0.0,0.0,0.0,0.0,0.0
3992000,3912000,1.8700055e-06,0.0,2.1894733e-05,1.4658492e-09,0.0,277.57455,0.0,0.0,0.0,0.0,0.0,0.0,0.0,2.1515212e-05,0.0,0.0,nan,0.0,0.0,0.0,0.0,0.00018715393,inf,0.0,0.0,0.00037981803,0.0,0.0,0.0,0.0,0.0,0.0,0.0,0.0
4000000,3920000,1.8700055e-06,0.0,2.1894733e-05,1.4658492e-09,0.0,277.57455,0.0,0.0,0.0,0.0,0.0,0.0,0.0,2.1515212e-05,0.0,0.0,nan,0.0,0.0,0.0,0.0,0.00018715393,inf,0.0,0.0,0.0002831009,0.0,0.0,0.0,0.0,0.0,0.0,0.0,0.0
4008000,3928000,1.8700055e-06,0.0,2.1894733e-05,1.4658492e-09,0.0,277.57455,0.0,0.0,0.0,0.0,0.0,0.0,0.0,2.1515212e-05,0.0,0.0,nan,0.0,0.0,0.0,0.0,0.00018715393,inf,0.0,0.0,0.0010885383,0.0,0.0,0.0,0.0,0.0,0.0,0.0,0.0
4016000,3936000,1.8700055e-06,0.0,2.1894733e-05,1.4658492e-09,0.0,277.57455,0.0,0.0,0.0,0.0,0.0,0.0,0.0,2.1515212e-05,0.0,0.0,nan,0.0,0.0,0.0,0.0,0.00018715393,inf,0.0,0.0,2.1634789e-05,0.0,0.0,0.0,0.0,0.0,0.0,0.0,0.0
4024000,3944000,1.8700055e-06,0.0,2.1894733e-05,1.4658492e-09,0.0,277.57455,0.0,0.0,0.0,0.0,0.0,0.0,0.0,2.1515212e-05,0.0,0.0,nan,0.0,0.0,0.0,0.0,0.00018715393,inf,0.0,0.0,0.00039677866,0.0,0.0,0.0,0.0,0.0,0.0,0.0,0.0
4032000,3952000,1.8700055e-06,0.0,2.1894733e-05,1.4658492e-09,0.0,277.57455,0.0,0.0,0.0,0.0,0.0,0.0,0.0,2.1515212e-05,0.0,0.0,nan,0.0,0.0,0.0,0.0,0.00018715393,inf,0.0,0.0,1.3455016e-05,0.0,0.0,0.0,0.0,0.0,0.0,0.0,0.0
4040000,3960000,1.8700055e-06,0.0,2.1894733e-05,1.4658492e-09,0.0,277.57455,0.0,0.0,0.0,0.0,0.0,0.0,0.0,2.3264072e-05,0.0,0.0,nan,0.0,0.0,0.0,0.0,5.513404e-05,inf,0.0,0.0,0.00015248689,0.0,0.0,0.0,0.0,0.0,0.0,0.0,0.0
4048000,3968000,1.8700055e-06,0.0,2.1894733e-05,1.4658492e-09,0.0,277.57455,0.0,0.0,0.0,0.0,0.0,0.0,0.0,2.3264072e-05,0.0,0.0,nan,0.0,0.0,0.0,0.0,5.513404e-05,inf,0.0,0.0,6.5275075e-05,0.0,0.0,0.0,0.0,0.0,0.0,0.0,0.0
4056000,3976000,1.8700055e-06,0.0,2.1894733e-05,1.4658492e-09,0.0,277.57455,0.0,0.0,0.0,0.0,0.0,0.0,0.0,2.3264072e-05,0.0,0.0,nan,0.0,0.0,0.0,0.0,5.513404e-05,inf,0.0,0.0,0.0002864721,0.0,0.0,0.0,0.0,0.0,0.0,0.0,0.0
4064000,3984000,1.8700055e-06,0.0,2.1894733e-05,1.4658492e-09,0.0,277.57455,0.0,0.0,0.0,0.0,0.0,0.0,0.0,2.3264072e-05,0.0,0.0,nan,0.0,0.0,0.0,0.0,5.513404e-05,inf,0.0,0.0,7.936038e-05,0.0,0.0,0.0,0.0,0.0,0.0,0.0,0.0
4072000,3992000,1.8700055e-06,0.0,2.1894733e-05,1.4658492e-09,0.0,277.57455,0.0,0.0,0.0,0.0,0.0,0.0,0.0,2.3264072e-05,0.0,0.0,nan,0.0,0.0,0.0,0.0,5.513404e-05,inf,0.0,0.0,0.0001667566,0.0,0.0,0.0,0.0,0.0,0.0,0.0,0.0
4080000,4000000,1.8700055e-06,0.0,2.1894733e-05,1.4658492e-09,0.0,277.57455,0.0,0.0,0.0,0.0,0.0,0.0,0.0,2.3264072e-05,0.0,0.0,nan,0.0,0.0,0.0,0.0,5.513404e-05,inf,0.0,0.0,0.00029836205,0.0,0.0,0.0,0.0,0.0,0.0,0.0,0.0
4088000,4008000,1.8700055e-06,0.0,2.1894733e-05,1.4658492e-09,0.0,277.57455,0.0,0.0,0.0,0.0,0.0,0.0,0.0,2.3264072e-05,0.0,0.0,nan,0.0,0.0,0.0,0.0,5.513404e-05,inf,0.0,0.0,0.0003299661,0.0,0.0,0.0,0.0,0.0,0.0,0.0,0.0
4096000,4016000,1.8700055e-06,0.0,2.1894733e-05,1.4658492e-09,0.0,277.57455,0.0,0.0,0.0,0.0,0.0,0.0,0.0,2.3264072e-05,0.0,0.0,nan,0.0,0.0,0.0,0.0,5.513404e-05,inf,0.0,0.0,0.0003464018,0.0,0.0,0.0,0.0,0.0,0.0,0.0,0.0
4104000,4024000,1.8700055e-06,0.0,2.1894733e-05,1.4658492e-09,0.0,277.57455,0.0,0.0,0.0,0.0,0.0,0.0,0.0,6.0898433e-06,0.0,0.0,nan,0.0,0.0,0.0,0.0,5.513404e-05,inf,0.0,0.0,2.798741e-05,0.0,0.0,0.0,0.0,0.0,0.0,0.0,0.0
4112000,4032000,1.8700055e-06,0.0,2.1894733e-05,1.4658492e-09,0.0,277.57455,0.0,0.0,0.0,0.0,0.0,0.0,0.0,6.0898433e-06,0.0,0.0,nan,0.0,0.0,0.0,0.0,5.441764e-07,inf,0.0,0.0,8.9771005e-05,0.0,0.0,0.0,0.0,0.0,0.0,0.0,0.0
4120000,4040000,1.8700055e-06,0.0,2.1894733e-05,1.4658492e-09,0.0,277.57455,0.0,0.0,0.0,0.0,0.0,0.0,0.0,6.0898433e-06,0.0,0.0,nan,0.0,0.0,0.0,0.0,5.441764e-07,inf,0.0,0.0,7.515057e-05,0.0,0.0,0.0,0.0,0.0,0.0,0.0,0.0
4128000,4048000,1.8700055e-06,0.0,2.1894733e-05,1.4658492e-09,0.0,277.57455,0.0,0.0,0.0,0.0,0.0,0.0,0.0,6.0898433e-06,0.0,0.0,nan,0.0,0.0,0.0,0.0,5.441764e-07,inf,0.0,0.0,0.0002595224,0.0,0.0,0.0,0.0,0.0,0.0,0.0,0.0
4136000,4056000,1.8700055e-06,0.0,2.1894733e-05,1.4658492e-09,0.0,277.57455,0.0,0.0,0.0,0.0,0.0,0.0,0.0,6.0898433e-06,0.0,0.0,nan,0.0,0.0,0.0,0.0,5.441764e-07,inf,0.0,0.0,0.00028643216,0.0,0.0,0.0,0.0,0.0,0.0,0.0,0.0
4144000,4064000,1.8700055e-06,0.0,2.1894733e-05,1.4658492e-09,0.0,277.57455,0.0,0.0,0.0,0.0,0.0,0.0,0.0,6.0898433e-06,0.0,0.0,nan,0.0,0.0,0.0,0.0,5.441764e-07,inf,0.0,0.0,6.638902e-05,0.0,0.0,0.0,0.0,0.0,0.0,0.0,0.0
4152000,4072000,1.8700055e-06,0.0,2.1894733e-05,1.4658492e-09,0.0,277.57455,0.0,0.0,0.0,0.0,0.0,0.0,0.0,6.0898433e-06,0.0,0.0,nan,0.0,0.0,0.0,0.0,5.441764e-07,inf,0.0,0.0,3.403502e-05,0.0,0.0,0.0,0.0,0.0,0.0,0.0,0.0
4160000,4080000,1.8700055e-06,0.0,2.1894733e-05,1.4658492e-09,0.0,277.57455,0.0,0.0,0.0,0.0,0.0,0.0,0.0,1.6205139e-06,0.0,0.0,nan,0.0,0.0,0.0,0.0,5.441764e-07,inf,0.0,0.0,0.0002062381,0.0,0.0,0.0,0.0,0.0,0.0,0.0,0.0
4168000,4088000,1.8700055e-06,0.0,2.1894733e-05,1.4658492e-09,0.0,277.57455,0.0,0.0,0.0,0.0,0.0,0.0,0.0,1.6205139e-06,0.0,0.0,nan,0.0,0.0,0.0,0.0,5.441764e-07,inf,0.0,0.0,0.00043167788,0.0,0.0,0.0,0.0,0.0,0.0,0.0,0.0
4176000,4096000,1.8700055e-06,0.0,2.1894733e-05,1.4658492e-09,0.0,277.57455,0.0,0.0,0.0,0.0,0.0,0.0,0.0,1.6205139e-06,0.0,0.0,nan,0.0,0.0,0.0,0.0,5.441764e-07,inf,0.0,0.0,0.00028503736,0.0,0.0,0.0,0.0,0.0,0.0,0.0,0.0
4184000,4104000,1.8700055e-06,0.0,2.1894733e-05,1.4658492e-09,0.0,277.57455,0.0,0.0,0.0,0.0,0.0,0.0,0.0,1.6205139e-06,0.0,0.0,nan,0.0,0.0,0.0,0.0,0.0043684724,inf,0.0,0.0,0.0005694368,0.0,0.0,0.0,0.0,0.0,0.0,0.0,0.0
4192000,4112000,1.8700055e-06,0.0,2.1894733e-05,1.4658492e-09,0.0,277.57455,0.0,0.0,0.0,0.0,0.0,0.0,0.0,1.6205139e-06,0.0,0.0,nan,0.0,0.0,0.0,0.0,0.0043684724,inf,0.0,0.0,0.00012289867,0.0,0.0,0.0,0.0,0.0,0.0,0.0,0.0
4200000,4120000,1.8700055e-06,0.0,2.1894733e-05,1.4658492e-09,0.0,277.57455,0.0,0.0,0.0,0.0,0.0,0.0,0.0,1.6205139e-06,0.0,0.0,nan,0.0,0.0,0.0,0.0,0.0043684724,inf,0.0,0.0,0.0011910186,0.0,0.0,0.0,0.0,0.0,0.0,0.0,0.0
4208000,4128000,2.0203554e-05,0.0,0.00013850251,4.6150905e-09,0.0,2.1174783e-10,0.0,0.0,0.0,0.0,0.0,0.0,0.0,1.6205139e-06,0.0,0.0,nan,0.0,0.0,0.0,0.0,0.0043684724,inf,0.0,0.0,0.00061238825,0.0,0.0,0.0,0.0,0.0,0.0,0.0,0.0
4216000,4136000,2.0203554e-05,0.0,0.00013850251,4.6150905e-09,0.0,2.1174783e-10,0.0,0.0,0.0,0.0,0.0,0.0,0.0,1.6205139e-06,0.0,0.0,nan,0.0,0.0,0.0,0.0,0.0043684724,inf,0.0,0.0,0.0002135569,0.0,0.0,0.0,0.0,0.0,0.0,0.0,0.0
4224000,4144000,2.0203554e-05,0.0,0.00013850251,4.6150905e-09,0.0,2.1174783e-10,0.0,0.0,0.0,0.0,0.0,0.0,0.0,3.224076e-05,0.0,0.0,nan,0.0,0.0,0.0,0.0,0.0043684724,inf,0.0,0.0,0.00041149906,0.0,0.0,0.0,0.0,0.0,0.0,0.0,0.0
4232000,4152000,2.0203554e-05,0.0,0.00013850251,4.6150905e-09,0.0,2.1174783e-10,0.0,0.0,0.0,0.0,0.0,0.0,0.0,3.224076e-05,0.0,0.0,nan,0.0,0.0,0.0,0.0,0.0043684724,inf,0.0,0.0,0.0006336361,0.0,0.0,0.0,0.0,0.0,0.0,0.0,0.0
4240000,4160000,2.0203554e-05,0.0,0.00013850251,4.6150905e-09,0.0,2.1174783e-10,0.0,0.0,0.0,0.0,0.0,0.0,0.0,3.224076e-05,0.0,0.0,nan,0.0,0.0,0.0,0.0,0.0043684724,inf,0.0,0.0,0.0006006294,0.0,0.0,0.0,0.0,0.0,0.0,0.0,0.0
4248000,4168000,2.0203554e-05,0.0,0.00013850251,4.6150905e-09,0.0,2.1174783e-10,0.0,0.0,0.0,0.0,0.0,0.0,0.0,3.224076e-05,0.0,0.0,nan,0.0,0.0,0.0,0.0,0.0043684724,inf,0.0,0.0,0.00015679972,0.0,0.0,0.0,0.0,0.0,0.0,0.0,0.0
4256000,4176000,2.0203554e-05,0.0,0.00013850251,4.6150905e-09,0.0,2.1174783e-10,0.0,0.0,0.0,0.0,0.0,0.0,0.0,3.224076e-05,0.0,0.0,nan,0.0,0.0,0.0,0.0,2.4647677e-06,inf,0.0,0.0,3.7065987e-05,0.0,0.0,0.0,0.0,0.0,0.0,0.0,0.0
4264000,4184000,2.0203554e-05,0.0,0.00013850251,4.6150905e-09,0.0,2.1174783e-10,0.0,0.0,0.0,0.0,0.0,0.0,0.0,3.224076e-05,0.0,0.0,nan,0.0,0.0,0.0,0.0,2.4647677e-06,inf,0.0,0.0,5.102706e-05,0.0,0.0,0.0,0.0,0.0,0.0,0.0,0.0
4272000,4192000,2.0203554e-05,0.0,0.00013850251,4.6150905e-09,0.0,2.1174783e-10,0.0,0.0,0.0,0.0,0.0,0.0,0.0,3.224076e-05,0.0,0.0,nan,0.0,0.0,0.0,0.0,2.4647677e-06,inf,0.0,0.0,0.0007203931,0.0,0.0,0.0,0.0,0.0,0.0,0.0,0.0
4280000,4200000,2.0203554e-05,0.0,0.00013850251,4.6150905e-09,0.0,2.1174783e-10,0.0,0.0,0.0,0.0,0.0,0.0,0.0,1.1527377e-06,0.0,0.0,nan,0.0,0.0,0.0,0.0,2.4647677e-06,inf,0.0,0.0,0.00052731327,0.0,0.0,0.0,0.0,0.0,0.0,0.0,0.0
4288000,4208000,2.0203554e-05,0.0,0.00013850251,4.6150905e-09,0.0,2.1174783e-10,0.0,0.0,0.0,0.0,0.0,0.0,0.0,1.1527377e-06,0.0,0.0,nan,0.0,0.0,0.0,0.0,2.4647677e-06,inf,0.0,0.0,0.00023779439,0.0,0.0,0.0,0.0,0.0,0.0,0.0,0.0
4296000,4216000,2.0203554e-05,0.0,0.00013850251,4.6150905e-09,0.0,2.1174783e-10,0.0,0.0,0.0,0.0,0.0,0.0,0.0,1.1527377e-06,0.0,0.0,nan,0.0,0.0,0.0,0.0,2.4647677e-06,inf,0.0,0.0,0.00045645263,0.0,0.0,0.0,0.0,0.0,0.0,0.0,0.0
4304000,4224000,2.0203554e-05,0.0,0.00013850251,4.6150905e-09,0.0,2.1174783e-10,0.0,0.0,0.0,0.0,0.0,0.0,0.0,1.1527377e-06,0.0,0.0,nan,0.0,0.0,0.0,0.0,2.4647677e-06,inf,0.0,0.0,0.00043532797,0.0,0.0,0.0,0.0,0.0,0.0,0.0,0.0
4312000,4232000,2.0203554e-05,0.0,0.00013850251,4.6150905e-09,0.0,2.1174783e-10,0.0,0.0,0.0,0.0,0.0,0.0,0.0,1.1527377e-06,0.0,0.0,nan,0.0,0.0,0.0,0.0,2.4647677e-06,inf,0.0,0.0,0.00041664363,0.0,0.0,0.0,0.0,0.0,0.0,0.0,0.0
4320000,4240000,2.0203554e-05,0.0,0.00013850251,4.6150905e-09,0.0,2.1174783e-10,0.0,0.0,0.0,0.0,0.0,0.0,0.0,1.1527377e-06,0.0,0.0,nan,0.0,0.0,0.0,0.0,2.4647677e-06,inf,0.0,0.0,0.00041750853,0.0,0.0,0.0,0.0,0.0,0.0,0.0,0.0
4328000,4248000,2.0203554e-05,0.0,0.00013850251,4.6150905e-09,0.0,2.1174783e-10,0.0,0.0,0.0,0.0,0.0,0.0,0.0,1.1527377e-06,0.0,0.0,nan,0.0,0.0,0.0,0.0,0.00014611451,inf,0.0,0.0,0.0005078555,0.0,0.0,0.0,0.0,0.0,0.0,0.0,0.0
4336000,4256000,2.0203554e-05,0.0,0.00013850251,4.6150905e-09,0.0,2.1174783e-10,0.0,0.0,0.0,0.0,0.0,0.0,0.0,1.1527377e-06,0.0,0.0,nan,0.0,0.0,0.0,0.0,0.00014611451,inf,0.0,0.0,0.00015238418,0.0,0.0,0.0,0.0,0.0,0.0,0.0,0.0
4344000,4264000,2.0203554e-05,0.0,0.00013850251,4.6150905e-09,0.0,2.1174783e-10,0.0,0.0,0.0,0.0,0.0,0.0,0.0,1.2521531e-05,0.0,0.0,nan,0.0,0.0,0.0,0.0,0.00014611451,inf,0.0,0.0,0.00034860036,0.0,0.0,0.0,0.0,0.0,0.0,0.0,0.0
4352000,4272000,2.0203554e-05,0.0,0.00013850251,4.6150905e-09,0.0,2.1174783e-10,0.0,0.0,0.0,0.0,0.0,0.0,0.0,1.2521531e-05,0.0,0.0,nan,0.0,0.0,0.0,0.0,0.00014611451,inf,0.0,0.0,0.00054301694,0.0,0.0,0.0,0.0,0.0,0.0,0.0,0.0
4360000,4280000,2.0203554e-05,0.0,0.00013850251,4.6150905e-09,0.0,2.1174783e-10,0.0,0.0,0.0,0.0,0.0,0.0,0.0,1.2521531e-05,0.0,0.0,nan,0.0,0.0,0.0,0.0,0.00014611451,inf,0.0,0.0,1.9961262e-05,0.0,0.0,0.0,0.0,0.0,0.0,0.0,0.0
4368000,4288000,2.0203554e-05,0.0,0.00013850251,4.6150905e-09,0.0,2.1174783e-10,0.0,0.0,0.0,0.0,0.0,0.0,0.0,1.2521531e-05,0.0,0.0,nan,0.0,0.0,0.0,0.0,0.00014611451,inf,0.0,0.0,7.930384e-05,0.0,0.0,0.0,0.0,0.0,0.0,0.0,0.0
4376000,4296000,2.0203554e-05,0.0,0.00013850251,4.6150905e-09,0.0,2.1174783e-10,0.0,0.0,0.0,0.0,0.0,0.0,0.0,1.2521531e-05,0.0,0.0,nan,0.0,0.0,0.0,0.0,0.00014611451,inf,0.0,0.0,0.0002629918,0.0,0.0,0.0,0.0,0.0,0.0,0.0,0.0
4384000,4304000,2.0203554e-05,0.0,0.00013850251,4.6150905e-09,0.0,2.1174783e-10,0.0,0.0,0.0,0.0,0.0,0.0,0.0,1.2521531e-05,0.0,0.0,nan,0.0,0.0,0.0,0.0,0.00014611451,inf,0.0,0.0,4.146228e-05,0.0,0.0,0.0,0.0,0.0,0.0,0.0,0.0
4392000,4312000,2.0203554e-05,0.0,0.00013850251,4.6150905e-09,0.0,2.1174783e-10,0.0,0.0,0.0,0.0,0.0,0.0,0.0,1.2521531e-05,0.0,0.0,nan,0.0,0.0,0.0,0.0,0.00014611451,inf,0.0,0.0,4.7465153e-05,0.0,0.0,0.0,0.0,0.0,0.0,0.0,0.0
4400000,4320000,2.0203554e-05,0.0,0.00013850251,4.6150905e-09,0.0,2.1174783e-10,0.0,0.0,0.0,0.0,0.0,0.0,0.0,2.33614e-06,0.0,0.0,nan,0.0,0.0,0.0,0.0,2.3047683e-05,inf,0.0,0.0,0.0002904907,0.0,0.0,0.0,0.0,0.0,0.0,0.0,0.0
4408000,4328000,2.0203554e-05,0.0,0.00013850251,4.6150905e-09,0.0,2.1174783e-10,0.0,0.0,0.0,0.0,0.0,0.0,0.0,2.33614e-06,0.0,0.0,nan,0.0,0.0,0.0,0.0,2.3047683e-05,inf,0.0,0.0,0.00072069163,0.0,0.0,0.0,0.0,0.0,0.0,0.0,0.0
4416000,4336000,2.0203554e-05,0.0,0.00013850251,4.6150905e-09,0.0,2.1174783e-10,0.0,0.0,0.0,0.0,0.0,0.0,0.0,2.33614e-06,0.0,0.0,nan,0.0,0.0,0.0,0.0,2.3047683e-05,inf,0.0,0.0,9.009481e-05,0.0,0.0,0.0,0.0,0.0,0.0,0.0,0.0
4424000,4344000,2.0203554e-05,0.0,0.00013850251,4.6150905e-09,0.0,2.1174783e-10,0.0,0.0,0.0,0.0,0.0,0.0,0.0,2.33614e-06,0.0,0.0,nan,0.0,0.0,0.0,0.0,2.3047683e-05,inf,0.0,0.0,0.00022492399,0.0,0.0,0.0,0.0,0.0,0.0,0.0,0.0
4432000,4352000,2.0203554e-05,0.0,0.00013850251,4.6150905e-09,0.0,2.1174783e-10,0.0,0.0,0.0,0.0,0.0,0.0,0.0,2.33614e-06,0.0,0.0,nan,0.0,0.0,0.0,0.0,2.3047683e-05,inf,0.0,0.0,0.00022202221,0.0,0.0,0.0,0.0,0.0,0.0,0.0,0.0
4440000,4360000,2.0203554e-05,0.0,0.00013850251,4.6150905e-09,0.0,2.1174783e-10,0.0,0.0,0.0,0.0,0.0,0.0,0.0,2.33614e-06,0.0,0.0,nan,0.0,0.0,0.0,0.0,2.3047683e-05,inf,0.0,0.0,6.194503e-05,0.0,0.0,0.0,0.0,0.0,0.0,0.0,0.0
4448000,4368000,2.0203554e-05,0.0,0.00013850251,4.6150905e-09,0.0,2.1174783e-10,0.0,0.0,0.0,0.0,0.0,0.0,0.0,2.33614e-06,0.0,0.0,nan,0.0,0.0,0.0,0.0,2.3047683e-05,inf,0.0,0.0,0.00090208737,0.0,0.0,0.0,0.0,0.0,0.0,0.0,0.0
4456000,4376000,2.0203554e-05,0.0,0.00013850251,4.6150905e-09,0.0,2.1174783e-10,0.0,0.0,0.0,0.0,0.0,0.0,0.0,2.33614e-06,0.0,0.0,nan,0.0,0.0,0.0,0.0,2.3047683e-05,inf,0.0,0.0,0.00018262709,0.0,0.0,0.0,0.0,0.0,0.0,0.0,0.0
4464000,4384000,2.0203554e-05,0.0,0.00013850251,4.6150905e-09,0.0,2.1174783e-10,0.0,0.0,0.0,0.0,0.0,0.0,0.0,9.118187e-06,0.0,0.0,nan,0.0,0.0,0.0,0.0,2.3047683e-05,inf,0.0,0.0,0.00049062347,0.0,0.0,0.0,0.0,0.0,0.0,0.0,0.0
4472000,4392000,2.0203554e-05,0.0,0.00013850251,4.6150905e-09,0.0,2.1174783e-10,0.0,0.0,0.0,0.0,0.0,0.0,0.0,9.118187e-06,0.0,0.0,nan,0.0,0.0,0.0,0.0,0.00032429144,inf,0.0,0.0,0.0014831002,0.0,0.0,0.0,0.0,0.0,0.0,0.0,0.0
4480000,4400000,2.0203554e-05,0.0,0.00013850251,4.6150905e-09,0.0,2.1174783e-10,0.0,0.0,0.0,0.0,0.0,0.0,0.0,9.118187e-06,0.0,0.0,nan,0.0,0.0,0.0,0.0,0.00032429144,inf,0.0,0.0,0.00088881503,0.0,0.0,0.0,0.0,0.0,0.0,0.0,0.0
4488000,4408000,2.0203554e-05,0.0,0.00013850251,4.6150905e-09,0.0,2.1174783e-10,0.0,0.0,0.0,0.0,0.0,0.0,0.0,9.118187e-06,0.0,0.0,nan,0.0,0.0,0.0,0.0,0.00032429144,inf,0.0,0.0,0.0001328491,0.0,0.0,0.0,0.0,0.0,0.0,0.0,0.0
4496000,4416000,2.0203554e-05,0.0,0.00013850251,4.6150905e-09,0.0,2.1174783e-10,0.0,0.0,0.0,0.0,0.0,0.0,0.0,9.118187e-06,0.0,0.0,nan,0.0,0.0,0.0,0.0,0.00032429144,inf,0.0,0.0,0.000109615095,0.0,0.0,0.0,0.0,0.0,0.0,0.0,0.0
4504000,4424000,2.0203554e-05,0.0,0.00013850251,4.6150905e-09,0.0,2.1174783e-10,0.0,0.0,0.0,0.0,0.0,0.0,0.0,9.118187e-06,0.0,0.0,nan,0.0,0.0,0.0,0.0,0.00032429144,inf,0.0,0.0,0.00026750288,0.0,0.0,0.0,0.0,0.0,0.0,0.0,0.0
4512000,4432000,2.0203554e-05,0.0,0.00013850251,4.6150905e-09,0.0,2.1174783e-10,0.0,0.0,0.0,0.0,0.0,0.0,0.0,9.118187e-06,0.0,0.0,nan,0.0,0.0,0.0,0.0,0.00032429144,inf,0.0,0.0,0.00023942,0.0,0.0,0.0,0.0,0.0,0.0,0.0,0.0
4520000,4440000,2.0203554e-05,0.0,0.00013850251,4.6150905e-09,0.0,2.1174783e-10,0.0,0.0,0.0,0.0,0.0,0.0,0.0,2.4372807e-06,0.0,0.0,nan,0.0,0.0,0.0,0.0,0.00032429144,inf,0.0,0.0,0.00010414126,0.0,0.0,0.0,0.0,0.0,0.0,0.0,0.0
4528000,4448000,2.0203554e-05,0.0,0.00013850251,4.6150905e-09,0.0,2.1174783e-10,0.0,0.0,0.0,0.0,0.0,0.0,0.0,2.4372807e-06,0.0,0.0,nan,0.0,0.0,0.0,0.0,0.00032429144,inf,0.0,0.0,0.0010313155,0.0,0.0,0.0,0.0,0.0,0.0,0.0,0.0
4536000,4456000,2.0203554e-05,0.0,0.00013850251,4.6150905e-09,0.0,2.1174783e-10,0.0,0.0,0.0,0.0,0.0,0.0,0.0,2.4372807e-06,0.0,0.0,nan,0.0,0.0,0.0,0.0,0.00032429144,inf,0.0,0.0,0.00011290851,0.0,0.0,0.0,0.0,0.0,0.0,0.0,0.0
4544000,4464000,2.0203554e-05,0.0,0.00013850251,4.6150905e-09,0.0,2.1174783e-10,0.0,0.0,0.0,0.0,0.0,0.0,0.0,2.4372807e-06,0.0,0.0,nan,0.0,0.0,0.0,0.0,1.1867033e-05,inf,0.0,0.0,0.00014525594,0.0,0.0,0.0,0.0,0.0,0.0,0.0,0.0
4552000,4472000,2.0203554e-05,0.0,0.00013850251,4.6150905e-09,0.0,2.1174783e-10,0.0,0.0,0.0,0.0,0.0,0.0,0.0,2.4372807e-06,0.0,0.0,nan,0.0,0.0,0.0,0.0,1.1867033e-05,inf,0.0,0.0,0.0004984219,0.0,0.0,0.0,0.0,0.0,0.0,0.0,0.0
4560000,4480000,2.0203554e-05,0.0,0.00013850251,4.6150905e-09,0.0,2.1174783e-10,0.0,0.0,0.0,0.0,0.0,0.0,0.0,2.4372807e-06,0.0,0.0,nan,0.0,0.0,0.0,0.0,1.1867033e-05,inf,0.0,0.0,0.000361209,0.0,0.0,0.0,0.0,0.0,0.0,0.0,0.0
4568000,4488000,2.0203554e-05,0.0,0.00013850251,4.6150905e-09,0.0,2.1174783e-10,0.0,0.0,0.0,0.0,0.0,0.0,0.0,2.4372807e-06,0.0,0.0,nan,0.0,0.0,0.0,0.0,1.1867033e-05,inf,0.0,0.0,0.00034097195,0.0,0.0,0.0,0.0,0.0,0.0,0.0,0.0
4576000,4496000,2.0203554e-05,0.0,0.00013850251,4.6150905e-09,0.0,2.1174783e-10,0.0,0.0,0.0,0.0,0.0,0.0,0.0,2.4372807e-06,0.0,0.0,nan,0.0,0.0,0.0,0.0,1.1867033e-05,inf,0.0,0.0,0.00027835844,0.0,0.0,0.0,0.0,0.0,0.0,0.0,0.0
4584000,4504000,2.0203554e-05,0.0,0.00013850251,4.6150905e-09,0.0,2.1174783e-10,0.0,0.0,0.0,0.0,0.0,0.0,0.0,2.7769356e-05,0.0,0.0,nan,0.0,0.0,0.0,0.0,1.1867033e-05,inf,0.0,0.0,9.7488686e-05,0.0,0.0,0.0,0.0,0.0,0.0,0.0,0.0
4592000,4512000,2.0203554e-05,0.0,0.00013850251,4.6150905e-09,0.0,2.1174783e-10,0.0,0.0,0.0,0.0,0.0,0.0,0.0,2.7769356e-05,0.0,0.0,nan,0.0,0.0,0.0,0.0,1.1867033e-05,inf,0.0,0.0,0.00070635777,0.0,0.0,0.0,0.0,0.0,0.0,0.0,0.0
4600000,4520000,2.0203554e-05,0.0,0.00013850251,4.6150905e-09,0.0,2.1174783e-10,0.0,0.0,0.0,0.0,0.0,0.0,0.0,2.7769356e-05,0.0,0.0,nan,0.0,0.0,0.0,0.0,1.1867033e-05,inf,0.0,0.0,0.0012380572,0.0,0.0,0.0,0.0,0.0,0.0,0.0,0.0
4608000,4528000,0.00013745975,0.0,8.8349785e-05,2.1808019e-06,0.0,5.760685e-06,0.0,0.0,0.0,0.0,0.0,0.0,0.0,2.7769356e-05,0.0,0.0,nan,0.0,0.0,0.0,0.0,1.1867033e-05,inf,0.0,0.0,0.0004460762,0.0,0.0,0.0,0.0,0.0,0.0,0.0,0.0
4616000,4536000,0.00013745975,0.0,8.8349785e-05,2.1808019e-06,0.0,5.760685e-06,0.0,0.0,0.0,0.0,0.0,0.0,0.0,2.7769356e-05,0.0,0.0,nan,0.0,0.0,0.0,0.0,0.000107284955,inf,0.0,0.0,0.00013448257,0.0,0.0,0.0,0.0,0.0,0.0,0.0,0.0
4624000,4544000,0.00013745975,0.0,8.8349785e-05,2.1808019e-06,0.0,5.760685e-06,0.0,0.0,0.0,0.0,0.0,0.0,0.0,2.7769356e-05,0.0,0.0,nan,0.0,0.0,0.0,0.0,0.000107284955,inf,0.0,0.0,4.7946636e-05,0.0,0.0,0.0,0.0,0.0,0.0,0.0,0.0
4632000,4552000,0.00013745975,0.0,8.8349785e-05,2.1808019e-06,0.0,5.760685e-06,0.0,0.0,0.0,0.0,0.0,0.0,0.0,2.7769356e-05,0.0,0.0,nan,0.0,0.0,0.0,0.0,0.000107284955,inf,0.0,0.0,0.0018423751,0.0,0.0,0.0,0.0,0.0,0.0,0.0,0.0
4640000,4560000,0.00013745975,0.0,8.8349785e-05,2.1808019e-06,0.0,5.760685e-06,0.0,0.0,0.0,0.0,0.0,0.0,0.0,1.067163e-06,0.0,0.0,nan,0.0,0.0,0.0,0.0,0.000107284955,inf,0.0,0.0,0.00034189838,0.0,0.0,0.0,0.0,0.0,0.0,0.0,0.0
4648000,4568000,0.00013745975,0.0,8.8349785e-05,2.1808019e-06,0.0,5.760685e-06,0.0,0.0,0.0,0.0,0.0,0.0,0.0,1.067163e-06,0.0,0.0,nan,0.0,0.0,0.0,0.0,0.000107284955,inf,0.0,0.0,0.000765851,0.0,0.0,0.0,0.0,0.0,0.0,0.0,0.0
4656000,4576000,0.00013745975,0.0,8.8349785e-05,2.1808019e-06,0.0,5.760685e-06,0.0,0.0,0.0,0.0,0.0,0.0,0.0,1.067163e-06,0.0,0.0,nan,0.0,0.0,0.0,0.0,0.000107284955,inf,0.0,0.0,0.00012767415,0.0,0.0,0.0,0.0,0.0,0.0,0.0,0.0
4664000,4584000,0.00013745975,0.0,8.8349785e-05,2.1808019e-06,0.0,5.760685e-06,0.0,0.0,0.0,0.0,0.0,0.0,0.0,1.067163e-06,0.0,0.0,nan,0.0,0.0,0.0,0.0,0.000107284955,inf,0.0,0.0,0.0014365929,0.0,0.0,0.0,0.0,0.0,0.0,0.0,0.0
4672000,4592000,0.00013745975,0.0,8.8349785e-05,2.1808019e-06,0.0,5.760685e-06,0.0,0.0,0.0,0.0,0.0,0.0,0.0,1.067163e-06,0.0,0.0,nan,0.0,0.0,0.0,0.0,0.000107284955,inf,0.0,0.0,0.00010711489,0.0,0.0,0.0,0.0,0.0,0.0,0.0,0.0
4680000,4600000,0.00013745975,0.0,8.8349785e-05,2.1808019e-06,0.0,5.760685e-06,0.0,0.0,0.0,0.0,0.0,0.0,0.0,1.067163e-06,0.0,0.0,nan,0.0,0.0,0.0,0.0,0.000107284955,inf,0.0,0.0,0.0005247008,0.0,0.0,0.0,0.0,0.0,0.0,0.0,0.0
4688000,4608000,0.00013745975,0.0,8.8349785e-05,2.1808019e-06,0.0,5.760685e-06,0.0,0.0,0.0,0.0,0.0,0.0,0.0,1.067163e-06,0.0,0.0,nan,0.0,0.0,0.0,0.0,0.00017337155,inf,0.0,0.0,0.00025200678,0.0,0.0,0.0,0.0,0.0,0.0,0.0,0.0
4696000,4616000,0.00013745975,0.0,8.8349785e-05,2.1808019e-06,0.0,5.760685e-06,0.0,0.0,0.0,0.0,0.0,0.0,0.0,1.067163e-06,0.0,0.0,nan,0.0,0.0,0.0,0.0,0.00017337155,inf,0.0,0.0,0.0014454675,0.0,0.0,0.0,0.0,0.0,0.0,0.0,0.0
4704000,4624000,0.00013745975,0.0,8.8349785e-05,2.1808019e-06,0.0,5.760685e-06,0.0,0.0,0.0,0.0,0.0,0.0,0.0,2.8797629e-06,0.0,0.0,nan,0.0,0.0,0.0,0.0,0.00017337155,inf,0.0,0.0,0.0009136578,0.0,0.0,0.0,0.0,0.0,0.0,0.0,0.0
4712000,4632000,0.00013745975,0.0,8.8349785e-05,2.1808019e-06,0.0,5.760685e-06,0.0,0.0,0.0,0.0,0.0,0.0,0.0,2.8797629e-06,0.0,0.0,nan,0.0,0.0,0.0,0.0,0.00017337155,inf,0.0,0.0,0.0008216314,0.0,0.0,0.0,0.0,0.0,0.0,0.0,0.0
4720000,4640000,0.00013745975,0.0,8.8349785e-05,2.1808019e-06,0.0,5.760685e-06,0.0,0.0,0.0,0.0,0.0,0.0,0.0,2.8797629e-06,0.0,0.0,nan,0.0,0.0,0.0,0.0,0.00017337155,inf,0.0,0.0,0.0010326112,0.0,0.0,0.0,0.0,0.0,0.0,0.0,0.0
4728000,4648000,0.00013745975,0.0,8.8349785e-05,2.1808019e-06,0.0,5.760685e-06,0.0,0.0,0.0,0.0,0.0,0.0,0.0,2.8797629e-06,0.0,0.0,nan,0.0,0.0,0.0,0.0,0.00017337155,inf,0.0,0.0,0.0003891529,0.0,0.0,0.0,0.0,0.0,0.0,0.0,0.0
4736000,4656000,0.00013745975,0.0,8.8349785e-05,2.1808019e-06,0.0,5.760685e-06,0.0,0.0,0.0,0.0,0.0,0.0,0.0,2.8797629e-06,0.0,0.0,nan,0.0,0.0,0.0,0.0,0.00017337155,inf,0.0,0.0,2.9939933e-05,0.0,0.0,0.0,0.0,0.0,0.0,0.0,0.0
4744000,4664000,0.00013745975,0.0,8.8349785e-05,2.1808019e-06,0.0,5.760685e-06,0.0,0.0,0.0,0.0,0.0,0.0,0.0,2.8797629e-06,0.0,0.0,nan,0.0,0.0,0.0,0.0,0.00017337155,inf,0.0,0.0,0.00015273286,0.0,0.0,0.0,0.0,0.0,0.0,0.0,0.0
4752000,4672000,0.00013745975,0.0,8.8349785e-05,2.1808019e-06,0.0,5.760685e-06,0.0,0.0,0.0,0.0,0.0,0.0,0.0,2.8797629e-06,0.0,0.0,nan,0.0,0.0,0.0,0.0,0.00017337155,inf,0.0,0.0,0.00021550033,0.0,0.0,0.0,0.0,0.0,0.0,0.0,0.0
4760000,4680000,0.00013745975,0.0,8.8349785e-05,2.1808019e-06,0.0,5.760685e-06,0.0,0.0,0.0,0.0,0.0,0.0,0.0,3.2265584e-06,0.0,0.0,nan,0.0,0.0,0.0,0.0,5.09665e-06,inf,0.0,0.0,0.00031554903,0.0,0.0,0.0,0.0,0.0,0.0,0.0,0.0
4768000,4688000,0.00013745975,0.0,8.8349785e-05,2.1808019e-06,0.0,5.760685e-06,0.0,0.0,0.0,0.0,0.0,0.0,0.0,3.2265584e-06,0.0,0.0,nan,0.0,0.0,0.0,0.0,5.09665e-06,inf,0.0,0.0,0.00077802513,0.0,0.0,0.0,0.0,0.0,0.0,0.0,0.0
4776000,4696000,0.00013745975,0.0,8.8349785e-05,2.1808019e-06,0.0,5.760685e-06,0.0,0.0,0.0,0.0,0.0,0.0,0.0,3.2265584e-06,0.0,0.0,nan,0.0,0.0,0.0,0.0,5.09665e-06,inf,0.0,0.0,0.0002523857,0.0,0.0,0.0,0.0,0.0,0.0,0.0,0.0
4784000,4704000,0.00013745975,0.0,8.8349785e-05,2.1808019e-06,0.0,5.760685e-06,0.0,0.0,0.0,0.0,0.0,0.0,0.0,3.2265584e-06,0.0,0.0,nan,0.0,0.0,0.0,0.0,5.09665e-06,inf,0.0,0.0,0.00022684447,0.0,0.0,0.0,0.0,0.0,0.0,0.0,0.0
4792000,4712000,0.00013745975,0.0,8.8349785e-05,2.1808019e-06,0.0,5.760685e-06,0.0,0.0,0.0,0.0,0.0,0.0,0.0,3.2265584e-06,0.0,0.0,nan,0.0,0.0,0.0,0.0,5.09665e-06,inf,0.0,0.0,0.0011467919,0.0,0.0,0.0,0.0,0.0,0.0,0.0,0.0
4800000,4720000,0.00013745975,0.0,8.8349785e-05,2.1808019e-06,0.0,5.760685e-06,0.0,0.0,0.0,0.0,0.0,0.0,0.0,3.2265584e-06,0.0,0.0,nan,0.0,0.0,0.0,0.0,5.09665e-06,inf,0.0,0.0,0.00090834446,0.0,0.0,0.0,0.0,0.0,0.0,0.0,0.0
4808000,4728000,0.00013745975,0.0,8.8349785e-05,2.1808019e-06,0.0,5.760685e-06,0.0,0.0,0.0,0.0,0.0,0.0,0.0,3.2265584e-06,0.0,0.0,nan,0.0,0.0,0.0,0.0,5.09665e-06,inf,0.0,0.0,7.319879e-05,0.0,0.0,0.0,0.0,0.0,0.0,0.0,0.0
4816000,4736000,0.00013745975,0.0,8.8349785e-05,2.1808019e-06,0.0,5.760685e-06,0.0,0.0,0.0,0.0,0.0,0.0,0.0,3.2265584e-06,0.0,0.0,nan,0.0,0.0,0.0,0.0,5.09665e-06,inf,0.0,0.0,0.00042822136,0.0,0.0,0.0,0.0,0.0,0.0,0.0,0.0
4824000,4744000,0.00013745975,0.0,8.8349785e-05,2.1808019e-06,0.0,5.760685e-06,0.0,0.0,0.0,0.0,0.0,0.0,0.0,1.8943687e-05,0.0,0.0,nan,0.0,0.0,0.0,0.0,5.09665e-06,inf,0.0,0.0,0.00057872466,0.0,0.0,0.0,0.0,0.0,0.0,0.0,0.0
4832000,4752000,0.00013745975,0.0,8.8349785e-05,2.1808019e-06,0.0,5.760685e-06,0.0,0.0,0.0,0.0,0.0,0.0,0.0,1.8943687e-05,0.0,0.0,nan,0.0,0.0,0.0,0.0,3.554204e-08,inf,0.0,0.0,1.4270041e-06,0.0,0.0,0.0,0.0,0.0,0.0,0.0,0.0
4840000,4760000,0.00013745975,0.0,8.8349785e-05,2.1808019e-06,0.0,5.760685e-06,0.0,0.0,0.0,0.0,0.0,0.0,0.0,1.8943687e-05,0.0,0.0,nan,0.0,0.0,0.0,0.0,3.554204e-08,inf,0.0,0.0,0.0009850659,0.0,0.0,0.0,0.0,0.0,0.0,0.0,0.0
4848000,4768000,0.00013745975,0.0,8.8349785e-05,2.1808019e-06,0.0,5.760685e-06,0.0,0.0,0.0,0.0,0.0,0.0,0.0,1.8943687e-05,0.0,0.0,nan,0.0,0.0,0.0,0.0,3.554204e-08,inf,0.0,0.0,0.00017819149,0.0,0.0,0.0,0.0,0.0,0.0,0.0,0.0
4856000,4776000,0.00013745975,0.0,8.8349785e-05,2.1808019e-06,0.0,5.760685e-06,0.0,0.0,0.0,0.0,0.0,0.0,0.0,1.8943687e-05,0.0,0.0,nan,0.0,0.0,0.0,0.0,3.554204e-08,inf,0.0,0.0,0.00020812634,0.0,0.0,0.0,0.0,0.0,0.0,0.0,0.0
4864000,4784000,0.00013745975,0.0,8.8349785e-05,2.1808019e-06,0.0,5.760685e-06,0.0,0.0,0.0,0.0,0.0,0.0,0.0,1.8943687e-05,0.0,0.0,nan,0.0,0.0,0.0,0.0,3.554204e-08,inf,0.0,0.0,5.6892743e-05,0.0,0.0,0.0,0.0,0.0,0.0,0.0,0.0
4872000,4792000,0.00013745975,0.0,8.8349785e-05,2.1808019e-06,0.0,5.760685e-06,0.0,0.0,0.0,0.0,0.0,0.0,0.0,1.8943687e-05,0.0,0.0,nan,0.0,0.0,0.0,0.0,3.554204e-08,inf,0.0,0.0,0.0011066914,0.0,0.0,0.0,0.0,0.0,0.0,0.0,0.0
4880000,4800000,0.00013745975,0.0,8.8349785e-05,2.1808019e-06,0.0,5.760685e-06,0.0,0.0,0.0,0.0,0.0,0.0,0.0,3.4037357e-06,0.0,0.0,nan,0.0,0.0,0.0,0.0,3.554204e-08,inf,0.0,0.0,0.00048382854,0.0,0.0,0.0,0.0,0.0,0.0,0.0,0.0
4888000,4808000,0.00013745975,0.0,8.8349785e-05,2.1808019e-06,0.0,5.760685e-06,0.0,0.0,0.0,0.0,0.0,0.0,0.0,3.4037357e-06,0.0,0.0,nan,0.0,0.0,0.0,0.0,3.554204e-08,inf,0.0,0.0,0.000626904,0.0,0.0,0.0,0.0,0.0,0.0,0.0,0.0
4896000,4816000,0.00013745975,0.0,8.8349785e-05,2.1808019e-06,0.0,5.760685e-06,0.0,0.0,0.0,0.0,0.0,0.0,0.0,3.4037357e-06,0.0,0.0,nan,0.0,0.0,0.0,0.0,3.554204e-08,inf,0.0,0.0,0.0027029223,0.0,0.0,0.0,0.0,0.0,0.0,0.0,0.0
4904000,4824000,0.00013745975,0.0,8.8349785e-05,2.1808019e-06,0.0,5.760685e-06,0.0,0.0,0.0,0.0,0.0,0.0,0.0,3.4037357e-06,0.0,0.0,nan,0.0,0.0,0.0,0.0,0.00035004402,inf,0.0,0.0,0.0009003211,0.0,0.0,0.0,0.0,0.0,0.0,0.0,0.0
4912000,4832000,0.00013745975,0.0,8.8349785e-05,2.1808019e-06,0.0,5.760685e-06,0.0,0.0,0.0,0.0,0.0,0.0,0.0,3.4037357e-06,0.0,0.0,nan,0.0,0.0,0.0,0.0,0.00035004402,inf,0.0,0.0,0.00012906456,0.0,0.0,0.0,0.0,0.0,0.0,0.0,0.0
4920000,4840000,0.00013745975,0.0,8.8349785e-05,2.1808019e-06,0.0,5.760685e-06,0.0,0.0,0.0,0.0,0.0,0.0,0.0,3.4037357e-06,0.0,0.0,nan,0.0,0.0,0.0,0.0,0.00035004402,inf,0.0,0.0,0.00032640382,0.0,0.0,0.0,0.0,0.0,0.0,0.0,0.0
4928000,4848000,0.00013745975,0.0,8.8349785e-05,2.1808019e-06,0.0,5.760685e-06,0.0,0.0,0.0,0.0,0.0,0.0,0.0,3.4037357e-06,0.0,0.0,nan,0.0,0.0,0.0,0.0,0.00035004402,inf,0.0,0.0,0.0003594477,0.0,0.0,0.0,0.0,0.0,0.0,0.0,0.0
4936000,4856000,0.00013745975,0.0,8.8349785e-05,2.1808019e-06,0.0,5.760685e-06,0.0,0.0,0.0,0.0,0.0,0.0,0.0,3.4037357e-06,0.0,0.0,nan,0.0,0.0,0.0,0.0,0.00035004402,inf,0.0,0.0,8.4856816e-05,0.0,0.0,0.0,0.0,0.0,0.0,0.0,0.0
4944000,4864000,0.00013745975,0.0,8.8349785e-05,2.1808019e-06,0.0,5.760685e-06,0.0,0.0,0.0,0.0,0.0,0.0,0.0,4.049659e-06,0.0,0.0,nan,0.0,0.0,0.0,0.0,0.00035004402,inf,0.0,0.0,7.947382e-05,0.0,0.0,0.0,0.0,0.0,0.0,0.0,0.0
4952000,4872000,0.00013745975,0.0,8.8349785e-05,2.1808019e-06,0.0,5.760685e-06,0.0,0.0,0.0,0.0,0.0,0.0,0.0,4.049659e-06,0.0,0.0,nan,0.0,0.0,0.0,0.0,0.00035004402,inf,0.0,0.0,0.00021850334,0.0,0.0,0.0,0.0,0.0,0.0,0.0,0.0
4960000,4880000,0.00013745975,0.0,8.8349785e-05,2.1808019e-06,0.0,5.760685e-06,0.0,0.0,0.0,0.0,0.0,0.0,0.0,4.049659e-06,0.0,0.0,nan,0.0,0.0,0.0,0.0,0.00035004402,inf,0.0,0.0,0.0003630989,0.0,0.0,0.0,0.0,0.0,0.0,0.0,0.0
4968000,4888000,0.00013745975,0.0,8.8349785e-05,2.1808019e-06,0.0,5.760685e-06,0.0,0.0,0.0,0.0,0.0,0.0,0.0,4.049659e-06,0.0,0.0,nan,0.0,0.0,0.0,0.0,0.00035004402,inf,0.0,0.0,0.00011073827,0.0,0.0,0.0,0.0,0.0,0.0,0.0,0.0
4976000,4896000,0.00013745975,0.0,8.8349785e-05,2.1808019e-06,0.0,5.760685e-06,0.0,0.0,0.0,0.0,0.0,0.0,0.0,4.049659e-06,0.0,0.0,nan,0.0,0.0,0.0,0.0,2.1109581e-05,inf,0.0,0.0,9.530204e-05,0.0,0.0,0.0,0.0,0.0,0.0,0.0,0.0
4984000,4904000,0.00013745975,0.0,8.8349785e-05,2.1808019e-06,0.0,5.760685e-06,0.0,0.0,0.0,0.0,0.0,0.0,0.0,4.049659e-06,0.0,0.0,nan,0.0,0.0,0.0,0.0,2.1109581e-05,inf,0.0,0.0,0.00014326841,0.0,0.0,0.0,0.0,0.0,0.0,0.0,0.0
4992000,4912000,0.00013745975,0.0,8.8349785e-05,2.1808019e-06,0.0,5.760685e-06,0.0,0.0,0.0,0.0,0.0,0.0,0.0,4.049659e-06,0.0,0.0,nan,0.0,0.0,0.0,0.0,2.1109581e-05,inf,0.0,0.0,0.00022538476,0.0,0.0,0.0,0.0,0.0,0.0,0.0,0.0
5000000,4920000,0.00013745975,0.0,8.8349785e-05,2.1808019e-06,0.0,5.760685e-06,0.0,0.0,0.0,0.0,0.0,0.0,0.0,1.945942e-05,0.0,0.0,nan,0.0,0.0,0.0,0.0,2.1109581e-05,inf,0.0,0.0,0.00038708208,0.0,0.0,0.0,0.0,0.0,0.0,0.0,0.0
5008000,4928000,7.2223725e-07,0.0,8.626418e-06,2.335138e-06,0.0,6.5415475e-06,0.0,0.0,0.0,0.0,0.0,0.0,0.0,1.945942e-05,0.0,0.0,nan,0.0,0.0,0.0,0.0,2.1109581e-05,inf,0.0,0.0,0.0004582353,0.0,0.0,0.0,0.0,0.0,0.0,0.0,0.0
5016000,4936000,7.2223725e-07,0.0,8.626418e-06,2.335138e-06,0.0,6.5415475e-06,0.0,0.0,0.0,0.0,0.0,0.0,0.0,1.945942e-05,0.0,0.0,nan,0.0,0.0,0.0,0.0,2.1109581e-05,inf,0.0,0.0,0.00074400357,0.0,0.0,0.0,0.0,0.0,0.0,0.0,0.0
5024000,4944000,7.2223725e-07,0.0,8.626418e-06,2.335138e-06,0.0,6.5415475e-06,0.0,0.0,0.0,0.0,0.0,0.0,0.0,1.945942e-05,0.0,0.0,nan,0.0,0.0,0.0,0.0,2.1109581e-05,inf,0.0,0.0,0.00072661927,0.0,0.0,0.0,0.0,0.0,0.0,0.0,0.0
5032000,4952000,7.2223725e-07,0.0,8.626418e-06,2.335138e-06,0.0,6.5415475e-06,0.0,0.0,0.0,0.0,0.0,0.0,0.0,1.945942e-05,0.0,0.0,nan,0.0,0.0,0.0,0.0,2.1109581e-05,inf,0.0,0.0,8.274269e-06,0.0,0.0,0.0,0.0,0.0,0.0,0.0,0.0
5040000,4960000,7.2223725e-07,0.0,8.626418e-06,2.335138e-06,0.0,6.5415475e-06,0.0,0.0,0.0,0.0,0.0,0.0,0.0,1.945942e-05,0.0,0.0,nan,0.0,0.0,0.0,0.0,2.1109581e-05,inf,0.0,0.0,0.00013066707,0.0,0.0,0.0,0.0,0.0,0.0,0.0,0.0
5048000,4968000,7.2223725e-07,0.0,8.626418e-06,2.335138e-06,0.0,6.5415475e-06,0.0,0.0,0.0,0.0,0.0,0.0,0.0,1.945942e-05,0.0,0.0,nan,0.0,0.0,0.0,0.0,7.61848e-06,inf,0.0,0.0,7.117137e-05,0.0,0.0,0.0,0.0,0.0,0.0,0.0,0.0
5056000,4976000,7.2223725e-07,0.0,8.626418e-06,2.335138e-06,0.0,6.5415475e-06,0.0,0.0,0.0,0.0,0.0,0.0,0.0,1.945942e-05,0.0,0.0,nan,0.0,0.0,0.0,0.0,7.61848e-06,inf,0.0,0.0,0.0001578539,0.0,0.0,0.0,0.0,0.0,0.0,0.0,0.0
5064000,4984000,7.2223725e-07,0.0,8.626418e-06,2.335138e-06,0.0,6.5415475e-06,0.0,0.0,0.0,0.0,0.0,0.0,0.0,3.3580082e-07,0.0,0.0,nan,0.0,0.0,0.0,0.0,7.61848e-06,inf,0.0,0.0,0.00054948585,0.0,0.0,0.0,0.0,0.0,0.0,0.0,0.0
5072000,4992000,7.2223725e-07,0.0,8.626418e-06,2.335138e-06,0.0,6.5415475e-06,0.0,0.0,0.0,0.0,0.0,0.0,0.0,3.3580082e-07,0.0,0.0,nan,0.0,0.0,0.0,0.0,7.61848e-06,inf,0.0,0.0,0.00088240823,0.0,0.0,0.0,0.0,0.0,0.0,0.0,0.0
5080000,5000000,7.2223725e-07,0.0,8.626418e-06,2.335138e-06,0.0,6.5415475e-06,0.0,0.0,0.0,0.0,0.0,0.0,0.0,3.3580082e-07,0.0,0.0,nan,0.0,0.0,0.0,0.0,7.61848e-06,inf,0.0,0.0,6.849089e-05,0.0,0.0,0.0,0.0,0.0,0.0,0.0,0.0
5088000,5008000,7.2223725e-07,0.0,8.626418e-06,2.335138e-06,0.0,6.5415475e-06,0.0,0.0,0.0,0.0,0.0,0.0,0.0,3.3580082e-07,0.0,0.0,nan,0.0,0.0,0.0,0.0,7.61848e-06,inf,0.0,0.0,0.0003466485,0.0,0.0,0.0,0.0,0.0,0.0,0.0,0.0
5096000,5016000,7.2223725e-07,0.0,8.626418e-06,2.335138e-06,0.0,6.5415475e-06,0.0,0.0,0.0,0.0,0.0,0.0,0.0,3.3580082e-07,0.0,0.0,nan,0.0,0.0,0.0,0.0,7.61848e-06,inf,0.0,0.0,6.3028015e-06,0.0,0.0,0.0,0.0,0.0,0.0,0.0,0.0
5104000,5024000,7.2223725e-07,0.0,8.626418e-06,2.335138e-06,0.0,6.5415475e-06,0.0,0.0,0.0,0.0,0.0,0.0,0.0,3.3580082e-07,0.0,0.0,nan,0.0,0.0,0.0,0.0,7.61848e-06,inf,0.0,0.0,0.0007068501,0.0,0.0,0.0,0.0,0.0,0.0,0.0,0.0
5112000,5032000,7.2223725e-07,0.0,8.626418e-06,2.335138e-06,0.0,6.5415475e-06,0.0,0.0,0.0,0.0,0.0,0.0,0.0,3.3580082e-07,0.0,0.0,nan,0.0,0.0,0.0,0.0,7.61848e-06,inf,0.0,0.0,2.3452698e-05,0.0,0.0,0.0,0.0,0.0,0.0,0.0,0.0
5120000,5040000,7.2223725e-07,0.0,8.626418e-06,2.335138e-06,0.0,6.5415475e-06,0.0,0.0,0.0,0.0,0.0,0.0,0.0,1.6040854e-05,0.0,0.0,nan,0.0,0.0,0.0,0.0,0.00011929672,inf,0.0,0.0,0.000111737594,0.0,0.0,0.0,0.0,0.0,0.0,0.0,0.0
5128000,5048000,7.2223725e-07,0.0,8.626418e-06,2.335138e-06,0.0,6.5415475e-06,0.0,0.0,0.0,0.0,0.0,0.0,0.0,1.6040854e-05,0.0,0.0,nan,0.0,0.0,0.0,0.0,0.00011929672,inf,0.0,0.0,0.0007970641,0.0,0.0,0.0,0.0,0.0,0.0,0.0,0.0
5136000,5056000,7.2223725e-07,0.0,8.626418e-06,2.335138e-06,0.0,6.5415475e-06,0.0,0.0,0.0,0.0,0.0,0.0,0.0,1.6040854e-05,0.0,0.0,nan,0.0,0.0,0.0,0.0,0.00011929672,inf,0.0,0.0,0.0006329787,0.0,0.0,0.0,0.0,0.0,0.0,0.0,0.0
5144000,5064000,7.2223725e-07,0.0,8.626418e-06,2.335138e-06,0.0,6.5415475e-06,0.0,0.0,0.0,0.0,0.0,0.0,0.0,1.6040854e-05,0.0,0.0,nan,0.0,0.0,0.0,0.0,0.00011929672,inf,0.0,0.0,6.742039e-05,0.0,0.0,0.0,0.0,0.0,0.0,0.0,0.0
5152000,5072000,7.2223725e-07,0.0,8.626418e-06,2.335138e-06,0.0,6.5415475e-06,0.0,0.0,0.0,0.0,0.0,0.0,0.0,1.6040854e-05,0.0,0.0,nan,0.0,0.0,0.0,0.0,0.00011929672,inf,0.0,0.0,0.00018864726,0.0,0.0,0.0,0.0,0.0,0.0,0.0,0.0
5160000,5080000,7.2223725e-07,0.0,8.626418e-06,2.335138e-06,0.0,6.5415475e-06,0.0,0.0,0.0,0.0,0.0,0.0,0.0,1.6040854e-05,0.0,0.0,nan,0.0,0.0,0.0,0.0,0.00011929672,inf,0.0,0.0,3.7694637e-05,0.0,0.0,0.0,0.0,0.0,0.0,0.0,0.0
5168000,5088000,7.2223725e-07,0.0,8.626418e-06,2.335138e-06,0.0,6.5415475e-06,0.0,0.0,0.0,0.0,0.0,0.0,0.0,1.6040854e-05,0.0,0.0,nan,0.0,0.0,0.0,0.0,0.00011929672,inf,0.0,0.0,2.3370721e-06,0.0,0.0,0.0,0.0,0.0,0.0,0.0,0.0
5176000,5096000,7.2223725e-07,0.0,8.626418e-06,2.335138e-06,0.0,6.5415475e-06,0.0,0.0,0.0,0.0,0.0,0.0,0.0,1.6040854e-05,0.0,0.0,nan,0.0,0.0,0.0,0.0,0.00011929672,inf,0.0,0.0,0.0003838525,0.0,0.0,0.0,0.0,0.0,0.0,0.0,0.0
5184000,5104000,7.2223725e-07,0.0,8.626418e-06,2.335138e-06,0.0,6.5415475e-06,0.0,0.0,0.0,0.0,0.0,0.0,0.0,4.8725014e-06,0.0,0.0,nan,0.0,0.0,0.0,0.0,0.00011929672,inf,0.0,0.0,9.112153e-07,0.0,0.0,0.0,0.0,0.0,0.0,0.0,0.0
5192000,5112000,7.2223725e-07,0.0,8.626418e-06,2.335138e-06,0.0,6.5415475e-06,0.0,0.0,0.0,0.0,0.0,0.0,0.0,4.8725014e-06,0.0,0.0,nan,0.0,0.0,0.0,0.0,3.1986858e-06,inf,0.0,0.0,0.00058080076,0.0,0.0,0.0,0.0,0.0,0.0,0.0,0.0
5200000,5120000,7.2223725e-07,0.0,8.626418e-06,2.335138e-06,0.0,6.5415475e-06,0.0,0.0,0.0,0.0,0.0,0.0,0.0,4.8725014e-06,0.0,0.0,nan,0.0,0.0,0.0,0.0,3.1986858e-06,inf,0.0,0.0,0.00043587649,0.0,0.0,0.0,0.0,0.0,0.0,0.0,0.0
5208000,5128000,7.2223725e-07,0.0,8.626418e-06,2.335138e-06,0.0,6.5415475e-06,0.0,0.0,0.0,0.0,0.0,0.0,0.0,4.8725014e-06,0.0,0.0,nan,0.0,0.0,0.0,0.0,3.1986858e-06,inf,0.0,0.0,0.00037565446,0.0,0.0,0.0,0.0,0.0,0.0,0.0,0.0
5216000,5136000,7.2223725e-07,0.0,8.626418e-06,2.335138e-06,0.0,6.5415475e-06,0.0,0.0,0.0,0.0,0.0,0.0,0.0,4.8725014e-06,0.0,0.0,nan,0.0,0.0,0.0,0.0,3.1986858e-06,inf,0.0,0.0,0.00042488234,0.0,0.0,0.0,0.0,0.0,0.0,0.0,0.0
5224000,5144000,7.2223725e-07,0.0,8.626418e-06,2.335138e-06,0.0,6.5415475e-06,0.0,0.0,0.0,0.0,0.0,0.0,0.0,4.8725014e-06,0.0,0.0,nan,0.0,0.0,0.0,0.0,3.1986858e-06,inf,0.0,0.0,1.1796376e-05,0.0,0.0,0.0,0.0,0.0,0.0,0.0,0.0
5232000,5152000,7.2223725e-07,0.0,8.626418e-06,2.335138e-06,0.0,6.5415475e-06,0.0,0.0,0.0,0.0,0.0,0.0,0.0,4.8725014e-06,0.0,0.0,nan,0.0,0.0,0.0,0.0,3.1986858e-06,inf,0.0,0.0,0.00078030216,0.0,0.0,0.0,0.0,0.0,0.0,0.0,0.0
5240000,5160000,7.2223725e-07,0.0,8.626418e-06,2.335138e-06,0.0,6.5415475e-06,0.0,0.0,0.0,0.0,0.0,0.0,0.0,1.5731487e-06,0.0,0.0,nan,0.0,0.0,0.0,0.0,3.1986858e-06,inf,0.0,0.0,0.00014829217,0.0,0.0,0.0,0.0,0.0,0.0,0.0,0.0
5248000,5168000,7.2223725e-07,0.0,8.626418e-06,2.335138e-06,0.0,6.5415475e-06,0.0,0.0,0.0,0.0,0.0,0.0,0.0,1.5731487e-06,0.0,0.0,nan,0.0,0.0,0.0,0.0,3.1986858e-06,inf,0.0,0.0,0.00020444387,0.0,0.0,0.0,0.0,0.0,0.0,0.0,0.0
5256000,5176000,7.2223725e-07,0.0,8.626418e-06,2.335138e-06,0.0,6.5415475e-06,0.0,0.0,0.0,0.0,0.0,0.0,0.0,1.5731487e-06,0.0,0.0,nan,0.0,0.0,0.0,0.0,3.1986858e-06,inf,0.0,0.0,0.00049252773,0.0,0.0,0.0,0.0,0.0,0.0,0.0,0.0
5264000,5184000,7.2223725e-07,0.0,8.626418e-06,2.335138e-06,0.0,6.5415475e-06,0.0,0.0,0.0,0.0,0.0,0.0,0.0,1.5731487e-06,0.0,0.0,nan,0.0,0.0,0.0,0.0,0.00022741247,inf,0.0,0.0,8.287737e-06,0.0,0.0,0.0,0.0,0.0,0.0,0.0,0.0
5272000,5192000,7.2223725e-07,0.0,8.626418e-06,2.335138e-06,0.0,6.5415475e-06,0.0,0.0,0.0,0.0,0.0,0.0,0.0,1.5731487e-06,0.0,0.0,nan,0.0,0.0,0.0,0.0,0.00022741247,inf,0.0,0.0,0.0005050193,0.0,0.0,0.0,0.0,0.0,0.0,0.0,0.0
5280000,5200000,7.2223725e-07,0.0,8.626418e-06,2.335138e-06,0.0,6.5415475e-06,0.0,0.0,0.0,0.0,0.0,0.0,0.0,1.5731487e-06,0.0,0.0,nan,0.0,0.0,0.0,0.0,0.00022741247,inf,0.0,0.0,0.00084955053,0.0,0.0,0.0,0.0,0.0,0.0,0.0,0.0
5288000,5208000,7.2223725e-07,0.0,8.626418e-06,2.335138e-06,0.0,6.5415475e-06,0.0,0.0,0.0,0.0,0.0,0.0,0.0,1.5731487e-06,0.0,0.0,nan,0.0,0.0,0.0,0.0,0.00022741247,inf,0.0,0.0,0.00070619275,0.0,0.0,0.0,0.0,0.0,0.0,0.0,0.0
5296000,5216000,7.2223725e-07,0.0,8.626418e-06,2.335138e-06,0.0,6.5415475e-06,0.0,0.0,0.0,0.0,0.0,0.0,0.0,1.5731487e-06,0.0,0.0,nan,0.0,0.0,0.0,0.0,0.00022741247,inf,0.0,0.0,0.0021659508,0.0,0.0,0.0,0.0,0.0,0.0,0.0,0.0
5304000,5224000,7.2223725e-07,0.0,8.626418e-06,2.335138e-06,0.0,6.5415475e-06,0.0,0.0,0.0,0.0,0.0,0.0,0.0,3.0456526e-06,0.0,0.0,nan,0.0,0.0,0.0,0.0,0.00022741247,inf,0.0,0.0,0.004223799,0.0,0.0,0.0,0.0,0.0,0.0,0.0,0.0
5312000,5232000,7.2223725e-07,0.0,8.626418e-06,2.335138e-06,0.0,6.5415475e-06,0.0,0.0,0.0,0.0,0.0,0.0,0.0,3.0456526e-06,0.0,0.0,nan,0.0,0.0,0.0,0.0,0.00022741247,inf,0.0,0.0,0.0006455519,0.0,0.0,0.0,0.0,0.0,0.0,0.0,0.0
5320000,5240000,7.2223725e-07,0.0,8.626418e-06,2.335138e-06,0.0,6.5415475e-06,0.0,0.0,0.0,0.0,0.0,0.0,0.0,3.0456526e-06,0.0,0.0,nan,0.0,0.0,0.0,0.0,0.00022741247,inf,0.0,0.0,9.112547e-05,0.0,0.0,0.0,0.0,0.0,0.0,0.0,0.0
5328000,5248000,7.2223725e-07,0.0,8.626418e-06,2.335138e-06,0.0,6.5415475e-06,0.0,0.0,0.0,0.0,0.0,0.0,0.0,3.0456526e-06,0.0,0.0,nan,0.0,0.0,0.0,0.0,0.00022741247,inf,0.0,0.0,6.0857754e-05,0.0,0.0,0.0,0.0,0.0,0.0,0.0,0.0
5336000,5256000,7.2223725e-07,0.0,8.626418e-06,2.335138e-06,0.0,6.5415475e-06,0.0,0.0,0.0,0.0,0.0,0.0,0.0,3.0456526e-06,0.0,0.0,nan,0.0,0.0,0.0,0.0,0.00016667332,inf,0.0,0.0,0.00012775368,0.0,0.0,0.0,0.0,0.0,0.0,0.0,0.0
5344000,5264000,7.2223725e-07,0.0,8.626418e-06,2.335138e-06,0.0,6.5415475e-06,0.0,0.0,0.0,0.0,0.0,0.0,0.0,3.0456526e-06,0.0,0.0,nan,0.0,0.0,0.0,0.0,0.00016667332,inf,0.0,0.0,0.0002188381,0.0,0.0,0.0,0.0,0.0,0.0,0.0,0.0
5352000,5272000,7.2223725e-07,0.0,8.626418e-06,2.335138e-06,0.0,6.5415475e-06,0.0,0.0,0.0,0.0,0.0,0.0,0.0,3.0456526e-06,0.0,0.0,nan,0.0,0.0,0.0,0.0,0.00016667332,inf,0.0,0.0,0.0014875919,0.0,0.0,0.0,0.0,0.0,0.0,0.0,0.0
5360000,5280000,7.2223725e-07,0.0,8.626418e-06,2.335138e-06,0.0,6.5415475e-06,0.0,0.0,0.0,0.0,0.0,0.0,0.0,4.7418762e-08,0.0,0.0,nan,0.0,0.0,0.0,0.0,0.00016667332,inf,0.0,0.0,0.00026484378,0.0,0.0,0.0,0.0,0.0,0.0,0.0,0.0
5368000,5288000,7.2223725e-07,0.0,8.626418e-06,2.335138e-06,0.0,6.5415475e-06,0.0,0.0,0.0,0.0,0.0,0.0,0.0,4.7418762e-08,0.0,0.0,nan,0.0,0.0,0.0,0.0,0.00016667332,inf,0.0,0.0,2.4133878e-06,0.0,0.0,0.0,0.0,0.0,0.0,0.0,0.0
5376000,5296000,7.2223725e-07,0.0,8.626418e-06,2.335138e-06,0.0,6.5415475e-06,0.0,0.0,0.0,0.0,0.0,0.0,0.0,4.7418762e-08,0.0,0.0,nan,0.0,0.0,0.0,0.0,0.00016667332,inf,0.0,0.0,0.00010133771,0.0,0.0,0.0,0.0,0.0,0.0,0.0,0.0
5384000,5304000,7.2223725e-07,0.0,8.626418e-06,2.335138e-06,0.0,6.5415475e-06,0.0,0.0,0.0,0.0,0.0,0.0,0.0,4.7418762e-08,0.0,0.0,nan,0.0,0.0,0.0,0.0,0.00016667332,inf,0.0,0.0,0.00047132914,0.0,0.0,0.0,0.0,0.0,0.0,0.0,0.0
5392000,5312000,7.2223725e-07,0.0,8.626418e-06,2.335138e-06,0.0,6.5415475e-06,0.0,0.0,0.0,0.0,0.0,0.0,0.0,4.7418762e-08,0.0,0.0,nan,0.0,0.0,0.0,0.0,0.00016667332,inf,0.0,0.0,0.00093452184,0.0,0.0,0.0,0.0,0.0,0.0,0.0,0.0
5400000,5320000,7.2223725e-07,0.0,8.626418e-06,2.335138e-06,0.0,6.5415475e-06,0.0,0.0,0.0,0.0,0.0,0.0,0.0,4.7418762e-08,0.0,0.0,nan,0.0,0.0,0.0,0.0,0.00016667332,inf,0.0,0.0,0.00035247533,0.0,0.0,0.0,0.0,0.0,0.0,0.0,0.0
5408000,5328000,4.4257038e-05,0.0,0.0003679073,2.2678355e-06,0.0,5.6950607e-06,0.0,0.0,0.0,0.0,0.0,0.0,0.0,4.7418762e-08,0.0,0.0,nan,0.0,0.0,0.0,0.0,0.00016932088,inf,0.0,0.0,7.535244e-05,0.0,0.0,0.0,0.0,0.0,0.0,0.0,0.0
5416000,5336000,4.4257038e-05,0.0,0.0003679073,2.2678355e-06,0.0,5.6950607e-06,0.0,0.0,0.0,0.0,0.0,0.0,0.0,4.7418762e-08,0.0,0.0,nan,0.0,0.0,0.0,0.0,0.00016932088,inf,0.0,0.0,0.00038467915,0.0,0.0,0.0,0.0,0.0,0.0,0.0,0.0
5424000,5344000,4.4257038e-05,0.0,0.0003679073,2.2678355e-06,0.0,5.6950607e-06,0.0,0.0,0.0,0.0,0.0,0.0,0.0,1.4641826e-06,0.0,0.0,nan,0.0,0.0,0.0,0.0,0.00016932088,inf,0.0,0.0,0.00080224,0.0,0.0,0.0,0.0,0.0,0.0,0.0,0.0
5432000,5352000,4.4257038e-05,0.0,0.0003679073,2.2678355e-06,0.0,5.6950607e-06,0.0,0.0,0.0,0.0,0.0,0.0,0.0,1.4641826e-06,0.0,0.0,nan,0.0,0.0,0.0,0.0,0.00016932088,inf,0.0,0.0,0.00019510972,0.0,0.0,0.0,0.0,0.0,0.0,0.0,0.0
5440000,5360000,4.4257038e-05,0.0,0.0003679073,2.2678355e-06,0.0,5.6950607e-06,0.0,0.0,0.0,0.0,0.0,0.0,0.0,1.4641826e-06,0.0,0.0,nan,0.0,0.0,0.0,0.0,0.00016932088,inf,0.0,0.0,0.0005395824,0.0,0.0,0.0,0.0,0.0,0.0,0.0,0.0
5448000,5368000,4.4257038e-05,0.0,0.0003679073,2.2678355e-06,0.0,5.6950607e-06,0.0,0.0,0.0,0.0,0.0,0.0,0.0,1.4641826e-06,0.0,0.0,nan,0.0,0.0,0.0,0.0,0.00016932088,inf,0.0,0.0,0.0005951423,0.0,0.0,0.0,0.0,0.0,0.0,0.0,0.0
5456000,5376000,4.4257038e-05,0.0,0.0003679073,2.2678355e-06,0.0,5.6950607e-06,0.0,0.0,0.0,0.0,0.0,0.0,0.0,1.4641826e-06,0.0,0.0,nan,0.0,0.0,0.0,0.0,0.00016932088,inf,0.0,0.0,0.0003287306,0.0,0.0,0.0,0.0,0.0,0.0,0.0,0.0
5464000,5384000,4.4257038e-05,0.0,0.0003679073,2.2678355e-06,0.0,5.6950607e-06,0.0,0.0,0.0,0.0,0.0,0.0,0.0,1.4641826e-06,0.0,0.0,nan,0.0,0.0,0.0,0.0,0.00016932088,inf,0.0,0.0,5.575626e-05,0.0,0.0,0.0,0.0,0.0,0.0,0.0,0.0
5472000,5392000,4.4257038e-05,0.0,0.0003679073,2.2678355e-06,0.0,5.6950607e-06,0.0,0.0,0.0,0.0,0.0,0.0,0.0,1.4641826e-06,0.0,0.0,nan,0.0,0.0,0.0,0.0,0.00016932088,inf,0.0,0.0,0.0034812328,0.0,0.0,0.0,0.0,0.0,0.0,0.0,0.0
