timestamp,timestamp_sample,gps_hvel[0],gps_hvel[1],gps_vvel,gps_hpos[0],gps_hpos[1],gps_vpos,ev_hvel[0],ev_hvel[1],ev_vvel,ev_hpos[0],ev_hpos[1],ev_vpos,rng_vpos,baro_vpos,aux_hvel[0],aux_hvel[1],aux_vvel,flow[0],flow[1],terr_flow[0],terr_flow[1],heading,mag_field[0],mag_field[1],mag_field[2],gravity[0],gravity[1],gravity[2],drag[0],drag[1],airspeed,beta,hagl,hagl_rate
3544000,3464000,0.110578135,0.110580035,0.20386405,101.0,101.0,101.0,0.0,0.0,0.0,0.0,0.0,0.0,0.0,62.249985,0.0,0.0,nan,0.0,0.0,0.0,0.0,0.0,0.0,0.0,0.0,1.1122994,1.112327,1.0001087,0.0,0.0,0.0,0.0,0.0,0.0
4040000,3960000,0.100639395,0.10064162,0.20363148,1.0002395,1.0002396,34.33333,0.0,0.0,0.0,0.0,0.0,0.0,0.0,20.47152,0.0,0.0,nan,0.0,0.0,0.0,0.0,0.0,0.0,0.0,0.0,1.2280666,1.2281115,1.0002278,0.0,0.0,0.0,0.0,0.0,0.0
4544000,4464000,0.09669334,0.09669349,0.20638606,1.0003103,1.0003103,3.7283819,0.0,0.0,0.0,0.0,0.0,0.0,0.0,13.541339,0.0,0.0,nan,0.0,0.0,0.0,0.0,0.0,0.0,0.0,0.0,1.0855021,1.0855091,1.0000886,0.0,0.0,0.0,0.0,0.0,0.0
5040000,4960000,0.09267161,0.09267157,0.21063042,1.0001594,1.0001594,1.6639848,0.0,0.0,0.0,0.0,0.0,0.0,0.0,12.951976,0.0,0.0,nan,0.0,0.0,0.0,0.0,0.0,0.0,0.0,0.0,1.0748383,1.0748448,1.0000759,0.0,0.0,0.0,0.0,0.0,0.0
5544000,5464000,0.09183453,0.09183452,0.2109056,1.0001272,1.0001272,1.5029597,0.0,0.0,0.0,0.0,0.0,0.0,0.0,12.716167,0.0,0.0,nan,0.0,0.0,0.0,0.0,0.0,0.0,0.0,0.0,1.0648596,1.0648667,1.0000647,0.0,0.0,0.0,0.0,0.0,0.0
6048000,5968000,0.09137536,0.09137537,0.21056826,1.0001056,1.0001056,1.392902,0.0,0.0,0.0,0.0,0.0,0.0,0.0,12.609747,0.0,0.0,nan,0.0,0.0,0.0,0.0,0.0,0.0,0.0,0.0,1.0633225,1.0633276,1.0000623,0.0,0.0,0.0,0.0,0.0,0.0
6544000,6464000,0.0911124,0.09111241,0.2100249,1.000091,1.000091,1.323246,0.0,0.0,0.0,0.0,0.0,0.0,0.0,12.544697,0.0,0.0,nan,0.0,0.0,0.0,0.0,0.0,0.0,0.0,0.0,1.062438,1.0624436,1.0000604,0.0,0.0,0.0,0.0,0.0,0.0
7040000,6960000,0.09084781,0.090847775,0.21018966,1.000073,1.000073,1.2464645,0.0,0.0,0.0,0.0,0.0,0.0,0.0,12.495515,0.0,0.0,nan,0.0,0.0,0.0,0.0,0.0,0.0,0.0,0.0,1.0611229,1.0611302,1.0000584,0.0,0.0,0.0,0.0,0.0,0.0
7544000,7464000,0.09075888,0.090758845,0.20956442,1.0000662,1.0000662,1.2189786,0.0,0.0,0.0,0.0,0.0,0.0,0.0,12.465302,0.0,0.0,nan,0.0,0.0,0.0,0.0,0.0,0.0,0.0,0.0,1.0609484,1.060955,1.0000579,0.0,0.0,0.0,0.0,0.0,0.0
8040000,7960000,0.09125103,0.09125097,0.20905147,1.0001622,1.0001622,1.1975479,0.0,0.0,0.0,0.0,0.0,0.0,0.0,12.4402485,0.0,0.0,nan,0.0,0.0,0.0,0.0,0.0,0.0,0.0,0.0,1.0604264,1.0604321,1.0000569,0.0,0.0,0.0,0.0,0.0,0.0
8544000,8464000,0.091140434,0.09114039,0.20865402,1.0001463,1.0001463,1.1804284,0.0,0.0,0.0,0.0,0.0,0.0,0.0,12.421915,0.0,0.0,nan,0.0,0.0,0.0,0.0,0.0,0.0,0.0,0.0,1.0603397,1.0603449,1.0000553,0.0,0.0,0.0,0.0,0.0,0.0
9040000,8960000,0.09099503,0.09099514,0.20816131,1.0001258,1.0001258,1.6369891,0.0,0.0,0.0,0.0,0.0,0.0,0.0,12.928142,0.0,0.0,nan,0.0,0.0,0.0,0.0,0.0,0.0,0.0,0.0,1.0602679,1.0602727,1.0000546,0.0,0.0,0.0,0.0,0.0,0.0
9544000,9464000,0.09091203,0.09091212,0.20796666,1.0001112,1.0001112,1.3194616,0.0,0.0,0.0,0.0,0.0,0.0,0.0,12.502901,0.0,0.0,nan,0.0,0.0,0.0,0.0,0.0,0.0,0.0,0.0,1.0599923,1.0599962,1.0000534,0.0,0.0,0.0,0.0,0.0,0.0
10040000,9960000,0.090856396,0.09085643,0.20783122,1.0001023,1.0001023,1.2142677,0.0,0.0,0.0,0.0,0.0,0.0,0.0,12.443979,0.0,0.0,nan,0.0,0.0,0.0,0.0,0.0,0.0,0.0,0.0,1.0599734,1.0599765,1.0000521,0.0,0.0,0.0,0.0,0.0,0.0
10544000,10464000,0.09080706,0.090807065,0.20771936,1.0000944,1.0000944,1.1622032,0.0,0.0,0.0,0.0,0.0,0.0,0.0,12.416756,0.0,0.0,nan,0.0,0.0,0.0,0.0,0.0,0.0,0.0,0.0,1.0598131,1.059816,1.0000517,0.0,0.0,0.0,0.0,0.0,0.0
11048000,10968000,0.09072228,0.09072229,0.20753749,1.0000808,1.0000808,1.1122625,0.0,0.0,0.0,0.0,0.0,0.0,0.0,12.390812,0.0,0.0,nan,0.0,0.0,0.0,0.0,0.0,0.0,0.0,0.0,1.0598214,1.059825,1.0000507,0.0,0.0,0.0,0.0,0.0,0.0
11544000,11464000,0.09068494,0.09068497,0.20746082,1.000075,1.000075,1.0979313,0.0,0.0,0.0,0.0,0.0,0.0,0.0,12.385999,0.0,0.0,nan,0.0,0.0,0.0,0.0,0.0,0.0,0.0,0.0,1.0598418,1.0598453,1.0000501,0.0,0.0,0.0,0.0,0.0,0.0
12040000,11960000,0.09065018,0.09065021,0.20739277,1.0000696,1.0000696,1.0874697,0.0,0.0,0.0,0.0,0.0,0.0,0.0,12.383915,0.0,0.0,nan,0.0,0.0,0.0,0.0,0.0,0.0,0.0,0.0,1.0597513,1.0597546,1.0000489,0.0,0.0,0.0,0.0,0.0,0.0
12544000,12464000,0.09064156,0.09064158,0.20802233,1.0000676,1.0000676,1.0805771,0.0,0.0,0.0,0.0,0.0,0.0,0.0,12.383384,0.0,0.0,nan,0.0,0.0,0.0,0.0,0.0,0.0,0.0,0.0,1.0597681,1.0597723,1.0000486,0.0,0.0,0.0,0.0,0.0,0.0
13040000,12960000,0.090931185,0.09093115,0.20785944,1.0001374,1.0001374,1.0696381,0.0,0.0,0.0,0.0,0.0,0.0,0.0,12.384954,0.0,0.0,nan,0.0,0.0,0.0,0.0,0.0,0.0,0.0,0.0,1.0596602,1.0596646,1.0000482,0.0,0.0,0.0,0.0,0.0,0.0
13544000,13464000,0.090892866,0.09089278,0.20779693,1.000128,1.000128,1.0661501,0.0,0.0,0.0,0.0,0.0,0.0,0.0,12.382801,0.0,0.0,nan,0.0,0.0,0.0,0.0,0.0,0.0,0.0,0.0,1.0596647,1.0596683,1.000048,0.0,0.0,0.0,0.0,0.0,0.0
14048000,13968000,0.09085674,0.090856604,0.20773654,1.0001192,1.0001192,1.0629796,0.0,0.0,0.0,0.0,0.0,0.0,0.0,12.385529,0.0,0.0,nan,0.0,0.0,0.0,0.0,0.0,0.0,0.0,0.0,1.0596682,1.0596722,1.0000477,0.0,0.0,0.0,0.0,0.0,0.0
14544000,14464000,0.090822086,0.090821885,0.2076821,1.000111,1.000111,1.0603592,0.0,0.0,0.0,0.0,0.0,0.0,0.0,12.38841,0.0,0.0,nan,0.0,0.0,0.0,0.0,0.0,0.0,0.0,0.0,1.0595654,1.0595694,1.0000465,0.0,0.0,0.0,0.0,0.0,0.0
15048000,14968000,0.09075742,0.09075725,0.20757028,1.0000963,1.0000963,1.0565888,0.0,0.0,0.0,0.0,0.0,0.0,0.0,12.388074,0.0,0.0,nan,0.0,0.0,0.0,0.0,0.0,0.0,0.0,0.0,1.0595666,1.059571,1.0000454,0.0,0.0,0.0,0.0,0.0,0.0
15544000,15464000,0.09072666,0.09072648,0.20752071,1.0000898,1.0000898,1.0550096,0.0,0.0,0.0,0.0,0.0,0.0,0.0,12.39099,0.0,0.0,nan,0.0,0.0,0.0,0.0,0.0,0.0,0.0,0.0,1.0594772,1.0594817,1.0000437,0.0,0.0,0.0,0.0,0.0,0.0
16040000,15960000,0.09069703,0.09069684,0.20746823,1.0000837,1.0000837,1.053895,0.0,0.0,0.0,0.0,0.0,0.0,0.0,12.391957,0.0,0.0,nan,0.0,0.0,0.0,0.0,0.0,0.0,0.0,0.0,1.0594858,1.0594906,1.0000427,0.0,0.0,0.0,0.0,0.0,0.0
16544000,16464000,0.09066844,0.090668276,0.20741728,1.0000781,1.0000781,1.0527283,0.0,0.0,0.0,0.0,0.0,0.0,0.0,12.3957,0.0,0.0,nan,0.0,0.0,0.0,0.0,0.0,0.0,0.0,0.0,1.0595036,1.0595084,1.0000417,0.0,0.0,0.0,0.0,0.0,0.0
17040000,16960000,0.10023118,0.100231744,0.20869367,1.000669,1.0006689,1.0542133,0.0,0.0,0.0,0.0,0.0,0.0,0.0,12.397178,0.0,0.0,nan,0.0,0.0,0.0,0.0,0.0,0.0,0.0,0.0,1.0596018,1.0596068,1.0000421,0.0,0.0,0.0,0.0,0.0,0.0
17544000,17464000,0.12885942,0.12886302,0.2101976,1.0066786,1.0066788,1.0578725,0.0,0.0,0.0,0.0,0.0,0.0,0.0,12.404194,0.0,0.0,nan,0.0,0.0,0.0,0.0,0.0,0.0,0.0,0.0,1.0597897,1.0597942,1.0000417,0.0,0.0,0.0,0.0,0.0,0.0
18040000,17960000,0.17660627,0.17661612,0.21183714,1.0316591,1.0316615,1.0630647,0.0,0.0,0.0,0.0,0.0,0.0,0.0,12.4149,0.0,0.0,nan,0.0,0.0,0.0,0.0,0.0,0.0,0.0,0.0,1.0599324,1.0599369,1.0000407,0.0,0.0,0.0,0.0,0.0,0.0
18544000,18464000,0.24337871,0.24339718,0.21358082,1.0983052,1.098315,1.0702322,0.0,0.0,0.0,0.0,0.0,0.0,0.0,12.426189,0.0,0.0,nan,0.0,0.0,0.0,0.0,0.0,0.0,0.0,0.0,1.0599954,1.0600002,1.0000404,0.0,0.0,0.0,0.0,0.0,0.0
19040000,18960000,0.43170932,0.43175873,0.21694598,1.4892002,1.4892703,1.0881742,0.0,0.0,0.0,0.0,0.0,0.0,0.0,12.434838,0.0,0.0,nan,0.0,0.0,0.0,0.0,0.0,0.0,0.0,0.0,1.0598482,1.0598549,1.0000398,0.0,0.0,0.0,0.0,0.0,0.0
19544000,19464000,0.5509063,0.5509933,0.21840188,1.8944407,1.8946002,1.0985138,0.0,0.0,0.0,0.0,0.0,0.0,0.0,12.447688,0.0,0.0,nan,0.0,0.0,0.0,0.0,0.0,0.0,0.0,0.0,1.0588193,1.0588032,1.0000211,0.0,0.0,0.0,0.0,0.0,0.0
20048000,19968000,0.68665695,0.68686914,0.21946532,2.4948769,2.4952393,1.1089721,0.0,0.0,0.0,0.0,0.0,0.0,0.0,12.464547,0.0,0.0,nan,0.0,0.0,0.0,0.0,0.0,0.0,0.0,0.0,1.0574033,1.0574155,1.0000105,0.0,0.0,0.0,0.0,0.0,0.0
20544000,20464000,0.83187103,0.8321798,0.22043544,3.3198178,3.3205817,1.1188717,0.0,0.0,0.0,0.0,0.0,0.0,0.0,12.478384,0.0,0.0,nan,0.0,0.0,0.0,0.0,0.0,0.0,0.0,0.0,1.0534465,1.0534456,1.0001142,0.0,0.0,0.0,0.0,0.0,0.0
21040000,20960000,1.0573096,1.0577434,0.22153239,5.561431,5.5636425,1.1368636,0.0,0.0,0.0,0.0,0.0,0.0,0.0,12.47875,0.0,0.0,nan,0.0,0.0,0.0,0.0,0.0,0.0,0.0,0.0,1.0496365,1.0496358,1.0001514,0.0,0.0,0.0,0.0,0.0,0.0
21544000,21464000,1.1247232,1.1251847,0.22170185,6.8270073,6.8300714,1.143025,0.0,0.0,0.0,0.0,0.0,0.0,0.0,12.488571,0.0,0.0,nan,0.0,0.0,0.0,0.0,0.0,0.0,0.0,0.0,1.0450082,1.0450137,1.0001045,0.0,0.0,0.0,0.0,0.0,0.0
22040000,21960000,1.1518507,1.1523048,0.22165751,8.040449,8.044199,1.1476566,0.0,0.0,0.0,0.0,0.0,0.0,0.0,12.501052,0.0,0.0,nan,0.0,0.0,0.0,0.0,0.0,0.0,0.0,0.0,1.036974,1.0369817,1.0000571,0.0,0.0,0.0,0.0,0.0,0.0
22544000,22464000,1.1400172,1.1404245,0.22161995,9.096182,9.100245,1.1508054,0.0,0.0,0.0,0.0,0.0,0.0,0.0,12.508289,0.0,0.0,nan,0.0,0.0,0.0,0.0,0.0,0.0,0.0,0.0,1.0316513,1.0316604,1.000032,0.0,0.0,0.0,0.0,0.0,0.0
23040000,22960000,1.0238156,1.0240866,0.22104336,10.505296,10.508922,1.1555817,0.0,0.0,0.0,0.0,0.0,0.0,0.0,12.515157,0.0,0.0,nan,0.0,0.0,0.0,0.0,0.0,0.0,0.0,0.0,1.0242958,1.0243001,1.000015,0.0,0.0,0.0,0.0,0.0,0.0
23544000,23464000,1.0432605,1.0435181,0.22094281,11.931462,11.935252,1.1557734,0.0,0.0,0.0,0.0,0.0,0.0,0.0,12.502112,0.0,0.0,nan,0.0,0.0,0.0,0.0,0.0,0.0,0.0,0.0,1.0202688,1.0202714,1.0000068,0.0,0.0,0.0,0.0,0.0,0.0
24040000,23960000,0.96002936,0.96021616,0.2207012,12.135076,12.138183,1.1573356,0.0,0.0,0.0,0.0,0.0,0.0,0.0,12.506895,0.0,0.0,nan,0.0,0.0,0.0,0.0,0.0,0.0,0.0,0.0,1.0169185,1.0169188,1.0000054,0.0,0.0,0.0,0.0,0.0,0.0
24544000,24464000,0.8757452,0.87586963,0.22051793,12.156157,12.158631,1.1565428,0.0,0.0,0.0,0.0,0.0,0.0,0.0,12.51416,0.0,0.0,nan,0.0,0.0,0.0,0.0,0.0,0.0,0.0,0.0,1.0129364,1.0129356,1.0000068,0.0,0.0,0.0,0.0,0.0,0.0
25048000,24968000,0.7224902,0.7225313,0.22048846,11.838356,11.839836,1.1565503,0.0,0.0,0.0,0.0,0.0,0.0,0.0,12.49638,0.0,0.0,nan,0.0,0.0,0.0,0.0,0.0,0.0,0.0,0.0,1.0110327,1.0110319,1.0000095,0.0,0.0,0.0,0.0,0.0,0.0
25544000,25464000,0.6572143,0.65723443,0.22047347,11.574916,11.57603,1.1555701,0.0,0.0,0.0,0.0,0.0,0.0,0.0,12.50249,0.0,0.0,nan,0.0,0.0,0.0,0.0,0.0,0.0,0.0,0.0,1.0088077,1.0088073,1.0000081,0.0,0.0,0.0,0.0,0.0,0.0
26040000,25960000,0.59975386,0.5997608,0.22049749,11.277719,11.27855,1.1546838,0.0,0.0,0.0,0.0,0.0,0.0,0.0,12.505972,0.0,0.0,nan,0.0,0.0,0.0,0.0,0.0,0.0,0.0,0.0,1.0078198,1.0078186,1.0000067,0.0,0.0,0.0,0.0,0.0,0.0
26544000,26464000,0.5496274,0.5496254,0.22055136,10.964161,10.964784,1.1539173,0.0,0.0,0.0,0.0,0.0,0.0,0.0,12.510394,0.0,0.0,nan,0.0,0.0,0.0,0.0,0.0,0.0,0.0,0.0,1.0066382,1.0066377,1.0000056,0.0,0.0,0.0,0.0,0.0,0.0
27040000,26960000,0.46927854,0.46926743,0.2208465,10.332397,10.33275,1.1545645,0.0,0.0,0.0,0.0,0.0,0.0,0.0,12.496806,0.0,0.0,nan,0.0,0.0,0.0,0.0,0.0,0.0,0.0,0.0,1.0061746,1.0061736,1.0000045,0.0,0.0,0.0,0.0,0.0,0.0
27544000,27464000,0.437747,0.4377324,0.22092414,10.027792,10.028057,1.1540335,0.0,0.0,0.0,0.0,0.0,0.0,0.0,12.501201,0.0,0.0,nan,0.0,0.0,0.0,0.0,0.0,0.0,0.0,0.0,1.0058571,1.005856,1.0000043,0.0,0.0,0.0,0.0,0.0,0.0
28040000,27960000,0.4110341,0.41101596,0.22099763,9.735938,9.736136,1.153574,0.0,0.0,0.0,0.0,0.0,0.0,0.0,12.507803,0.0,0.0,nan,0.0,0.0,0.0,0.0,0.0,0.0,0.0,0.0,1.0054103,1.005409,1.0000035,0.0,0.0,0.0,0.0,0.0,0.0
28544000,28464000,0.38856414,0.38854253,0.22122052,9.458775,9.458915,1.1551639,0.0,0.0,0.0,0.0,0.0,0.0,0.0,12.511783,0.0,0.0,nan,0.0,0.0,0.0,0.0,0.0,0.0,0.0,0.0,1.0053321,1.005331,1.0000032,0.0,0.0,0.0,0.0,0.0,0.0
29040000,28960000,0.37442866,0.37440068,0.22133464,9.645047,9.6451025,1.1546452,0.0,0.0,0.0,0.0,0.0,0.0,0.0,12.516729,0.0,0.0,nan,0.0,0.0,0.0,0.0,0.0,0.0,0.0,0.0,1.0051483,1.0051476,1.000003,0.0,0.0,0.0,0.0,0.0,0.0
29544000,29464000,0.36000967,0.35998008,0.22137469,9.378577,9.378587,1.1544523,0.0,0.0,0.0,0.0,0.0,0.0,0.0,12.500922,0.0,0.0,nan,0.0,0.0,0.0,0.0,0.0,0.0,0.0,0.0,1.0052116,1.005211,1.0000032,0.0,0.0,0.0,0.0,0.0,0.0
30040000,29960000,0.34856924,0.34853795,0.22156054,9.131765,9.131743,1.1543136,0.0,0.0,0.0,0.0,0.0,0.0,0.0,12.505774,0.0,0.0,nan,0.0,0.0,0.0,0.0,0.0,0.0,0.0,0.0,1.0053109,1.0053102,1.0000033,0.0,0.0,0.0,0.0,0.0,0.0
30544000,30464000,0.33975372,0.33972144,0.22157541,8.904263,8.904207,1.156094,0.0,0.0,0.0,0.0,0.0,0.0,0.0,12.512813,0.0,0.0,nan,0.0,0.0,0.0,0.0,0.0,0.0,0.0,0.0,1.0053312,1.0053307,1.0000031,0.0,0.0,0.0,0.0,0.0,0.0
31040000,30960000,0.32869163,0.3286584,0.22157368,8.504565,8.50445,1.1557404,0.0,0.0,0.0,0.0,0.0,0.0,0.0,12.49863,0.0,0.0,nan,0.0,0.0,0.0,0.0,0.0,0.0,0.0,0.0,1.0055013,1.0055006,1.0000031,0.0,0.0,0.0,0.0,0.0,0.0
31544000,31464000,0.32607567,0.32604286,0.22156149,8.331066,8.330925,1.1555572,0.0,0.0,0.0,0.0,0.0,0.0,0.0,12.502652,0.0,0.0,nan,0.0,0.0,0.0,0.0,0.0,0.0,0.0,0.0,1.0055928,1.0055923,1.0000031,0.0,0.0,0.0,0.0,0.0,0.0
32040000,31960000,0.3251503,0.32511815,0.22154096,8.174372,8.17421,1.15534,0.0,0.0,0.0,0.0,0.0,0.0,0.0,12.509603,0.0,0.0,nan,0.0,0.0,0.0,0.0,0.0,0.0,0.0,0.0,1.0058044,1.0058041,1.0000032,0.0,0.0,0.0,0.0,0.0,0.0
32544000,32464000,0.3257075,0.32567668,0.22167075,8.033842,8.033663,1.1550878,0.0,0.0,0.0,0.0,0.0,0.0,0.0,12.512912,0.0,0.0,nan,0.0,0.0,0.0,0.0,0.0,0.0,0.0,0.0,1.0060362,1.0060357,1.0000032,0.0,0.0,0.0,0.0,0.0,0.0
33048000,32968000,0.330692,0.33066538,0.22160767,7.798804,7.7985973,1.1564941,0.0,0.0,0.0,0.0,0.0,0.0,0.0,12.49854,0.0,0.0,nan,0.0,0.0,0.0,0.0,0.0,0.0,0.0,0.0,1.0061718,1.0061713,1.0000031,0.0,0.0,0.0,0.0,0.0,0.0
33544000,33464000,0.3324912,0.33246833,0.22156698,7.7023716,7.7021527,1.1561264,0.0,0.0,0.0,0.0,0.0,0.0,0.0,12.503154,0.0,0.0,nan,0.0,0.0,0.0,0.0,0.0,0.0,0.0,0.0,1.0064089,1.0064088,1.0000048,0.0,0.0,0.0,0.0,0.0,0.0
34048000,33968000,0.34586862,0.34584665,0.2216773,8.085442,8.085195,1.1576715,0.0,0.0,0.0,0.0,0.0,0.0,0.0,12.507756,0.0,0.0,nan,0.0,0.0,0.0,0.0,0.0,0.0,0.0,0.0,1.0065448,1.0065444,1.0000042,0.0,0.0,0.0,0.0,0.0,0.0
34544000,34464000,0.35290402,0.35288334,0.22162557,8.003787,8.003548,1.1571678,0.0,0.0,0.0,0.0,0.0,0.0,0.0,12.516088,0.0,0.0,nan,0.0,0.0,0.0,0.0,0.0,0.0,0.0,0.0,1.0067812,1.006781,1.0000039,0.0,0.0,0.0,0.0,0.0,0.0
35048000,34968000,0.36672634,0.3667161,0.2215172,7.8848658,7.884646,1.1560383,0.0,0.0,0.0,0.0,0.0,0.0,0.0,12.499585,0.0,0.0,nan,0.0,0.0,0.0,0.0,0.0,0.0,0.0,0.0,1.007022,1.0070214,1.0000039,0.0,0.0,0.0,0.0,0.0,0.0
35544000,35464000,0.37450248,0.37449947,0.22163787,7.8450184,7.8448176,1.1555856,0.0,0.0,0.0,0.0,0.0,0.0,0.0,12.504118,0.0,0.0,nan,0.0,0.0,0.0,0.0,0.0,0.0,0.0,0.0,1.0071152,1.0071146,1.0000042,0.0,0.0,0.0,0.0,0.0,0.0
36048000,35968000,0.38266575,0.38267043,0.22159837,7.8169284,7.8167515,1.1570755,0.0,0.0,0.0,0.0,0.0,0.0,0.0,12.50787,0.0,0.0,nan,0.0,0.0,0.0,0.0,0.0,0.0,0.0,0.0,1.0073332,1.0073322,1.0000043,0.0,0.0,0.0,0.0,0.0,0.0
36544000,36464000,0.39101726,0.39103007,0.221561,7.7994523,7.7993045,1.1565869,0.0,0.0,0.0,0.0,0.0,0.0,0.0,12.515431,0.0,0.0,nan,0.0,0.0,0.0,0.0,0.0,0.0,0.0,0.0,1.0073794,1.0073779,1.000004,0.0,0.0,0.0,0.0,0.0,0.0
37048000,36968000,0.4075148,0.40755916,0.2216411,7.7912307,7.7911625,1.1575534,0.0,0.0,0.0,0.0,0.0,0.0,0.0,12.498583,0.0,0.0,nan,0.0,0.0,0.0,0.0,0.0,0.0,0.0,0.0,1.0075624,1.0075604,1.0000045,0.0,0.0,0.0,0.0,0.0,0.0
37544000,37464000,0.41580293,0.41584903,0.22035998,7.79642,7.7964063,1.1568137,0.0,0.0,0.0,0.0,0.0,0.0,0.0,12.504538,0.0,0.0,nan,0.0,0.0,0.0,0.0,0.0,0.0,0.0,0.0,1.0077219,1.0077202,1.0000039,0.0,0.0,0.0,0.0,0.0,0.0
38040000,37960000,0.4223243,0.42238906,0.2184263,7.808832,7.8088775,1.1547097,0.0,0.0,0.0,0.0,0.0,0.0,0.0,12.504612,0.0,0.0,nan,0.0,0.0,0.0,0.0,0.0,0.0,0.0,0.0,1.0076813,1.007679,1.000005,0.0,0.0,0.0,0.0,0.0,0.0
38544000,38464000,0.42652526,0.42660514,0.2170228,7.8226533,7.822764,1.1516393,0.0,0.0,0.0,0.0,0.0,0.0,0.0,12.507306,0.0,0.0,nan,0.0,0.0,0.0,0.0,0.0,0.0,0.0,0.0,1.0078044,1.0078013,1.0000051,0.0,0.0,0.0,0.0,0.0,0.0
39048000,38968000,0.45043314,0.45056105,0.21562546,8.354933,8.355236,1.1442747,0.0,0.0,0.0,0.0,0.0,0.0,0.0,12.506936,0.0,0.0,nan,0.0,0.0,0.0,0.0,0.0,0.0,0.0,0.0,1.0077089,1.0077065,1.0000042,0.0,0.0,0.0,0.0,0.0,0.0
39544000,39464000,0.4542839,0.45443705,0.21559952,8.372333,8.372741,1.1423653,0.0,0.0,0.0,0.0,0.0,0.0,0.0,12.491178,0.0,0.0,nan,0.0,0.0,0.0,0.0,0.0,0.0,0.0,0.0,1.0077807,1.0077791,1.0000042,0.0,0.0,0.0,0.0,0.0,0.0
40048000,39968000,0.45779082,0.45795903,0.21578613,8.3883095,8.388835,1.1392193,0.0,0.0,0.0,0.0,0.0,0.0,0.0,12.492224,0.0,0.0,nan,0.0,0.0,0.0,0.0,0.0,0.0,0.0,0.0,1.0078439,1.0078434,1.0000044,0.0,0.0,0.0,0.0,0.0,0.0
40544000,40464000,0.46752933,0.4676229,0.21492836,8.408639,8.409222,1.136499,0.0,0.0,0.0,0.0,0.0,0.0,0.0,12.494563,0.0,0.0,nan,0.0,0.0,0.0,0.0,0.0,0.0,0.0,0.0,1.0076628,1.0076625,1.0000043,0.0,0.0,0.0,0.0,0.0,0.0
41048000,40968000,0.47251663,0.47260407,0.21366991,8.441746,8.442387,1.1326094,0.0,0.0,0.0,0.0,0.0,0.0,0.0,12.479689,0.0,0.0,nan,0.0,0.0,0.0,0.0,0.0,0.0,0.0,0.0,1.0076889,1.0076889,1.000004,0.0,0.0,0.0,0.0,0.0,0.0
41544000,41464000,0.4736607,0.4737451,0.21349235,8.451982,8.452641,1.130024,0.0,0.0,0.0,0.0,0.0,0.0,0.0,12.480709,0.0,0.0,nan,0.0,0.0,0.0,0.0,0.0,0.0,0.0,0.0,1.0074662,1.0074664,1.000004,0.0,0.0,0.0,0.0,0.0,0.0
42048000,41968000,0.47397974,0.4740595,0.21361005,8.457237,8.457907,1.127729,0.0,0.0,0.0,0.0,0.0,0.0,0.0,12.483122,0.0,0.0,nan,0.0,0.0,0.0,0.0,0.0,0.0,0.0,0.0,1.0074639,1.0074642,1.000004,0.0,0.0,0.0,0.0,0.0,0.0
42544000,42464000,0.4735063,0.4735769,0.21398616,8.45719,8.457857,1.1258835,0.0,0.0,0.0,0.0,0.0,0.0,0.0,12.48439,0.0,0.0,nan,0.0,0.0,0.0,0.0,0.0,0.0,0.0,0.0,1.007445,1.0074453,1.0000039,0.0,0.0,0.0,0.0,0.0,0.0
43048000,42968000,0.47045723,0.47051108,0.21540779,8.440611,8.441243,1.1252917,0.0,0.0,0.0,0.0,0.0,0.0,0.0,12.4731865,0.0,0.0,nan,0.0,0.0,0.0,0.0,0.0,0.0,0.0,0.0,1.0071949,1.0071957,1.0000037,0.0,0.0,0.0,0.0,0.0,0.0
43544000,43464000,0.4679861,0.46803033,0.21630049,8.424105,8.424708,1.1254569,0.0,0.0,0.0,0.0,0.0,0.0,0.0,12.476748,0.0,0.0,nan,0.0,0.0,0.0,0.0,0.0,0.0,0.0,0.0,1.0071621,1.0071629,1.0000036,0.0,0.0,0.0,0.0,0.0,0.0
44048000,43968000,0.46501017,0.46504378,0.21726534,8.402334,8.402903,1.1263481,0.0,0.0,0.0,0.0,0.0,0.0,0.0,12.482916,0.0,0.0,nan,0.0,0.0,0.0,0.0,0.0,0.0,0.0,0.0,1.0069073,1.0069085,1.0000036,0.0,0.0,0.0,0.0,0.0,0.0
44544000,44464000,0.48228863,0.48232046,0.2183418,8.964798,8.965412,1.1279483,0.0,0.0,0.0,0.0,0.0,0.0,0.0,12.48878,0.0,0.0,nan,0.0,0.0,0.0,0.0,0.0,0.0,0.0,0.0,1.0068694,1.006871,1.0000033,0.0,0.0,0.0,0.0,0.0,0.0
45040000,44960000,0.12748538,0.1274856,0.21492968,3.7840946,3.7840757,1.1113653,0.0,0.0,0.0,0.0,0.0,0.0,0.0,12.472909,0.0,0.0,nan,0.0,0.0,0.0,0.0,0.0,0.0,0.0,0.0,1.001817,1.0018183,1.0000011,0.0,0.0,0.0,0.0,0.0,0.0
45544000,45464000,0.09734322,0.09734419,0.21090758,1.0003221,1.0003221,1.0914922,0.0,0.0,0.0,0.0,0.0,0.0,0.0,12.448959,0.0,0.0,nan,0.0,0.0,0.0,0.0,0.0,0.0,0.0,0.0,1.0011973,1.0011982,1.0000007,0.0,0.0,0.0,0.0,0.0,0.0
46040000,45960000,0.09473538,0.09473599,0.20920475,1.0002264,1.0002264,1.081851,0.0,0.0,0.0,0.0,0.0,0.0,0.0,12.437549,0.0,0.0,nan,0.0,0.0,0.0,0.0,0.0,0.0,0.0,0.0,1.0013337,1.0013343,1.0000008,0.0,0.0,0.0,0.0,0.0,0.0
46544000,46464000,0.092235416,0.0922355,0.20833804,1.0001622,1.0001624,1.0751247,0.0,0.0,0.0,0.0,0.0,0.0,0.0,12.434021,0.0,0.0,nan,0.0,0.0,0.0,0.0,0.0,0.0,0.0,0.0,1.0014756,1.0014762,1.0000008,0.0,0.0,0.0,0.0,0.0,0.0
47048000,46968000,0.09086812,0.09086812,0.20758894,1.000096,1.000096,1.0666382,0.0,0.0,0.0,0.0,0.0,0.0,0.0,12.424723,0.0,0.0,nan,0.0,0.0,0.0,0.0,0.0,0.0,0.0,0.0,1.0016491,1.0016497,1.0000008,0.0,0.0,0.0,0.0,0.0,0.0
47544000,47464000,0.090739526,0.090739526,0.20811987,1.0000837,1.0000837,1.0649779,0.0,0.0,0.0,0.0,0.0,0.0,0.0,12.422753,0.0,0.0,nan,0.0,0.0,0.0,0.0,0.0,0.0,0.0,0.0,1.0018274,1.0018278,1.000001,0.0,0.0,0.0,0.0,0.0,0.0
