timestamp,timestamp_sample,baro_device_id,baro_alt_meter,baro_temp_celcius,baro_pressure_pa,rho,calibration_count
3256000,3256000,6620172,487.35162,11.832727,95606.625,1.1359649,0
3352000,3316000,6620172,487.33752,11.832727,95606.78,1.1359667,0
3376000,3376000,6620172,487.3563,11.832727,95606.55,1.1359639,0
3472000,3436000,6620172,487.3563,11.832727,95606.58,1.1359643,0
3492000,3492000,6620172,487.31406,11.832727,95607.05,1.1359699,0
3568000,3544000,6620172,487.3798,11.832728,95606.28,1.1359608,0
3616000,3604000,6620172,487.34222,11.832727,95606.7,1.1359658,0
3688000,3664000,6620172,487.39386,11.832728,95606.16,1.1359593,0
3736000,3724000,6620172,487.22015,11.832727,95608.125,1.1359826,0
3804000,3782666,6620172,487.31406,11.832728,95607.06,1.13597,0
3856000,3844000,6620172,487.361,11.832727,95606.484,1.1359632,0
3928000,3904000,6620172,487.47836,11.832728,95605.16,1.1359473,0
3976000,3964000,6620172,487.32346,11.832727,95606.91,1.1359682,0
4048000,4024000,6620172,487.44083,11.832728,95605.6,1.1359527,0
4096000,4084000,6620172,487.3798,11.832727,95606.27,1.1359607,0
4168000,4144000,6620172,487.2906,11.832728,95607.34,1.1359733,0
4216000,4204000,6620172,487.361,11.832727,95606.51,1.1359634,0
4288000,4264000,6620172,487.44553,11.832728,95605.52,1.1359518,0
4336000,4324000,6620172,487.41733,11.832727,95605.86,1.1359558,0
4408000,4384000,6620172,487.33752,11.832728,95606.77,1.1359667,0
4456000,4444000,6620172,487.41733,11.832727,95605.84,1.1359556,0
4528000,4504000,6620172,487.29526,11.832728,95607.29,1.1359727,0
4576000,4564000,6620172,487.40326,11.832727,95606.0,1.1359575,0
4648000,4624000,6620172,487.3563,11.832728,95606.586,1.1359644,0
4696000,4684000,6620172,487.41733,11.832727,95605.89,1.135956,0
4768000,4744000,6620172,487.30936,11.832728,95607.125,1.1359708,0
4816000,4804000,6620172,487.41733,11.832727,95605.87,1.1359559,0
4888000,4862666,6620172,487.42203,11.832728,95605.78,1.1359549,0
4936000,4924000,6620172,487.30936,11.832727,95607.09,1.1359705,0
5004000,4982666,6620172,487.3751,11.832728,95606.336,1.1359614,0
5056000,5044000,6620172,487.31406,11.832727,95607.05,1.1359699,0
5128000,5104000,6620172,487.34222,11.832728,95606.72,1.135966,0
5176000,5164000,6620172,487.40326,11.832727,95606.016,1.1359577,0
5248000,5224000,6620172,487.35162,11.832728,95606.63,1.135965,0
5296000,5284000,6620172,487.3845,11.832727,95606.266,1.1359606,0
5368000,5344000,6620172,487.40326,11.832728,95606.0,1.1359575,0
5416000,5404000,6620172,487.42203,11.832727,95605.83,1.1359553,0
5488000,5464000,6620172,487.361,11.832728,95606.51,1.1359634,0
5532000,5522000,6620172,487.24362,11.832727,95607.84,1.1359793,0
5584000,5572000,6620172,487.32346,11.832727,95606.94,1.1359686,0
5656000,5632000,6620172,487.3657,11.832728,95606.46,1.1359628,0
5704000,5692000,6620172,487.48306,11.832727,95605.125,1.135947,0
5776000,5750666,6620172,487.3751,11.832728,95606.38,1.1359619,0
5824000,5812000,6620172,487.34692,11.832727,95606.67,1.1359653,0
5896000,5870666,6620172,487.39386,11.832728,95606.15,1.1359593,0
5944000,5932000,6620172,487.3704,11.832727,95606.4,1.1359621,0
6016000,5992000,6620172,487.361,11.832728,95606.52,1.1359637,0
6064000,6052000,6620172,487.3798,11.832727,95606.3,1.1359609,0
6136000,6112000,6620172,487.33282,11.832728,95606.81,1.1359671,0
6184000,6172000,6620172,487.3845,11.832727,95606.25,1.1359603,0
6256000,6232000,6620172,487.32812,11.832728,95606.88,1.135968,0
6304000,6292000,6620172,487.3845,11.832727,95606.25,1.1359603,0
6376000,6352000,6620172,487.3563,11.832728,95606.54,1.1359638,0
6424000,6412000,6620172,487.40796,11.832727,95605.95,1.1359569,0
6496000,6472000,6620172,487.3798,11.832728,95606.27,1.1359607,0
6544000,6532000,6620172,487.3798,11.832727,95606.305,1.135961,0
6616000,6592000,6620172,487.3798,11.832728,95606.29,1.1359609,0
6664000,6652000,6620172,487.39386,11.832727,95606.14,1.1359591,0
6736000,6712000,6620172,487.3845,11.832728,95606.25,1.1359603,0
6784000,6772000,6620172,487.33282,11.832727,95606.836,1.1359674,0
6856000,6832000,6620172,487.32812,11.832728,95606.88,1.135968,0
6904000,6892000,6620172,487.3845,11.832727,95606.25,1.1359603,0
6976000,6952000,6620172,487.3563,11.832728,95606.59,1.1359645,0
7024000,7012000,6620172,487.29996,11.832727,95607.17,1.1359714,0
7096000,7072000,6620172,487.31876,11.832728,95606.98,1.135969,0
7144000,7132000,6620172,487.34692,11.832727,95606.67,1.1359653,0
7216000,7192000,6620172,487.3798,11.832728,95606.29,1.1359609,0
7264000,7252000,6620172,487.32346,11.832727,95606.914,1.1359683,0
7336000,7312000,6620172,487.361,11.832728,95606.51,1.1359634,0
7384000,7372000,6620172,487.32346,11.832727,95606.95,1.1359688,0
7456000,7432000,6620172,487.41266,11.832728,95605.91,1.1359563,0
7500000,7490000,6620172,487.39386,11.832727,95606.164,1.1359593,0
7552000,7540000,6620172,487.38916,11.832727,95606.195,1.1359597,0
7624000,7600000,6620172,487.361,11.832728,95606.51,1.1359634,0
7672000,7660000,6620172,487.44553,11.832727,95605.54,1.1359519,0
7744000,7720000,6620172,487.33752,11.832728,95606.77,1.1359667,0
7788000,7778000,6620172,487.4596,11.832727,95605.42,1.1359506,0
7840000,7828000,6620172,487.361,11.832727,95606.53,1.1359637,0
7912000,7888000,6620172,487.32346,11.832728,95606.91,1.1359682,0
7960000,7948000,6620172,487.41733,11.832727,95605.89,1.135956,0
8032000,8008000,6620172,487.43613,11.832728,95605.69,1.1359537,0
8080000,8068000,6620172,487.40326,11.832727,95606.016,1.1359577,0
8152000,8128000,6620172,487.33752,11.832728,95606.75,1.1359663,0
8200000,8188000,6620172,487.38916,11.832727,95606.18,1.1359595,0
8272000,8248000,6620172,487.4596,11.832728,95605.375,1.13595,0
8320000,8308000,6620172,487.39386,11.832727,95606.164,1.1359593,0
8392000,8368000,6620172,487.41266,11.832728,95605.93,1.1359566,0
8440000,8428000,6620172,487.361,11.832727,95606.51,1.1359634,0
8512000,8488000,6620172,487.43143,11.832728,95605.73,1.1359543,0
8560000,8548000,6620172,487.30936,11.832727,95607.12,1.1359707,0
8632000,8608000,6620172,487.41733,11.832728,95605.87,1.1359559,0
8680000,8668000,6620172,487.3798,11.832727,95606.31,1.135961,0
8752000,8728000,6620172,487.26242,11.832728,95607.63,1.1359768,0
8800000,8788000,6620172,487.41733,11.832727,95605.86,1.1359558,0
8872000,8848000,6620172,487.39386,11.832728,95606.125,1.1359589,0
8920000,8908000,6620172,487.39856,11.832727,95606.11,1.1359587,0
8992000,8968000,6620172,487.4502,11.832728,95605.48,1.1359512,0
9040000,9026000,6620172,487.33752,11.832727,95606.78,1.1359667,0
9088000,9076000,6620172,487.4596,11.832727,95605.42,1.1359506,0
9160000,9136000,6620172,487.31406,11.832728,95607.06,1.13597,0
9208000,9194000,6620172,487.3751,11.832727,95606.36,1.1359618,0
9256000,9244000,6620172,487.33752,11.832727,95606.77,1.1359667,0
9328000,9304000,6620172,487.35162,11.832728,95606.63,1.135965,0
9376000,9364000,6620172,487.33282,11.832727,95606.84,1.1359675,0
9448000,9424000,6620172,487.40796,11.832728,95605.96,1.1359569,0
9496000,9482000,6620172,487.33752,11.832727,95606.766,1.1359665,0
9544000,9532000,6620172,487.25772,11.832727,95607.69,1.1359774,0
9616000,9592000,6620172,487.3563,11.832728,95606.555,1.135964,0
9664000,9652000,6620172,487.2812,11.832727,95607.4,1.135974,0
9736000,9712000,6620172,487.43613,11.832728,95605.664,1.1359534,0
9784000,9772000,6620172,487.30466,11.832727,95607.15,1.1359711,0
9856000,9832000,6620172,487.29526,11.832728,95607.27,1.1359725,0
9904000,9892000,6620172,487.41733,11.832727,95605.84,1.1359556,0
9976000,9952000,6620172,487.39856,11.832728,95606.06,1.1359582,0
10024000,10012000,6620172,487.2906,11.832727,95607.336,1.1359733,0
10096000,10072000,6620172,487.3657,11.832728,95606.46,1.1359628,0
10140000,10130000,6620172,487.42203,11.832727,95605.8,1.1359551,0
10216000,10190666,6620172,487.3751,11.832728,95606.37,1.1359618,0
10264000,10252000,6620172,487.3751,11.832727,95606.375,1.1359619,0
10336000,10312000,6620172,487.3798,11.832728,95606.29,1.1359609,0
10384000,10372000,6620172,487.39856,11.832727,95606.08,1.1359584,0
10456000,10432000,6620172,487.3751,11.832728,95606.38,1.1359619,0
10504000,10492000,6620172,487.39856,11.832727,95606.06,1.1359582,0
10576000,10552000,6620172,487.31406,11.832728,95607.03,1.1359696,0
10624000,10612000,6620172,487.29996,11.832727,95607.22,1.1359719,0
10696000,10672000,6620172,487.3563,11.832728,95606.586,1.1359644,0
10744000,10732000,6620172,487.29996,11.832727,95607.17,1.1359714,0
10816000,10792000,6620172,487.4502,11.832728,95605.46,1.135951,0
10864000,10852000,6620172,487.3563,11.832727,95606.55,1.1359639,0
10936000,10910666,6620172,487.40326,11.832728,95606.04,1.1359578,0
10980000,10970000,6620172,487.32812,11.832727,95606.89,1.135968,0
11032000,11020000,6620172,487.3657,11.832727,95606.47,1.135963,0
11104000,11080000,6620172,487.4596,11.832728,95605.375,1.13595,0
11152000,11140000,6620172,487.2812,11.832727,95607.43,1.1359744,0
11224000,11200000,6620172,487.31876,11.832728,95606.98,1.135969,0
11272000,11260000,6620172,487.41733,11.832727,95605.84,1.1359556,0
11344000,11320000,6620172,487.2765,11.832728,95607.445,1.1359746,0
11392000,11380000,6620172,487.31876,11.832727,95606.984,1.1359692,0
11464000,11440000,6620172,487.3798,11.832728,95606.31,1.135961,0
11512000,11498000,6620172,487.33282,11.832727,95606.83,1.1359673,0
11560000,11548000,6620172,487.40326,11.832727,95606.0,1.1359575,0
11632000,11608000,6620172,487.3798,11.832728,95606.305,1.135961,0
11680000,11668000,6620172,487.3563,11.832727,95606.54,1.1359638,0
11752000,11728000,6620172,487.40796,11.832728,95605.99,1.1359574,0
11800000,11788000,6620172,487.3845,11.832727,95606.22,1.1359601,0
11872000,11848000,6620172,487.35162,11.832728,95606.625,1.1359649,0
11920000,11908000,6620172,487.3704,11.832727,95606.39,1.135962,0
11992000,11968000,6620172,487.30936,11.832728,95607.086,1.1359704,0
12036000,12026000,6620172,487.43143,11.832727,95605.7,1.1359539,0
12088000,12076000,6620172,487.44553,11.832727,95605.53,1.1359519,0
12156000,12133333,6620172,487.34692,11.832728,95606.664,1.1359653,0
12184000,12184000,6620172,487.42673,11.832727,95605.734,1.1359543,0
12276000,12243000,6620172,487.3751,11.832727,95606.35,1.1359617,0
12300000,12300000,6620172,487.53003,11.832727,95604.58,1.1359404,0
12400000,12362000,6620172,487.33752,11.832727,95606.8,1.1359669,0
12420000,12420000,6620172,487.4596,11.832727,95605.39,1.1359502,0
12496000,12472000,6620172,487.42673,11.832728,95605.77,1.1359547,0
12540000,12530000,6620172,487.3657,11.832727,95606.47,1.135963,0
12612000,12588000,6620172,487.44553,11.832728,95605.54,1.1359519,0
12640000,12640000,6620172,487.34222,11.832727,95606.73,1.1359661,0
12736000,12699000,6620172,487.35162,11.832727,95606.625,1.1359649,0
12760000,12760000,6620172,487.44553,11.832727,95605.56,1.1359522,0
12856000,12820000,6620172,487.3657,11.832727,95606.42,1.1359625,0
12876000,12876000,6620172,487.4596,11.832727,95605.38,1.1359501,0
12952000,12928000,6620172,487.40326,11.832728,95606.04,1.1359578,0
13000000,12988000,6620172,487.469,11.832727,95605.26,1.1359487,0
13072000,13048000,6620172,487.2812,11.832728,95607.4,1.135974,0
13120000,13108000,6620172,487.39856,11.832727,95606.11,1.1359587,0
13188000,13166666,6620172,487.25302,11.832728,95607.74,1.1359782,0
13240000,13228000,6620172,487.3657,11.832727,95606.44,1.1359626,0
13312000,13288000,6620172,487.3563,11.832728,95606.57,1.1359643,0
13360000,13348000,6620172,487.41733,11.832727,95605.9,1.1359562,0
13432000,13408000,6620172,487.40796,11.832728,95605.97,1.135957,0
13480000,13468000,6620172,487.43613,11.832727,95605.65,1.1359533,0
13552000,13528000,6620172,487.41733,11.832728,95605.875,1.135956,0
13600000,13588000,6620172,487.42673,11.832727,95605.74,1.1359544,0
13672000,13648000,6620172,487.39386,11.832728,95606.164,1.1359593,0
13720000,13708000,6620172,487.4737,11.832727,95605.23,1.1359482,0
13792000,13768000,6620172,487.30936,11.832728,95607.1,1.1359705,0
13840000,13828000,6620172,487.40326,11.832727,95606.0,1.1359575,0
13912000,13888000,6620172,487.4502,11.832728,95605.47,1.1359512,0
13960000,13948000,6620172,487.2812,11.832727,95607.39,1.1359739,0
14032000,14008000,6620172,487.32812,11.832728,95606.875,1.1359679,0
14080000,14068000,6620172,487.39856,11.832727,95606.08,1.1359584,0
14152000,14128000,6620172,487.21545,11.832728,95608.18,1.1359833,0
14200000,14188000,6620172,487.2812,11.832727,95607.43,1.1359744,0
14272000,14248000,6620172,487.2671,11.832728,95607.625,1.1359767,0
14320000,14308000,6620172,487.3563,11.832727,95606.56,1.1359642,0
14392000,14368000,6620172,487.2812,11.832728,95607.4,1.135974,0
14440000,14428000,6620172,487.44083,11.832727,95605.586,1.1359526,0
14512000,14488000,6620172,487.3798,11.832728,95606.27,1.1359607,0
14560000,14548000,6620172,487.3845,11.832727,95606.22,1.1359601,0
14632000,14608000,6620172,487.40796,11.832728,95605.945,1.1359569,0
14680000,14668000,6620172,487.3798,11.832727,95606.27,1.1359607,0
14752000,14728000,6620172,487.40796,11.832728,95605.94,1.1359568,0
14800000,14786000,6620172,487.35162,11.832727,95606.63,1.135965,0
14872000,14846666,6620172,487.3798,11.832728,95606.27,1.1359607,0
14920000,14908000,6620172,487.35162,11.832727,95606.61,1.1359646,0
14992000,14968000,6620172,487.41733,11.832728,95605.9,1.1359562,0
15040000,15028000,6620172,487.40326,11.832727,95606.016,1.1359577,0
15108000,15086666,6620172,487.39386,11.832728,95606.125,1.1359589,0
15160000,15148000,6620172,487.34222,11.832727,95606.72,1.135966,0
15232000,15208000,6620172,487.3751,11.832728,95606.34,1.1359615,0
15280000,15268000,6620172,487.3657,11.832727,95606.47,1.135963,0
15352000,15328000,6620172,487.4596,11.832728,95605.375,1.13595,0
15400000,15388000,6620172,487.4502,11.832727,95605.47,1.1359512,0
15472000,15448000,6620172,487.42203,11.832728,95605.836,1.1359555,0
15520000,15508000,6620172,487.361,11.832727,95606.516,1.1359636,0
15592000,15568000,6620172,487.33752,11.832728,95606.76,1.1359664,0
15640000,15628000,6620172,487.24832,11.832727,95607.83,1.135979,0
15712000,15688000,6620172,487.3798,11.832728,95606.28,1.1359608,0
15760000,15746000,6620172,487.4549,11.832727,95605.44,1.1359508,0
15808000,15796000,6620172,487.3563,11.832727,95606.55,1.1359639,0
15880000,15854666,6620172,487.3751,11.832728,95606.35,1.1359617,0
15928000,15916000,6620172,487.40796,11.832727,95605.95,1.1359569,0
16000000,15974666,6620172,487.47836,11.832728,95605.18,1.1359477,0
16048000,16036000,6620172,487.29996,11.832727,95607.23,1.135972,0
16120000,16094666,6620172,487.39856,11.832728,95606.086,1.1359586,0
16168000,16156000,6620172,487.33282,11.832727,95606.83,1.1359673,0
16240000,16216000,6620172,487.35162,11.832728,95606.625,1.1359649,0
16288000,16276000,6620172,487.38916,11.832727,95606.19,1.1359596,0
16360000,16336000,6620172,487.41733,11.832728,95605.9,1.1359562,0
16404000,16394000,6620172,487.3751,11.832727,95606.375,1.1359619,0
16480000,16454666,6620172,487.40796,11.832728,95605.97,1.135957,0
16528000,16516000,6620172,487.3845,11.832727,95606.234,1.1359602,0
16600000,16576000,6620172,487.4643,11.832728,95605.34,1.1359496,0
16648000,16636000,6620172,487.3845,11.832727,95606.22,1.1359601,0
16720000,16696000,6620172,487.469,11.832728,95605.24,1.1359484,0
16768000,16756000,6620172,487.3563,11.832727,95606.555,1.135964,0
16840000,16814666,6620172,487.29526,11.832728,95607.28,1.1359726,0
16888000,16876000,6620172,487.3657,11.832727,95606.47,1.135963,0
16960000,16936000,6620172,487.31406,11.832728,95607.055,1.13597,0
17008000,16996000,6620172,487.33282,11.832727,95606.84,1.1359675,0
17080000,17056000,6620172,487.39856,11.832728,95606.07,1.1359583,0
17128000,17116000,6620172,487.43143,11.832727,95605.73,1.1359543,0
17200000,17176000,6620172,487.40796,11.832728,95605.945,1.1359569,0
17248000,17236000,6620172,487.3563,11.832727,95606.59,1.1359645,0
17320000,17296000,6620172,487.3845,11.832728,95606.22,1.1359601,0
17368000,17356000,6620172,487.4549,11.832727,95605.44,1.1359508,0
17440000,17416000,6620172,487.3704,11.832728,95606.4,1.1359621,0
17488000,17476000,6620172,487.3657,11.832727,95606.44,1.1359626,0
17560000,17536000,6620172,487.29996,11.832728,95607.195,1.1359717,0
17608000,17596000,6620172,487.40796,11.832727,95605.97,1.135957,0
17680000,17656000,6620172,487.33752,11.832728,95606.79,1.1359668,0
17728000,17716000,6620172,487.32346,11.832727,95606.9,1.1359681,0
17800000,17776000,6620172,487.30466,11.832728,95607.15,1.1359711,0
17848000,17836000,6620172,487.35162,11.832727,95606.66,1.1359652,0
17920000,17896000,6620172,487.41266,11.832728,95605.914,1.1359564,0
17968000,17956000,6620172,487.38916,11.832727,95606.2,1.1359599,0
18040000,18016000,6620172,487.42203,11.832728,95605.78,1.1359549,0
18088000,18076000,6620172,487.23892,11.832727,95607.914,1.1359801,0
18160000,18136000,6620172,487.39386,11.832728,95606.12,1.1359588,0
18208000,18196000,6620172,487.34222,11.832727,95606.7,1.1359658,0
18280000,18256000,6620172,487.34692,11.832728,95606.69,1.1359656,0
18324000,18314000,6620172,487.30936,11.832727,95607.08,1.1359702,0
18376000,18364000,6620172,487.3563,11.832727,95606.56,1.1359642,0
18448000,18424000,6620172,487.31406,11.832728,95607.03,1.1359696,0
18496000,18482000,6620172,487.2906,11.832727,95607.31,1.1359731,0
18544000,18532000,6620172,487.3563,11.832727,95606.56,1.1359642,0
18616000,18592000,6620172,487.41733,11.832728,95605.9,1.1359562,0
18664000,18652000,6620172,487.43613,11.832727,95605.664,1.1359534,0
18736000,18712000,6620172,487.39386,11.832728,95606.12,1.1359588,0
18784000,18772000,6620172,487.48306,11.832727,95605.1,1.1359468,0
18856000,18832000,6620172,487.34222,11.832728,95606.72,1.135966,0
18904000,18892000,6620172,487.3657,11.832727,95606.47,1.135963,0
18976000,18950666,6620172,487.29526,11.832728,95607.29,1.1359727,0
19024000,19010000,6620172,487.3845,11.832727,95606.234,1.1359602,0
19092000,19069333,6620172,487.3751,11.832728,95606.375,1.1359619,0
19120000,19120000,6620172,487.29526,11.832727,95607.234,1.1359721,0
19216000,19180000,6620172,487.34692,11.832727,95606.68,1.1359655,0
19240000,19240000,6620172,487.29526,11.832727,95607.24,1.1359723,0
19336000,19300000,6620172,487.31876,11.832697,95606.97,1.1359689,0
19360000,19360000,6620172,487.43613,11.832697,95605.63,1.1359531,0
19452000,19419000,6620172,487.42203,11.832659,95605.79,1.135955,0
19480000,19480000,6620172,487.33752,11.832636,95606.766,1.1359665,0
19572000,19539000,6620172,487.469,11.832575,95605.28,1.1359489,0
19600000,19600000,6620172,487.39386,11.832514,95606.16,1.1359593,0
19692000,19658000,6620172,487.40326,11.8324375,95606.016,1.1359577,0
19716000,19716000,6620172,487.25772,11.832361,95607.67,1.1359774,0
19792000,19768000,6620172,487.49716,11.83228,95604.945,1.1359448,0
19840000,19828000,6620172,487.3751,11.832163,95606.36,1.1359618,0
19912000,19888000,6620172,487.50186,11.8320265,95604.9,1.1359444,0
19960000,19948000,6620172,487.48306,11.831842,95605.125,1.135947,0
20032000,20008000,6620172,487.4737,11.83167,95605.21,1.1359481,0
20080000,20068000,6620172,487.57227,11.831461,95604.055,1.1359344,0
20152000,20128000,6620172,487.5394,11.831233,95604.46,1.1359391,0
20200000,20188000,6620172,487.51593,11.830988,95604.75,1.1359426,0
20272000,20248000,6620172,487.57697,11.830745,95604.04,1.1359341,0
20320000,20306000,6620172,487.76477,11.830515,95601.86,1.1359082,0
20368000,20356000,6620172,487.8164,11.830317,95601.3,1.1359016,0
20440000,20416000,6620172,487.79294,11.830073,95601.586,1.135905,0
20488000,20476000,6620172,487.8352,11.8298435,95601.09,1.1358992,0
20560000,20534666,6620172,487.84457,11.829595,95600.94,1.1358973,0
20608000,20596000,6620172,487.8399,11.829355,95601.03,1.1358985,0
20680000,20656000,6620172,487.98074,11.829097,95599.41,1.135879,0
20728000,20716000,6620172,487.8211,11.828836,95601.25,1.135901,0
20800000,20776000,6620172,487.97134,11.828588,95599.49,1.1358801,0
20848000,20836000,6620172,488.0183,11.828318,95598.95,1.1358737,0
20916000,20894666,6620172,487.98074,11.828059,95599.414,1.1358792,0
20968000,20956000,6620172,488.17325,11.827799,95597.24,1.1358534,0
21040000,21016000,6620172,488.07935,11.82753,95598.26,1.1358654,0
21088000,21076000,6620172,488.2108,11.827265,95596.766,1.1358477,0
21160000,21136000,6620172,488.28592,11.826991,95595.914,1.1358377,0
21208000,21196000,6620172,488.28122,11.826715,95595.95,1.135838,0
21276000,21254666,6620172,488.24365,11.826451,95596.4,1.1358434,0
21328000,21314000,6620172,488.3235,11.826181,95595.484,1.1358325,0
21376000,21364000,6620172,488.53006,11.825968,95593.09,1.135804,0
21448000,21424000,6620172,488.46902,11.825699,95593.79,1.1358123,0
21496000,21484000,6620172,488.54416,11.825434,95592.92,1.135802,0
21568000,21544000,6620172,488.43616,11.82515,95594.16,1.1358167,0
21616000,21604000,6620172,488.56293,11.824884,95592.72,1.1357996,0
21688000,21664000,6620172,488.5958,11.824631,95592.4,1.1357958,0
21736000,21724000,6620172,488.66153,11.824366,95591.625,1.1357867,0
21808000,21784000,6620172,488.6803,11.824101,95591.38,1.1357837,0
21856000,21844000,6620172,488.74603,11.823847,95590.66,1.1357752,0
21928000,21904000,6620172,488.74133,11.823583,95590.72,1.1357759,0
21976000,21964000,6620172,488.83524,11.823328,95589.6,1.1357626,0
22044000,22021333,6620172,488.8681,11.823085,95589.26,1.1357585,0
22072000,22072000,6620172,489.01834,11.82287,95587.5,1.1357375,0
22164000,22131000,6620172,488.83054,11.822634,95589.67,1.1357634,0
22192000,22192000,6620172,489.01364,11.822382,95587.56,1.1357384,0
22288000,22251000,6620172,489.02774,11.822153,95587.42,1.1357367,0
22312000,22312000,6620172,488.9573,11.821894,95588.21,1.135746,0
22408000,22372000,6620172,489.10754,11.821665,95586.51,1.1357259,0
22432000,22432000,6620172,489.18735,11.821436,95585.6,1.1357151,0
22528000,22491000,6620172,489.1404,11.821207,95586.125,1.1357212,0
22552000,22552000,6620172,489.1404,11.820978,95586.12,1.1357211,0
22648000,22610000,6620172,489.25308,11.82078,95584.81,1.1357057,0
22672000,22672000,6620172,489.21085,11.820581,95585.28,1.1357112,0
22768000,22730000,6620172,489.31412,11.820383,95584.16,1.135698,0
22792000,22792000,6620172,489.39865,11.820215,95583.19,1.1356864,0
22888000,22852000,6620172,489.31882,11.820078,95584.06,1.1356968,0
22912000,22912000,6620172,489.41742,11.819971,95582.98,1.1356839,0
23008000,22972000,6620172,489.37045,11.819864,95583.52,1.1356903,0
23032000,23032000,6620172,489.37515,11.819788,95583.41,1.135689,0
23124000,23090000,6620172,489.4315,11.819712,95582.78,1.1356816,0
23152000,23152000,6620172,489.4409,11.819666,95582.67,1.1356802,0
23248000,23210000,6620172,489.38455,11.81959,95583.305,1.1356877,0
23268000,23268000,6620172,489.27658,11.819513,95584.586,1.135703,0
23368000,23330000,6620172,489.37985,11.819429,95583.37,1.1356885,0
23392000,23392000,6620172,489.5395,11.81933,95581.53,1.1356667,0
23488000,23452000,6620172,489.46436,11.819254,95582.41,1.1356771,0
23512000,23512000,6620172,489.39865,11.819147,95583.16,1.135686,0
23608000,23572000,6620172,489.4362,11.819071,95582.75,1.1356812,0
23632000,23632000,6620172,489.40332,11.8189945,95583.08,1.1356851,0
23728000,23692000,6620172,489.48315,11.818895,95582.19,1.1356745,0
23752000,23752000,6620172,489.4597,11.818811,95582.46,1.1356777,0
23848000,23812000,6620172,489.50192,11.818735,95581.96,1.1356719,0
23872000,23872000,6620172,489.5348,11.818659,95581.59,1.1356674,0
23968000,23931000,6620172,489.46906,11.818567,95582.35,1.1356765,0
23992000,23992000,6620172,489.50662,11.818476,95581.89,1.135671,0
24088000,24052000,6620172,489.5254,11.818399,95581.72,1.1356689,0
24112000,24112000,6620172,489.49722,11.818323,95582.04,1.1356727,0
24208000,24172000,6620172,489.67563,11.81827,95579.96,1.135648,0
24232000,24232000,6620172,489.66626,11.818201,95580.12,1.1356499,0
24328000,24292000,6620172,489.60052,11.818125,95580.86,1.1356586,0
24352000,24352000,6620172,489.75076,11.8180485,95579.164,1.1356386,0
24448000,24412000,6620172,489.60522,11.817995,95580.805,1.135658,0
24468000,24468000,6620172,489.55826,11.817926,95581.336,1.1356645,0
24544000,24520000,6620172,489.65686,11.817876,95580.23,1.1356512,0
24592000,24580000,6620172,489.7085,11.81782,95579.66,1.1356444,0
24664000,24640000,6620172,489.65216,11.817764,95580.27,1.1356517,0
24712000,24700000,6620172,489.69913,11.817713,95579.72,1.1356452,0
24784000,24760000,6620172,489.732,11.817653,95579.37,1.135641,0
24832000,24820000,6620172,489.732,11.817606,95579.36,1.1356409,0
24900000,24878666,6620172,489.69443,11.817551,95579.77,1.1356457,0
24952000,24940000,6620172,489.5489,11.817499,95581.45,1.1356658,0
25024000,25000000,6620172,489.6428,11.817459,95580.375,1.1356529,0
25072000,25060000,6620172,489.7085,11.817408,95579.6,1.1356438,0
25144000,25120000,6620172,489.75546,11.817357,95579.07,1.1356374,0
25188000,25178000,6620172,489.75076,11.817316,95579.14,1.1356382,0
25240000,25228000,6620172,489.76016,11.81727,95579.04,1.1356372,0
25312000,25288000,6620172,489.69443,11.817235,95579.75,1.1356455,0
25360000,25348000,6620172,489.732,11.817194,95579.32,1.1356405,0
25432000,25408000,6620172,489.8024,11.817143,95578.56,1.1356314,0
25480000,25468000,6620172,489.8024,11.817102,95578.55,1.1356312,0
25552000,25528000,6620172,489.73666,11.817062,95579.29,1.13564,0
25600000,25588000,6620172,489.83527,11.817026,95578.17,1.1356268,0
25672000,25646666,6620172,489.8259,11.816971,95578.23,1.1356275,0
25720000,25708000,6620172,489.78833,11.816935,95578.71,1.1356332,0
25792000,25768000,6620172,489.86813,11.816899,95577.78,1.1356221,0
25840000,25826000,6620172,489.76486,11.816858,95578.95,1.1356361,0
25888000,25876000,6620172,489.901,11.816828,95577.4,1.1356176,0
25960000,25936000,6620172,489.77893,11.816798,95578.77,1.135634,0
26008000,25996000,6620172,489.85873,11.816767,95577.88,1.1356233,0
26080000,26056000,6620172,489.73666,11.816727,95579.31,1.1356404,0
26128000,26116000,6620172,489.77423,11.81669,95578.875,1.1356351,0
26200000,26176000,6620172,489.8212,11.816666,95578.305,1.1356283,0
26248000,26236000,6620172,489.87753,11.816629,95577.69,1.135621,0
26320000,26296000,6620172,489.86343,11.816605,95577.836,1.1356227,0
26368000,26356000,6620172,489.91977,11.816568,95577.23,1.1356156,0
26440000,26416000,6620172,489.86343,11.816544,95577.81,1.1356225,0
26488000,26476000,6620172,489.9808,11.816523,95576.5,1.1356069,0
26560000,26536000,6620172,489.92447,11.816493,95577.16,1.1356148,0
26608000,26596000,6620172,489.92447,11.816462,95577.13,1.1356144,0
26680000,26656000,6620172,489.92917,11.816442,95577.06,1.1356136,0
26728000,26716000,6620172,489.91977,11.816431,95577.22,1.1356155,0
26800000,26776000,6620172,489.88223,11.8164015,95577.65,1.1356206,0
26848000,26836000,6620172,489.94327,11.81637,95576.95,1.1356124,0
26920000,26896000,6620172,489.87753,11.81636,95577.68,1.1356208,0
26968000,26956000,6620172,489.94327,11.8163395,95576.92,1.1356119,0
27040000,27016000,6620172,489.86813,11.816319,95577.75,1.1356217,0
27088000,27076000,6620172,489.92447,11.816309,95577.14,1.1356145,0
27160000,27136000,6620172,489.94797,11.816279,95576.88,1.1356114,0
27208000,27196000,6620172,489.85406,11.816263,95577.95,1.1356242,0
27280000,27256000,6620172,489.9057,11.816249,95577.336,1.1356168,0
27328000,27316000,6620172,489.8963,11.816217,95577.445,1.1356182,0
27400000,27374666,6620172,489.87753,11.816208,95577.664,1.1356208,0
27448000,27436000,6620172,489.87753,11.816187,95577.69,1.135621,0
27520000,27496000,6620172,489.92447,11.816167,95577.164,1.1356149,0
27568000,27556000,6620172,489.8916,11.816156,95577.53,1.1356193,0
27640000,27614666,6620172,489.97144,11.816127,95576.6,1.1356081,0
27688000,27674000,6620172,490.04654,11.816111,95575.78,1.1355984,0
27736000,27724000,6620172,489.95734,11.816095,95576.75,1.1356099,0
27808000,27784000,6620172,489.95734,11.816075,95576.76,1.13561,0
27856000,27844000,6620172,489.9151,11.816065,95577.25,1.1356158,0
27928000,27904000,6620172,489.93387,11.816035,95577.04,1.1356133,0
27976000,27964000,6620172,489.87753,11.816004,95577.66,1.1356207,0
28048000,28024000,6620172,489.88223,11.815994,95577.63,1.1356204,0
28096000,28084000,6620172,489.96204,11.815973,95576.74,1.1356097,0
28168000,28144000,6620172,489.9808,11.815953,95576.5,1.1356069,0
28216000,28204000,6620172,489.96204,11.815943,95576.7,1.1356094,0
28288000,28264000,6620172,489.95264,11.815913,95576.79,1.1356103,0
28332000,28322000,6620172,490.0935,11.815897,95575.2,1.1355915,0
28384000,28372000,6620172,489.97614,11.815882,95576.53,1.1356072,0
28456000,28432000,6620172,490.01837,11.815862,95576.06,1.1356018,0
28504000,28492000,6620172,489.94327,11.815851,95576.94,1.1356121,0
28576000,28552000,6620172,490.02307,11.815822,95575.99,1.1356009,0
28624000,28612000,6620172,489.86343,11.815805,95577.86,1.1356231,0
28696000,28672000,6620172,490.02777,11.815791,95575.93,1.1356002,0
28744000,28732000,6620172,490.03717,11.815775,95575.83,1.1355989,0
28816000,28792000,6620172,489.96674,11.815761,95576.65,1.1356087,0
28864000,28852000,6620172,490.04654,11.815744,95575.78,1.1355984,0
28936000,28912000,6620172,489.9808,11.81573,95576.5,1.1356069,0
28984000,28972000,6620172,489.9996,11.815729,95576.266,1.1356041,0
29056000,29032000,6620172,490.04654,11.8157,95575.74,1.1355978,0
29100000,29090000,6620172,490.06534,11.815699,95575.56,1.1355958,0
29152000,29140000,6620172,489.9808,11.815668,95576.516,1.1356071,0
29224000,29200000,6620172,490.04654,11.815669,95575.78,1.1355984,0
29272000,29258000,6620172,489.95264,11.815668,95576.81,1.1356106,0
29320000,29308000,6620172,489.9808,11.815638,95576.484,1.1356068,0
29392000,29368000,6620172,489.97144,11.815639,95576.59,1.1356081,0
29440000,29428000,6620172,490.01367,11.815638,95576.09,1.135602,0
29512000,29488000,6620172,489.9902,11.815628,95576.375,1.1356055,0
29560000,29548000,6620172,489.84467,11.815607,95578.07,1.1356256,0
29632000,29608000,6620172,490.12167,11.815608,95574.85,1.1355873,0
29680000,29668000,6620172,489.94327,11.815607,95576.94,1.1356121,0
29752000,29728000,6620172,490.01367,11.8155775,95576.1,1.1356021,0
29800000,29788000,6620172,490.07004,11.815577,95575.45,1.1355945,0
29868000,29846666,6620172,490.02307,11.8155775,95576.0,1.135601,0
29920000,29908000,6620172,489.9855,11.815546,95576.45,1.1356063,0
29988000,29966666,6620172,490.03247,11.815547,95575.9,1.1355997,0
30036000,30024000,6620172,490.0043,11.815531,95576.2,1.1356034,0
30088000,30076000,6620172,490.0935,11.8155155,95575.195,1.1355914,0
30160000,30136000,6620172,490.05124,11.815516,95575.695,1.1355973,0
30208000,30196000,6620172,489.97614,11.8155,95576.55,1.1356075,0
30280000,30256000,6620172,490.04654,11.815486,95575.78,1.1355984,0
30328000,30316000,6620172,490.02777,11.815485,95575.97,1.1356006,0
30400000,30374666,6620172,489.9949,11.815455,95576.31,1.1356046,0
30448000,30436000,6620172,490.06534,11.8154545,95575.53,1.1355954,0
30520000,30494666,6620172,490.07004,11.815455,95575.48,1.1355947,0
30564000,30554000,6620172,489.95264,11.815424,95576.8,1.1356105,0
30616000,30604000,6620172,490.06534,11.815424,95575.55,1.1355956,0
30688000,30664000,6620172,490.0747,11.815425,95575.414,1.135594,0
30736000,30724000,6620172,490.14044,11.815393,95574.66,1.135585,0
30808000,30784000,6620172,490.05594,11.815394,95575.6,1.1355963,0
30856000,30844000,6620172,490.06534,11.815393,95575.51,1.1355952,0
30928000,30904000,6620172,490.07004,11.815364,95575.46,1.1355946,0
30976000,30962000,6620172,490.04654,11.815363,95575.73,1.1355978,0
31024000,31012000,6620172,490.05594,11.815363,95575.625,1.1355965,0
31096000,31072000,6620172,490.02777,11.815353,95575.98,1.1356007,0
31144000,31132000,6620172,489.9902,11.815332,95576.41,1.1356058,0
31216000,31192000,6620172,490.07004,11.815333,95575.5,1.1355951,0
31264000,31252000,6620172,490.0043,11.815332,95576.21,1.1356035,0
31336000,31312000,6620172,489.97144,11.815323,95576.6,1.1356081,0
31384000,31372000,6620172,490.03717,11.815302,95575.86,1.1355994,0
31456000,31432000,6620172,490.05594,11.815303,95575.62,1.1355964,0
31500000,31490000,6620172,490.06064,11.815302,95575.59,1.1355962,0
31552000,31540000,6620172,490.05124,11.815271,95575.68,1.1355971,0
31624000,31598666,6620172,490.02307,11.815272,95576.0,1.135601,0
31672000,31660000,6620172,490.0043,11.815271,95576.2,1.1356034,0
31744000,31720000,6620172,489.9996,11.815251,95576.27,1.1356043,0
31792000,31780000,6620172,490.0888,11.815241,95575.28,1.1355925,0
31864000,31840000,6620172,490.03247,11.815242,95575.9,1.1355997,0
31912000,31900000,6620172,490.14984,11.815241,95574.56,1.1355839,0
31984000,31958666,6620172,490.02777,11.815211,95575.93,1.1356002,0
32032000,32018000,6620172,490.1733,11.81521,95574.31,1.1355809,0
32080000,32068000,6620172,490.11227,11.81521,95575.016,1.1355892,0
32152000,32128000,6620172,490.0888,11.815201,95575.27,1.1355923,0
32200000,32188000,6620172,490.13574,11.81518,95574.7,1.1355855,0
32272000,32246666,6620172,490.02777,11.815181,95575.93,1.1356002,0
32320000,32308000,6620172,490.06064,11.81518,95575.58,1.135596,0
32392000,32368000,6620172,490.07004,11.81516,95575.47,1.1355946,0
32440000,32428000,6620172,490.0841,11.815149,95575.3,1.1355926,0
32512000,32488000,6620172,490.04654,11.81515,95575.77,1.1355983,0
32560000,32546000,6620172,490.12637,11.815149,95574.81,1.1355869,0
32608000,32596000,6620172,490.03717,11.815149,95575.82,1.1355988,0
32680000,32656000,6620172,490.07004,11.815129,95575.49,1.135595,0
32728000,32716000,6620172,490.14984,11.815119,95574.58,1.135584,0
32800000,32776000,6620172,490.0982,11.81512,95575.164,1.135591,0
32848000,32836000,6620172,490.15924,11.815119,95574.45,1.1355826,0
32920000,32896000,6620172,490.13574,11.81512,95574.71,1.1355857,0
32968000,32956000,6620172,490.0935,11.815119,95575.21,1.1355916,0
33040000,33016000,6620172,490.14984,11.81512,95574.57,1.135584,0
33088000,33076000,6620172,490.13107,11.815119,95574.75,1.1355861,0
33160000,33136000,6620172,490.1639,11.81512,95574.375,1.1355816,0
33208000,33196000,6620172,490.05124,11.815149,95575.664,1.135597,0
33280000,33256000,6620172,489.9949,11.815221,95576.32,1.1356047,0
33328000,33316000,6620172,490.0888,11.815332,95575.234,1.1355919,0
33400000,33376000,6620172,490.02307,11.815486,95576.03,1.1356013,0
33448000,33436000,6620172,489.95264,11.815683,95576.81,1.1356106,0
33520000,33496000,6620172,489.94327,11.815933,95576.914,1.1356119,0
33568000,33556000,6620172,489.901,11.816217,95577.39,1.1356175,0
33640000,33616000,6620172,489.8165,11.816524,95578.37,1.135629,0
33688000,33676000,6620172,489.86343,11.816828,95577.82,1.1356225,0
33760000,33736000,6620172,489.77893,11.817154,95578.79,1.1356341,0
33808000,33796000,6620172,489.8071,11.817469,95578.484,1.1356305,0
33880000,33856000,6620172,489.67563,11.817754,95579.98,1.1356483,0
33928000,33916000,6620172,489.66626,11.818033,95580.11,1.1356498,0
34000000,33976000,6620172,489.5254,11.818303,95581.72,1.1356689,0
34048000,34036000,6620172,489.455,11.818567,95582.55,1.1356788,0
34120000,34094666,6620172,489.52072,11.818822,95581.77,1.1356696,0
34168000,34156000,6620172,489.40332,11.819086,95583.125,1.1356857,0
34240000,34216000,6620172,489.46436,11.819341,95582.4,1.135677,0
34288000,34276000,6620172,489.4409,11.819605,95582.695,1.1356806,0
34360000,34336000,6620172,489.30005,11.81987,95584.29,1.1356995,0
34408000,34396000,6620172,489.30005,11.820124,95584.28,1.1356994,0
34480000,34456000,6620172,489.27658,11.820389,95584.555,1.1357026,0
34528000,34516000,6620172,489.239,11.820658,95584.95,1.1357074,0
34600000,34576000,6620172,489.1545,11.820938,95585.97,1.1357194,0
34648000,34636000,6620172,489.07938,11.821207,95586.86,1.13573,0
34720000,34696000,6620172,489.1263,11.821477,95586.305,1.1357235,0
34768000,34756000,6620172,488.99487,11.821741,95587.83,1.1357416,0
34840000,34816000,6620172,489.0371,11.822026,95587.31,1.1357354,0
34884000,34872000,6620172,489.01834,11.822306,95587.5,1.1357375,0
34932000,34922000,6620172,488.89157,11.822519,95588.96,1.135755,0
34984000,34972000,6620172,488.8775,11.822748,95589.09,1.1357565,0
35056000,35032000,6620172,488.90097,11.823024,95588.85,1.1357538,0
35104000,35092000,6620172,488.7601,11.8232975,95590.484,1.1357731,0
35176000,35152000,6620172,488.80237,11.823583,95590.01,1.1357675,0
35224000,35212000,6620172,488.74133,11.823862,95590.69,1.1357754,0
35296000,35272000,6620172,488.72726,11.824142,95590.875,1.1357777,0
35344000,35332000,6620172,488.71317,11.824427,95591.016,1.1357794,0
35416000,35392000,6620172,488.6756,11.824712,95591.44,1.1357844,0
35464000,35452000,6620172,488.53006,11.824991,95593.09,1.135804,0
35536000,35510666,6620172,488.45963,11.825272,95593.9,1.1358137,0
35584000,35572000,6620172,488.52066,11.825556,95593.22,1.1358056,0
35656000,35632000,6620172,488.44556,11.825831,95594.1,1.1358161,0
35704000,35692000,6620172,488.28592,11.82612,95595.92,1.1358378,0
35776000,35750666,6620172,488.37512,11.826401,95594.91,1.1358256,0
35824000,35812000,6620172,488.4127,11.826685,95594.484,1.1358205,0
35896000,35869333,6620172,488.27652,11.82697,95596.01,1.1358386,0
35920000,35920000,6620172,488.0887,11.827204,95598.16,1.1358643,0
36016000,35979000,6620172,488.17795,11.827471,95597.15,1.1358522,0
36040000,36040000,6620172,488.14508,11.827753,95597.53,1.1358567,0
36136000,36100000,6620172,488.0934,11.828035,95598.09,1.1358634,0
36160000,36160000,6620172,488.07935,11.828333,95598.28,1.1358657,0
36256000,36220000,6620172,487.9338,11.8286,95599.96,1.1358857,0
36280000,36280000,6620172,487.86807,11.828882,95600.71,1.1358945,0
36376000,36340000,6620172,487.9244,11.8291645,95600.02,1.1358864,0
36400000,36400000,6620172,487.86337,11.829432,95600.734,1.1358949,0
36496000,36460000,6620172,487.86807,11.829721,95600.67,1.1358942,0
36520000,36520000,6620172,487.78354,11.830011,95601.69,1.1359062,0
36616000,36579000,6620172,487.77417,11.830294,95601.766,1.135907,0
36640000,36640000,6620172,487.69904,11.830561,95602.61,1.1359172,0
36736000,36700000,6620172,487.6568,11.830851,95603.14,1.1359234,0
36760000,36760000,6620172,487.57227,11.8311405,95604.08,1.1359346,0
36856000,36820000,6620172,487.59576,11.831423,95603.83,1.1359316,0
36880000,36880000,6620172,487.6568,11.83169,95603.1,1.135923,0
36972000,36939000,6620172,487.47836,11.83198,95605.18,1.1359477,0
36996000,36996000,6620172,487.4737,11.83227,95605.2,1.135948,0
37068000,37046666,6620172,487.31876,11.832494,95606.96,1.1359688,0
37120000,37108000,6620172,487.32812,11.832727,95606.875,1.1359679,0
37192000,37168000,6620172,487.3798,11.832698,95606.29,1.1359609,0
37240000,37228000,6620172,487.40326,11.832605,95606.05,1.135958,0
37312000,37286666,6620172,487.3798,11.832413,95606.27,1.1359607,0
37360000,37348000,6620172,487.5488,11.832193,95604.34,1.1359378,0
37432000,37408000,6620172,487.48306,11.831965,95605.1,1.1359468,0
37480000,37468000,6620172,487.53003,11.831705,95604.58,1.1359404,0
37552000,37526666,6620172,487.48776,11.831477,95605.04,1.135946,0
37600000,37586000,6620172,487.61453,11.831247,95603.625,1.1359292,0
37648000,37636000,6620172,487.59106,11.831064,95603.875,1.1359322,0
37720000,37696000,6620172,487.68967,11.830876,95602.76,1.135919,0
37768000,37756000,6620172,487.67557,11.830683,95602.91,1.1359208,0
37836000,37813333,6620172,487.7366,11.830531,95602.19,1.1359122,0
37864000,37864000,6620172,487.59576,11.830378,95603.836,1.1359317,0
37960000,37924000,6620172,487.7413,11.830248,95602.125,1.1359113,0
37980000,37980000,6620172,487.9291,11.830133,95599.98,1.1358858,0
38056000,38032000,6620172,487.8164,11.830032,95601.29,1.1359015,0
38104000,38092000,6620172,487.77417,11.829935,95601.8,1.1359075,0
38176000,38152000,6620172,487.8399,11.829869,95601.055,1.1358986,0
38224000,38212000,6620172,487.85397,11.829813,95600.85,1.1358962,0
38296000,38272000,6620172,487.86337,11.829778,95600.75,1.1358951,0
38344000,38332000,6620172,487.9056,11.829737,95600.266,1.1358893,0
38416000,38392000,6620172,487.84927,11.829717,95600.914,1.1358969,0
38464000,38452000,6620172,487.78354,11.829721,95601.66,1.1359059,0
38536000,38512000,6620172,487.7225,11.829747,95602.38,1.1359144,0
38584000,38572000,6620172,487.8164,11.8297825,95601.33,1.1359019,0
38656000,38632000,6620172,487.7366,11.829829,95602.19,1.1359122,0
38700000,38690000,6620172,487.90094,11.829874,95600.34,1.1358902,0
38752000,38740000,6620172,487.87277,11.829935,95600.64,1.1358937,0
38824000,38800000,6620172,487.8164,11.830012,95601.28,1.1359013,0
38872000,38860000,6620172,487.80234,11.830118,95601.42,1.135903,0
38944000,38920000,6620172,487.6474,11.830215,95603.25,1.1359248,0
38992000,38980000,6620172,487.70374,11.830347,95602.586,1.1359168,0
39064000,39040000,6620172,487.75537,11.83047,95601.98,1.1359097,0
39112000,39100000,6620172,487.70374,11.830591,95602.59,1.135917,0
39184000,39160000,6620172,487.66617,11.830745,95603.0,1.1359217,0
39232000,39220000,6620172,487.59106,11.830896,95603.86,1.135932,0
39300000,39278666,6620172,487.6568,11.83107,95603.13,1.1359234,0
39352000,39340000,6620172,487.5629,11.831247,95604.22,1.1359363,0
39424000,39400000,6620172,487.59576,11.831436,95603.79,1.1359311,0
39472000,39460000,6620172,487.53473,11.831614,95604.5,1.1359396,0
39544000,39520000,6620172,487.58636,11.831813,95603.945,1.135933,0
39592000,39580000,6620172,487.53473,11.83201,95604.516,1.1359397,0
39664000,39638666,6620172,487.43143,11.83223,95605.71,1.135954,0
39712000,39700000,6620172,487.2671,11.8324375,95607.586,1.1359763,0
39784000,39758666,6620172,487.43143,11.832657,95605.73,1.1359543,0
39832000,39820000,6620172,487.40796,11.832727,95605.94,1.1359568,0
39904000,39880000,6620172,487.3845,11.832728,95606.23,1.1359601,0
39952000,39940000,6620172,487.33752,11.832727,95606.805,1.135967,0
40020000,39997333,6620172,487.32812,11.832728,95606.88,1.135968,0
40048000,40048000,6620172,487.5629,11.832727,95604.19,1.1359359,0
40144000,40108000,6620172,487.42203,11.832727,95605.8,1.1359551,0
40168000,40168000,6620172,487.3798,11.832727,95606.32,1.1359612,0
40264000,40228000,6620172,487.2718,11.832727,95607.55,1.1359757,0
40288000,40288000,6620172,487.31406,11.832727,95607.04,1.1359698,0
40384000,40348000,6620172,487.31876,11.832727,95606.984,1.1359692,0
40408000,40408000,6620172,487.2906,11.832727,95607.3,1.1359729,0
40504000,40468000,6620172,487.2765,11.832727,95607.445,1.1359746,0
40528000,40528000,6620172,487.40326,11.832727,95606.0,1.1359575,0
40624000,40588000,6620172,487.3657,11.832727,95606.45,1.1359627,0
40648000,40648000,6620172,487.33282,11.832727,95606.82,1.1359671,0
40744000,40708000,6620172,487.29526,11.832727,95607.25,1.1359723,0
40768000,40768000,6620172,487.48306,11.832727,95605.086,1.1359465,0
40864000,40828000,6620172,487.41266,11.832727,95605.91,1.1359563,0
40888000,40888000,6620172,487.3798,11.832727,95606.31,1.135961,0
40984000,40948000,6620172,487.34222,11.832727,95606.734,1.1359662,0
41008000,41008000,6620172,487.24832,11.832727,95607.8,1.1359788,0
41104000,41067000,6620172,487.42203,11.832727,95605.82,1.1359552,0
41128000,41128000,6620172,487.32812,11.832727,95606.875,1.1359679,0
41224000,41188000,6620172,487.32346,11.832727,95606.92,1.1359683,0
41248000,41248000,6620172,487.52063,11.832727,95604.7,1.1359421,0
41344000,41308000,6620172,487.3845,11.832727,95606.22,1.1359601,0
41368000,41368000,6620172,487.22955,11.832727,95608.02,1.1359816,0
41464000,41428000,6620172,487.41266,11.832727,95605.92,1.1359565,0
41484000,41484000,6620172,487.41733,11.832727,95605.9,1.1359562,0
41560000,41536000,6620172,487.32346,11.832728,95606.914,1.1359683,0
41608000,41596000,6620172,487.22485,11.832727,95608.08,1.1359822,0
41680000,41656000,6620172,487.40796,11.832728,95605.945,1.1359569,0
41728000,41716000,6620172,487.41266,11.832727,95605.91,1.1359563,0
41800000,41774666,6620172,487.4549,11.832728,95605.43,1.1359507,0
41848000,41836000,6620172,487.30936,11.832727,95607.125,1.1359708,0
41920000,41894666,6620172,487.40796,11.832728,95605.94,1.1359568,0
41964000,41954000,6620172,487.3798,11.832727,95606.28,1.1359608,0
42016000,42004000,6620172,487.3845,11.832727,95606.266,1.1359606,0
42088000,42064000,6620172,487.361,11.832728,95606.53,1.1359637,0
42136000,42124000,6620172,487.29996,11.832727,95607.19,1.1359715,0
42208000,42184000,6620172,487.25772,11.832728,95607.695,1.1359775,0
42256000,42244000,6620172,487.35162,11.832727,95606.61,1.1359646,0
42328000,42304000,6620172,487.3845,11.832728,95606.24,1.1359602,0
42376000,42364000,6620172,487.3798,11.832727,95606.3,1.1359609,0
42444000,42422666,6620172,487.3657,11.832728,95606.46,1.1359628,0
42492000,42482000,6620172,487.39856,11.832727,95606.06,1.1359582,0
42544000,42532000,6620172,487.35162,11.832727,95606.66,1.1359652,0
42612000,42590666,6620172,487.41733,11.832728,95605.87,1.1359559,0
42660000,42650000,6620172,487.34222,11.832727,95606.72,1.135966,0
42736000,42710666,6620172,487.33752,11.832728,95606.79,1.1359668,0
42784000,42772000,6620172,487.3751,11.832727,95606.34,1.1359615,0
42856000,42832000,6620172,487.361,11.832728,95606.53,1.1359637,0
42900000,42890000,6620172,487.32346,11.832727,95606.95,1.1359688,0
42952000,42940000,6620172,487.2812,11.832727,95607.39,1.1359739,0
43024000,43000000,6620172,487.31876,11.832728,95606.97,1.1359689,0
43072000,43060000,6620172,487.42203,11.832727,95605.81,1.1359552,0
43144000,43120000,6620172,487.3704,11.832728,95606.4,1.1359621,0
43192000,43180000,6620172,487.42673,11.832727,95605.766,1.1359546,0
43264000,43240000,6620172,487.35162,11.832728,95606.6,1.1359645,0
43312000,43300000,6620172,487.4502,11.832727,95605.45,1.1359509,0
43384000,43360000,6620172,487.39386,11.832728,95606.15,1.1359593,0
43432000,43420000,6620172,487.33752,11.832727,95606.75,1.1359663,0
43504000,43478666,6620172,487.361,11.832728,95606.53,1.1359637,0
43552000,43538000,6620172,487.4502,11.832727,95605.5,1.1359515,0
43620000,43597333,6620172,487.29526,11.832728,95607.24,1.1359723,0
43648000,43648000,6620172,487.43143,11.832727,95605.695,1.1359538,0
43744000,43708000,6620172,487.22485,11.832727,95608.05,1.1359817,0
43768000,43768000,6620172,487.41266,11.832727,95605.93,1.1359566,0
43864000,43828000,6620172,487.39856,11.832727,95606.09,1.1359586,0
43884000,43884000,6620172,487.1826,11.832727,95608.58,1.1359881,0
43984000,43946000,6620172,487.3704,11.832727,95606.414,1.1359624,0
44008000,44008000,6620172,487.2906,11.832727,95607.33,1.1359732,0
44104000,44068000,6620172,487.4596,11.832727,95605.4,1.1359503,0
44128000,44128000,6620172,487.361,11.832727,95606.53,1.1359637,0
44224000,44188000,6620172,487.39386,11.832727,95606.125,1.1359589,0
44248000,44248000,6620172,487.29526,11.832727,95607.29,1.1359727,0
44344000,44308000,6620172,487.3657,11.832727,95606.445,1.1359627,0
44368000,44368000,6620172,487.3845,11.832727,95606.21,1.13596,0
44464000,44428000,6620172,487.32812,11.832727,95606.875,1.1359679,0
44488000,44488000,6620172,487.35162,11.832727,95606.625,1.1359649,0
44584000,44548000,6620172,487.30936,11.832727,95607.11,1.1359706,0
44608000,44608000,6620172,487.53473,11.832727,95604.5,1.1359396,0
44704000,44668000,6620172,487.32346,11.832727,95606.91,1.1359682,0
44728000,44728000,6620172,487.58636,11.832727,95603.914,1.1359327,0
44824000,44788000,6620172,487.361,11.832727,95606.51,1.1359634,0
44844000,44844000,6620172,487.23422,11.832727,95607.98,1.1359808,0
44944000,44906000,6620172,487.41733,11.832727,95605.85,1.1359557,0
44968000,44968000,6620172,487.20605,11.832727,95608.32,1.135985,0
45060000,45026000,6620172,487.40796,11.832727,95605.97,1.135957,0
45088000,45088000,6620172,487.40326,11.832727,95606.0,1.1359575,0
45184000,45148000,6620172,487.3657,11.832727,95606.47,1.135963,0
45208000,45208000,6620172,487.3704,11.832727,95606.414,1.1359624,0
45304000,45268000,6620172,487.3845,11.832727,95606.25,1.1359603,0
45328000,45328000,6620172,487.34222,11.832727,95606.71,1.135966,0
45424000,45388000,6620172,487.41266,11.832727,95605.91,1.1359563,0
45448000,45448000,6620172,487.2671,11.832727,95607.586,1.1359763,0
45544000,45508000,6620172,487.3845,11.832727,95606.26,1.1359605,0
45568000,45568000,6620172,487.53003,11.832727,95604.555,1.1359403,0
45664000,45628000,6620172,487.35162,11.832727,95606.625,1.1359649,0
45688000,45688000,6620172,487.3845,11.832727,95606.266,1.1359606,0
45784000,45748000,6620172,487.32346,11.832727,95606.9,1.1359681,0
45808000,45808000,6620172,487.3563,11.832727,95606.57,1.1359643,0
45904000,45868000,6620172,487.3798,11.832727,95606.3,1.1359609,0
45928000,45928000,6620172,487.10748,11.832727,95609.38,1.1359977,0
46024000,45988000,6620172,487.31876,11.832727,95606.99,1.1359692,0
46048000,46048000,6620172,487.24362,11.832727,95607.85,1.1359794,0
46144000,46108000,6620172,487.41733,11.832727,95605.89,1.135956,0
46168000,46168000,6620172,487.361,11.832727,95606.516,1.1359636,0
46264000,46228000,6620172,487.41733,11.832727,95605.84,1.1359556,0
46288000,46288000,6620172,487.3704,11.832727,95606.414,1.1359624,0
46380000,46347000,6620172,487.40326,11.832727,95606.016,1.1359577,0
46408000,46408000,6620172,487.51123,11.832727,95604.76,1.1359427,0
46504000,46468000,6620172,487.361,11.832727,95606.516,1.1359636,0
46528000,46528000,6620172,487.29526,11.832727,95607.266,1.1359725,0
46624000,46588000,6620172,487.43143,11.832727,95605.695,1.1359538,0
46648000,46648000,6620172,487.4643,11.832727,95605.336,1.1359495,0
46744000,46708000,6620172,487.41733,11.832727,95605.875,1.135956,0
46768000,46768000,6620172,487.44083,11.832727,95605.59,1.1359526,0
46864000,46828000,6620172,487.34692,11.832727,95606.67,1.1359653,0
46888000,46888000,6620172,487.24362,11.832727,95607.85,1.1359794,0
46984000,46947000,6620172,487.34222,11.832727,95606.7,1.1359658,0
47008000,47008000,6620172,487.33752,11.832727,95606.766,1.1359665,0
47104000,47068000,6620172,487.3845,11.832727,95606.22,1.1359601,0
47128000,47128000,6620172,487.43143,11.832727,95605.72,1.1359541,0
47224000,47188000,6620172,487.3563,11.832727,95606.56,1.1359642,0
47248000,47248000,6620172,487.2906,11.832727,95607.31,1.1359731,0
47344000,47308000,6620172,487.361,11.832727,95606.52,1.1359637,0
47368000,47368000,6620172,487.3563,11.832727,95606.586,1.1359644,0
47464000,47427000,6620172,487.39386,11.832727,95606.125,1.1359589,0
47488000,47488000,6620172,487.3845,11.832727,95606.23,1.1359601,0
47584000,47548000,6620172,487.3751,11.832727,95606.33,1.1359613,0
47608000,47608000,6620172,487.49716,11.832727,95604.945,1.1359448,0
47704000,47668000,6620172,487.33282,11.832727,95606.81,1.1359671,0
47728000,47728000,6620172,487.29996,11.832727,95607.19,1.1359715,0
47824000,47787000,6620172,487.3798,11.832727,95606.28,1.1359608,0
