timestamp,timestamp_sample,control_mode_flags,output_tracking_error[0],output_tracking_error[1],output_tracking_error[2],filter_fault_flags,pos_horiz_accuracy,pos_vert_accuracy,mag_test_ratio,vel_test_ratio,pos_test_ratio,hgt_test_ratio,tas_test_ratio,hagl_test_ratio,beta_test_ratio,time_slip,accel_device_id,gyro_device_id,baro_device_id,mag_device_id,gps_check_fail_flags,innovation_check_flags,solution_status_flags,reset_count_vel_ne,reset_count_vel_d,reset_count_pos_ne,reset_count_pod_d,reset_count_quat,pre_flt_fail_innov_heading,pre_flt_fail_innov_vel_horiz,pre_flt_fail_innov_vel_vert,pre_flt_fail_innov_height,pre_flt_fail_mag_field_disturbed,health_flags,timeout_flags
3264000,3184000,13488881664,0.00036486212,0.017910013,0.0014817517,0,14.172738,10.008659,nan,nan,nan,nan,0.0,0.0,0.0,0.0,1310988,1310988,6620172,0,0,0,128,1,1,1,1,0,0,0,0,0,0,0,0
3272000,3192000,13488881664,0.00033199613,0.0050711185,0.0015923064,0,14.142143,10.0,nan,nan,nan,nan,0.0,0.0,0.0,0.0,1310988,1310988,6620172,0,0,0,128,1,1,1,1,0,0,0,0,0,0,0,0
3464000,3384000,13488881664,3.303433e-05,0.0026116967,0.0017374743,0,0.015023268,7.071068,nan,nan,nan,nan,0.0,0.0,0.0,0.0,1310988,1310988,6620172,0,0,0,128,1,1,1,1,0,0,0,0,0,0,0,0
3664000,3584000,13488881665,0.0015765558,0.019648831,0.0058306144,0,0.010516438,5.7735023,nan,nan,nan,nan,0.0,0.0,0.0,0.0,1310988,1310988,6620172,0,0,0,128,1,1,1,1,0,0,0,0,0,0,0,0
3864000,3784000,13488881665,0.0004881185,0.008098006,0.005008979,0,0.012890598,5.000002,nan,nan,nan,nan,0.0,0.0,0.0,0.0,1310988,1310988,6620172,0,0,0,128,1,1,1,1,0,0,0,0,0,0,0,0
4064000,3984000,4898947585,0.00025746957,0.00270055,0.02614323,0,0.039215595,2.2180412,nan,nan,nan,0.0048233154,0.0,0.0,0.0,0.0,1310988,1310988,6620172,0,0,0,164,1,1,1,1,0,0,0,0,0,0,0,0
4256000,4176000,4898947585,0.00035425578,0.0026488532,0.003370799,0,0.030803164,1.493805,nan,nan,nan,0.0056781233,0.0,0.0,0.0,0.0,1310988,1310988,6620172,0,0,0,164,1,1,1,1,0,0,0,0,0,0,0,0
4456000,4376000,4898947585,0.00020327316,0.0021365657,0.0037276556,0,0.026707554,1.2013524,nan,nan,nan,0.0015284168,0.0,0.0,0.0,0.0,1310988,1310988,6620172,0,0,0,164,1,1,1,1,0,0,0,0,0,0,0,0
4656000,4576000,4898947585,0.00025715126,0.0018987493,0.0065336456,0,0.02441317,0.99068516,nan,nan,nan,0.0010329942,0.0,0.0,0.0,0.0,1310988,1310988,6620172,0,0,0,164,1,1,1,1,0,0,0,0,0,0,0,0
4864000,4784000,4898947585,0.00024289977,0.0013743272,0.008977923,0,0.023344649,0.88998777,nan,nan,nan,0.004352511,0.0,0.0,0.0,0.0,1310988,1310988,6620172,0,0,0,164,1,1,1,1,0,0,0,0,0,0,0,0
5056000,4976000,4898947585,0.00027149025,0.0013984396,0.0072764894,0,0.021122508,0.8150733,nan,nan,nan,0.004411384,0.0,0.0,0.0,0.0,1310988,1310988,6620172,0,0,0,164,1,1,1,1,0,0,0,0,0,0,0,0
5256000,5176000,4898947585,0.00017425978,0.0014069311,0.007852765,0,0.019736141,0.7395881,nan,nan,nan,0.0012541176,0.0,0.0,0.0,0.0,1310988,1310988,6620172,0,0,0,164,1,1,1,1,0,0,0,0,0,0,0,0
5464000,5384000,4898947585,0.000117175325,0.000910524,0.0048400853,0,0.019009016,0.6954618,nan,nan,nan,0.0012098589,0.0,0.0,0.0,0.0,1310988,1310988,6620172,0,0,0,164,1,1,1,1,0,0,0,0,0,0,0,0
5656000,5576000,4898947585,0.0001221355,0.0015705626,0.009361673,0,0.017539216,0.647199,nan,nan,nan,0.003143125,0.0,0.0,0.0,0.0,1310988,1310988,6620172,0,0,0,164,1,1,1,1,0,0,0,0,0,0,0,0
5864000,5784000,4898947585,0.00013204533,0.0021715038,0.0033711423,0,0.017082024,0.61750597,nan,nan,nan,0.00033670815,0.0,0.0,0.0,0.0,1310988,1310988,6620172,0,0,0,164,1,1,1,1,0,0,0,0,0,0,0,0
6064000,5984000,4898947585,7.595437e-05,0.002118033,0.0031319037,0,0.016338216,0.5917354,nan,nan,nan,0.0005735881,0.0,0.0,0.0,0.0,1310988,1310988,6620172,0,0,0,164,1,1,1,1,0,0,0,0,0,0,0,0
6264000,6184000,4898947585,5.2069976e-05,0.0018029717,0.0033989483,0,0.015699266,0.56178504,nan,nan,nan,0.0002860774,0.0,0.0,0.0,0.0,1310988,1310988,6620172,0,0,0,164,1,1,1,1,0,0,0,0,0,0,0,0
6456000,6376000,4898947585,1.306725e-05,0.0017784099,0.0033562016,0,0.014824657,0.5424689,nan,nan,nan,0.0012604502,0.0,0.0,0.0,0.0,1310988,1310988,6620172,0,0,0,164,1,1,1,1,0,0,0,0,0,0,0,0
6664000,6584000,4898947585,0.00012178464,0.0026473484,0.0017597614,0,0.014647567,0.5253858,nan,nan,nan,4.7012676e-05,0.0,0.0,0.0,0.0,1310988,1310988,6620172,0,0,0,164,1,1,1,1,0,0,0,0,0,0,0,0
6864000,6784000,4898947585,0.00014904959,0.0032692174,0.0020028746,0,0.014204406,0.5046035,nan,nan,nan,0.0026708492,0.0,0.0,0.0,0.0,1310988,1310988,6620172,0,0,0,164,1,1,1,1,0,0,0,0,0,0,0,0
7056000,6976000,4898947585,0.00016916283,0.0035775935,0.0021740287,0,0.01352815,0.49092913,nan,nan,nan,0.0012381143,0.0,0.0,0.0,0.0,1310988,1310988,6620172,0,0,0,164,1,1,1,1,0,0,0,0,0,0,0,0
7256000,7176000,4898947585,0.00023216318,0.0039611403,0.0026598626,0,0.013170425,0.4785692,nan,nan,nan,0.0016434669,0.0,0.0,0.0,0.0,1310988,1310988,6620172,0,0,0,164,1,1,1,1,0,0,0,0,0,0,0,0
7456000,7376000,4898947585,0.0002733951,0.0044395374,0.0025606195,0,0.012839646,0.46315315,nan,nan,nan,0.002860922,0.0,0.0,0.0,0.0,1310988,1310988,6620172,0,0,0,164,1,1,1,1,0,0,0,0,0,0,0,0
7664000,7584000,4898947585,0.00024081596,0.004396025,0.0026308266,0,0.012773893,0.45316544,nan,nan,nan,0.0008339139,0.0,0.0,0.0,0.0,1310988,1310988,6620172,0,0,0,164,1,1,1,1,0,0,0,0,0,0,0,0
7864000,7784000,4898947585,0.00017647298,0.0037894098,0.0037283832,0,0.012476624,0.44032377,nan,nan,nan,0.004803939,0.0,0.0,0.0,0.0,1310988,1310988,6620172,0,0,0,164,1,1,1,1,0,0,0,0,0,0,0,0
8064000,7984000,4898947585,0.00011898765,0.0030357582,0.0026929234,0,0.012196943,0.4319194,nan,nan,nan,0.002374081,0.0,0.0,0.0,0.0,1310988,1310988,6620172,0,0,0,164,1,1,1,1,0,0,0,0,0,0,0,0
8256000,8176000,4898947585,7.558634e-05,0.0026075689,0.002577155,0,0.011769519,0.4256635,nan,nan,nan,0.0022655576,0.0,0.0,0.0,0.0,1310988,1310988,6620172,0,0,0,164,1,1,1,1,0,0,0,0,0,0,0,0
8456000,8376000,4898947585,8.390519e-05,0.0023653521,0.0032571503,0,0.011521796,0.4154968,nan,nan,nan,0.0019374674,0.0,0.0,0.0,0.0,1310988,1310988,6620172,0,0,0,164,1,1,1,1,0,0,0,0,0,0,0,0
8664000,8584000,4898949633,6.681696e-05,0.0021712345,0.0020723536,0,0.01149247,0.96153396,nan,nan,nan,0.004028836,0.0,0.0,0.0,0.0,1310988,1310988,6620172,0,0,0,164,1,1,1,2,0,0,0,0,0,0,0,0
8856000,8776000,4898949633,6.569849e-05,0.0019102737,0.0042757196,0,0.011061327,0.8684126,nan,nan,nan,0.0052896407,0.0,0.0,0.0,0.0,1310988,1310988,6620172,0,0,0,164,1,1,1,2,0,0,0,0,0,0,0,0
9056000,8976000,4898949633,4.1227766e-05,0.0017731657,0.0062556346,0,0.017354416,0.61419857,nan,nan,nan,0.0025497682,0.0,0.0,0.0,0.0,1310988,1310988,6620172,0,0,0,164,1,1,1,2,0,0,0,0,0,0,0,0
9264000,9184000,4898949633,4.5932895e-05,0.0016331384,0.00270359,0,0.017278176,0.5881794,nan,nan,nan,0.0024235956,0.0,0.0,0.0,0.0,1310988,1310988,6620172,0,0,0,164,1,1,1,2,0,0,0,0,0,0,0,0
9464000,9384000,4898949633,5.803985e-05,0.0015565548,0.0005614157,0,0.016908055,0.48749745,nan,nan,nan,0.0012899811,0.0,0.0,0.0,0.0,1310988,1310988,6620172,0,0,0,164,1,1,1,2,0,0,0,0,0,0,0,0
9664000,9584000,4898949633,5.1206764e-05,0.001554447,0.00158807,0,0.016552346,0.47478816,nan,nan,nan,0.003381952,0.0,0.0,0.0,0.0,1310988,1310988,6620172,0,0,0,164,1,1,1,2,0,0,0,0,0,0,0,0
9856000,9776000,4898949633,6.216868e-05,0.0016062481,0.002054583,0,0.015925506,0.41739514,nan,nan,nan,0.002355516,0.0,0.0,0.0,0.0,1310988,1310988,6620172,0,0,0,164,1,1,1,2,0,0,0,0,0,0,0,0
10064000,9984000,4898949633,6.48411e-05,0.001675212,0.00092826237,0,0.015879573,0.410059,nan,nan,nan,0.0012592769,0.0,0.0,0.0,0.0,1310988,1310988,6620172,0,0,0,164,1,1,1,2,0,0,0,0,0,0,0,0
10264000,10184000,4898949633,5.4705277e-05,0.001663885,0.0011062432,0,0.015560512,0.3741012,nan,nan,nan,0.0017778644,0.0,0.0,0.0,0.0,1310988,1310988,6620172,0,0,0,164,1,1,1,2,0,0,0,0,0,0,0,0
10456000,10376000,4898949633,5.2170177e-05,0.001605256,0.001905947,0,0.014985723,0.3673065,nan,nan,nan,0.001110661,0.0,0.0,0.0,0.0,1310988,1310988,6620172,0,0,0,164,1,1,1,2,0,0,0,0,0,0,0,0
10656000,10576000,4898949633,5.111328e-05,0.001834466,0.0019704765,0,0.014692599,0.34135535,nan,nan,nan,0.0017984711,0.0,0.0,0.0,0.0,1310988,1310988,6620172,0,0,0,164,1,1,1,2,0,0,0,0,0,0,0,0
10856000,10776000,4898949633,6.166202e-05,0.0021710615,0.001402904,0,0.014408164,0.33842713,nan,nan,nan,0.002141401,0.0,0.0,0.0,0.0,1310988,1310988,6620172,0,0,0,164,1,1,1,2,0,0,0,0,0,0,0,0
11064000,10984000,4898949633,6.1301675e-05,0.0025040058,0.002656474,0,0.014382791,0.31717697,nan,nan,nan,0.0016046539,0.0,0.0,0.0,0.0,1310988,1310988,6620172,0,0,0,164,1,1,1,2,0,0,0,0,0,0,0,0
11264000,11184000,4898949633,6.793075e-05,0.002813523,0.0027377028,0,0.014109272,0.31544113,nan,nan,nan,0.0029420564,0.0,0.0,0.0,0.0,1310988,1310988,6620172,0,0,0,164,1,1,1,2,0,0,0,0,0,0,0,0
11456000,11376000,4898949633,8.1305036e-05,0.0031873495,0.0038267686,0,0.013602535,0.29834154,nan,nan,nan,0.0035551428,0.0,0.0,0.0,0.0,1310988,1310988,6620172,0,0,0,164,1,1,1,2,0,0,0,0,0,0,0,0
11656000,11576000,4898949633,9.419699e-05,0.0035328562,0.0038733673,0,0.0133487005,0.29743212,nan,nan,nan,0.0032549344,0.0,0.0,0.0,0.0,1310988,1310988,6620172,0,0,0,164,1,1,1,2,0,0,0,0,0,0,0,0
11856000,11776000,4898949633,0.0001038673,0.0037794341,0.0052978364,0,0.013101964,0.28447148,nan,nan,nan,0.00305485,0.0,0.0,0.0,0.0,1310988,1310988,6620172,0,0,0,164,1,1,1,2,0,0,0,0,0,0,0,0
12056000,11976000,4898949633,0.00010656471,0.003506385,0.0038353081,0,0.01286219,0.2832542,nan,nan,nan,0.0034683757,0.0,0.0,0.0,0.0,1310988,1310988,6620172,0,0,0,164,1,1,1,2,0,0,0,0,0,0,0,0
12256000,12176000,4898949633,9.6867836e-05,0.0032468026,0.0043843044,0,0.012628579,0.27241734,nan,nan,nan,0.0016697295,0.0,0.0,0.0,0.0,1310988,1310988,6620172,0,0,0,164,1,1,1,2,0,0,0,0,0,0,0,0
12464000,12384000,4898949633,8.954382e-05,0.0028733714,0.0039502825,0,0.012617841,0.2719705,nan,nan,nan,0.002050868,0.0,0.0,0.0,0.0,1310988,1310988,6620172,0,0,0,164,1,1,1,2,0,0,0,0,0,0,0,0
12656000,12576000,4898949633,6.5233566e-05,0.002678224,0.0042864205,0,0.012178768,0.2625893,nan,nan,nan,0.0012629065,0.0,0.0,0.0,0.0,1310988,1310988,6620172,0,0,0,164,1,1,1,2,0,0,0,0,0,0,0,0
12856000,12776000,4898949633,6.9762114e-05,0.002388082,0.0035950593,0,0.0119623225,0.26243603,nan,nan,nan,0.003400351,0.0,0.0,0.0,0.0,1310988,1310988,6620172,0,0,0,164,1,1,1,2,0,0,0,0,0,0,0,0
13056000,12976000,4898949633,9.634425e-05,0.0028067373,0.00396201,0,0.011751503,0.25447032,nan,nan,nan,0.0022638033,0.0,0.0,0.0,0.0,1310988,1310988,6620172,0,0,0,164,1,1,1,2,0,0,0,0,0,0,0,0
13256000,13176000,4898949633,0.00010063137,0.0031153518,0.002799513,0,0.011546193,0.25468275,nan,nan,nan,0.004633248,0.0,0.0,0.0,0.0,1310988,1310988,6620172,0,0,0,164,1,1,1,2,0,0,0,0,0,0,0,0
13456000,13376000,4898949633,0.0001009529,0.002601724,0.0020805357,0,0.011387971,0.24974276,nan,nan,nan,0.003120805,0.0,0.0,0.0,0.0,1310988,1310988,6620172,0,0,0,164,1,1,1,2,0,0,0,0,0,0,0,0
13656000,13576000,4898949633,0.00010611579,0.0027324045,0.0020719827,0,0.011191024,0.25104332,nan,nan,nan,0.003080991,0.0,0.0,0.0,0.0,1310988,1310988,6620172,0,0,0,164,1,1,1,2,0,0,0,0,0,0,0,0
13864000,13784000,4898949633,9.876733e-05,0.002585905,0.0021164168,0,0.011186066,0.24437778,nan,nan,nan,0.0034765564,0.0,0.0,0.0,0.0,1310988,1310988,6620172,0,0,0,164,1,1,1,2,0,0,0,0,0,0,0,0
14064000,13984000,4898949633,6.67762e-05,0.0019821841,0.0015893467,0,0.010994906,0.24587001,nan,nan,nan,0.004285174,0.0,0.0,0.0,0.0,1310988,1310988,6620172,0,0,0,164,1,1,1,2,0,0,0,0,0,0,0,0
14264000,14184000,4898949633,4.3320655e-05,0.0014157651,0.0013899433,0,0.010808776,0.23963434,nan,nan,nan,0.004486066,0.0,0.0,0.0,0.0,1310988,1310988,6620172,0,0,0,164,1,1,1,2,0,0,0,0,0,0,0,0
14464000,14384000,4898949633,1.9812134e-05,0.0007614743,0.0017626135,0,0.01647103,0.24127391,nan,nan,nan,0.004416663,0.0,0.0,0.0,0.0,1310988,1310988,6620172,0,0,0,164,1,1,1,2,0,0,0,0,0,0,0,0
14656000,14576000,4898949633,2.7121312e-05,0.00087727304,0.0007820555,0,0.015917247,0.23587133,nan,nan,nan,0.0018980427,0.0,0.0,0.0,0.0,1310988,1310988,6620172,0,0,0,164,1,1,1,2,0,0,0,0,0,0,0,0
14856000,14776000,4898949633,2.9343228e-05,0.0010129812,0.00096610095,0,0.015641619,0.23763466,nan,nan,nan,0.0025486988,0.0,0.0,0.0,0.0,1310988,1310988,6620172,0,0,0,164,1,1,1,2,0,0,0,0,0,0,0,0
15064000,14984000,4898949633,2.8618666e-05,0.0010676591,0.0009001408,0,0.015631706,0.23259643,nan,nan,nan,0.0028378349,0.0,0.0,0.0,0.0,1310988,1310988,6620172,0,0,0,164,1,1,1,2,0,0,0,0,0,0,0,0
15256000,15176000,4898949633,3.1126565e-05,0.00087683956,0.001005119,0,0.01510402,0.23421657,nan,nan,nan,0.0023603998,0.0,0.0,0.0,0.0,1310988,1310988,6620172,0,0,0,164,1,1,1,2,0,0,0,0,0,0,0,0
15456000,15376000,4898949633,2.9996925e-05,0.00052835344,0.00064946385,0,0.014842127,0.22980028,nan,nan,nan,0.0046755355,0.0,0.0,0.0,0.0,1310988,1310988,6620172,0,0,0,164,1,1,1,2,0,0,0,0,0,0,0,0
15656000,15576000,4898949633,3.041464e-05,0.0004153263,0.0004326628,0,0.014584964,0.23125486,nan,nan,nan,0.0032266858,0.0,0.0,0.0,0.0,1310988,1310988,6620172,0,0,0,164,1,1,1,2,0,0,0,0,0,0,0,0
15864000,15784000,4898949633,2.8612023e-05,0.00038405287,0.00045306617,0,0.0145776225,0.22738932,nan,nan,nan,0.0027739964,0.0,0.0,0.0,0.0,1310988,1310988,6620172,0,0,0,164,1,1,1,2,0,0,0,0,0,0,0,0
16056000,15976000,4898949633,1.6403026e-05,0.00032825302,0.00022733046,0,0.014084885,0.22868283,nan,nan,nan,0.0034208766,0.0,0.0,0.0,0.0,1310988,1310988,6620172,0,0,0,164,1,1,1,2,0,0,0,0,0,0,0,0
16264000,16184000,4898949633,2.2754686e-05,0.00066152564,0.00046882665,0,0.014078926,0.22507715,nan,nan,nan,0.0020771872,0.0,0.0,0.0,0.0,1310988,1310988,6620172,0,0,0,164,1,1,1,2,0,0,0,0,0,0,0,0
16456000,16376000,4898949633,3.114033e-05,0.00089334947,0.0006138704,0,0.013602889,0.22691117,nan,nan,nan,0.0021020342,0.0,0.0,0.0,0.0,1310988,1310988,6620172,0,0,0,164,1,1,1,2,0,0,0,0,0,0,0,0
16664000,16584000,4832889473,4.4059558e-05,0.0012607648,0.0010959688,0,0.013600291,0.22304767,nan,nan,nan,0.0028897498,0.0,0.0,0.0,0.0,1310988,1310988,6620172,0,0,0,164,1,1,1,2,0,0,0,0,0,0,0,0
16856000,16776000,4832889473,1.2891719e-05,0.0008322087,0.00092117715,0,0.02211769,0.22811563,nan,nan,nan,0.000885775,0.0,0.0,0.0,0.0,1310988,1310988,6620172,0,0,0,164,1,1,1,2,0,0,0,0,0,0,0,0
17056000,16976000,4832889473,1.22278125e-05,0.0010414453,0.0014861815,0,0.04293544,0.22816633,nan,nan,nan,0.0025293813,0.0,0.0,0.0,0.0,1310988,1310988,6620172,0,0,0,164,1,1,1,2,0,0,0,0,0,0,0,0
17264000,17184000,4832889473,1.1324131e-05,0.0011394178,0.001705103,0,0.08041772,0.2349205,nan,nan,nan,0.0020142135,0.0,0.0,0.0,0.0,1310988,1310988,6620172,0,0,0,164,1,1,1,2,0,0,0,0,0,0,0,0
17456000,17376000,4832889473,1.0794321e-05,0.0009490682,0.0008325051,0,0.12893568,0.23567864,nan,nan,nan,0.0045359605,0.0,0.0,0.0,0.0,1310988,1310988,6620172,0,0,0,164,1,1,1,2,0,0,0,0,0,0,0,0
17656000,17576000,4832889473,1.1446024e-05,0.0010846958,0.0016934201,0,0.19334133,0.24433501,nan,nan,nan,0.0038616767,0.0,0.0,0.0,0.0,1310988,1310988,6620172,0,0,0,164,1,1,1,2,0,0,0,0,0,0,0,0
17856000,17776000,4832889473,1.033406e-05,0.0007909904,0.00070081645,0,0.271727,0.24574946,nan,nan,nan,0.004087783,0.0,0.0,0.0,0.0,1310988,1310988,6620172,0,0,0,164,1,1,1,2,0,0,0,0,0,0,0,0
18056000,17976000,4832889473,1.066615e-05,0.00084402337,0.0011563922,0,0.36396962,0.25618896,nan,nan,nan,0.003378469,0.0,0.0,0.0,0.0,1310988,1310988,6620172,0,0,0,164,1,1,1,2,0,0,0,0,0,0,0,0
18256000,18176000,4832889473,1.0104034e-05,0.00040815858,0.0003648191,0,0.4699291,0.2587634,nan,nan,nan,0.0039354744,0.0,0.0,0.0,0.0,1310988,1310988,6620172,0,0,0,164,1,1,1,2,0,0,0,0,0,0,0,0
18456000,18376000,4832889473,1.0354877e-05,0.00068771566,0.00093488506,0,0.5894614,0.27019578,nan,nan,nan,0.0030234854,0.0,0.0,0.0,0.0,1310988,1310988,6620172,0,0,0,164,1,1,1,2,0,0,0,0,0,0,0,0
18664000,18584000,4832889473,1.0595064e-05,0.00026291964,0.0003952111,0,0.72792774,0.2734949,nan,nan,nan,0.0033373274,0.0,0.0,0.0,0.0,1310988,1310988,6620172,0,0,0,164,1,1,1,2,0,0,0,0,0,0,0,0
18856000,18776000,4832889473,1.03961875e-05,0.00017717063,0.0008810555,0,0.86811507,0.2856875,nan,nan,nan,0.0069716396,0.0,0.0,0.0,0.0,1310988,1310988,6620172,0,0,0,164,1,1,1,2,0,0,0,0,0,0,0,0
19056000,18976000,4832889473,1.7043396e-05,0.000532289,0.0023153587,0,1.0263237,0.28786555,nan,nan,nan,0.005365155,0.0,0.0,0.0,0.0,1310988,1310988,6620172,0,0,0,164,1,1,1,2,0,0,0,0,0,0,0,0
19264000,19184000,4832889473,8.823736e-06,0.00035061623,0.00050633406,0,1.203536,0.30247933,nan,nan,nan,0.0042464645,0.0,0.0,0.0,0.0,1310988,1310988,6620172,0,0,0,164,1,1,1,2,0,0,0,0,0,0,0,0
19456000,19376000,4832889473,2.4554547e-05,0.0009406838,0.0036832045,0,1.3837309,0.3028661,nan,nan,nan,0.007677491,0.0,0.0,0.0,0.0,1310988,1310988,6620172,0,0,0,164,1,1,1,2,0,0,0,0,0,0,0,0
19664000,19584000,4832889473,1.0452478e-05,0.00073655543,0.0015934954,0,1.5862567,0.31953466,nan,nan,nan,0.008237971,0.0,0.0,0.0,0.0,1310988,1310988,6620172,0,0,0,164,1,1,1,2,0,0,0,0,0,0,0,0
19856000,19776000,4832889473,2.6835309e-05,0.001426116,0.004556116,0,1.7816484,0.31696323,nan,nan,nan,0.007200059,0.0,0.0,0.0,0.0,1310988,1310988,6620172,0,0,0,164,1,1,1,2,0,0,0,0,0,0,0,0
20064000,19984000,4832889473,9.080769e-06,0.0010467032,0.0013528172,0,2.0034287,0.33413333,nan,nan,nan,0.005099687,0.0,0.0,0.0,0.0,1310988,1310988,6620172,0,0,0,164,1,1,1,2,0,0,0,0,0,0,0,0
20264000,20184000,4832889473,1.9794199e-05,0.0015952018,0.004560098,0,2.2223904,0.33029628,nan,nan,nan,0.007491858,0.0,0.0,0.0,0.0,1310988,1310988,6620172,0,0,0,164,1,1,1,2,0,0,0,0,0,0,0,0
20464000,20384000,4832889473,1.3923074e-05,0.00061009586,0.0024205549,0,2.4446476,0.34688708,nan,nan,nan,0.009226397,0.0,0.0,0.0,0.0,1310988,1310988,6620172,0,0,0,164,1,1,1,2,0,0,0,0,0,0,0,0
20664000,20584000,4832889473,9.357837e-06,0.001508003,0.0052976734,0,2.6664572,0.3425787,nan,nan,nan,0.005915644,0.0,0.0,0.0,0.0,1310988,1310988,6620172,0,0,0,164,1,1,1,2,0,0,0,0,0,0,0,0
20856000,20776000,4832889473,4.3664368e-05,0.0019352017,0.0044149477,0,2.874724,0.35666114,nan,nan,nan,0.0053088437,0.0,0.0,0.0,0.0,1310988,1310988,6620172,0,0,0,164,1,1,1,2,0,0,0,0,0,0,0,0
21056000,20976000,4832889473,2.4908422e-05,0.0024275884,0.007066179,0,3.0872574,0.35046047,nan,nan,nan,0.008556082,0.0,0.0,0.0,0.0,1310988,1310988,6620172,0,0,0,164,1,1,1,2,0,0,0,0,0,0,0,0
21256000,21176000,4832889473,5.513339e-05,0.0029608111,0.0069903247,0,3.2912474,0.36706978,nan,nan,nan,0.008310499,0.0,0.0,0.0,0.0,1310988,1310988,6620172,0,0,0,164,1,1,1,2,0,0,0,0,0,0,0,0
21456000,21376000,4832889473,2.1786547e-05,0.002976816,0.00935586,0,3.4828892,0.35714656,nan,nan,nan,0.011905484,0.0,0.0,0.0,0.0,1310988,1310988,6620172,0,0,0,164,1,1,1,2,0,0,0,0,0,0,0,0
21656000,21576000,4832889473,5.0881445e-05,0.002637287,0.0069360943,0,3.660972,0.37348673,nan,nan,nan,0.0077773808,0.0,0.0,0.0,0.0,1310988,1310988,6620172,0,0,0,164,1,1,1,2,0,0,0,0,0,0,0,0
21864000,21784000,4832889473,1.8064125e-05,0.0022596498,0.0076360707,0,3.8341153,0.36286393,nan,nan,nan,0.007126799,0.0,0.0,0.0,0.0,1310988,1310988,6620172,0,0,0,164,1,1,1,2,0,0,0,0,0,0,0,0
22056000,21976000,4832889473,3.2323253e-05,0.0015423027,0.004711964,0,3.9671936,0.37794343,nan,nan,nan,0.008355055,0.0,0.0,0.0,0.0,1310988,1310988,6620172,0,0,0,164,1,1,1,2,0,0,0,0,0,0,0,0
22256000,22176000,4832889473,3.6445686e-05,0.003073416,0.010021894,0,4.093424,0.36720186,nan,nan,nan,0.0069716293,0.0,0.0,0.0,0.0,1310988,1310988,6620172,0,0,0,164,1,1,1,2,0,0,0,0,0,0,0,0
22456000,22376000,4832889473,3.611981e-05,0.0029078159,0.009015604,0,4.202323,0.38077828,nan,nan,nan,0.009133158,0.0,0.0,0.0,0.0,1310988,1310988,6620172,0,0,0,164,1,1,1,2,0,0,0,0,0,0,0,0
22656000,22576000,4832889473,6.906498e-05,0.005348602,0.016972223,0,4.293085,0.36913645,nan,nan,nan,0.007253846,0.0,0.0,0.0,0.0,1310988,1310988,6620172,0,0,0,164,1,1,1,2,0,0,0,0,0,0,0,0
22864000,22784000,4832889473,5.9835587e-05,0.005099522,0.016404625,0,4.378893,0.38544545,nan,nan,nan,0.009675972,0.0,0.0,0.0,0.0,1310988,1310988,6620172,0,0,0,164,1,1,1,2,0,0,0,0,0,0,0,0
23064000,22984000,4832889473,0.000100785466,0.008005855,0.026717816,0,4.4364743,0.37083516,nan,nan,nan,0.01074065,0.0,0.0,0.0,0.0,1310988,1310988,6620172,0,0,0,164,1,1,1,2,0,0,0,0,0,0,0,0
23264000,23184000,4832889473,7.8847406e-05,0.007131484,0.024441121,0,4.480453,0.38589755,nan,nan,nan,0.011852913,0.0,0.0,0.0,0.0,1310988,1310988,6620172,0,0,0,164,1,1,1,2,0,0,0,0,0,0,0,0
23464000,23384000,4832889473,0.00010004746,0.008413961,0.02972504,0,4.5116253,0.37296197,nan,nan,nan,0.009339828,0.0,0.0,0.0,0.0,1310988,1310988,6620172,0,0,0,164,1,1,1,2,0,0,0,0,0,0,0,0
23664000,23584000,4832889473,8.052656e-05,0.007405855,0.026871176,0,4.532443,0.38560975,nan,nan,nan,0.009236778,0.0,0.0,0.0,0.0,1310988,1310988,6620172,0,0,0,164,1,1,1,2,0,0,0,0,0,0,0,0
23864000,23784000,4832889473,9.658045e-05,0.008205057,0.030508138,0,4.5432878,0.37245113,nan,nan,nan,0.009250679,0.0,0.0,0.0,0.0,1310988,1310988,6620172,0,0,0,164,1,1,1,2,0,0,0,0,0,0,0,0
24064000,23984000,4832889473,7.4651616e-05,0.006807373,0.026160307,0,4.546252,0.38714394,nan,nan,nan,0.009832174,0.0,0.0,0.0,0.0,1310988,1310988,6620172,0,0,0,164,1,1,1,2,0,0,0,0,0,0,0,0
24256000,24176000,4832889473,8.883173e-05,0.0076956684,0.030179784,0,4.53227,0.37076303,nan,nan,nan,0.013553102,0.0,0.0,0.0,0.0,1310988,1310988,6620172,0,0,0,164,1,1,1,2,0,0,0,0,0,0,0,0
24464000,24384000,4832889473,6.693637e-05,0.0057762894,0.023628093,0,4.531663,0.38605312,nan,nan,nan,0.014846098,0.0,0.0,0.0,0.0,1310988,1310988,6620172,0,0,0,164,1,1,1,2,0,0,0,0,0,0,0,0
24656000,24576000,4832889473,2.4144116e-05,0.0031130025,0.012429726,0,4.75633,0.3697739,nan,nan,nan,0.012143972,0.0,0.0,0.0,0.0,1310988,1310988,6620172,0,0,0,164,1,1,1,2,0,0,0,0,0,0,0,0
24864000,24784000,4832889473,1.1167724e-05,0.0006591908,0.003196259,0,4.744223,0.38492373,nan,nan,nan,0.012225206,0.0,0.0,0.0,0.0,1310988,1310988,6620172,0,0,0,164,1,1,1,2,0,0,0,0,0,0,0,0
25056000,24976000,4832889473,1.9916608e-05,0.002031414,0.008139589,0,4.709436,0.37079403,nan,nan,nan,0.012562392,0.0,0.0,0.0,0.0,1310988,1310988,6620172,0,0,0,164,1,1,1,2,0,0,0,0,0,0,0,0
25256000,25176000,4832889473,1.2168623e-05,0.00057631516,0.00043570713,0,4.680838,0.38289002,nan,nan,nan,0.01108025,0.0,0.0,0.0,0.0,1310988,1310988,6620172,0,0,0,164,1,1,1,2,0,0,0,0,0,0,0,0
25456000,25376000,4832889473,1.9005985e-05,0.0021525095,0.007905045,0,4.6495585,0.3697807,nan,nan,nan,0.011183453,0.0,0.0,0.0,0.0,1310988,1310988,6620172,0,0,0,164,1,1,1,2,0,0,0,0,0,0,0,0
25656000,25576000,4832889473,1.2295618e-05,0.0011015928,0.002568614,0,4.616442,0.38411167,nan,nan,nan,0.010923244,0.0,0.0,0.0,0.0,1310988,1310988,6620172,0,0,0,164,1,1,1,2,0,0,0,0,0,0,0,0
25856000,25776000,4832889473,1.8857534e-05,0.0028580215,0.010292415,0,4.5817094,0.36884868,nan,nan,nan,0.014234578,0.0,0.0,0.0,0.0,1310988,1310988,6620172,0,0,0,164,1,1,1,2,0,0,0,0,0,0,0,0
26064000,25984000,4832889473,1.1709012e-05,0.0013868843,0.0037355663,0,4.5537868,0.38398963,nan,nan,nan,0.011387505,0.0,0.0,0.0,0.0,1310988,1310988,6620172,0,0,0,164,1,1,1,2,0,0,0,0,0,0,0,0
26264000,26184000,4832889473,1.5689755e-05,0.0021885089,0.0074430034,0,4.5170226,0.36887366,nan,nan,nan,0.011369454,0.0,0.0,0.0,0.0,1310988,1310988,6620172,0,0,0,164,1,1,1,2,0,0,0,0,0,0,0,0
26456000,26376000,4832889473,1.374503e-05,0.0013563415,0.0034733636,0,4.472512,0.38231936,nan,nan,nan,0.013978477,0.0,0.0,0.0,0.0,1310988,1310988,6620172,0,0,0,164,1,1,1,2,0,0,0,0,0,0,0,0
26656000,26576000,4832889473,1.808661e-05,0.003139717,0.011022324,0,4.4353027,0.36939102,nan,nan,nan,0.014724284,0.0,0.0,0.0,0.0,1310988,1310988,6620172,0,0,0,164,1,1,1,2,0,0,0,0,0,0,0,0
26856000,26776000,4832889473,1.4486694e-05,0.0012879242,0.0032244066,0,4.3981304,0.3815724,nan,nan,nan,0.013337983,0.0,0.0,0.0,0.0,1310988,1310988,6620172,0,0,0,164,1,1,1,2,0,0,0,0,0,0,0,0
27064000,26984000,4832889473,1.6624566e-05,0.0029579492,0.010381966,0,4.367895,0.36958623,nan,nan,nan,0.014767475,0.0,0.0,0.0,0.0,1310988,1310988,6620172,0,0,0,164,1,1,1,2,0,0,0,0,0,0,0,0
27256000,27176000,4832889473,1.4886694e-05,0.0011905944,0.0027255341,0,4.3243527,0.38318726,nan,nan,nan,0.014903961,0.0,0.0,0.0,0.0,1310988,1310988,6620172,0,0,0,164,1,1,1,2,0,0,0,0,0,0,0,0
27456000,27376000,4832889473,1.7285754e-05,0.0025751833,0.008862326,0,4.2880173,0.36820942,nan,nan,nan,0.012335674,0.0,0.0,0.0,0.0,1310988,1310988,6620172,0,0,0,164,1,1,1,2,0,0,0,0,0,0,0,0
27664000,27584000,4832889473,1.4235301e-05,0.0013952343,0.003863449,0,4.25856,0.38346693,nan,nan,nan,0.012813946,0.0,0.0,0.0,0.0,1310988,1310988,6620172,0,0,0,164,1,1,1,2,0,0,0,0,0,0,0,0
27856000,27776000,4832889473,1.6694268e-05,0.002953845,0.010263588,0,4.216986,0.36977902,nan,nan,nan,0.014951225,0.0,0.0,0.0,0.0,1310988,1310988,6620172,0,0,0,164,1,1,1,2,0,0,0,0,0,0,0,0
28064000,27984000,4832889473,1.3868817e-05,0.0012515455,0.0033711658,0,4.188473,0.3830249,nan,nan,nan,0.01232552,0.0,0.0,0.0,0.0,1310988,1310988,6620172,0,0,0,164,1,1,1,2,0,0,0,0,0,0,0,0
28264000,28184000,4832889473,1.50146525e-05,0.0033375223,0.011653379,0,4.1544557,0.37025228,nan,nan,nan,0.017624445,0.0,0.0,0.0,0.0,1310988,1310988,6620172,0,0,0,164,1,1,1,2,0,0,0,0,0,0,0,0
28456000,28376000,4832889473,1.3261121e-05,0.0010827656,0.0030598075,0,4.115394,0.3817989,nan,nan,nan,0.017501596,0.0,0.0,0.0,0.0,1310988,1310988,6620172,0,0,0,164,1,1,1,2,0,0,0,0,0,0,0,0
28656000,28576000,4832889473,1.3524502e-05,0.0038604552,0.0136940805,0,4.0830135,0.36914417,nan,nan,nan,0.017876863,0.0,0.0,0.0,0.0,1310988,1310988,6620172,0,0,0,164,1,1,1,2,0,0,0,0,0,0,0,0
28864000,28784000,4831840897,1.1729268e-05,0.00094985304,0.0022516488,0,4.0570045,0.3846607,nan,nan,nan,0.018412845,0.0,0.0,0.0,0.0,1310988,1310988,6620172,0,0,0,164,1,1,1,2,0,0,0,0,0,0,0,0
29056000,28976000,4831840897,1.2104682e-05,0.0043164277,0.015255852,0,4.02066,0.36889103,nan,nan,nan,0.018629162,0.0,0.0,0.0,0.0,1310988,1310988,6620172,0,0,0,164,1,1,1,2,0,0,0,0,0,0,0,0
29264000,29184000,4831840897,1.078682e-05,0.00090671796,0.0021287613,0,3.9960938,0.3843924,nan,nan,nan,0.018208984,0.0,0.0,0.0,0.0,1310988,1310988,6620172,0,0,0,164,1,1,1,2,0,0,0,0,0,0,0,0
29456000,29376000,4831840897,1.0926325e-05,0.004502199,0.015904808,0,3.9616337,0.36870313,nan,nan,nan,0.018995136,0.0,0.0,0.0,0.0,1310988,1310988,6620172,0,0,0,164,1,1,1,2,0,0,0,0,0,0,0,0
29664000,29584000,4831840897,1.0007424e-05,0.000984613,0.0025053513,0,3.9385881,0.38424182,nan,nan,nan,0.020269638,0.0,0.0,0.0,0.0,1310988,1310988,6620172,0,0,0,164,1,1,1,2,0,0,0,0,0,0,0,0
29856000,29776000,4831840897,1.0325308e-05,0.004469264,0.01640098,0,4.0645714,0.37060177,nan,nan,nan,0.020719923,0.0,0.0,0.0,0.0,1310988,1310988,6620172,0,0,0,164,1,1,1,2,0,0,0,0,0,0,0,0
30064000,29984000,4831840897,1.0453953e-05,0.0017701042,0.007969992,0,4.0404167,0.3840403,nan,nan,nan,0.020829137,0.0,0.0,0.0,0.0,1310988,1310988,6620172,0,0,0,164,1,1,1,2,0,0,0,0,0,0,0,0
30256000,30176000,4831840897,1.0209925e-05,0.0049581625,0.018060809,0,4.0068154,0.3704254,nan,nan,nan,0.021590024,0.0,0.0,0.0,0.0,1310988,1310988,6620172,0,0,0,164,1,1,1,2,0,0,0,0,0,0,0,0
30464000,30384000,4831840897,1.0263932e-05,0.0016606223,0.007561998,0,3.984552,0.38384926,nan,nan,nan,0.020316571,0.0,0.0,0.0,0.0,1310988,1310988,6620172,0,0,0,164,1,1,1,2,0,0,0,0,0,0,0,0
30656000,30576000,4831840897,1.0060379e-05,0.0046991194,0.01711784,0,3.953126,0.37023377,nan,nan,nan,0.019241143,0.0,0.0,0.0,0.0,1310988,1310988,6620172,0,0,0,164,1,1,1,2,0,0,0,0,0,0,0,0
30856000,30776000,4831840897,9.880359e-06,0.001496204,0.006935178,0,3.927801,0.3850696,nan,nan,nan,0.02449167,0.0,0.0,0.0,0.0,1310988,1310988,6620172,0,0,0,164,1,1,1,2,0,0,0,0,0,0,0,0
31064000,30984000,4831840897,1.00426505e-05,0.0051365155,0.018671785,0,3.908392,0.37088194,nan,nan,nan,0.02292996,0.0,0.0,0.0,0.0,1310988,1310988,6620172,0,0,0,164,1,1,1,2,0,0,0,0,0,0,0,0
31256000,31176000,4831840897,9.682714e-06,0.0013669078,0.006461341,0,3.880175,0.38486093,nan,nan,nan,0.021609956,0.0,0.0,0.0,0.0,1310988,1310988,6620172,0,0,0,164,1,1,1,2,0,0,0,0,0,0,0,0
31464000,31384000,4831840897,9.883439e-06,0.0045321756,0.01648759,0,3.862687,0.37068775,nan,nan,nan,0.022890482,0.0,0.0,0.0,0.0,1310988,1310988,6620172,0,0,0,164,1,1,1,2,0,0,0,0,0,0,0,0
31664000,31584000,4831840897,9.672298e-06,0.0013494628,0.0063809063,0,3.8413522,0.38548258,nan,nan,nan,0.02354442,0.0,0.0,0.0,0.0,1310988,1310988,6620172,0,0,0,164,1,1,1,2,0,0,0,0,0,0,0,0
31864000,31784000,4831840897,9.819244e-06,0.004628262,0.016737936,0,3.8210187,0.37045753,nan,nan,nan,0.024722295,0.0,0.0,0.0,0.0,1310988,1310988,6620172,0,0,0,164,1,1,1,2,0,0,0,0,0,0,0,0
32056000,31976000,4831840897,9.52772e-06,0.0011717543,0.0058696703,0,3.7969732,0.38433245,nan,nan,nan,0.023236241,0.0,0.0,0.0,0.0,1310988,1310988,6620172,0,0,0,164,1,1,1,2,0,0,0,0,0,0,0,0
32264000,32184000,4831840897,9.9739145e-06,0.005465397,0.019699719,0,3.7833357,0.37019044,nan,nan,nan,0.02616768,0.0,0.0,0.0,0.0,1310988,1310988,6620172,0,0,0,164,1,1,1,2,0,0,0,0,0,0,0,0
32456000,32376000,4831840897,9.815507e-06,0.0010908492,0.005787695,0,3.7613096,0.3840329,nan,nan,nan,0.02461659,0.0,0.0,0.0,0.0,1310988,1310988,6620172,0,0,0,164,1,1,1,2,0,0,0,0,0,0,0,0
32656000,32576000,4831840897,1.0565498e-05,0.0050453497,0.018321034,0,3.7449362,0.37112224,nan,nan,nan,0.025741244,0.0,0.0,0.0,0.0,1310988,1310988,6620172,0,0,0,164,1,1,1,2,0,0,0,0,0,0,0,0
32864000,32784000,4831840897,1.0533249e-05,0.0011313151,0.0061542727,0,3.7341573,0.38456333,nan,nan,nan,0.025320873,0.0,0.0,0.0,0.0,1310988,1310988,6620172,0,0,0,164,1,1,1,2,0,0,0,0,0,0,0,0
33064000,32984000,4831840897,1.168286e-05,0.0045526726,0.016760798,0,3.7196863,0.3716574,nan,nan,nan,0.023748228,0.0,0.0,0.0,0.0,1310988,1310988,6620172,0,0,0,164,1,1,1,2,0,0,0,0,0,0,0,0
33264000,33184000,4831840897,1.1809178e-05,0.0012211713,0.0069147237,0,3.7061281,0.38648382,nan,nan,nan,0.026109535,0.0,0.0,0.0,0.0,1310988,1310988,6620172,0,0,0,164,1,1,1,2,0,0,0,0,0,0,0,0
33456000,33376000,4832889473,1.3323689e-05,0.004829334,0.018029029,0,3.688657,0.37041697,nan,nan,nan,0.024325956,0.0,0.0,0.0,0.0,1310988,1310988,6620172,0,0,0,164,1,1,1,2,0,0,0,0,0,0,0,0
33656000,33576000,4832889473,1.3667202e-05,0.0016986117,0.009020677,0,3.676331,0.38513017,nan,nan,nan,0.024343554,0.0,0.0,0.0,0.0,1310988,1310988,6620172,0,0,0,164,1,1,1,2,0,0,0,0,0,0,0,0
33864000,33784000,4832889473,1.5447424e-05,0.0045704036,0.01749209,0,3.6693466,0.37286356,nan,nan,nan,0.025828032,0.0,0.0,0.0,0.0,1310988,1310988,6620172,0,0,0,164,1,1,1,2,0,0,0,0,0,0,0,0
34056000,33976000,4832889473,1.6020444e-05,0.0018422545,0.010338007,0,3.6542213,0.38456148,nan,nan,nan,0.02412964,0.0,0.0,0.0,0.0,1310988,1310988,6620172,0,0,0,164,1,1,1,2,0,0,0,0,0,0,0,0
34264000,34184000,4832889473,1.801465e-05,0.0047397492,0.018677317,0,3.6492639,0.3723331,nan,nan,nan,0.025860552,0.0,0.0,0.0,0.0,1310988,1310988,6620172,0,0,0,164,1,1,1,2,0,0,0,0,0,0,0,0
34456000,34376000,4832889473,1.9000046e-05,0.0021910728,0.012484625,0,3.6359906,0.38626233,nan,nan,nan,0.025458397,0.0,0.0,0.0,0.0,1310988,1310988,6620172,0,0,0,164,1,1,1,2,0,0,0,0,0,0,0,0
34664000,34584000,4832889473,2.1480404e-05,0.0047849747,0.019695284,0,3.6328003,0.37174407,nan,nan,nan,0.024884518,0.0,0.0,0.0,0.0,1310988,1310988,6620172,0,0,0,164,1,1,1,2,0,0,0,0,0,0,0,0
34864000,34784000,4832889473,2.2461716e-05,0.0027486312,0.014967487,0,3.625827,0.3864639,nan,nan,nan,0.025098069,0.0,0.0,0.0,0.0,1310988,1310988,6620172,0,0,0,164,1,1,1,2,0,0,0,0,0,0,0,0
35056000,34976000,4832889473,1.0689377e-05,0.0039028137,0.013898343,0,3.7395513,0.37032816,nan,nan,nan,0.023149299,0.0,0.0,0.0,0.0,1310988,1310988,6620172,0,0,0,164,1,1,1,2,0,0,0,0,0,0,0,0
35256000,35176000,4832889473,1.08737195e-05,0.001808137,0.0070921923,0,3.7339027,0.38501614,nan,nan,nan,0.025080629,0.0,0.0,0.0,0.0,1310988,1310988,6620172,0,0,0,164,1,1,1,2,0,0,0,0,0,0,0,0
35456000,35376000,4832889473,1.1540922e-05,0.0039156876,0.013936529,0,3.7290878,0.37192214,nan,nan,nan,0.026075685,0.0,0.0,0.0,0.0,1310988,1310988,6620172,0,0,0,164,1,1,1,2,0,0,0,0,0,0,0,0
35656000,35576000,4832889473,1.1926743e-05,0.0018036176,0.0072751488,0,3.7250764,0.38445392,nan,nan,nan,0.02494171,0.0,0.0,0.0,0.0,1310988,1310988,6620172,0,0,0,164,1,1,1,2,0,0,0,0,0,0,0,0
35856000,35776000,4832889473,1.3686905e-05,0.0033344014,0.012108365,0,3.7218273,0.37139583,nan,nan,nan,0.023082588,0.0,0.0,0.0,0.0,1310988,1310988,6620172,0,0,0,164,1,1,1,2,0,0,0,0,0,0,0,0
36064000,35984000,4832889473,1.3523677e-05,0.0022834572,0.009045787,0,3.7242713,0.38472977,nan,nan,nan,0.022385456,0.0,0.0,0.0,0.0,1310988,1310988,6620172,0,0,0,164,1,1,1,2,0,0,0,0,0,0,0,0
36264000,36184000,4832889473,1.6323513e-05,0.0029833564,0.0111091435,0,3.7224653,0.37172842,nan,nan,nan,0.022754353,0.0,0.0,0.0,0.0,1310988,1310988,6620172,0,0,0,164,1,1,1,2,0,0,0,0,0,0,0,0
36464000,36384000,4832889473,1.7492923e-05,0.0026464693,0.010719769,0,3.7213044,0.38649598,nan,nan,nan,0.022250662,0.0,0.0,0.0,0.0,1310988,1310988,6620172,0,0,0,164,1,1,1,2,0,0,0,0,0,0,0,0
36656000,36576000,4832889473,2.3417297e-05,0.0028449222,0.011501017,0,3.7156692,0.37037173,nan,nan,nan,0.020824796,0.0,0.0,0.0,0.0,1310988,1310988,6620172,0,0,0,164,1,1,1,2,0,0,0,0,0,0,0,0
36864000,36784000,4832889473,2.3572056e-05,0.0030125668,0.012637562,0,3.720712,0.38589185,nan,nan,nan,0.021656897,0.0,0.0,0.0,0.0,1310988,1310988,6620172,0,0,0,164,1,1,1,2,0,0,0,0,0,0,0,0
37064000,36984000,4832889473,2.9109926e-05,0.0025410077,0.011409709,0,3.7211878,0.3727345,nan,nan,nan,0.019688625,0.0,0.0,0.0,0.0,1310988,1310988,6620172,0,0,0,164,1,1,1,2,0,0,0,0,0,0,0,0
37264000,37184000,4832889473,3.1912874e-05,0.0030956685,0.013953823,0,3.7218506,0.3852635,nan,nan,nan,0.021079274,0.0,0.0,0.0,0.0,1310988,1310988,6620172,0,0,0,164,1,1,1,2,0,0,0,0,0,0,0,0
37456000,37376000,4832889473,4.4284094e-05,0.010648933,0.040771957,0,3.717901,0.37099478,nan,nan,nan,0.04962838,0.0,0.0,0.0,0.0,1310988,1310988,6620172,0,0,0,164,1,1,1,2,0,0,0,0,0,0,0,0
37656000,37576000,4832889473,4.614529e-05,0.0041613616,0.020180881,0,3.7196982,0.38483456,nan,nan,nan,0.05078201,0.0,0.0,0.0,0.0,1310988,1310988,6620172,0,0,0,164,1,1,1,2,0,0,0,0,0,0,0,0
37864000,37784000,4832889473,5.9508166e-05,0.025858678,0.10327076,0,3.7269049,0.36938885,nan,nan,nan,0.095673755,0.0,0.0,0.0,0.0,1310988,1310988,6620172,0,0,0,164,1,1,1,2,0,0,0,0,0,0,0,0
38056000,37976000,4832889473,6.150171e-05,0.014254073,0.062147018,0,3.7236614,0.37929803,nan,nan,nan,0.106840834,0.0,0.0,0.0,0.0,1310988,1310988,6620172,0,0,0,164,1,1,1,2,0,0,0,0,0,0,0,0
38256000,38176000,4832889473,8.051341e-05,0.038800206,0.16244423,0,3.725679,0.36527303,nan,nan,nan,0.13544728,0.0,0.0,0.0,0.0,1310988,1310988,6620172,0,0,0,164,1,1,1,2,0,0,0,0,0,0,0,0
38456000,38376000,4832889473,7.0304886e-05,0.016454712,0.07641764,0,3.7277102,0.37739003,nan,nan,nan,0.14119811,0.0,0.0,0.0,0.0,1310988,1310988,6620172,0,0,0,164,1,1,1,2,0,0,0,0,0,0,0,0
38656000,38576000,4832889473,9.5782314e-05,0.0447411,0.19511677,0,3.7296937,0.36133173,nan,nan,nan,0.16276625,0.0,0.0,0.0,0.0,1310988,1310988,6620172,0,0,0,164,1,1,1,2,0,0,0,0,0,0,0,0
38864000,38784000,4832889473,7.9605714e-05,0.016826583,0.08210679,0,3.7370367,0.37353212,nan,nan,nan,0.16877846,0.0,0.0,0.0,0.0,1310988,1310988,6620172,0,0,0,164,1,1,1,2,0,0,0,0,0,0,0,0
39064000,38984000,4832889473,0.00011143835,0.04533928,0.20409559,0,3.7389402,0.3579174,nan,nan,nan,0.1845388,0.0,0.0,0.0,0.0,1310988,1310988,6620172,0,0,0,164,1,1,1,2,0,0,0,0,0,0,0,0
39264000,39184000,4832889473,9.1319205e-05,0.0165414,0.08359396,0,3.740805,0.36902636,nan,nan,nan,0.18912113,0.0,0.0,0.0,0.0,1310988,1310988,6620172,0,0,0,164,1,1,1,2,0,0,0,0,0,0,0,0
39456000,39376000,4832889473,0.00013011962,0.04546339,0.20754424,0,3.737122,0.35517374,nan,nan,nan,0.20030046,0.0,0.0,0.0,0.0,1310988,1310988,6620172,0,0,0,164,1,1,1,2,0,0,0,0,0,0,0,0
39656000,39576000,4832889473,0.000108094624,0.017618006,0.08929859,0,3.7387927,0.36424702,nan,nan,nan,0.20733781,0.0,0.0,0.0,0.0,1310988,1310988,6620172,0,0,0,164,1,1,1,2,0,0,0,0,0,0,0,0
39856000,39776000,4832889473,0.00014867962,0.045493275,0.20742677,0,3.7403338,0.35172215,nan,nan,nan,0.21384566,0.0,0.0,0.0,0.0,1310988,1310988,6620172,0,0,0,164,1,1,1,2,0,0,0,0,0,0,0,0
40056000,39976000,4832889473,0.00011808397,0.013894289,0.07297342,0,3.7426083,0.36266902,nan,nan,nan,0.21439093,0.0,0.0,0.0,0.0,1310988,1310988,6620172,0,0,0,164,1,1,1,2,0,0,0,0,0,0,0,0
40256000,40176000,4832889473,6.471864e-05,0.041847188,0.19221684,0,3.8837948,0.34865126,nan,nan,nan,0.21721336,0.0,0.0,0.0,0.0,1310988,1310988,6620172,0,0,0,164,1,1,1,2,0,0,0,0,0,0,0,0
40464000,40384000,4832889473,2.7153612e-05,0.005831386,0.034928277,0,3.8922,0.3599379,nan,nan,nan,0.21829177,0.0,0.0,0.0,0.0,1310988,1310988,6620172,0,0,0,164,1,1,1,2,0,0,0,0,0,0,0,0
40656000,40576000,4832889473,7.055516e-05,0.035294484,0.16639638,0,3.8888035,0.3472776,nan,nan,nan,0.22769901,0.0,0.0,0.0,0.0,1310988,1310988,6620172,0,0,0,164,1,1,1,2,0,0,0,0,0,0,0,0
40864000,40784000,4832889473,3.5480265e-05,0.0033445596,0.02428188,0,3.8967538,0.35650295,nan,nan,nan,0.22663435,0.0,0.0,0.0,0.0,1310988,1310988,6620172,0,0,0,164,1,1,1,2,0,0,0,0,0,0,0,0
41064000,40984000,4832889473,7.53061e-05,0.029997814,0.145596,0,3.8986187,0.34476572,nan,nan,nan,0.22135876,0.0,0.0,0.0,0.0,1310988,1310988,6620172,0,0,0,164,1,1,1,2,0,0,0,0,0,0,0,0
41256000,41176000,4832889473,4.7944992e-05,0.00096774945,0.0067418003,0,3.8943417,0.3542918,nan,nan,nan,0.22354203,0.0,0.0,0.0,0.0,1310988,1310988,6620172,0,0,0,164,1,1,1,2,0,0,0,0,0,0,0,0
41456000,41376000,4832889473,8.972678e-05,0.029197428,0.14303102,0,3.8955703,0.34115082,nan,nan,nan,0.21833105,0.0,0.0,0.0,0.0,1310988,1310988,6620172,0,0,0,164,1,1,1,2,0,0,0,0,0,0,0,0
41664000,41584000,4832889473,5.1919422e-05,0.0037964787,0.008270594,0,3.9023278,0.3517337,nan,nan,nan,0.22302558,0.0,0.0,0.0,0.0,1310988,1310988,6620172,0,0,0,164,1,1,1,2,0,0,0,0,0,0,0,0
41864000,41784000,4832889473,9.37864e-05,0.025045648,0.1230648,0,3.902882,0.33907092,nan,nan,nan,0.22408348,0.0,0.0,0.0,0.0,1310988,1310988,6620172,0,0,0,164,1,1,1,2,0,0,0,0,0,0,0,0
42064000,41984000,4832889473,6.129221e-05,0.005311321,0.016953772,0,3.903083,0.34905592,nan,nan,nan,0.22396865,0.0,0.0,0.0,0.0,1310988,1310988,6620172,0,0,0,164,1,1,1,2,0,0,0,0,0,0,0,0
42256000,42176000,4832889473,0.00010496173,0.022970805,0.10981632,0,3.897044,0.33790448,nan,nan,nan,0.22147968,0.0,0.0,0.0,0.0,1310988,1310988,6620172,0,0,0,164,1,1,1,2,0,0,0,0,0,0,0,0
42456000,42376000,4832889473,7.601131e-05,0.0058914297,0.022361357,0,3.8965113,0.34647593,nan,nan,nan,0.21994378,0.0,0.0,0.0,0.0,1310988,1310988,6620172,0,0,0,164,1,1,1,2,0,0,0,0,0,0,0,0
42664000,42584000,4832889473,0.00010702247,0.019989343,0.09051706,0,3.9014804,0.3370545,nan,nan,nan,0.21778332,0.0,0.0,0.0,0.0,1310988,1310988,6620172,0,0,0,164,1,1,1,2,0,0,0,0,0,0,0,0
42864000,42784000,4832889473,7.806559e-05,0.0076793963,0.03415613,0,3.9002097,0.34597686,nan,nan,nan,0.21454538,0.0,0.0,0.0,0.0,1310988,1310988,6620172,0,0,0,164,1,1,1,2,0,0,0,0,0,0,0,0
43064000,42984000,4832889473,0.00011320517,0.01972027,0.08209004,0,3.8985674,0.3364701,nan,nan,nan,0.20629413,0.0,0.0,0.0,0.0,1310988,1310988,6620172,0,0,0,164,1,1,1,2,0,0,0,0,0,0,0,0
43256000,43176000,4832889473,9.215665e-05,0.0069623203,0.034828708,0,3.8907022,0.3451965,nan,nan,nan,0.21280433,0.0,0.0,0.0,0.0,1310988,1310988,6620172,0,0,0,164,1,1,1,2,0,0,0,0,0,0,0,0
43456000,43376000,4832889473,0.000119742064,0.022121713,0.084372155,0,3.8883407,0.33615756,nan,nan,nan,0.20206073,0.0,0.0,0.0,0.0,1310988,1310988,6620172,0,0,0,164,1,1,1,2,0,0,0,0,0,0,0,0
43664000,43584000,4832889473,8.783365e-05,0.009570199,0.049624566,0,3.8914733,0.34837842,nan,nan,nan,0.20525235,0.0,0.0,0.0,0.0,1310988,1310988,6620172,0,0,0,164,1,1,1,2,0,0,0,0,0,0,0,0
43856000,43776000,4832889473,0.00011544463,0.02222936,0.076820746,0,3.8825736,0.33734354,nan,nan,nan,0.19473112,0.0,0.0,0.0,0.0,1310988,1310988,6620172,0,0,0,164,1,1,1,2,0,0,0,0,0,0,0,0
44064000,43984000,4832889473,8.5944324e-05,0.010182709,0.055086214,0,3.8850083,0.35021383,nan,nan,nan,0.19506222,0.0,0.0,0.0,0.0,1310988,1310988,6620172,0,0,0,164,1,1,1,2,0,0,0,0,0,0,0,0
44264000,44184000,4832889473,0.00010991889,0.020810045,0.06397077,0,3.8812814,0.34004676,nan,nan,nan,0.18556583,0.0,0.0,0.0,0.0,1310988,1310988,6620172,0,0,0,164,1,1,1,2,0,0,0,0,0,0,0,0
44464000,44384000,4832889473,8.5002765e-05,0.009835957,0.055921968,0,3.8772447,0.35284445,nan,nan,nan,0.18676065,0.0,0.0,0.0,0.0,1310988,1310988,6620172,0,0,0,164,1,1,1,2,0,0,0,0,0,0,0,0
44656000,44576000,4832889473,0.00010730478,0.021792637,0.062359784,0,3.8671222,0.34364262,nan,nan,nan,0.17359734,0.0,0.0,0.0,0.0,1310988,1310988,6620172,0,0,0,164,1,1,1,2,0,0,0,0,0,0,0,0
44856000,44776000,4832889473,8.662977e-05,0.009656536,0.05648286,0,3.8625138,0.3571576,nan,nan,nan,0.1827184,0.0,0.0,0.0,0.0,1310988,1310988,6620172,0,0,0,164,1,1,1,2,0,0,0,0,0,0,0,0
45064000,44984000,4898949633,0.0010524836,0.093864076,0.28284714,0,0.014704506,0.31933847,nan,nan,nan,0.13923275,0.0,0.0,0.0,0.0,1310988,1310988,6620172,0,0,0,164,1,1,1,2,0,0,0,0,0,0,0,0
45256000,45176000,4898949633,0.00012808565,0.048640143,0.08496936,0,0.013424999,0.31041235,nan,nan,nan,0.13664006,0.0,0.0,0.0,0.0,1310988,1310988,6620172,0,0,0,164,1,1,1,2,0,0,0,0,0,0,0,0
45456000,45376000,4898949633,1.5600666e-05,0.02413969,0.046353433,0,0.030647364,0.29208815,nan,nan,nan,0.116828755,0.0,0.0,0.0,0.0,1310988,1310988,6620172,0,0,0,164,1,1,1,2,0,0,0,0,0,0,0,0
45656000,45576000,4898949633,1.6309668e-05,0.012883831,0.08294667,0,0.027203804,0.2888116,nan,nan,nan,0.11566515,0.0,0.0,0.0,0.0,1310988,1310988,6620172,0,0,0,164,1,1,1,2,0,0,0,0,0,0,0,0
45864000,45784000,4898949633,1.9667812e-05,0.021622498,0.0922225,0,0.026309652,0.27665132,nan,nan,nan,0.11145173,0.0,0.0,0.0,0.0,1310988,1310988,6620172,0,0,0,164,1,1,1,2,0,0,0,0,0,0,0,0
46056000,45976000,4898949633,2.4807008e-05,0.033626925,0.14099365,0,0.023229275,0.2760127,nan,nan,nan,0.11739533,0.0,0.0,0.0,0.0,1310988,1310988,6620172,0,0,0,164,1,1,1,2,0,0,0,0,0,0,0,0
46256000,46176000,4898949633,3.088832e-05,0.033087343,0.11900772,0,0.02089227,0.26537544,nan,nan,nan,0.1050873,0.0,0.0,0.0,0.0,1310988,1310988,6620172,0,0,0,164,1,1,1,2,0,0,0,0,0,0,0,0
46464000,46384000,4898949633,2.2427213e-05,0.039955836,0.15242964,0,0.019384699,0.2662368,nan,nan,nan,0.10359046,0.0,0.0,0.0,0.0,1310988,1310988,6620172,0,0,0,164,1,1,1,2,0,0,0,0,0,0,0,0
46656000,46576000,4898949633,2.2945533e-05,0.035796728,0.11890759,0,0.01747717,0.25767493,nan,nan,nan,0.10123724,0.0,0.0,0.0,0.0,1310988,1310988,6620172,0,0,0,164,1,1,1,2,0,0,0,0,0,0,0,0
46864000,46784000,4898949633,2.4266361e-05,0.039701656,0.14457005,0,0.016663369,0.2582463,nan,nan,nan,0.09843673,0.0,0.0,0.0,0.0,1310988,1310988,6620172,0,0,0,164,1,1,1,2,0,0,0,0,0,0,0,0
47064000,46984000,4898949633,2.7325405e-05,0.035417117,0.11259671,0,0.015774967,0.25103852,nan,nan,nan,0.09664972,0.0,0.0,0.0,0.0,1310988,1310988,6620172,0,0,0,164,1,1,1,2,0,0,0,0,0,0,0,0
47256000,47176000,4898949633,3.3069413e-05,0.037967414,0.13212574,0,0.014825988,0.2520393,nan,nan,nan,0.09381145,0.0,0.0,0.0,0.0,1310988,1310988,6620172,0,0,0,164,1,1,1,2,0,0,0,0,0,0,0,0
47464000,47384000,4898949633,2.7172304e-05,0.03324523,0.10087487,0,0.014559511,0.24522561,nan,nan,nan,0.09314099,0.0,0.0,0.0,0.0,1310988,1310988,6620172,0,0,0,164,1,1,1,2,0,0,0,0,0,0,0,0
47656000,47576000,4898949633,2.3251683e-05,0.035152595,0.11815446,0,0.013885639,0.24640225,nan,nan,nan,0.09235737,0.0,0.0,0.0,0.0,1310988,1310988,6620172,0,0,0,164,1,1,1,2,0,0,0,0,0,0,0,0
