timestamp,timestamp_sample,gyro_device_id,gyro_bias[0],gyro_bias[1],gyro_bias[2],gyro_bias_limit,gyro_bias_variance[0],gyro_bias_variance[1],gyro_bias_variance[2],accel_device_id,accel_bias[0],accel_bias[1],accel_bias[2],accel_bias_limit,accel_bias_variance[0],accel_bias_variance[1],accel_bias_variance[2],mag_device_id,mag_bias[0],mag_bias[1],mag_bias[2],mag_bias_limit,mag_bias_variance[0],mag_bias_variance[1],mag_bias_variance[2],gyro_bias_valid,gyro_bias_stable,accel_bias_valid,accel_bias_stable,mag_bias_valid,mag_bias_stable
3160000,3160000,1310988,0.0,0.0,0.0,0.15,0.009960121,0.009960121,0.009960038,1310988,0.0,0.0,0.0,0.4,0.039840482,0.039840482,0.039840482,0,0.0,0.0,0.0,0.0,0.0,0.0,0.0,1,0,1,0,0,0
3480000,3400000,1310988,-0.00083772046,-0.0007169857,1.8861778e-05,0.15,0.010059305,0.010063086,0.0036953099,1310988,-0.00066300493,0.0003085777,-0.094457485,0.4,0.040695842,0.04069836,0.0045082555,0,0.0,0.0,0.0,0.0,0.0,0.0,0.0,1,0,1,0,0,0
3536000,3456000,1310988,-0.00084749685,-0.0007253418,1.8566227e-05,0.15,0.010295205,0.010299087,0.0037507464,1310988,-0.0006707275,0.00031216865,-0.09555869,0.4,0.04165025,0.04165283,0.0046139904,0,0.0,0.0,0.0,0.0,0.0,0.0,0.0,1,0,1,0,0,0
3592000,3512000,1310988,-0.000856807,-0.00073330995,1.8770184e-05,0.15,0.010522645,0.0105266115,0.0038336075,1310988,-0.00067809573,0.00031559795,-0.09660844,0.4,0.04257038,0.042573012,0.004715927,0,0.0,0.0,0.0,0.0,0.0,0.0,0.0,1,0,1,0,0,0
3656000,3576000,1310988,-0.000857528,-0.00072483544,1.889631e-05,0.15,0.010236652,0.010240629,0.0039241537,1310988,-0.00068468734,0.0003185493,-0.09774664,0.4,0.043575767,0.043578453,0.0048277024,0,0.0,0.0,0.0,0.0,0.0,0.0,0.0,1,0,1,0,0,0
3704000,3624000,1310988,-0.00087226264,-0.0007914831,2.1861793e-05,0.15,0.009812469,0.009816485,0.0037689374,1310988,-0.00070211256,0.00032651494,-0.098765105,0.4,0.044297107,0.044299837,0.004874074,0,0.0,0.0,0.0,0.0,0.0,0.0,0.0,1,0,1,0,0,0
3768000,3688000,1310988,-0.0008813583,-0.00079973636,2.208976e-05,0.15,0.010018177,0.010022278,0.0038479497,1310988,-0.0007094339,0.0003299197,-0.09979499,0.4,0.04522575,0.04522854,0.0049762595,0,0.0,0.0,0.0,0.0,0.0,0.0,0.0,1,0,1,0,0,0
3840000,3760000,1310988,-0.00089095463,-0.00080844405,2.2330278e-05,0.15,0.010237525,0.010241716,0.0039322013,1310988,-0.0007171584,0.00033351194,-0.10088158,0.4,0.046215974,0.046218824,0.0050852215,0,0.0,0.0,0.0,0.0,0.0,0.0,0.0,1,0,1,0,0,0
3896000,3816000,1310988,-0.0007932188,-0.0019724255,1.2319858e-05,0.15,0.0033462616,0.0033480173,0.003990357,1310988,-0.00085966696,0.00034004447,-0.10229544,0.4,0.046875585,0.046878405,0.005028436,0,0.0,0.0,0.0,0.0,0.0,0.0,0.0,1,0,1,0,0,0
3976000,3896000,1310988,-0.00080188684,-0.0019927432,-5.9170225e-06,0.15,0.0034162567,0.0034181671,0.0035570448,1310988,-0.0008685787,0.0003435271,-0.103363276,0.4,0.047859322,0.047862202,0.0051339706,0,0.0,0.0,0.0,0.0,0.0,0.0,0.0,1,0,1,0,0,0
4064000,3984000,1310988,-0.00081025966,-0.00201355,-5.9788067e-06,0.15,0.0034879723,0.0034899227,0.003631716,1310988,-0.0008776368,0.00034710564,-0.104442194,0.4,0.048864007,0.048866946,0.0052417335,0,0.0,0.0,0.0,0.0,0.0,0.0,0.0,1,0,1,0,0,0
4072000,3992000,1310988,-0.000871245,-0.0030690688,-1.06465895e-05,0.15,0.0011633578,0.0011639657,0.0036369758,1310988,-0.0010135337,0.00035518006,-0.10453279,0.4,0.048913065,0.04891601,0.0052510784,0,0.0,0.0,0.0,0.0,0.0,0.0,0.0,1,0,1,0,0,0
4104000,4024000,1310988,-0.0008756376,-0.0031584213,-1.1076812e-05,0.15,0.0011032454,0.0011038145,0.003662443,1310988,-0.0010705228,0.00038577523,-0.106154166,0.4,0.049252216,0.049255263,0.004996597,0,0.0,0.0,0.0,0.0,0.0,0.0,0.0,1,0,1,0,0,0
4200000,4120000,1310988,-0.0008840397,-0.0031894832,-3.1879324e-06,0.15,0.0011246252,0.0011252848,0.0030057658,1310988,-0.0010810487,0.00038959662,-0.10719409,0.4,0.05022115,0.050224256,0.0050948844,0,0.0,0.0,0.0,0.0,0.0,0.0,0.0,1,0,1,0,0,0
4304000,4224000,1310988,-0.0009026062,-0.0037251287,-5.225398e-06,0.15,0.00057424133,0.00057451864,0.0030624985,1310988,-0.0012009887,0.00039569562,-0.10820991,0.4,0.05114709,0.051150285,0.0051914547,0,0.0,0.0,0.0,0.0,0.0,0.0,0.0,1,0,1,0,0,0
4312000,4232000,1310988,-0.0008977196,-0.0037905418,-5.6401745e-06,0.15,0.00054900104,0.00054926256,0.003066634,1310988,-0.001276717,0.00043736506,-0.110108234,0.4,0.051212285,0.051215585,0.0047478336,0,0.0,0.0,0.0,0.0,0.0,0.0,0.0,1,0,1,0,0,0
4432000,4352000,1310988,-0.00090628315,-0.0038263714,-8.752539e-06,0.15,0.0005591113,0.0005594355,0.002372064,1310988,-0.0012886192,0.0004413511,-0.11114432,0.4,0.052186523,0.052189883,0.0048380313,0,0.0,0.0,0.0,0.0,0.0,0.0,0.0,1,0,1,0,0,0
4520000,4440000,1310988,-0.0009492026,-0.0043654153,-9.410448e-06,0.15,0.0003066898,0.00030682565,0.0024010977,1310988,-0.0015462214,0.0005100037,-0.11402376,0.4,0.052793782,0.05279738,0.004332338,0,0.0,0.0,0.0,0.0,0.0,0.0,0.0,1,0,1,0,0,0
4664000,4584000,1310988,-0.00095761643,-0.0044035036,-1.4730526e-05,0.15,0.0003117994,0.00031197612,0.0018022128,1310988,-0.0015599593,0.0005146366,-0.11502922,0.4,0.053721644,0.053725306,0.004408162,0,0.0,0.0,0.0,0.0,0.0,0.0,0.0,1,0,1,0,0,0
4728000,4648000,1310988,-0.0011709591,-0.0048051993,-9.701527e-06,0.15,0.00017492655,0.00017497534,0.0018144951,1310988,-0.0018217491,0.0006705006,-0.11774117,0.4,0.054055434,0.054059457,0.0038297153,0,0.0,0.0,0.0,0.0,0.0,0.0,0.0,1,0,1,0,0,0
4912000,4832000,1310988,-0.0014826383,-0.005036694,3.9759958e-05,0.15,0.00010554239,0.000105534884,0.001353873,1310988,-0.0019523586,0.00085806084,-0.11873765,0.4,0.054952398,0.05495659,0.0038943216,0,0.0,0.0,0.0,0.0,0.0,0.0,0.0,1,0,1,0,0,0
4936000,4856000,1310988,-0.0015014303,-0.0050450116,4.0357172e-05,0.15,0.00010252355,0.00010251112,0.0013565036,1310988,-0.0020173443,0.00091115513,-0.12092481,0.4,0.05505698,0.055061474,0.0033140501,0,0.0,0.0,0.0,0.0,0.0,0.0,0.0,1,0,1,0,0,0
5144000,5064000,1310988,-0.0017035825,-0.0051862174,6.804032e-05,0.15,6.302465e-05,6.299037e-05,0.0010182458,1310988,-0.0021604267,0.0010876781,-0.12371329,0.4,0.05584844,0.055853304,0.0028342567,0,0.0,0.0,0.0,0.0,0.0,0.0,0.0,1,0,1,0,0,0
5352000,5272000,1310988,-0.0017951512,-0.005319389,7.2652314e-05,0.15,4.0958184e-05,4.0923926e-05,0.0007731897,1310988,-0.0023016736,0.0011879415,-0.12599358,0.4,0.05647056,0.056475714,0.0024143853,0,0.0,0.0,0.0,0.0,0.0,0.0,0.0,1,0,1,0,0,0
5560000,5480000,1310988,-0.0017378742,-0.0053965407,6.8114445e-05,0.15,2.8056735e-05,2.8030643e-05,0.00059572037,1310988,-0.002398506,0.0011552684,-0.12795435,0.4,0.056957453,0.056962807,0.0020591437,0,0.0,0.0,0.0,0.0,0.0,0.0,0.0,1,0,1,0,0,0
5768000,5688000,1310988,-0.0016641659,-0.0054625673,7.407607e-05,0.15,2.0104066e-05,2.00853e-05,0.0004660577,1310988,-0.0024852054,0.00109215,-0.12956044,0.4,0.057336666,0.057342175,0.0017645041,0,0.0,0.0,0.0,0.0,0.0,0.0,0.0,1,0,1,0,0,0
5976000,5896000,1310988,-0.0016340346,-0.0055092447,7.9243226e-05,0.15,1.4951687e-05,1.4936563e-05,0.00037008652,1310988,-0.0025520728,0.0010661094,-0.13092533,0.4,0.057631083,0.057636715,0.0015225942,0,0.0,0.0,0.0,0.0,0.0,0.0,0.0,1,0,1,0,0,0
6184000,6104000,1310988,-0.0016263588,-0.0055470583,7.530151e-05,0.15,1.1464527e-05,1.1451606e-05,0.00029801702,1310988,-0.0026099503,0.0010622093,-0.13207443,0.4,0.057858977,0.057864722,0.0013241854,0,0.0,0.0,0.0,0.0,0.0,0.0,0.0,1,0,1,0,0,0
6504000,6424000,1310988,-0.0016297568,-0.0055578547,8.427046e-05,0.15,9.010933e-06,9.002328e-06,0.00020045076,1310988,-0.0026291623,0.001069828,-0.13307427,0.4,0.058115225,0.058121096,0.001161798,0,0.0,0.0,0.0,0.0,0.0,0.0,0.0,1,0,1,0,0,0
6808000,6728000,1310988,-0.0016096787,-0.005459892,8.473953e-05,0.15,5.9308304e-06,5.9190056e-06,0.00016741609,1310988,-0.0025043574,0.0010416297,-0.1341471,0.4,0.058277346,0.0582834,0.00091443415,0,0.0,0.0,0.0,0.0,0.0,0.0,0.0,1,0,1,0,0,0
7640000,7560000,1310988,-0.0013495394,-0.0054239174,8.207556e-05,0.15,3.0572096e-06,3.05257e-06,8.87532e-05,1310988,-0.0024600893,0.00067198015,-0.1351002,0.4,0.058507513,0.05851361,0.0007795416,0,0.0,0.0,0.0,0.0,0.0,0.0,0.0,1,0,1,0,0,0
8640000,8560000,1310988,-0.0012554775,-0.0054225493,2.6685591e-05,0.15,1.8456476e-06,1.8434383e-06,4.6730554e-05,1310988,-0.002456846,0.0004677294,-0.13548473,0.4,0.058593344,0.05859939,0.0007807719,0,0.0,0.0,0.0,0.0,0.0,0.0,0.0,1,0,1,0,0,0
9640000,9560000,1310988,-0.0011871399,-0.0054623354,-2.0209221e-05,0.15,1.140078e-06,1.1390522e-06,2.7646789e-05,1310988,-0.0026297236,0.0002879582,-0.13556321,0.4,0.058612548,0.05861865,0.00078111823,0,0.0,0.0,0.0,0.0,0.0,0.0,0.0,1,0,1,0,0,0
10640000,10560000,1310988,-0.0011463381,-0.005515959,-4.9420127e-05,0.15,7.8891793e-07,7.883356e-07,1.7763079e-05,1310988,-0.002850075,0.00021711865,-0.13502276,0.4,0.058616098,0.05862267,0.00078121526,0,0.0,0.0,0.0,0.0,0.0,0.0,0.0,1,0,1,0,0,0
11384000,11304000,1310988,-0.0011867672,-0.005499037,-6.625439e-05,0.15,6.232424e-07,6.2239474e-07,1.4043708e-05,1310988,-0.0028869647,0.00038782833,-0.13395865,0.4,0.058615923,0.058622587,0.0007812381,0,0.0,0.0,0.0,0.0,0.0,0.0,0.0,1,0,1,0,0,0
12008000,11928000,1310988,-0.0012236134,-0.005471233,-7.973681e-05,0.15,5.3630146e-07,5.353563e-07,1.1312259e-05,1310988,-0.002933595,0.0005592001,-0.13269417,0.4,0.05861572,0.058621928,0.00078124576,0,0.0,0.0,0.0,0.0,0.0,0.0,0.0,1,0,1,0,0,0
12632000,12552000,1310988,-0.0012326183,-0.0054424442,-9.26969e-05,0.15,4.6997874e-07,4.6908087e-07,9.260688e-06,1310988,-0.002885877,0.00072718796,-0.13149463,0.4,0.058613375,0.058619,0.00078124576,0,0.0,0.0,0.0,0.0,0.0,0.0,0.0,1,0,1,0,0,0
13256000,13176000,1310988,-0.0012051552,-0.0054415977,-0.00010239564,0.15,4.1825652e-07,4.1757775e-07,7.688961e-06,1310988,-0.0029680128,0.00064850383,-0.1303234,0.4,0.058610227,0.05861574,0.00078124576,0,0.0,0.0,0.0,0.0,0.0,0.0,0.0,1,0,1,0,0,0
13880000,13800000,1310988,-0.0011800382,-0.0054558706,-0.00011011139,0.15,3.7717805e-07,3.7669994e-07,6.463856e-06,1310988,-0.0031664039,0.0005342245,-0.12927695,0.4,0.058606576,0.05861233,0.00078124576,0,0.0,0.0,0.0,0.0,0.0,0.0,0.0,1,0,1,0,0,0
14712000,14632000,1310988,-0.0011843386,-0.0054718824,-0.00011838878,0.15,3.3442046e-07,3.3407466e-07,5.2163678e-06,1310988,-0.0034368518,0.00065618486,-0.12813492,0.4,0.058601152,0.05860738,0.00078124576,0,0.0,0.0,0.0,0.0,0.0,0.0,0.0,1,0,1,0,0,0
15712000,15632000,1310988,-0.0011861693,-0.0054877,-0.00012633725,0.15,3.0278565e-07,3.025757e-07,4.085101e-06,1310988,-0.0037114362,0.0007334603,-0.12719545,0.4,0.058595266,0.058602676,0.00078124634,0,0.0,0.0,0.0,0.0,0.0,0.0,0.0,1,0,1,0,0,0
16376000,16296000,1310988,-0.0011938586,-0.0054938206,-0.00012777103,0.15,2.757159e-07,2.7557692e-07,3.5673875e-06,1310988,-0.0039166706,0.0008643113,-0.12615965,0.4,0.05859114,0.05860003,0.00078124576,0,0.0,0.0,0.0,0.0,0.0,0.0,0.0,1,0,1,0,0,0
17376000,17296000,1310988,-0.0011992794,-0.0054945294,-0.00012860568,0.15,2.7641326e-07,2.7629903e-07,3.2772666e-06,1310988,-0.0039874436,0.0009219972,-0.12577575,0.4,0.05859014,0.05859944,0.00078124576,0,0.0,0.0,0.0,0.0,0.0,0.0,0.0,1,0,1,0,0,0
18376000,18296000,1310988,-0.0011993201,-0.005494562,-0.00012861377,0.15,2.8440476e-07,2.8429065e-07,3.2852665e-06,1310988,-0.0039874436,0.0009219972,-0.1255388,0.4,0.05859014,0.05859944,0.0007812487,0,0.0,0.0,0.0,0.0,0.0,0.0,0.0,1,0,1,0,0,0
19376000,19296000,1310988,-0.0011994267,-0.00549461,-0.0001286392,0.15,2.923398e-07,2.9222642e-07,3.2932635e-06,1310988,-0.0039874436,0.0009219972,-0.12512815,0.4,0.05859014,0.05859944,0.00078124576,0,0.0,0.0,0.0,0.0,0.0,0.0,0.0,1,0,1,0,0,0
20376000,20296000,1310988,-0.001199531,-0.00549457,-0.00012866074,0.15,3.0008556e-07,2.9997514e-07,3.3012493e-06,1310988,-0.0039874436,0.0009219972,-0.12419183,0.4,0.05859014,0.05859944,0.0007812492,0,0.0,0.0,0.0,0.0,0.0,0.0,0.0,1,0,1,0,0,0
21376000,21296000,1310988,-0.0011990163,-0.0054938975,-0.00012848395,0.15,3.0748393e-07,3.0737996e-07,3.3092115e-06,1310988,-0.0039874436,0.0009219972,-0.123328656,0.4,0.05859014,0.05859944,0.0007812487,0,0.0,0.0,0.0,0.0,0.0,0.0,0.0,1,0,1,0,0,0
22104000,22024000,1310988,-0.0011989337,-0.0054935473,-0.00012845166,0.15,3.1279288e-07,3.1269383e-07,3.3150113e-06,1310988,-0.0039874436,0.0009219972,-0.12229849,0.4,0.05859014,0.05859944,0.00078124576,0,0.0,0.0,0.0,0.0,0.0,0.0,0.0,1,0,1,0,0,0
22632000,22552000,1310988,-0.0011992397,-0.005493403,-0.00012851998,0.15,3.1645573e-07,3.1636125e-07,3.3192143e-06,1310988,-0.0039874436,0.0009219972,-0.12129651,0.4,0.05859014,0.05859944,0.00078124576,0,0.0,0.0,0.0,0.0,0.0,0.0,0.0,1,0,1,0,0,0
23408000,23328000,1310988,-0.0011998314,-0.0054934174,-0.000128675,0.15,3.2211454e-07,3.2202374e-07,3.325405e-06,1310988,-0.0039874436,0.0009219972,-0.119958475,0.4,0.05859014,0.05859944,0.00078124576,0,0.0,0.0,0.0,0.0,0.0,0.0,0.0,1,0,1,0,0,0
24208000,24128000,1310988,-0.001200679,-0.005493525,-0.00012886726,0.15,3.2784692e-07,3.2775938e-07,3.3317858e-06,1310988,-0.0039874436,0.0009219972,-0.11884266,0.4,0.05859014,0.05859944,0.00078124576,0,0.0,0.0,0.0,0.0,0.0,0.0,0.0,1,0,1,0,0,0
25008000,24928000,1310988,-0.0012013096,-0.00549349,-0.00012901277,0.15,3.3364375e-07,3.3355826e-07,3.3381734e-06,1310988,-0.0039874436,0.0009219972,-0.11754385,0.4,0.05859014,0.05859944,0.00078124576,0,0.0,0.0,0.0,0.0,0.0,0.0,0.0,1,0,1,0,0,0
25808000,25728000,1310988,-0.0012017477,-0.0054933135,-0.0001291085,0.15,3.394615e-07,3.3937704e-07,3.344566e-06,1310988,-0.0039874436,0.0009219972,-0.11622412,0.4,0.05859014,0.05859944,0.00078124576,0,0.0,0.0,0.0,0.0,0.0,0.0,0.0,1,0,1,0,0,0
26608000,26528000,1310988,-0.0012021199,-0.0054931235,-0.00012918608,0.15,3.4524356e-07,3.4515992e-07,3.3509605e-06,1310988,-0.0039874436,0.0009219972,-0.114802,0.4,0.05859014,0.05859944,0.00078124576,0,0.0,0.0,0.0,0.0,0.0,0.0,0.0,1,0,1,0,0,0
27408000,27328000,1310988,-0.0012024923,-0.005492994,-0.00012925694,0.15,3.5092603e-07,3.5084332e-07,3.3573563e-06,1310988,-0.0039874436,0.0009219972,-0.11325485,0.4,0.05859014,0.05859944,0.00078124576,0,0.0,0.0,0.0,0.0,0.0,0.0,0.0,1,0,1,0,0,0
28208000,28128000,1310988,-0.0012028771,-0.005492945,-0.00012932002,0.15,3.5643268e-07,3.5635122e-07,3.3637527e-06,1310988,-0.0039874436,0.0009219972,-0.111609004,0.4,0.05859014,0.05859944,0.00078124576,0,0.0,0.0,0.0,0.0,0.0,0.0,0.0,1,0,1,0,0,0
28632000,28552000,1310988,-0.0012030511,-0.0054929047,-0.0001293492,0.15,3.592834e-07,3.5920257e-07,3.3671433e-06,1310988,-0.0039874436,0.0009219972,-0.11058431,0.4,0.05859014,0.05859944,0.00078124576,0,0.0,0.0,0.0,0.0,0.0,0.0,0.0,1,0,1,0,0,0
29008000,28928000,1310988,-0.0012030696,-0.0054928036,-0.00012936648,0.15,3.6199097e-07,3.619104e-07,3.3701504e-06,1310988,-0.0039874436,0.0009219972,-0.10956338,0.4,0.05859014,0.05859944,0.00078124576,0,0.0,0.0,0.0,0.0,0.0,0.0,0.0,1,0,1,0,0,0
29408000,29328000,1310988,-0.0012032387,-0.0054927417,-0.00012939017,0.15,3.6452232e-07,3.6444237e-07,3.373349e-06,1310988,-0.0039874436,0.0009219972,-0.10843347,0.4,0.05859014,0.05859944,0.00078124576,0,0.0,0.0,0.0,0.0,0.0,0.0,0.0,1,0,1,0,0,0
29808000,29728000,1310988,-0.0012034214,-0.0054926868,-0.00012940963,0.15,3.6694843e-07,3.6686922e-07,3.3765475e-06,1310988,-0.0039874436,0.0009219972,-0.107386984,0.4,0.05859014,0.05859944,0.00078124576,0,0.0,0.0,0.0,0.0,0.0,0.0,0.0,1,0,1,0,0,0
30208000,30128000,1310988,-0.0012035908,-0.0054926,-0.00012942641,0.15,3.692508e-07,3.691725e-07,3.3797467e-06,1310988,-0.0039874436,0.0009219972,-0.10621146,0.4,0.05859014,0.05859944,0.00078124576,0,0.0,0.0,0.0,0.0,0.0,0.0,0.0,1,0,1,0,0,0
30608000,30528000,1310988,-0.0012037667,-0.0054924926,-0.00012943988,0.15,3.7140904e-07,3.7133177e-07,3.3829454e-06,1310988,-0.0039874436,0.0009219972,-0.10501135,0.4,0.05859014,0.05859944,0.00078124576,0,0.0,0.0,0.0,0.0,0.0,0.0,0.0,1,0,1,0,0,0
31008000,30928000,1310988,-0.001203946,-0.0054923412,-0.00012945048,0.15,3.734008e-07,3.733246e-07,3.386144e-06,1310988,-0.0039874436,0.0009219972,-0.10367689,0.4,0.05859014,0.05859944,0.00078124576,0,0.0,0.0,0.0,0.0,0.0,0.0,0.0,1,0,1,0,0,0
31408000,31328000,1310988,-0.0012041582,-0.0054921634,-0.00012945673,0.15,3.7520206e-07,3.7512692e-07,3.3893432e-06,1310988,-0.0039874436,0.0009219972,-0.10246289,0.4,0.05859014,0.05859944,0.00078124576,0,0.0,0.0,0.0,0.0,0.0,0.0,0.0,1,0,1,0,0,0
31808000,31728000,1310988,-0.0012043966,-0.0054919184,-0.00012945879,0.15,3.7678703e-07,3.7671293e-07,3.3925419e-06,1310988,-0.0039874436,0.0009219972,-0.10120927,0.4,0.05859014,0.05859944,0.00078124576,0,0.0,0.0,0.0,0.0,0.0,0.0,0.0,1,0,1,0,0,0
32208000,32128000,1310988,-0.0012046607,-0.0054915734,-0.00012945644,0.15,3.7812868e-07,3.7805532e-07,3.3957406e-06,1310988,-0.0039874436,0.0009219972,-0.099774025,0.4,0.05859014,0.05859944,0.00078124576,0,0.0,0.0,0.0,0.0,0.0,0.0,0.0,1,0,1,0,0,0
32608000,32528000,1310988,-0.0012049862,-0.005491137,-0.00012944845,0.15,3.7919878e-07,3.79126e-07,3.3989393e-06,1310988,-0.0039874436,0.0009219972,-0.098471306,0.4,0.05859014,0.05859944,0.00078124576,0,0.0,0.0,0.0,0.0,0.0,0.0,0.0,1,0,1,0,0,0
33008000,32928000,1310988,-0.0012053788,-0.0054905647,-0.00012943466,0.15,3.7996872e-07,3.798961e-07,3.402138e-06,1310988,-0.0039874436,0.0009219972,-0.097090624,0.4,0.05859014,0.05859944,0.00078124576,0,0.0,0.0,0.0,0.0,0.0,0.0,0.0,1,0,1,0,0,0
33408000,33328000,1310988,-0.0012058559,-0.005489837,-0.00012941429,0.15,3.8041114e-07,3.8033826e-07,3.405336e-06,1310988,-0.0039874436,0.0009219972,-0.095701374,0.4,0.05859014,0.05859944,0.00078124576,0,0.0,0.0,0.0,0.0,0.0,0.0,0.0,1,0,1,0,0,0
33808000,33728000,1310988,-0.0012061178,-0.0054893442,-0.0001294011,0.15,3.8210405e-07,3.8203072e-07,3.4085351e-06,1310988,-0.0039874436,0.0009219972,-0.09437048,0.4,0.05859014,0.05859944,0.00078124576,0,0.0,0.0,0.0,0.0,0.0,0.0,0.0,1,0,1,0,0,0
34208000,34128000,1310988,-0.0012067469,-0.005488331,-0.00012936928,0.15,3.8202285e-07,3.8194838e-07,3.4117327e-06,1310988,-0.0039874436,0.0009219972,-0.09295325,0.4,0.05859014,0.05859944,0.00078124576,0,0.0,0.0,0.0,0.0,0.0,0.0,0.0,1,0,1,0,0,0
34608000,34528000,1310988,-0.001207533,-0.0054871235,-0.00012933055,0.15,3.8156145e-07,3.8148525e-07,3.4149293e-06,1310988,-0.0039874436,0.0009219972,-0.09157971,0.4,0.05859014,0.05859944,0.00078124576,0,0.0,0.0,0.0,0.0,0.0,0.0,0.0,1,0,1,0,0,0
35008000,34928000,1310988,-0.0012084964,-0.005485696,-0.00012928434,0.15,3.8069643e-07,3.8061773e-07,3.4181257e-06,1310988,-0.0039874436,0.0009219972,-0.0903394,0.4,0.05859014,0.05859944,0.00078124576,0,0.0,0.0,0.0,0.0,0.0,0.0,0.0,1,0,1,0,0,0
35408000,35328000,1310988,-0.001209647,-0.0054839854,-0.00012922904,0.15,3.7940944e-07,3.7932708e-07,3.4213208e-06,1310988,-0.0039874436,0.0009219972,-0.08906662,0.4,0.05859014,0.05859944,0.00078124576,0,0.0,0.0,0.0,0.0,0.0,0.0,0.0,1,0,1,0,0,0
35808000,35728000,1310988,-0.0012109887,-0.0054819537,-0.00012916364,0.15,3.776869e-07,3.775995e-07,3.4245147e-06,1310988,-0.0039874436,0.0009219972,-0.08790404,0.4,0.05859014,0.05859944,0.00078124576,0,0.0,0.0,0.0,0.0,0.0,0.0,0.0,1,0,1,0,0,0
36208000,36128000,1310988,-0.001212546,-0.005479545,-0.00012908681,0.15,3.7552093e-07,3.754268e-07,3.4277066e-06,1310988,-0.0039874436,0.0009219972,-0.086723365,0.4,0.05859014,0.05859944,0.00078124576,0,0.0,0.0,0.0,0.0,0.0,0.0,0.0,1,0,1,0,0,0
36608000,36528000,1310988,-0.0012143381,-0.0054767192,-0.00012899784,0.15,3.7291053e-07,3.7280756e-07,3.4308962e-06,1310988,-0.0039874436,0.0009219972,-0.08568848,0.4,0.05859014,0.05859944,0.00078124576,0,0.0,0.0,0.0,0.0,0.0,0.0,0.0,1,0,1,0,0,0
37608000,37528000,1310988,-0.001220108,-0.0054672784,-0.00012870718,0.15,3.6450825e-07,3.6437243e-07,3.438853e-06,1310988,-0.0039874436,0.0009219972,-0.08469095,0.4,0.05859014,0.05859944,0.0007812628,0,0.0,0.0,0.0,0.0,0.0,0.0,0.0,1,0,1,0,0,0
38608000,38528000,1310988,-0.0012299495,-0.0054522934,-0.00012824526,0.15,3.5373526e-07,3.5354742e-07,3.446774e-06,1310988,-0.0039874436,0.0009219972,-0.08358359,0.4,0.05859014,0.05859944,0.00078124576,0,0.0,0.0,0.0,0.0,0.0,0.0,0.0,1,0,1,0,0,0
39008000,38928000,1310988,-0.0012330683,-0.0054478743,-0.0001281073,0.15,3.529539e-07,3.527529e-07,3.4499521e-06,1310988,-0.0039874436,0.0009219972,-0.082067125,0.4,0.05859014,0.05859944,0.00078124576,0,0.0,0.0,0.0,0.0,0.0,0.0,0.0,1,0,1,0,0,0
39408000,39328000,1310988,-0.0012382647,-0.0054399124,-0.00012786612,0.15,3.4801585e-07,3.4778557e-07,3.4531017e-06,1310988,-0.0039874436,0.0009219972,-0.07970981,0.4,0.05859014,0.05859944,0.00078124576,0,0.0,0.0,0.0,0.0,0.0,0.0,0.0,1,0,1,0,0,0
39808000,39728000,1310988,-0.0012439382,-0.005431064,-0.00012760004,0.15,3.428849e-07,3.4262132e-07,3.4562404e-06,1310988,-0.0039874436,0.0009219972,-0.07622887,0.4,0.05859014,0.05859944,0.00078124576,0,0.0,0.0,0.0,0.0,0.0,0.0,0.0,1,0,1,0,0,0
40808000,40728000,1310988,-0.0012579557,-0.0054085157,-0.00012693138,0.15,3.2947383e-07,3.2911638e-07,3.464057e-06,1310988,-0.0039874436,0.0009219972,-0.075971946,0.4,0.05859014,0.05859944,0.0007812826,0,0.0,0.0,0.0,0.0,0.0,0.0,0.0,1,0,1,0,0,0
41408000,41328000,1310988,-0.0012673155,-0.0053936867,-0.00012649607,0.15,3.2124032e-07,3.208232e-07,3.4687398e-06,1310988,-0.0039874436,0.0009219972,-0.07451163,0.4,0.05859014,0.05859944,0.00078124576,0,0.0,0.0,0.0,0.0,0.0,0.0,0.0,1,0,1,0,0,0
41808000,41728000,1310988,-0.0012729594,-0.005384446,-0.0001262307,0.15,3.1577363e-07,3.153162e-07,3.47186e-06,1310988,-0.0039874436,0.0009219972,-0.07272855,0.4,0.05859014,0.05859944,0.00078124576,0,0.0,0.0,0.0,0.0,0.0,0.0,0.0,1,0,1,0,0,0
42208000,42128000,1310988,-0.0012783856,-0.0053753806,-0.00012597331,0.15,3.103751e-07,3.0987746e-07,3.4749817e-06,1310988,-0.0039874436,0.0009219972,-0.07009887,0.4,0.05859014,0.05859944,0.00078124576,0,0.0,0.0,0.0,0.0,0.0,0.0,0.0,1,0,1,0,0,0
42608000,42528000,1310988,-0.0012835332,-0.0053665824,-0.00012572629,0.15,3.050829e-07,3.045456e-07,3.4781042e-06,1310988,-0.0039874436,0.0009219972,-0.0665899,0.4,0.05859014,0.05859944,0.00078124576,0,0.0,0.0,0.0,0.0,0.0,0.0,0.0,1,0,1,0,0,0
43008000,42928000,1310988,-0.0012883489,-0.0053581255,-0.00012549105,0.15,2.9993026e-07,2.9935444e-07,3.4812301e-06,1310988,-0.0039874436,0.0009219972,-0.06227705,0.4,0.05859014,0.05859944,0.00078124576,0,0.0,0.0,0.0,0.0,0.0,0.0,0.0,1,0,1,0,0,0
43408000,43328000,1310988,-0.0012928538,-0.0053499877,-0.0001252659,0.15,2.9494532e-07,2.9433244e-07,3.48436e-06,1310988,-0.0039874436,0.0009219972,-0.057045426,0.4,0.05859014,0.05859944,0.00078124576,0,0.0,0.0,0.0,0.0,0.0,0.0,0.0,1,0,1,0,0,0
43808000,43728000,1310988,-0.0012970058,-0.0053422707,-0.00012505344,0.15,2.9015095e-07,2.895028e-07,3.4874945e-06,1310988,-0.0039874436,0.0009219972,-0.0511241,0.4,0.05859014,0.05859944,0.00078124576,0,0.0,0.0,0.0,0.0,0.0,0.0,0.0,1,0,1,0,0,0
44208000,44128000,1310988,-0.0012993162,-0.005337969,-0.00012492915,0.15,2.89431e-07,2.8876568e-07,3.490664e-06,1310988,-0.0039874436,0.0009219972,-0.044632543,0.4,0.05859014,0.05859944,0.00078124576,0,0.0,0.0,0.0,0.0,0.0,0.0,0.0,1,0,1,0,0,0
44608000,44528000,1310988,-0.0013028412,-0.0053310166,-0.00012473663,0.15,2.849545e-07,2.8425697e-07,3.4938068e-06,1310988,-0.0039874436,0.0009219972,-0.037844073,0.4,0.05859014,0.05859944,0.00078124576,0,0.0,0.0,0.0,0.0,0.0,0.0,0.0,1,0,1,0,0,0
44920000,44840000,1310988,-0.0013279796,-0.0052543,-0.00012315327,0.15,1.8258926e-07,1.8197588e-07,2.3419384e-06,1310988,-0.004101082,0.0008264002,-0.019390188,0.4,0.05858961,0.05859891,0.00078124576,0,0.0,0.0,0.0,0.0,0.0,0.0,0.0,1,0,1,0,0,0
45008000,44928000,1310988,-0.0013281644,-0.0052543595,-0.00012314729,0.15,1.8329325e-07,1.8267987e-07,2.3426423e-06,1310988,-0.0041004377,0.0008279429,-0.016154312,0.4,0.05858962,0.058598917,0.00078124576,0,0.0,0.0,0.0,0.0,0.0,0.0,0.0,1,0,1,0,0,0
45128000,45048000,1310988,-0.0013266872,-0.005247219,-0.00012188846,0.15,1.7262198e-07,1.721884e-07,1.7791931e-06,1310988,-0.005983834,0.00016774055,-0.0076438836,0.4,0.056547347,0.056556143,0.00078124576,0,0.0,0.0,0.0,0.0,0.0,0.0,0.0,1,0,1,0,0,0
45256000,45176000,1310988,-0.0013265569,-0.0052416218,-0.00012173562,0.15,1.6540723e-07,1.6497626e-07,1.7802091e-06,1310988,-0.0091135,0.00024805643,-0.0076392307,0.4,0.053971935,0.0539797,0.000781246,0,0.0,0.0,0.0,0.0,0.0,0.0,0.0,1,0,1,0,0,0
45336000,45256000,1310988,-0.0013265428,-0.005241632,-0.00012108755,0.15,1.6574995e-07,1.654127e-07,1.445982e-06,1310988,-0.007873294,-0.00034038196,-0.0020430677,0.4,0.05121071,0.051218346,0.00078124576,0,0.0,0.0,0.0,0.0,0.0,0.0,0.0,1,0,1,0,0,0
45408000,45328000,1310988,-0.0013266478,-0.0052417335,-0.000121088015,0.15,1.6632595e-07,1.659887e-07,1.4465579e-06,1310988,-0.008000625,-0.0002079061,-0.0007905983,0.4,0.0512107,0.051218335,0.00078124576,0,0.0,0.0,0.0,0.0,0.0,0.0,0.0,1,0,1,0,0,0
45464000,45384000,1310988,-0.0013262792,-0.005241487,-0.00012105411,0.15,1.6604052e-07,1.6570638e-07,1.4470015e-06,1310988,-0.008850078,0.0010628094,-0.00079728186,0.4,0.042467736,0.042472184,0.00078124576,0,0.0,0.0,0.0,0.0,0.0,0.0,0.0,1,0,1,0,0,0
45544000,45464000,1310988,-0.0013262366,-0.005241363,-0.00012032508,0.15,1.6654107e-07,1.6626744e-07,1.2258186e-06,1310988,-0.007857729,0.000861214,0.0025039567,0.4,0.039228987,0.039233495,0.00078124576,0,0.0,0.0,0.0,0.0,0.0,0.0,0.0,1,0,1,0,0,0
45672000,45592000,1310988,-0.0013262939,-0.005241375,-0.00012028603,0.15,1.6755614e-07,1.672822e-07,1.2268383e-06,1310988,-0.00832675,0.0031569998,0.0024989452,0.4,0.025405854,0.025406813,0.00078124576,0,0.0,0.0,0.0,0.0,0.0,0.0,0.0,1,0,1,0,0,0
45752000,45672000,1310988,-0.0013262398,-0.005241264,-0.00011940345,0.15,1.6805444e-07,1.6782359e-07,1.0696361e-06,1310988,-0.007893754,0.0030555984,0.004860169,0.4,0.023559129,0.023560362,0.00078124576,0,0.0,0.0,0.0,0.0,0.0,0.0,0.0,1,0,1,0,0,0
45880000,45800000,1310988,-0.0013265222,-0.0052414937,-0.00011938839,0.15,1.6888082e-07,1.6864927e-07,1.0706586e-06,1310988,-0.008904446,0.0045189243,0.0054432354,0.4,0.013336061,0.013335962,0.00078124576,0,0.0,0.0,0.0,0.0,0.0,0.0,0.0,1,0,1,0,0,0
45960000,45880000,1310988,-0.0013264329,-0.0052414127,-0.00011848074,0.15,1.6942224e-07,1.6922316e-07,9.53176e-07,1310988,-0.008684145,0.0043205507,0.0068227258,0.4,0.012661926,0.01266202,0.00078124576,0,0.0,0.0,0.0,0.0,0.0,0.0,0.0,1,0,1,0,0,0
46168000,46088000,1310988,-0.0013262797,-0.0052413684,-0.00011747016,0.15,1.7082218e-07,1.7064814e-07,8.630647e-07,1310988,-0.008638676,0.003850151,0.007753511,0.4,0.0072150263,0.0072150165,0.00078124576,0,0.0,0.0,0.0,0.0,0.0,0.0,0.0,1,0,1,0,0,0
46376000,46296000,1310988,-0.0013260996,-0.005241417,-0.000116735,0.15,1.7233042e-07,1.7217664e-07,7.913265e-07,1310988,-0.008567967,0.0028434256,0.008470716,0.4,0.0046751727,0.00467523,0.00078124576,0,0.0,0.0,0.0,0.0,0.0,0.0,0.0,1,0,1,0,0,0
46584000,46504000,1310988,-0.0013258964,-0.005241364,-0.000116014526,0.15,1.739214e-07,1.7378422e-07,7.3291017e-07,1310988,-0.008329681,0.001824824,0.008705888,0.4,0.003443055,0.0034431687,0.00078124576,0,0.0,0.0,0.0,0.0,0.0,0.0,0.0,1,0,1,0,0,0
46712000,46632000,1310988,-0.0013258741,-0.005241436,-0.00011603388,0.15,1.7494139e-07,1.7480423e-07,7.3393227e-07,1310988,-0.008312657,0.0007468149,0.008861982,0.4,0.0028203216,0.0028204585,0.00078124576,0,0.0,0.0,0.0,0.0,0.0,0.0,0.0,1,1,1,0,0,0
46920000,46840000,1310988,-0.0013260266,-0.005241436,-0.00011529823,0.15,1.7657175e-07,1.7644821e-07,6.854817e-07,1310988,-0.008453921,-0.00056107785,0.008684444,0.4,0.0024586224,0.0024587694,0.00078124576,0,0.0,0.0,0.0,0.0,0.0,0.0,0.0,1,1,1,0,0,0
47128000,47048000,1310988,-0.0013265033,-0.0052413465,-0.000114455994,0.15,1.781687e-07,1.7805638e-07,6.4468264e-07,1310988,-0.008928895,-0.0014498044,0.0083986,0.4,0.0022476686,0.0022478097,0.00078124576,0,0.0,0.0,0.0,0.0,0.0,0.0,0.0,1,1,1,0,0,0
47336000,47256000,1310988,-0.0013268949,-0.005240827,-0.000113474656,0.15,1.7970137e-07,1.7959846e-07,6.098839e-07,1310988,-0.009595458,-0.0018309859,0.0076738843,0.4,0.0021185183,0.0021186501,0.00078124576,0,0.0,0.0,0.0,0.0,0.0,0.0,0.0,1,1,1,0,0,0
47624000,47544000,1310988,-0.001326992,-0.0052403067,-0.00011201076,0.15,1.8175284e-07,1.8166597e-07,5.527364e-07,1310988,-0.010160015,-0.0017502278,0.006010049,0.4,0.002034349,0.0020344886,0.00078124576,0,0.0,0.0,0.0,0.0,0.0,0.0,0.0,1,1,1,0,0,0
