timestamp,timestamp_sample,ref_timestamp,ref_lat,ref_lon,x,y,z,delta_xy[0],delta_xy[1],delta_z,vx,vy,vz,z_deriv,delta_vxy[0],delta_vxy[1],delta_vz,ax,ay,az,heading,delta_heading,ref_alt,dist_bottom,eph,epv,evh,evv,vxy_max,vz_max,hagl_min,hagl_max,xy_valid,z_valid,v_xy_valid,v_z_valid,xy_reset_counter,z_reset_counter,vxy_reset_counter,vz_reset_counter,heading_reset_counter,heading_good_for_control,xy_global,z_global,dist_bottom_valid,dist_bottom_sensor_bitfield,dead_reckoning
3264000,3264000,0,nan,nan,0.0001046487,-0.00021569541,-0.0007537944,-3.1109433e-08,4.019123e-09,0.0,0.0024141225,-0.00420874,-0.01434218,-0.01594324,-5.1849056e-06,6.6985376e-07,0.0017844737,0.019468017,-0.06912465,-0.084663734,6.286852e-05,0.0,nan,0.1,14.172738,10.008659,7.074016,3.1623116,inf,inf,inf,inf,0,0,0,0,1,1,1,1,0,0,0,0,0,0,1
3272000,3272000,0,nan,nan,0.00012331187,-0.00024664705,-0.00083914463,-3.1109433e-08,4.019123e-09,0.0,0.0026903616,-0.0043487893,-0.015088312,-0.016602464,-5.1849056e-06,6.6985376e-07,0.0017844737,0.041175123,-0.0017994606,-0.11564418,7.220278e-05,0.0,nan,0.102301,14.142143,10.0,0.001953125,0.001,inf,inf,inf,inf,0,0,0,0,1,1,1,1,0,0,0,0,0,0,1
3280000,3280000,0,nan,nan,0.00014397944,-0.00027804877,-0.00092819915,-3.1109433e-08,4.019123e-09,0.0,0.0029432997,-0.0045987815,-0.01609813,-0.017516693,-5.1849056e-06,6.6985376e-07,0.0017844737,0.03268063,-0.051528446,-0.14346744,6.253677e-05,0.0,nan,0.10238608,14.142143,10.0,0.012879218,0.0041895416,inf,inf,inf,inf,0,0,0,0,1,1,1,1,0,0,0,0,0,0,1
3288000,3288000,0,nan,nan,6.553225e-05,-0.00010261429,0.0005995902,-3.1109433e-08,4.019123e-09,0.0,0.0028612276,-0.0037420571,-0.012468845,-0.018518964,-5.1849056e-06,6.6985376e-07,0.0017844737,0.014175558,-0.054208122,-0.15104096,1.622606,0.0,nan,0.10084591,14.142143,10.0,0.024547813,0.006484962,inf,inf,inf,inf,0,0,0,0,1,1,1,1,0,0,0,0,0,0,1
3296000,3296000,0,nan,nan,9.0034395e-05,-0.00013108389,0.00049746525,-3.1109433e-08,4.019123e-09,0.0,0.0032674216,-0.0035222007,-0.013395427,-0.019246629,-5.1849056e-06,6.6985376e-07,0.0017844737,0.04314072,0.023702623,-0.11165346,1.6226159,0.0,nan,0.10092717,14.142143,10.0,0.03345393,0.008631808,inf,inf,inf,inf,0,0,0,0,1,1,1,1,0,0,0,0,0,0,1
3304000,3304000,0,nan,nan,0.00011666913,-0.00015731191,0.0003885987,-3.1109433e-08,4.019123e-09,0.0,0.0034158148,-0.003283809,-0.014419062,-0.020067051,-5.1849056e-06,6.6985376e-07,0.0017844737,0.013593045,0.024304928,-0.13623758,1.6226152,0.0,nan,0.10100591,14.142143,10.0,0.043743905,0.010720074,inf,inf,inf,inf,0,0,0,0,1,1,1,1,0,0,0,0,0,0,1
3312000,3312000,0,nan,nan,0.00014401342,-0.00018087136,0.00027171063,-3.1109433e-08,4.019123e-09,0.0,0.0034814717,-0.0030361346,-0.0156174945,-0.021060295,-5.1849056e-06,6.6985376e-07,0.0017844737,0.0117773,0.01931106,-0.15557742,1.622617,0.0,nan,0.10108291,14.142143,10.0,0.054618556,0.012778135,inf,inf,inf,inf,0,0,0,0,1,1,1,1,0,0,0,0,0,0,1
3320000,3320000,0,nan,nan,0.00017294014,-0.0002015775,0.00014659265,-3.1109433e-08,4.019123e-09,0.0,0.0038300601,-0.002733873,-0.016655931,-0.021893376,-5.1849056e-06,6.6985376e-07,0.0017844737,0.05235118,0.03417587,-0.12199766,1.6226243,0.0,nan,0.10115963,14.142143,10.0,0.06577989,0.014818739,inf,inf,inf,inf,0,0,0,0,1,1,1,1,0,0,0,0,0,0,1
3328000,3328000,0,nan,nan,0.00020433519,-0.00021882808,1.4657166e-05,-3.1109433e-08,4.019123e-09,0.0,0.004029278,-0.0024769686,-0.017618008,-0.022651328,-5.1849056e-06,6.6985376e-07,0.0017844737,0.012726741,0.013289056,-0.1269793,1.6226234,0.0,nan,0.101234995,14.142143,10.0,0.07713602,0.016847989,inf,inf,inf,inf,0,0,0,0,1,1,1,1,0,0,0,0,0,0,1
3336000,3336000,0,nan,nan,0.00023725248,-0.00023258304,-0.00012524117,-3.1109433e-08,4.019123e-09,0.0,0.0042694947,-0.002079857,-0.0188973,-0.023728793,-5.1849056e-06,6.6985376e-07,0.0017844737,0.031343456,0.04203383,-0.16777775,1.6226301,0.0,nan,0.10130972,14.142143,10.0,0.088613525,0.018869624,inf,inf,inf,inf,0,0,0,0,1,1,1,1,0,0,0,0,0,0,1
3344000,3344000,0,nan,nan,0.0002706772,-0.00024145722,-0.00027343316,-3.1109433e-08,4.019123e-09,0.0,0.0041340687,-0.0015768851,-0.01990046,-0.024533225,-5.1849056e-06,6.6985376e-07,0.0017844737,-0.022322753,0.04303509,-0.12100487,1.622638,0.0,nan,0.10138543,14.142143,10.0,0.10012941,0.020886498,inf,inf,inf,inf,0,0,0,0,1,1,1,1,0,0,0,0,0,0,1
3352000,3352000,0,nan,nan,0.0003047885,-0.00024557067,-0.00042867556,-3.1109433e-08,4.019123e-09,0.0,0.0044818223,-0.0011967001,-0.020940075,-0.02537781,-5.1849056e-06,6.6985376e-07,0.0017844737,0.052782778,0.030657114,-0.12809037,1.6226289,0.0,nan,0.101461865,14.142142,10.0,0.111723006,0.022899073,inf,inf,inf,inf,0,0,0,0,1,1,1,1,0,0,0,0,0,0,1
3360000,3360000,0,nan,nan,0.00034147842,-0.00024537116,-0.0005902467,-3.1109433e-08,4.019123e-09,0.0,0.004726564,-0.00085363875,-0.021739347,-0.02598618,-5.1849056e-06,6.6985376e-07,0.0017844737,0.028724344,0.020606166,-0.097733915,1.6226314,0.0,nan,0.10153682,14.142142,10.0,0.12340715,0.024908865,inf,inf,inf,inf,0,0,0,0,1,1,1,1,0,0,0,0,0,0,1
3368000,3368000,0,nan,nan,0.00037991093,-0.00024150831,-0.00076128554,-3.1109433e-08,4.019123e-09,0.0,0.0046727485,-0.0003170374,-0.022564488,-0.02658689,-5.1849056e-06,6.6985376e-07,0.0017844737,-0.023336163,0.055292603,-0.10156817,1.6226184,0.0,nan,0.101611935,14.142142,10.0,0.13515061,0.026916536,inf,inf,inf,inf,0,0,0,0,1,1,1,1,0,0,0,0,0,0,1
3376000,3376000,0,nan,nan,0.00041836256,-0.00023163407,-0.000939481,-3.1109433e-08,4.019123e-09,0.0,0.004809201,0.00027303022,-0.023479382,-0.027282884,-5.1849056e-06,6.6985376e-07,0.0017844737,0.028770532,0.049086053,-0.1113899,1.6226149,0.0,nan,0.10168559,14.142142,10.0,0.14689651,0.02892237,inf,inf,inf,inf,0,0,0,0,1,1,1,1,0,0,0,0,0,0,1
3384000,3384000,0,nan,nan,0.00045952477,-0.00021641598,-0.0011250394,-3.1109433e-08,4.019123e-09,0.0,0.005294151,0.0007168253,-0.024375578,-0.027965857,-5.1849056e-06,6.6985376e-07,0.0017844737,0.06701181,0.03352515,-0.113373615,1.6226082,0.0,nan,0.10175866,14.142142,10.0,0.15869136,0.030926386,inf,inf,inf,inf,0,0,0,0,1,1,1,1,0,0,0,0,0,0,1
3392000,3392000,0,nan,nan,0.0005044001,-0.00019700667,-0.0013181193,-3.1109433e-08,4.019123e-09,0.0,0.005646074,0.0010320887,-0.02527251,-0.028655319,-5.1849056e-06,6.6985376e-07,0.0017844737,0.03627401,0.020011704,-0.1036059,1.6226077,0.0,nan,0.10183022,14.142142,10.0,0.17054428,0.03292912,inf,inf,inf,inf,0,0,0,0,1,1,1,1,0,0,0,0,0,0,1
3400000,3400000,0,nan,nan,0.000551896,-0.00017391208,-0.0015186036,-3.1109433e-08,4.019123e-09,0.0,0.0059111128,0.0013605233,-0.026227808,-0.02940893,-5.1849056e-06,6.6985376e-07,0.0017844737,0.02447258,0.02364724,-0.1229355,1.6225973,0.0,nan,0.10190011,14.142142,10.0,0.18240778,0.03493134,inf,inf,inf,inf,0,0,0,0,1,1,1,1,0,0,0,0,0,0,1
3408000,3408000,0,nan,nan,0.0006017205,-0.00014731698,-0.0017270142,-3.1109433e-08,4.019123e-09,0.0,0.0062563643,0.0016055902,-0.027178107,-0.030163307,-5.1849056e-06,6.6985376e-07,0.0017844737,0.04927028,0.0048380457,-0.11570751,1.6225909,0.0,nan,0.10196978,14.142142,10.0,0.19429092,0.036932506,inf,inf,inf,inf,0,0,0,0,1,1,1,1,0,0,0,0,0,0,1
3416000,3416000,0,nan,nan,0.00065503287,-0.00011775309,-0.0019435557,-3.1109433e-08,4.019123e-09,0.0,0.00671382,0.0019378108,-0.028218923,-0.031013919,-5.1849056e-06,6.6985376e-07,0.0017844737,0.053915627,0.03791552,-0.12913531,1.6225784,0.0,nan,0.10203848,14.142143,10.0,0.20624934,0.038933195,inf,inf,inf,inf,0,0,0,0,1,1,1,1,0,0,0,0,0,0,1
3424000,3424000,0,nan,nan,0.00071141764,-8.440821e-05,-0.0021683376,-3.1109433e-08,4.019123e-09,0.0,0.0069993106,0.0022334142,-0.029196694,-0.031807132,-5.1849056e-06,6.6985376e-07,0.0017844737,0.03360328,0.013070253,-0.123034224,1.6225666,0.0,nan,0.102106154,14.142144,10.0,0.21819723,0.0409329,inf,inf,inf,inf,0,0,0,0,1,1,1,1,0,0,0,0,0,0,1
3432000,3432000,0,nan,nan,0.00077080383,-4.7832684e-05,-0.00240162,-3.1109433e-08,4.019123e-09,0.0,0.007433291,0.0025817764,-0.030265164,-0.0326966,-5.1849056e-06,6.6985376e-07,0.0017844737,0.051953405,0.03377044,-0.12691225,1.6225657,0.0,nan,0.102174036,14.142145,10.0,0.23018122,0.04293265,inf,inf,inf,inf,0,0,0,0,1,1,1,1,0,0,0,0,0,0,1
3440000,3440000,0,nan,nan,0.00083351857,-6.882565e-06,-0.002643618,-3.1109433e-08,4.019123e-09,0.0,0.007800362,0.0031166906,-0.03134404,-0.033601936,-5.1849056e-06,6.6985376e-07,0.0017844737,0.04265111,0.055144306,-0.13255607,1.622575,0.0,nan,0.10224315,14.142146,10.0,0.24215996,0.044931803,inf,inf,inf,inf,0,0,0,0,1,1,1,1,0,0,0,0,0,0,1
3448000,3448000,0,nan,nan,0.0008845137,2.3457282e-05,-0.0028847014,-3.1109433e-08,4.019123e-09,0.0,0.008087002,0.00356927,-0.032287188,-0.034367807,-5.1849056e-06,6.6985376e-07,0.0017844737,0.03244668,0.04010982,-0.12118648,1.6225718,0.0,nan,0.102589436,0.014084185,7.071068,0.25416532,0.046930414,inf,inf,inf,inf,0,0,0,0,1,1,1,1,0,0,0,0,0,0,1
3456000,3456000,0,nan,nan,0.00093818636,5.8036745e-05,-0.0031346965,-3.1109433e-08,4.019123e-09,0.0,0.008337927,0.0038644713,-0.03342143,-0.035330325,-5.1849056e-06,6.6985376e-07,0.0017844737,0.027081244,0.0116217695,-0.13521965,1.6225743,0.0,nan,0.1026533,0.014298394,7.071068,0.26621413,0.048929047,inf,inf,inf,inf,0,0,0,0,1,1,1,1,0,0,0,0,0,0,1
3464000,3464000,0,nan,nan,0.0009938454,9.617904e-05,-0.0033939974,-3.1109433e-08,4.019123e-09,0.0,0.008446577,0.0043143425,-0.03454942,-0.03629201,-5.1849056e-06,6.6985376e-07,0.0017844737,0.00581381,0.059157256,-0.14524627,1.6225858,0.0,nan,0.10271941,0.014960001,7.071068,0.27829137,0.050927702,inf,inf,inf,inf,0,0,0,0,1,1,1,1,0,0,0,0,0,0,1
3472000,3472000,0,nan,nan,0.0010507018,0.00013962513,-0.0036631525,-3.1109433e-08,4.019123e-09,0.0,0.008571591,0.0048685633,-0.035721805,-0.037303384,-5.1849056e-06,6.6985376e-07,0.0017844737,0.020640668,0.051939826,-0.13554654,1.6225873,0.0,nan,0.10278837,0.01606768,7.071068,0.29039857,0.052925825,inf,inf,inf,inf,0,0,0,0,1,1,1,1,0,0,0,0,0,0,1
3480000,3480000,0,nan,nan,0.0011021444,0.00018206314,-0.003876166,-3.1109433e-08,4.019123e-09,0.0,0.008552384,0.005158474,-0.035757545,-0.037037387,-5.1849056e-06,6.6985376e-07,0.0017844737,0.02219298,0.0375317,-0.11074822,1.6225823,0.0,nan,0.1048073,0.014086824,7.071067,0.0017673187,0.0013351223,inf,inf,inf,inf,0,0,0,0,1,1,1,1,0,0,0,0,0,0,1
3488000,3488000,0,nan,nan,0.0011529966,0.0002256116,-0.004082268,-3.1109433e-08,4.019123e-09,0.0,0.008668268,0.005305732,-0.035137728,-0.036122352,-5.1849056e-06,6.6985376e-07,0.0017844737,0.03645067,0.033634175,-0.025573185,1.6225729,0.0,nan,0.105012305,0.014086909,7.071067,0.0053983307,0.0037001926,inf,inf,inf,inf,0,0,0,0,1,1,1,1,0,0,0,0,0,0,1
3496000,3496000,0,nan,nan,0.0012027565,0.00027005022,-0.0042790053,-3.1109433e-08,4.019123e-09,0.0,0.008572148,0.00546035,-0.03462062,-0.03531642,-5.1849056e-06,6.6985376e-07,0.0017844737,0.016947974,0.023752159,-0.04640035,1.6178887,-0.0046821875,nan,0.10520617,0.014086982,7.071067,0.0078603,0.005137423,inf,inf,inf,inf,0,0,0,0,1,1,1,1,1,0,0,0,0,0,1
3504000,3504000,0,nan,nan,0.0012514141,0.0003145134,-0.004467909,-3.1109433e-08,4.019123e-09,0.0,0.008615657,0.0054647494,-0.0343464,-0.03475964,-5.1849056e-06,6.6985376e-07,0.0017844737,0.021844897,0.006736314,-0.07167458,1.6179085,-0.0046821875,nan,0.10539035,0.014087248,7.071067,0.010199484,0.0063156914,inf,inf,inf,inf,0,0,0,0,1,1,1,1,1,0,0,0,0,0,1
3512000,3512000,0,nan,nan,0.001298608,0.00035819106,-0.0046493355,-3.1109433e-08,4.019123e-09,0.0,0.00859003,0.005468249,-0.033946816,-0.034083627,-5.1849056e-06,6.6985376e-07,0.0017844737,0.03874258,0.016751334,-0.05407724,1.617953,-0.0046821875,nan,0.10556506,0.014088044,7.071067,0.013537918,0.007360468,inf,inf,inf,inf,0,0,0,0,1,1,1,1,1,0,0,0,0,0,1
3520000,3520000,0,nan,nan,0.001345279,0.00040144354,-0.0048225555,-3.1109433e-08,4.019123e-09,0.0,0.008638009,0.0055464506,-0.03346966,-0.03333605,-5.1849056e-06,6.6985376e-07,0.0017844737,0.013760974,0.02732445,-0.033772547,1.6180044,-0.0046821875,nan,0.1057292,0.014089882,7.071067,0.01730639,0.008322207,inf,inf,inf,inf,0,0,0,0,1,1,1,1,1,0,0,0,0,0,1
3528000,3528000,0,nan,nan,0.0013900943,0.00044519952,-0.0049865404,-3.1109433e-08,4.019123e-09,0.0,0.008543732,0.0057861963,-0.03292693,-0.03252878,-5.1849056e-06,6.6985376e-07,0.0017844737,0.026001345,0.045082804,-0.040050592,1.6180294,-0.0046821875,nan,0.105882235,0.014093634,7.071067,0.021275155,0.009226932,inf,inf,inf,inf,0,0,0,0,1,1,1,1,1,0,0,0,0,0,1
3536000,3536000,0,nan,nan,0.001434091,0.00048989255,-0.0051408894,-3.1109433e-08,4.019123e-09,0.0,0.008671242,0.005958379,-0.03227837,-0.03162143,-5.1849056e-06,6.6985376e-07,0.0017844737,0.03688149,0.025994971,-0.019733792,1.6180444,-0.0046821875,nan,0.106023565,0.014100518,7.071067,0.02535938,0.010090012,inf,inf,inf,inf,0,0,0,0,1,1,1,1,1,0,0,0,0,0,1
3544000,3544000,0,nan,nan,0.0014767759,0.000534577,-0.00528574,-3.1109433e-08,4.019123e-09,0.0,0.008514401,0.006075754,-0.031879146,-0.030969042,-5.1849056e-06,6.6985376e-07,0.0017844737,-0.0022597814,0.033783156,-0.06805173,1.6180705,-0.0046821875,nan,0.10615257,0.0141121065,7.071067,0.029511511,0.010921343,inf,inf,inf,inf,0,0,0,0,1,1,1,1,1,0,0,0,0,0,1
3552000,3552000,0,nan,nan,0.0015167482,0.00057928753,-0.005422725,-3.1109433e-08,4.019123e-09,0.0,0.008373265,0.00619978,-0.0314724,-0.030314637,-5.1849056e-06,6.6985376e-07,0.0017844737,0.015111421,0.030410664,-0.038828697,1.618118,-0.0046821875,nan,0.10627076,0.014130306,7.071067,0.033711806,0.011727704,inf,inf,inf,inf,0,0,0,0,1,1,1,1,1,0,0,0,0,0,1
3560000,3560000,0,nan,nan,0.0015552858,0.00062386977,-0.0055502523,-3.1109433e-08,4.019123e-09,0.0,0.008474758,0.0063120835,-0.030876668,-0.029476631,-5.1849056e-06,6.6985376e-07,0.0017844737,0.043646444,0.029240225,-0.034477558,1.618157,-0.0046821875,nan,0.10637752,0.0141573595,7.071067,0.037939113,0.012513936,inf,inf,inf,inf,0,0,0,0,1,1,1,1,1,0,0,0,0,0,1
3568000,3568000,0,nan,nan,0.0015931164,0.000668673,-0.0056680064,-3.1109433e-08,4.019123e-09,0.0,0.008495164,0.00651687,-0.030225715,-0.028591108,-5.1849056e-06,6.6985376e-07,0.0017844737,0.028071793,0.038966782,-0.012797303,1.6182405,-0.0046821875,nan,0.10647331,0.014195811,7.071067,0.04219892,0.013283624,inf,inf,inf,inf,0,0,0,0,1,1,1,1,1,0,0,0,0,0,1
3576000,3576000,0,nan,nan,0.0016295657,0.0007133143,-0.0057758642,-3.1109433e-08,4.019123e-09,0.0,0.008442222,0.006520906,-0.029636132,-0.027774492,-5.1849056e-06,6.6985376e-07,0.0017844737,0.019138416,0.0081313625,-0.03749411,1.6183167,-0.0046821875,nan,0.10655721,0.014248505,7.071067,0.046488293,0.014039507,inf,inf,inf,inf,0,0,0,0,1,1,1,1,1,0,0,0,0,0,1
3584000,3584000,0,nan,nan,0.001664944,0.0007555461,-0.0058754883,-3.1109433e-08,4.019123e-09,0.0,0.008527812,0.006241097,-0.029119458,-0.027038168,-5.1849056e-06,6.6985376e-07,0.0017844737,0.035228018,-0.013847281,-0.014765187,1.6183952,-0.0046821875,nan,0.1066295,0.014318555,7.071067,0.050810486,0.014783715,inf,inf,inf,inf,0,0,0,0,1,1,1,1,1,0,0,0,0,0,1
3592000,3592000,0,nan,nan,0.0016986773,0.0007952296,-0.0059668566,-3.1109433e-08,4.019123e-09,0.0,0.008299796,0.0061139804,-0.028673463,-0.02637974,-5.1849056e-06,6.6985376e-07,0.0017844737,-0.010071787,-0.004891713,-0.049997117,1.6184585,-0.0046821875,nan,0.10668967,0.01440931,7.071067,0.055153664,0.015517941,inf,inf,inf,inf,0,0,0,0,1,1,1,1,1,0,0,0,0,0,1
3600000,3600000,0,nan,nan,0.0017289235,0.00083294977,-0.0060511623,-3.1109433e-08,4.019123e-09,0.0,0.007976286,0.006065003,-0.028170472,-0.025671382,-5.1849056e-06,6.6985376e-07,0.0017844737,-0.014019299,0.016329067,-0.018235294,1.6185232,-0.0046821875,nan,0.10673972,0.01452429,7.071067,0.05951959,0.016243555,inf,inf,inf,inf,0,0,0,0,1,1,1,1,1,0,0,0,0,0,1
3608000,3608000,0,nan,nan,0.0017557899,0.0008692676,-0.006127625,-3.1109433e-08,4.019123e-09,0.0,0.0077502155,0.0060062697,-0.02757951,-0.024881965,-5.1849056e-06,6.6985376e-07,0.0017844737,0.0033852847,0.009189345,-0.015488825,1.6185936,-0.0046821875,nan,0.10677945,0.014667136,7.071067,0.06390921,0.01696167,inf,inf,inf,inf,0,0,0,0,1,1,1,1,1,0,0,0,0,0,1
3616000,3616000,0,nan,nan,0.001779942,0.0009040782,-0.0061969096,-3.1109433e-08,4.019123e-09,0.0,0.007520481,0.0059588156,-0.027155412,-0.024266168,-5.1849056e-06,6.6985376e-07,0.0017844737,-0.007927258,0.012176576,-0.041806135,1.6186624,-0.0046821875,nan,0.10681019,0.014841543,7.071067,0.06832227,0.017673213,inf,inf,inf,inf,0,0,0,0,1,1,1,1,1,0,0,0,0,0,1
3624000,3624000,0,nan,nan,0.0018007132,0.00093723566,-0.0062604756,-3.1109433e-08,4.019123e-09,0.0,0.0071812323,0.0058573526,-0.026724044,-0.023649713,-5.1849056e-06,6.6985376e-07,0.0017844737,-0.016438833,0.007071139,-0.014374032,1.6187204,-0.0046821875,nan,0.10683284,0.015051192,7.071067,0.07277158,0.018378953,inf,inf,inf,inf,0,0,0,0,1,1,1,1,1,0,0,0,0,0,1
3632000,3632000,0,nan,nan,0.0018178582,0.00096932147,-0.0063176597,-3.1109433e-08,4.019123e-09,0.0,0.0068703713,0.005910582,-0.026238836,-0.02298588,-5.1849056e-06,6.6985376e-07,0.0017844737,-0.0092686815,0.018074395,-0.0245776,1.6187793,-0.0046821875,nan,0.10684575,0.0152997095,7.071067,0.077250205,0.019079546,inf,inf,inf,inf,0,0,0,0,1,1,1,1,1,0,0,0,0,0,1
3640000,3640000,0,nan,nan,0.0018325154,0.0010002917,-0.006368308,-3.1109433e-08,4.019123e-09,0.0,0.0067755207,0.005871324,-0.025572319,-0.022147054,-5.1849056e-06,6.6985376e-07,0.0017844737,0.014240562,0.018089091,0.011972151,1.6188887,-0.0046821875,nan,0.10684956,0.015590544,7.071067,0.08175343,0.019775553,inf,inf,inf,inf,0,0,0,0,1,1,1,1,1,0,0,0,0,0,1
3648000,3648000,0,nan,nan,0.0018448683,0.0010307258,-0.0064120116,-3.1109433e-08,4.019123e-09,0.0,0.006508133,0.0060173613,-0.025026686,-0.02143529,-5.1849056e-06,6.6985376e-07,0.0017844737,-0.008455637,0.041554198,-0.016490927,1.6189948,-0.0046821875,nan,0.10684492,0.015926884,7.071067,0.08628626,0.02046745,inf,inf,inf,inf,0,0,0,0,1,1,1,1,1,0,0,0,0,0,1
3656000,3656000,0,nan,nan,0.0018542252,0.0010610363,-0.0064550997,-3.1109433e-08,4.019123e-09,0.0,0.006400179,0.0060563516,-0.02474575,-0.02099846,-5.1849056e-06,6.6985376e-07,0.0017844737,0.012054559,0.011868876,-0.044199634,1.6191053,-0.0046821875,nan,0.106707014,0.0106853135,5.7735023,0.0842294,0.02115563,inf,inf,inf,inf,0,0,0,0,1,1,1,1,1,0,0,0,0,0,1
3664000,3664000,0,nan,nan,0.0018621375,0.0010904092,-0.006494561,-3.1109433e-08,4.019123e-09,0.0,0.006376393,0.0060457992,-0.024441706,-0.02054427,-5.1849056e-06,6.6985376e-07,0.0017844737,0.032196097,0.015964905,-0.027989035,1.6192081,-0.0046821875,nan,0.10669509,0.010984796,5.7735023,0.088532306,0.021840468,inf,inf,inf,inf,0,0,0,0,1,1,1,1,1,0,0,0,0,0,1
3672000,3672000,0,nan,nan,0.0018695499,0.0011190267,-0.0065301466,-3.1109433e-08,4.019123e-09,0.0,0.0063558337,0.0060983365,-0.024108183,-0.020066215,-5.1849056e-06,6.6985376e-07,0.0017844737,0.008216506,0.028121386,-0.029205343,1.619301,-0.0046821875,nan,0.10667721,0.011348213,5.7735023,0.09287408,0.02252227,inf,inf,inf,inf,0,0,0,0,1,1,1,1,1,0,0,0,0,0,1
3680000,3680000,0,nan,nan,0.0018756305,0.0011466562,-0.0065621277,-3.1109433e-08,4.019123e-09,0.0,0.0063009993,0.0059448974,-0.023775904,-0.019594891,-5.1849056e-06,6.6985376e-07,0.0017844737,0.027484609,-0.011782147,-0.023663042,1.6193717,-0.0046821875,nan,0.106653765,0.011777791,5.7735023,0.09725216,0.023201317,inf,inf,inf,inf,0,0,0,0,1,1,1,1,1,0,0,0,0,0,1
3688000,3688000,0,nan,nan,0.0018805797,0.001172109,-0.0065902174,-3.1109433e-08,4.019123e-09,0.0,0.006176953,0.0058578937,-0.02340168,-0.019086387,-5.1849056e-06,6.6985376e-07,0.0017844737,-0.0007197231,0.013101889,-0.017467884,1.619458,-0.0046821875,nan,0.10663413,0.012039872,5.7735023,0.09567417,0.02370947,inf,inf,inf,inf,0,0,0,0,1,1,1,1,1,0,0,0,0,0,1
3696000,3696000,0,nan,nan,0.0018836808,0.0011971839,-0.006614632,-3.1109433e-08,4.019123e-09,0.0,0.0060210135,0.0060096313,-0.023005882,-0.018561559,-5.1849056e-06,6.6985376e-07,0.0017844737,0.005970534,0.036016583,-0.012842937,1.6195428,-0.0046821875,nan,0.10660131,0.0125508215,5.7735023,0.09988724,0.02438204,inf,inf,inf,inf,0,0,0,0,1,1,1,1,1,0,0,0,0,0,1
3704000,3704000,0,nan,nan,0.001885239,0.001221986,-0.0066358596,-3.1109433e-08,4.019123e-09,0.0,0.0059150322,0.005915844,-0.022762781,-0.01819455,-5.1849056e-06,6.6985376e-07,0.0017844737,0.012010175,-0.007197668,-0.043572854,1.6196117,-0.0046821875,nan,0.10656346,0.013124921,5.7735023,0.10414286,0.025052454,inf,inf,inf,inf,0,0,0,0,1,1,1,1,1,0,0,0,0,0,1
3712000,3712000,0,nan,nan,0.0018852028,0.0012445934,-0.00665554,-3.1109433e-08,4.019123e-09,0.0,0.0056793666,0.005720731,-0.022619259,-0.017932126,-5.1849056e-06,6.6985376e-07,0.0017844737,-0.01750134,0.0034972762,-0.04014838,1.6197098,-0.0046821875,nan,0.1065226,0.013761887,5.7735023,0.10844123,0.0257209,inf,inf,inf,inf,0,0,0,0,1,1,1,1,1,0,0,0,0,0,1
3720000,3720000,0,nan,nan,0.0018827651,0.0012662759,-0.006673047,-3.1109433e-08,4.019123e-09,0.0,0.005480436,0.0057794424,-0.02218,-0.017378852,-5.1849056e-06,6.6985376e-07,0.0017844737,0.004374495,0.02048959,0.012299976,1.6198134,-0.0046821875,nan,0.106479205,0.0144610265,5.7735023,0.11277941,0.026387528,inf,inf,inf,inf,0,0,0,0,1,1,1,1,1,0,0,0,0,0,1
3728000,3728000,0,nan,nan,0.0018778798,0.0012877854,-0.0066866237,-3.1109433e-08,4.019123e-09,0.0,0.0050649624,0.0058125397,-0.021733977,-0.01682358,-5.1849056e-06,6.6985376e-07,0.0017844737,-0.044071697,0.015383702,-0.016150994,1.6199039,-0.0046821875,nan,0.1064319,0.015221334,5.7735023,0.117169954,0.027052479,inf,inf,inf,inf,0,0,0,0,1,1,1,1,1,0,0,0,0,0,1
3736000,3736000,0,nan,nan,0.0018698471,0.0013088763,-0.006697957,-3.1109433e-08,4.019123e-09,0.0,0.004894875,0.0058739223,-0.021472001,-0.016457014,-5.1849056e-06,6.6985376e-07,0.0017844737,0.019605037,0.03528547,-0.016737727,1.6199888,-0.0046821875,nan,0.106380984,0.016041707,5.7735023,0.12162037,0.027715879,inf,inf,inf,inf,0,0,0,0,1,1,1,1,1,0,0,0,0,0,1
3744000,3744000,0,nan,nan,0.0018610234,0.0013302818,-0.0067073232,-3.1109433e-08,4.019123e-09,0.0,0.0047764285,0.005906296,-0.021163994,-0.016048959,-5.1849056e-06,6.6985376e-07,0.0017844737,-0.010279807,0.005145426,-0.0143013885,1.6200601,-0.0046821875,nan,0.10632587,0.016921004,5.7735023,0.12612164,0.028377838,inf,inf,inf,inf,0,0,0,0,1,1,1,1,1,0,0,0,0,0,1
3752000,3752000,0,nan,nan,0.0018498432,0.0013507337,-0.0067144223,-3.1109433e-08,4.019123e-09,0.0,0.004445418,0.005815622,-0.02077855,-0.015567902,-5.1849056e-06,6.6985376e-07,0.0017844737,-0.013016251,0.007411916,-0.004594214,1.6201266,-0.0046821875,nan,0.10626663,0.017858014,5.7735023,0.13067514,0.02903847,inf,inf,inf,inf,0,0,0,0,1,1,1,1,1,0,0,0,0,0,1
3760000,3760000,0,nan,nan,0.0018368262,0.0013709317,-0.006719472,-3.1109433e-08,4.019123e-09,0.0,0.0042803977,0.0059077707,-0.020497303,-0.01519537,-5.1849056e-06,6.6985376e-07,0.0017844737,-0.008534538,0.021397367,-0.018425284,1.620181,-0.0046821875,nan,0.10620371,0.018851554,5.7735023,0.13528357,0.029697852,inf,inf,inf,inf,0,0,0,0,1,1,1,1,1,0,0,0,0,0,1
3768000,3768000,0,nan,nan,0.0018219727,0.0013908185,-0.0067241383,-3.1109433e-08,4.019123e-09,0.0,0.0040699844,0.0058705816,-0.020532606,-0.015143604,-5.1849056e-06,6.6985376e-07,0.0017844737,0.002302171,0.01615568,-0.06733089,1.6202298,-0.0046821875,nan,0.106139064,0.01990053,5.7735023,0.13994694,0.030356081,inf,inf,inf,inf,0,0,0,0,1,1,1,1,1,0,0,0,0,0,1
3776000,3776000,0,nan,nan,0.0018065673,0.0014110273,-0.006729845,-3.1109433e-08,4.019123e-09,0.0,0.0041008866,0.006023362,-0.020411182,-0.014939234,-5.1849056e-06,6.6985376e-07,0.0017844737,0.021016749,0.029237226,-0.015042721,1.6203297,-0.0046821875,nan,0.10607445,0.021003937,5.7735023,0.14466752,0.031013247,inf,inf,inf,inf,0,0,0,0,1,1,1,1,1,0,0,0,0,0,1
3784000,3784000,0,nan,nan,0.0017907073,0.001431705,-0.00673411,-3.1109433e-08,4.019123e-09,0.0,0.003911489,0.006072339,-0.0200096,-0.014458723,-5.1849056e-06,6.6985376e-07,0.0017844737,-0.015772762,0.020182937,-0.00026822087,1.6204238,-0.0046821875,nan,0.10600699,0.022160878,5.7735023,0.14945424,0.031669393,inf,inf,inf,inf,0,0,0,0,1,1,1,1,1,0,0,0,0,0,1
3792000,3792000,0,nan,nan,0.0017730822,0.0014529658,-0.0067370036,-3.1109433e-08,4.019123e-09,0.0,0.0036974144,0.0062065925,-0.019774435,-0.01414855,-5.1849056e-06,6.6985376e-07,0.0017844737,-0.0049586957,0.026331792,-0.014178454,1.62051,-0.0046821875,nan,0.10593585,0.02337063,5.7735023,0.15430647,0.03232459,inf,inf,inf,inf,0,0,0,0,1,1,1,1,1,0,0,0,0,0,1
3800000,3800000,0,nan,nan,0.0017545021,0.0014747013,-0.006738545,-3.1109433e-08,4.019123e-09,0.0,0.0036442426,0.006247012,-0.019390116,-0.01369304,-5.1849056e-06,6.6985376e-07,0.0017844737,0.015853219,0.01673131,0.0028517095,1.620615,-0.0046821875,nan,0.10586195,0.024632566,5.7735023,0.15920824,0.032978926,inf,inf,inf,inf,0,0,0,0,1,1,1,1,1,0,0,0,0,0,1
3808000,3808000,0,nan,nan,0.0017359913,0.0014960623,-0.006739288,-3.1109433e-08,4.019123e-09,0.0,0.0036324875,0.0061475383,-0.019257303,-0.01349276,-5.1849056e-06,6.6985376e-07,0.0017844737,0.010273637,-0.0016373523,-0.027531756,1.6206886,-0.0046821875,nan,0.10578716,0.025946043,5.7735023,0.16417341,0.033632427,inf,inf,inf,inf,0,0,0,0,1,1,1,1,1,0,0,0,0,0,1
3816000,3816000,0,nan,nan,0.001717554,0.0015175357,-0.0067397496,-3.1109433e-08,4.019123e-09,0.0,0.003652149,0.00630263,-0.018973446,-0.013145064,-5.1849056e-06,6.6985376e-07,0.0017844737,0.02503654,0.030390378,-0.0048065553,1.6207447,-0.0046821875,nan,0.105711386,0.027310615,5.7735023,0.1692125,0.034285173,inf,inf,inf,inf,0,0,0,0,1,1,1,1,1,0,0,0,0,0,1
3824000,3824000,0,nan,nan,0.0016998672,0.0015394184,-0.0067398567,-3.1109433e-08,4.019123e-09,0.0,0.0037057665,0.0062476727,-0.018832248,-0.012943563,-5.1849056e-06,6.6985376e-07,0.0017844737,0.0154299475,-0.001722772,-0.026026739,1.6208067,-0.0046821875,nan,0.105634116,0.028726,5.7735023,0.17431618,0.03493719,inf,inf,inf,inf,0,0,0,0,1,1,1,1,1,0,0,0,0,0,1
3832000,3832000,0,nan,nan,0.0016824534,0.0015604361,-0.0067403554,-3.1109433e-08,4.019123e-09,0.0,0.0036832024,0.006163405,-0.018653776,-0.012708235,-5.1849056e-06,6.6985376e-07,0.0017844737,0.01442668,0.011302734,-0.00884477,1.62088,-0.0046821875,nan,0.10555669,0.030191934,5.7735033,0.17948395,0.035588514,inf,inf,inf,inf,0,0,0,0,1,1,1,1,1,0,0,0,0,0,1
3840000,3840000,0,nan,nan,0.0016652852,0.0015824843,-0.0067401454,-3.1109433e-08,4.019123e-09,0.0,0.0036522625,0.006465264,-0.018330522,-0.012331477,-5.1849056e-06,6.6985376e-07,0.0017844737,0.004273373,0.04843132,-0.0056242566,1.6209524,-0.0046821875,nan,0.10547799,0.03170821,5.773504,0.18472615,0.036239214,inf,inf,inf,inf,0,0,0,0,1,1,1,1,1,0,0,0,0,0,1
3848000,3848000,0,nan,nan,0.001647587,0.0016068555,-0.006739914,-3.1109433e-08,4.019123e-09,0.0,0.0034776938,0.0067610177,-0.018219352,-0.012170073,-5.1849056e-06,6.6985376e-07,0.0017844737,-0.009812356,0.05336587,-0.024825333,1.621027,-0.0046821875,nan,0.10539711,0.03327479,5.7735047,0.19005506,0.036889296,inf,inf,inf,inf,0,0,0,0,1,1,1,1,1,0,0,0,0,0,1
3856000,3856000,0,nan,nan,0.0016286944,0.0016340731,-0.0067405496,-3.1109433e-08,4.019123e-09,0.0,0.0032629934,0.0070841643,-0.018106442,-0.012010111,-5.1849056e-06,6.6985376e-07,0.0017844737,-0.01377768,0.03658156,-0.016826203,1.6211177,-0.0046821875,nan,0.1053144,0.03489176,5.773505,0.19544812,0.037538838,inf,inf,inf,inf,0,0,0,0,1,1,1,1,1,0,0,0,0,0,1
3864000,3864000,0,nan,nan,0.0016057367,0.0016530267,-0.006729918,-3.1109433e-08,4.019123e-09,0.0,0.003156591,0.007091342,-0.018038854,-0.011886583,-5.1849056e-06,6.6985376e-07,0.0017844737,0.006803558,0.020406673,-0.03589317,1.6212,-0.0046821875,nan,0.1055943,0.013189694,5.000002,0.094338484,0.038187597,inf,inf,inf,inf,0,0,0,0,1,1,1,1,1,0,0,0,0,0,1
3872000,3872000,0,nan,nan,0.0015830898,0.0016715458,-0.0067220465,-3.1109433e-08,4.019123e-09,0.0,0.003218533,0.006916551,-0.0182383,-0.01203353,-5.1849056e-06,6.6985376e-07,0.0017844737,0.022033578,-0.018705772,-0.060386952,1.6212615,-0.0046821875,nan,0.105501875,0.013820125,5.0000024,0.09760917,0.038836062,inf,inf,inf,inf,0,0,0,0,1,1,1,1,1,0,0,0,0,0,1
3880000,3880000,0,nan,nan,0.0015608832,0.0016891935,-0.00671758,-3.1109433e-08,4.019123e-09,0.0,0.0031431804,0.007016683,-0.018349564,-0.01209564,-5.1849056e-06,6.6985376e-07,0.0017844737,0.00021922459,0.051089313,-0.046987083,1.6213251,-0.0046821875,nan,0.10541254,0.014490042,5.000003,0.100965954,0.03948405,inf,inf,inf,inf,0,0,0,0,1,1,1,1,1,0,0,0,0,0,1
3888000,3888000,0,nan,nan,0.0015380214,0.0017092284,-0.006715929,-3.1109433e-08,4.019123e-09,0.0,0.0029707616,0.007358774,-0.018382046,-0.012082229,-5.1849056e-06,6.6985376e-07,0.0017844737,-0.005681591,0.04337352,-0.03161281,1.6214052,-0.0046821875,nan,0.1053254,0.015199259,5.0000033,0.10442522,0.040131584,inf,inf,inf,inf,0,0,0,0,1,1,1,1,1,0,0,0,0,0,1
3896000,3896000,0,nan,nan,0.0015149397,0.0017296067,-0.006714377,-3.1109433e-08,4.019123e-09,0.0,0.0029989113,0.007413529,-0.018448684,-0.012102395,-5.1849056e-06,6.6985376e-07,0.0017844737,0.020897277,0.023604864,-0.04466902,1.6214653,-0.0046821875,nan,0.10531263,0.015279729,5.0000033,0.10087253,0.0399566,inf,inf,inf,inf,0,0,0,0,1,1,1,1,1,0,0,0,0,0,1
3904000,3904000,0,nan,nan,0.0014927548,0.0017508946,-0.0067157503,-3.1109433e-08,4.019123e-09,0.0,0.0030588561,0.007583193,-0.018551832,-0.012162249,-5.1849056e-06,6.6985376e-07,0.0017844737,0.020214953,0.036721203,-0.043623146,1.6215171,-0.0046821875,nan,0.10523016,0.015998038,5.000004,0.10429572,0.040595178,inf,inf,inf,inf,0,0,0,0,1,1,1,1,1,0,0,0,0,0,1
3912000,3912000,0,nan,nan,0.0014713616,0.001773274,-0.0067198044,-3.1109433e-08,4.019123e-09,0.0,0.0030416178,0.0076765576,-0.018549748,-0.012119962,-5.1849056e-06,6.6985376e-07,0.0017844737,0.0023453175,0.02580245,-0.023762694,1.6215913,-0.0046821875,nan,0.10514922,0.016753098,5.0000043,0.10781256,0.04123335,inf,inf,inf,inf,0,0,0,0,1,1,1,1,1,0,0,0,0,0,1
3920000,3920000,0,nan,nan,0.0014493691,0.0017962591,-0.006725358,-3.1109433e-08,4.019123e-09,0.0,0.0027909302,0.007709457,-0.018382529,-0.011915547,-5.1849056e-06,6.6985376e-07,0.0017844737,-0.025120387,0.013348602,-0.004121102,1.6216817,-0.0046821875,nan,0.10506941,0.017545061,5.000005,0.11141919,0.04187115,inf,inf,inf,inf,0,1,0,1,1,1,1,1,1,0,0,0,0,0,1
3928000,3928000,0,nan,nan,0.0014251594,0.0018191747,-0.00673175,-3.1109433e-08,4.019123e-09,0.0,0.0023988476,0.007663169,-0.018278651,-0.011777395,-5.1849056e-06,6.6985376e-07,0.0017844737,-0.032725044,0.0066106436,-0.029476358,1.6217773,-0.0046821875,nan,0.10498989,0.018374097,5.0000057,0.11513149,0.042508584,inf,inf,inf,inf,0,1,0,1,1,1,1,1,1,0,0,0,0,0,1
3936000,3936000,0,nan,nan,0.0013997064,0.0018413885,-0.0067406134,-3.1109433e-08,4.019123e-09,0.0,0.0023550927,0.007566496,-0.018366933,-0.011834245,-5.1849056e-06,6.6985376e-07,0.0017844737,0.012527335,0.010476549,-0.033214685,1.6218618,-0.0046821875,nan,0.1049115,0.019240504,5.000006,0.118941195,0.043145675,inf,inf,inf,inf,0,1,0,1,1,1,1,1,1,0,0,0,0,0,1
3944000,3944000,0,nan,nan,0.0013749975,0.0018639128,-0.006751755,-3.1109433e-08,4.019123e-09,0.0,0.0024423513,0.007672623,-0.018309591,-0.011748234,-5.1849056e-06,6.6985376e-07,0.0017844737,0.027016632,0.021845711,-0.019375233,1.6219413,-0.0046821875,nan,0.10483395,0.020144587,5.000007,0.12285111,0.043782428,inf,inf,inf,inf,0,1,0,1,1,1,1,1,1,0,0,0,0,0,1
3952000,3952000,0,nan,nan,0.0013510679,0.001886639,-0.006764235,-3.1109433e-08,4.019123e-09,0.0,0.0023413007,0.007619441,-0.018164583,-0.011577237,-5.1849056e-06,6.6985376e-07,0.0017844737,-0.014290417,0.006220201,-0.013245269,1.6220158,-0.0046821875,nan,0.104755126,0.021086706,5.0000076,0.12687275,0.04441886,inf,inf,inf,inf,0,1,0,1,1,1,1,1,1,0,0,0,0,0,1
3960000,3960000,0,nan,nan,0.0013262733,0.0019091795,-0.0067786477,-3.1109433e-08,4.019123e-09,0.0,0.002144419,0.007591293,-0.018188922,-0.011578196,-5.1849056e-06,6.6985376e-07,0.0017844737,-0.011676325,0.006707996,-0.022662802,1.6220645,-0.0046821875,nan,0.10467496,0.022067329,5.0000086,0.13098969,0.045055017,inf,inf,inf,inf,0,1,0,1,1,1,1,1,1,0,0,0,0,0,1
3968000,3968000,0,nan,nan,0.0013011653,0.0019315719,-0.006794419,-3.1109433e-08,4.019123e-09,0.0,0.0021170345,0.0075842952,-0.017970394,-0.011338819,-5.1849056e-06,6.6985376e-07,0.0017844737,0.008989998,0.015865386,0.0020051373,1.6221392,-0.0046821875,nan,0.10459359,0.023086874,5.0000095,0.13520248,0.04569091,inf,inf,inf,inf,0,1,0,1,1,1,1,1,1,0,0,0,0,0,1
3976000,3976000,0,nan,nan,0.001276208,0.0019544302,-0.0068117892,-3.1109433e-08,4.019123e-09,0.0,0.0020175446,0.0076568797,-0.018081995,-0.011432028,-5.1849056e-06,6.6985376e-07,0.0017844737,-0.0046103373,0.021398561,-0.05190819,1.6222187,-0.0046821875,nan,0.10451147,0.024145786,5.00001,0.13951796,0.04632652,inf,inf,inf,inf,0,1,0,1,1,1,1,1,1,0,0,0,0,0,1
3984000,3984000,0,nan,nan,0.0012510971,0.0019776712,-0.0098823905,-3.1109433e-08,4.019123e-09,0.0,0.001967339,0.0076576755,-0.018199492,-0.014573525,-5.1849056e-06,6.6985376e-07,0.0017844737,0.010788935,0.015724814,-0.0289008,1.6222361,-0.0046821875,nan,0.1,0.025244594,2.8673136,0.14393629,0.04696182,inf,inf,inf,inf,0,1,0,1,1,1,1,1,1,0,0,0,0,0,1
3992000,3992000,0,nan,nan,0.0012261559,0.0020013251,-0.012867318,-3.1109433e-08,4.019123e-09,0.0,0.0018423841,0.007692854,-0.018197816,-0.017490394,-5.1849056e-06,6.6985376e-07,0.0017844737,-0.015634418,0.01321861,-0.025768762,1.6222515,-0.0046821875,nan,0.1,0.026383847,2.8673143,0.14844957,0.047596943,inf,inf,inf,inf,0,1,0,1,1,1,1,1,1,0,0,0,0,0,1
4000000,4000000,0,nan,nan,0.0012005876,0.0020256676,-0.015769094,-3.1109433e-08,4.019123e-09,0.0,0.0016915777,0.007831767,-0.01824662,-0.020355266,-5.1849056e-06,6.6985376e-07,0.0017844737,-0.010770701,0.037650123,-0.026169231,1.6222594,-0.0046821875,nan,0.1,0.02756408,2.8673148,0.15305412,0.048231814,inf,inf,inf,inf,0,1,0,1,1,1,1,1,1,0,0,0,0,0,1
4008000,4008000,0,nan,nan,0.0011740397,0.0020511774,-0.018590257,-3.1109433e-08,4.019123e-09,0.0,0.001468605,0.007845825,-0.018309245,-0.023134375,-5.1849056e-06,6.6985376e-07,0.0017844737,-0.013433818,-0.00049165095,-0.033066604,1.6222707,-0.0046821875,nan,0.1,0.028785827,2.8673155,0.1577631,0.04886645,inf,inf,inf,inf,0,1,0,1,1,1,1,1,1,0,0,0,0,0,1
4016000,4016000,0,nan,nan,0.0011476318,0.0020766922,-0.021332668,-3.1109433e-08,4.019123e-09,0.0,0.0015778131,0.007869797,-0.018135007,-0.025579859,-5.1849056e-06,6.6985376e-07,0.0017844737,0.02986146,0.023516461,0.016353091,1.6222801,-0.0046821875,nan,0.1,0.030049717,2.8673162,0.16258489,0.049500894,inf,inf,inf,inf,0,1,0,1,1,1,1,1,1,0,0,0,0,0,1
4024000,4024000,0,nan,nan,0.0011225641,0.0021026558,-0.023996893,-3.1109433e-08,4.019123e-09,0.0,0.0015722109,0.007841857,-0.017954124,-0.02792468,-5.1849056e-06,6.6985376e-07,0.0017844737,-0.0031281377,0.0021006851,-0.011060386,1.6222878,-0.0046821875,nan,0.1,0.031356458,2.867317,0.16749933,0.05013517,inf,inf,inf,inf,0,1,0,1,1,1,1,1,1,0,0,0,0,0,1
4032000,4032000,0,nan,nan,0.001097871,0.002128566,-0.026586479,-3.1109433e-08,4.019123e-09,0.0,0.0016057504,0.007821918,-0.0179345,-0.030339409,-5.1849056e-06,6.6985376e-07,0.0017844737,0.024228094,0.00970911,-0.01624599,1.6223027,-0.0046821875,nan,0.1,0.032706656,2.8673182,0.17250955,0.050769225,inf,inf,inf,inf,0,1,0,1,1,1,1,1,1,0,0,0,0,0,1
4040000,4040000,0,nan,nan,0.0010741792,0.0021549303,-0.02769674,-3.1109433e-08,4.019123e-09,0.0,0.0015372647,0.0079069445,-0.017779158,-0.031127375,-5.1849056e-06,6.6985376e-07,0.0017844737,-0.020279374,0.027503934,0.005013309,1.6222912,-0.0046821875,nan,0.1,0.03410094,2.2180383,0.17763203,0.051403046,inf,inf,inf,inf,0,1,0,1,1,1,1,1,1,0,0,0,0,0,1
4048000,4048000,0,nan,nan,0.0010495343,0.0021822262,-0.028777057,-3.1109433e-08,4.019123e-09,0.0,0.0013413774,0.0079257125,-0.01779457,-0.0320496,-5.1849056e-06,6.6985376e-07,0.0017844737,-0.0029991204,0.004230765,-0.032272186,1.6222571,-0.0046821875,nan,0.1,0.035540067,2.2180393,0.18284032,0.05203676,inf,inf,inf,inf,0,1,0,1,1,1,1,1,1,0,0,0,0,0,1
4056000,4056000,0,nan,nan,0.0010253465,0.0022098653,-0.029829843,-3.1109433e-08,4.019123e-09,0.0,0.0014452906,0.007974207,-0.01790795,-0.033034354,-5.1849056e-06,6.6985376e-07,0.0017844737,0.022625841,0.02132004,-0.032470558,1.6222106,-0.0046821875,nan,0.1,0.03702464,2.2180402,0.18817237,0.052670322,inf,inf,inf,inf,0,1,0,1,1,1,1,1,1,0,0,0,0,0,1
4064000,4064000,0,nan,nan,0.0010024558,0.0022381116,-0.030856542,-3.1109433e-08,4.019123e-09,0.0,0.0014741266,0.007972215,-0.018099518,-0.0340629,-5.1849056e-06,6.6985376e-07,0.0017844737,0.005460999,0.0076384163,-0.03664102,1.622174,-0.0046821875,nan,0.1,0.03855551,2.2180412,0.19360691,0.053303715,inf,inf,inf,inf,0,1,0,1,1,1,1,1,1,0,0,0,0,0,1
4072000,4072000,0,nan,nan,0.0009774392,0.0022462278,-0.03185704,-3.1109433e-08,4.019123e-09,0.0,0.0014305768,0.007843355,-0.018023647,-0.034790624,-5.1849056e-06,6.6985376e-07,0.0017844737,0.0049672523,0.0049827355,-0.010282732,1.6221262,-0.0046821875,nan,0.1,0.01333825,2.2180424,0.09659746,0.05393673,inf,inf,inf,inf,0,1,0,1,1,1,1,1,1,0,0,0,0,0,1
4080000,4080000,0,nan,nan,0.00095223886,0.0022536246,-0.03283166,-3.1109433e-08,4.019123e-09,0.0,0.0012437417,0.0077698817,-0.018048167,-0.03558632,-5.1849056e-06,6.6985376e-07,0.0017844737,-0.020621212,0.016316582,-0.017553566,1.6220623,-0.0046821875,nan,0.1,0.013892253,2.2180438,0.10055629,0.05456983,inf,inf,inf,inf,0,1,0,1,1,1,1,1,1,0,0,0,0,0,1
4088000,4088000,0,nan,nan,0.0009267428,0.002261352,-0.03378204,-3.1109433e-08,4.019123e-09,0.0,0.0012555133,0.007881762,-0.018230397,-0.03650825,-5.1849056e-06,6.6985376e-07,0.0017844737,0.017430982,0.037656803,-0.04375167,1.6220092,-0.0046821875,nan,0.1,0.014490326,2.218045,0.10461506,0.05520279,inf,inf,inf,inf,0,1,0,1,1,1,1,1,1,0,0,0,0,0,1
4096000,4096000,0,nan,nan,0.00090241095,0.0022696466,-0.03470885,-3.1109433e-08,4.019123e-09,0.0,0.001355315,0.007833291,-0.018188156,-0.037175167,-5.1849056e-06,6.6985376e-07,0.0017844737,0.021981962,0.007902795,-0.009583308,1.6219612,-0.0046821875,nan,0.1,0.015133379,2.2180467,0.10875827,0.055835623,inf,inf,inf,inf,0,1,0,1,1,1,1,1,1,0,0,0,0,0,1
4104000,4104000,0,nan,nan,0.00087944977,0.0022772294,-0.036079727,-3.1109433e-08,4.019123e-09,0.0,0.0014293364,0.007965661,-0.018381437,-0.038509786,-5.1849056e-06,6.6985376e-07,0.0017844737,0.014807679,0.046258293,-0.04458427,1.6219182,-0.0046821875,nan,0.1,0.015231064,1.8735145,0.104933836,0.05434371,inf,inf,inf,inf,0,1,0,1,1,1,1,1,1,0,0,0,0,0,1
4112000,4112000,0,nan,nan,0.00085764687,0.0022854945,-0.037415147,-3.1109433e-08,4.019123e-09,0.0,0.001477735,0.007907512,-0.018449007,-0.039673463,-5.1849056e-06,6.6985376e-07,0.0017844737,0.008017144,0.004635527,-0.025241634,1.6218915,-0.0046821875,nan,0.1,0.015890608,1.8735158,0.108983204,0.054958865,inf,inf,inf,inf,0,1,0,1,1,1,1,1,1,0,0,0,0,0,1
4120000,4120000,0,nan,nan,0.00083515525,0.0022935516,-0.038716115,-3.1109433e-08,4.019123e-09,0.0,0.0010991577,0.007955391,-0.018678775,-0.040955428,-5.1849056e-06,6.6985376e-07,0.0017844737,-0.0479078,0.034486976,-0.05539413,1.6218382,-0.0046821875,nan,0.1,0.016593395,1.8735174,0.11311722,0.055573896,inf,inf,inf,inf,0,1,0,1,1,1,1,1,1,0,0,0,0,0,1
4128000,4128000,0,nan,nan,0.00081039383,0.0023023915,-0.03998426,-3.1109433e-08,4.019123e-09,0.0,0.000809782,0.008036313,-0.018794429,-0.042080652,-5.1849056e-06,6.6985376e-07,0.0017844737,-0.024095,0.027316518,-0.027479602,1.6217818,-0.0046821875,nan,0.1,0.017340062,1.8735191,0.117353134,0.056188796,inf,inf,inf,inf,0,1,0,1,1,1,1,1,1,0,0,0,0,0,1
4136000,4136000,0,nan,nan,0.0007843686,0.0023112278,-0.041219547,-3.1109433e-08,4.019123e-09,0.0,0.000622843,0.007954736,-0.018809998,-0.043064415,-5.1849056e-06,6.6985376e-07,0.0017844737,-0.014238175,0.012621515,-0.013181939,1.6217611,-0.0046821875,nan,0.1,0.01813126,1.8735209,0.12168653,0.05680359,inf,inf,inf,inf,0,1,0,1,1,1,1,1,1,0,0,0,0,0,1
4144000,4144000,0,nan,nan,0.00075773266,0.0023201976,-0.042421874,-3.1109433e-08,4.019123e-09,0.0,0.00052116596,0.008035674,-0.018693693,-0.04387614,-5.1849056e-06,6.6985376e-07,0.0017844737,-0.0009579671,0.029458823,-0.005226582,1.6217356,-0.0046821875,nan,0.1,0.018967565,1.8735229,0.12611572,0.057418276,inf,inf,inf,inf,0,1,0,1,1,1,1,1,1,0,0,0,0,0,1
4152000,4152000,0,nan,nan,0.00073143,0.0023300317,-0.04359218,-3.1109433e-08,4.019123e-09,0.0,0.00054393994,0.008167161,-0.018663045,-0.044734545,-5.1849056e-06,6.6985376e-07,0.0017844737,0.010571398,0.039615665,-0.014244578,1.621707,-0.0046821875,nan,0.1,0.019849518,1.873525,0.13061827,0.05803285,inf,inf,inf,inf,0,1,0,1,1,1,1,1,1,0,0,0,0,0,1
4160000,4160000,0,nan,nan,0.00070585153,0.002341099,-0.044551235,-3.1109433e-08,4.019123e-09,0.0,0.00052976195,0.008288951,-0.018674621,-0.045417253,-5.1849056e-06,6.6985376e-07,0.0017844737,-0.0009892536,0.030602284,-0.01818966,1.6216838,-0.0046821875,nan,0.1,0.020777497,1.651766,0.13521685,0.058647186,inf,inf,inf,inf,0,1,0,1,1,1,1,1,1,0,0,0,0,0,1
4168000,4168000,0,nan,nan,0.0006800757,0.0023519194,-0.0454866,-3.1109433e-08,4.019123e-09,0.0,0.00037127297,0.008055855,-0.018863425,-0.046246864,-5.1849056e-06,6.6985376e-07,0.0017844737,-0.013407712,-0.019079335,-0.04590116,1.6216466,-0.0046821875,nan,0.1,0.021751976,1.651768,0.13991523,0.05926158,inf,inf,inf,inf,0,1,0,1,1,1,1,1,1,0,0,0,0,0,1
4176000,4176000,0,nan,nan,0.0006537623,0.0023610971,-0.04639886,-3.1109433e-08,4.019123e-09,0.0,0.0002690873,0.007912137,-0.018730689,-0.046725523,-5.1849056e-06,6.6985376e-07,0.0017844737,-0.0018584395,0.008438976,0.01617614,1.6216179,-0.0046821875,nan,0.1,0.022773437,1.6517704,0.14468746,0.059875872,inf,inf,inf,inf,0,1,0,1,1,1,1,1,1,0,0,0,0,0,1
4184000,4184000,0,nan,nan,0.0006274654,0.0023692057,-0.047286715,-3.1109433e-08,4.019123e-09,0.0,0.00018346705,0.007724175,-0.018601364,-0.047179066,-5.1849056e-06,6.6985376e-07,0.0017844737,-0.011496245,-0.0075343554,-0.008255242,1.6216048,-0.0046821875,nan,0.1,0.0238422,1.6517729,0.14956668,0.06049009,inf,inf,inf,inf,0,1,0,1,1,1,1,1,1,0,0,0,0,0,1
4192000,4192000,0,nan,nan,0.000600307,0.0023769196,-0.048152436,-3.1109433e-08,4.019123e-09,0.0,-5.489809e-05,0.0078505445,-0.018738361,-0.047871295,-5.1849056e-06,6.6985376e-07,0.0017844737,-0.02223048,0.051062465,-0.03447197,1.6217687,-0.0046821875,nan,0.1,0.024958791,1.6517755,0.15452603,0.061104216,inf,inf,inf,inf,0,1,0,1,1,1,1,1,1,0,0,0,0,0,1
4200000,4200000,0,nan,nan,0.00057263195,0.0023861448,-0.048996903,-3.1109433e-08,4.019123e-09,0.0,-6.4146196e-05,0.007949932,-0.018625481,-0.048286844,-5.1849056e-06,6.6985376e-07,0.0017844737,0.012059943,0.021515107,0.012235715,1.6219263,-0.0046821875,nan,0.1,0.026123557,1.6517783,0.1595845,0.06171825,inf,inf,inf,inf,0,1,0,1,1,1,1,1,1,0,0,0,0,0,1
4208000,4208000,4204000,47.3977508,8.5456073,0.000545912,0.002396155,-0.04981924,-3.1109433e-08,4.019123e-09,0.0,9.993142e-06,0.008034006,-0.018538062,-0.04870187,-5.1849056e-06,6.6985376e-07,0.0017844737,0.014484336,0.029100016,-0.014982185,1.6220796,-0.0046821875,488.03537,0.1,0.02733698,1.6517814,0.16472238,0.06233222,inf,inf,inf,inf,0,1,0,1,1,1,1,1,1,0,1,1,0,0,1
4216000,4216000,4204000,47.3977508,8.5456073,0.000520148,0.0024071615,-0.050621677,-3.1109433e-08,4.019123e-09,0.0,1.46026105e-05,0.008168046,-0.018678512,-0.049319573,-5.1849056e-06,6.6985376e-07,0.0017844737,0.0008872884,0.041726187,-0.030408612,1.6222538,-0.0046821875,488.03537,0.1,0.028599415,1.6517847,0.16994004,0.0629461,inf,inf,inf,inf,0,1,0,1,1,1,1,1,1,0,1,1,0,0,1
4224000,4224000,4204000,47.3977508,8.5456073,0.00049436826,0.0024196883,-0.05076218,-3.1109433e-08,4.019123e-09,0.0,-0.0001077512,0.008290698,-0.018598896,-0.049052298,-5.1849056e-06,6.6985376e-07,0.0017844737,-0.008391696,0.024713546,-0.000976026,1.622423,-0.0046821875,488.03537,0.104723446,0.029911228,1.4937903,0.17523457,0.063559696,inf,inf,inf,inf,0,1,0,1,1,1,1,1,1,0,1,1,0,0,1
4232000,4232000,4204000,47.3977508,8.5456073,0.00046868494,0.0024332914,-0.050902523,-3.1109433e-08,4.019123e-09,0.0,-0.00010507952,0.008417717,-0.018792326,-0.049057104,-5.1849056e-06,6.6985376e-07,0.0017844737,0.005970723,0.037072908,-0.041031275,1.6225864,-0.0046821875,488.03537,0.10472822,0.031272773,1.4937936,0.18062197,0.06417347,inf,inf,inf,inf,0,1,0,1,1,1,1,1,1,0,1,1,0,0,1
4240000,4240000,4204000,47.3977508,8.5456073,0.00044394642,0.0024480212,-0.05104346,-3.1109433e-08,4.019123e-09,0.0,2.8148548e-05,0.008463014,-0.018824846,-0.04890012,-5.1849056e-06,6.6985376e-07,0.0017844737,0.03144488,0.017195983,-0.011014751,1.6227561,-0.0046821875,488.03537,0.104732655,0.032684516,1.4937972,0.1860988,0.06478718,inf,inf,inf,inf,0,1,0,1,1,1,1,1,1,0,1,1,0,0,1
4248000,4248000,4204000,47.3977508,8.5456073,0.00042121156,0.0024629252,-0.051184133,-3.1109433e-08,4.019123e-09,0.0,0.0001857984,0.008415467,-0.018871088,-0.04875606,-5.1849056e-06,6.6985376e-07,0.0017844737,0.016168196,0.012934426,-0.022099352,1.6229076,-0.0046821875,488.03537,0.10473503,0.034146912,1.493801,0.19167548,0.065400794,inf,inf,inf,inf,0,1,0,1,1,1,1,1,1,0,1,1,0,0,1
4256000,4256000,4204000,47.3977508,8.5456073,0.00039944542,0.0024782263,-0.051325075,-3.1109433e-08,4.019123e-09,0.0,0.00016670268,0.008481409,-0.018968021,-0.048661977,-5.1849056e-06,6.6985376e-07,0.0017844737,0.0022365127,0.027669622,-0.023114493,1.6230712,-0.0046821875,488.03537,0.10473649,0.0356605,1.493805,0.19731247,0.066014364,inf,inf,inf,inf,0,1,0,1,1,1,1,1,1,0,1,1,0,0,1
4264000,4264000,4204000,47.3977508,8.5456073,0.00037759857,0.0024945934,-0.051466387,-3.1109433e-08,4.019123e-09,0.0,-1.7543407e-05,0.008596218,-0.019021124,-0.04852343,-5.1849056e-06,6.6985376e-07,0.0017844737,-0.030710636,0.033896007,-0.011519528,1.6232324,-0.0046821875,488.03537,0.10473843,0.037225574,1.4938095,0.20303519,0.066627875,inf,inf,inf,inf,0,1,0,1,1,1,1,1,1,0,1,1,0,0,1
4272000,4272000,4204000,47.3977508,8.5456073,0.00035422744,0.0025116403,-0.051607206,-3.1109433e-08,4.019123e-09,0.0,-0.00025689072,0.008473989,-0.018982638,-0.048292734,-5.1849056e-06,6.6985376e-07,0.0017844737,-0.0146954395,-0.01661462,-0.0159787,1.6234056,-0.0046821875,488.03537,0.104738936,0.038842585,1.493814,0.20886487,0.06724136,inf,inf,inf,inf,0,1,0,1,1,1,1,1,1,0,1,1,0,0,1
4280000,4280000,4204000,47.3977508,8.5456073,0.0003304918,0.00251171,-0.05164738,-3.1109433e-08,4.019123e-09,0.0,-0.00031525292,0.00839406,-0.019131513,-0.048148192,-5.1849056e-06,6.6985376e-07,0.0017844737,-0.0062685716,0.030882277,-0.025360843,1.6235662,-0.0046821875,488.03537,0.10778546,0.013351983,1.373913,0.10283335,0.0678543,inf,inf,inf,inf,0,1,0,1,1,1,1,1,1,0,1,1,0,0,1
4288000,4288000,4204000,47.3977508,8.5456073,0.00030669445,0.0025118866,-0.051691357,-3.1109433e-08,4.019123e-09,0.0,-0.00035654884,0.008359301,-0.019281022,-0.048007436,-5.1849056e-06,6.6985376e-07,0.0017844737,0.0077428697,0.015235825,-0.03139395,1.6237274,-0.0046821875,488.03537,0.107688084,0.013934449,1.3739178,0.10652234,0.06846767,inf,inf,inf,inf,0,1,0,1,1,1,1,1,1,0,1,1,0,0,1
4296000,4296000,4204000,47.3977508,8.5456073,0.00028383915,0.0025119926,-0.051738832,-3.1109433e-08,4.019123e-09,0.0,-0.00025310757,0.0083437795,-0.01932381,-0.04776308,-5.1849056e-06,6.6985376e-07,0.0017844737,0.015009412,0.024353996,-0.012981704,1.6238792,-0.0046821875,488.03537,0.107593164,0.0145639675,1.3739227,0.11028615,0.06908099,inf,inf,inf,inf,0,1,0,1,1,1,1,1,1,0,1,1,0,0,1
4304000,4304000,4204000,47.3977508,8.5456073,0.00026207397,0.0025116887,-0.05178945,-3.1109433e-08,4.019123e-09,0.0,-0.00022804362,0.008190311,-0.019421097,-0.047576316,-5.1849056e-06,6.6985376e-07,0.0017844737,0.0016667326,0.0053568217,-0.020791775,1.624001,-0.0046821875,488.03537,0.107500345,0.0152405435,1.373928,0.1140998,0.06969428,inf,inf,inf,inf,0,1,0,1,1,1,1,1,1,0,1,1,0,0,1
4312000,4312000,4204000,47.3977508,8.5456073,0.00024070647,0.0025099309,-0.05183152,-3.1109433e-08,4.019123e-09,0.0,-0.00032310662,0.008108547,-0.019508794,-0.047364898,-5.1849056e-06,6.6985376e-07,0.0017844737,-0.01142433,0.009446463,-0.037621703,1.6241304,-0.0046821875,488.03537,0.10776989,0.015287921,1.3739268,0.108895406,0.06632847,inf,inf,inf,inf,0,1,0,1,1,1,1,1,1,0,1,1,0,0,1
4320000,4320000,4204000,47.3977508,8.5456073,0.00021891714,0.0025069148,-0.051877405,-3.1109433e-08,4.019123e-09,0.0,-0.00041356406,0.007826132,-0.01975265,-0.04731317,-5.1849056e-06,6.6985376e-07,0.0017844737,0.0019481521,-0.014957229,-0.04683621,1.624262,-0.0046821875,488.03537,0.107685536,0.015974013,1.373932,0.112546936,0.06691443,inf,inf,inf,inf,0,1,0,1,1,1,1,1,1,0,1,1,0,0,1
4328000,4328000,4204000,47.3977508,8.5456073,0.00019809577,0.0025014502,-0.051927216,-3.1109433e-08,4.019123e-09,0.0,-0.00025705414,0.0074665463,-0.019886523,-0.047154944,-5.1849056e-06,6.6985376e-07,0.0017844737,0.020841558,-0.018640522,-0.024926847,1.6243885,-0.0046821875,488.03537,0.10760415,0.016703036,1.3739375,0.11625716,0.067500345,inf,inf,inf,inf,0,1,0,1,1,1,1,1,1,0,1,1,0,0,1
4336000,4336000,4204000,47.3977508,8.5456073,0.00017812625,0.0024944607,-0.051979344,-3.1109433e-08,4.019123e-09,0.0,-0.00031846797,0.0074190907,-0.019789765,-0.04676953,-5.1849056e-06,6.6985376e-07,0.0017844737,-0.003914232,0.02808064,-0.00021420418,1.6245321,-0.0046821875,488.03537,0.10752393,0.017474895,1.3739433,0.12002784,0.068086214,inf,inf,inf,inf,0,1,0,1,1,1,1,1,1,0,1,1,0,0,1
4344000,4344000,4204000,47.3977508,8.5456073,0.00015881297,0.002487459,-0.05231818,-3.1109433e-08,4.019123e-09,0.0,-0.00021448289,0.0073429802,-0.019755807,-0.046734583,-5.1849056e-06,6.6985376e-07,0.0017844737,0.017659476,0.008845716,-0.015764495,1.624666,-0.0046821875,488.03537,0.1,0.018289477,1.278936,0.123853564,0.06867153,inf,inf,inf,inf,0,1,0,1,1,1,1,1,1,0,1,1,0,0,1
4352000,4352000,4204000,47.3977508,8.5456073,0.00014089388,0.0024798457,-0.05265082,-3.1109433e-08,4.019123e-09,0.0,-0.00010839237,0.007233672,-0.019749273,-0.04672034,-5.1849056e-06,6.6985376e-07,0.0017844737,0.015030745,0.010671079,-0.01569092,1.6248018,-0.0046821875,488.03537,0.1,0.019146621,1.2789419,0.12773137,0.06925732,inf,inf,inf,inf,0,1,0,1,1,1,1,1,1,0,1,1,0,0,1
4360000,4360000,4204000,47.3977508,8.5456073,0.0001240891,0.0024715248,-0.05297749,-3.1109433e-08,4.019123e-09,0.0,-6.2588784e-05,0.0070952307,-0.01970882,-0.046665706,-5.1849056e-06,6.6985376e-07,0.0017844737,0.006796457,0.004726302,-0.003930181,1.624905,-0.0046821875,488.03537,0.1,0.020046154,1.2789481,0.13167699,0.06984306,inf,inf,inf,inf,0,1,0,1,1,1,1,1,1,0,1,1,0,0,1
4368000,4368000,4204000,47.3977508,8.5456073,0.00010787329,0.0024632637,-0.05329847,-3.1109433e-08,4.019123e-09,0.0,-0.00010884332,0.007228147,-0.019819358,-0.046755828,-5.1849056e-06,6.6985376e-07,0.0017844737,-0.010575254,0.049761638,-0.039018687,1.6250083,-0.0046821875,488.03537,0.1,0.020987995,1.2789546,0.13567966,0.07042877,inf,inf,inf,inf,0,1,0,1,1,1,1,1,1,0,1,1,0,0,1
4376000,4376000,4204000,47.3977508,8.5456073,9.1462556e-05,0.0024560946,-0.053614873,-3.1109433e-08,4.019123e-09,0.0,-0.00014809809,0.007210127,-0.019892659,-0.046802703,-5.1849056e-06,6.6985376e-07,0.0017844737,0.011501833,0.009197523,-0.020334495,1.6251127,-0.0046821875,488.03537,0.1,0.021972027,1.2789615,0.13973291,0.07101444,inf,inf,inf,inf,0,1,0,1,1,1,1,1,1,0,1,1,0,0,1
4384000,4384000,4204000,47.3977508,8.5456073,7.637707e-05,0.0024486077,-0.053926326,-3.1109433e-08,4.019123e-09,0.0,2.7311271e-05,0.0071238633,-0.019913228,-0.046791065,-5.1849056e-06,6.6985376e-07,0.0017844737,0.019522645,0.01362698,-0.011614523,1.6252028,-0.0046821875,488.03537,0.1,0.022998106,1.2789687,0.14384598,0.07160008,inf,inf,inf,inf,0,1,0,1,1,1,1,1,1,0,1,1,0,0,1
4392000,4392000,4204000,47.3977508,8.5456073,6.1905936e-05,0.0024417539,-0.054232523,-3.1109433e-08,4.019123e-09,0.0,-0.00012227701,0.0073247766,-0.019906528,-0.04674659,-5.1849056e-06,6.6985376e-07,0.0017844737,-0.023303887,0.05890928,-0.016048549,1.6252868,-0.0046821875,488.03537,0.1,0.024066176,1.2789763,0.14801879,0.07218569,inf,inf,inf,inf,0,1,0,1,1,1,1,1,1,0,1,1,0,0,1
4400000,4400000,4204000,47.3977508,8.5456073,4.7095316e-05,0.002437004,-0.054641955,-3.1109433e-08,4.019123e-09,0.0,-0.00010918287,0.0074557276,-0.020044973,-0.04694931,-5.1849056e-06,6.6985376e-07,0.0017844737,0.013877346,0.02369104,-0.032889653,1.6253573,-0.0046821875,488.03537,0.1,0.025176205,1.2012898,0.15225838,0.07277053,inf,inf,inf,inf,0,1,0,1,1,1,1,1,1,0,1,1,0,0,1
4408000,4408000,4204000,47.3977508,8.5456073,3.3402663e-05,0.0024324916,-0.055044252,-3.1109433e-08,4.019123e-09,0.0,-2.6018559e-05,0.007356712,-0.020075226,-0.04703492,-5.1849056e-06,6.6985376e-07,0.0017844737,0.005875539,0.011504772,-0.010501592,1.6254157,-0.0046821875,488.03537,0.1,0.026328243,1.2012975,0.15654762,0.07335607,inf,inf,inf,inf,0,1,0,1,1,1,1,1,1,0,1,1,0,0,1
4416000,4416000,4204000,47.3977508,8.5456073,1.99244e-05,0.002428061,-0.05543948,-3.1109433e-08,4.019123e-09,0.0,-0.0001349927,0.0073412145,-0.020238949,-0.047245394,-5.1849056e-06,6.6985376e-07,0.0017844737,-0.009222159,0.013309675,-0.037016343,1.6254836,-0.0046821875,488.03537,0.1,0.027522253,1.2013056,0.16087839,0.07394159,inf,inf,inf,inf,0,1,0,1,1,1,1,1,1,0,1,1,0,0,1
4424000,4424000,4204000,47.3977508,8.5456073,6.9355574e-06,0.0024231775,-0.055827428,-3.1109433e-08,4.019123e-09,0.0,-1.102388e-05,0.0071632145,-0.020035753,-0.047080636,-5.1849056e-06,6.6985376e-07,0.0017844737,0.02149095,-0.0010695802,0.027958302,1.6255561,-0.0046821875,488.03537,0.1,0.02875816,1.2013142,0.16526903,0.07452708,inf,inf,inf,inf,0,1,0,1,1,1,1,1,1,0,1,1,0,0,1
4432000,4432000,4204000,47.3977508,8.5456073,-4.581505e-06,0.0024178321,-0.056206457,-3.1109433e-08,4.019123e-09,0.0,9.8809745e-05,0.0071278904,-0.019942012,-0.047017306,-5.1849056e-06,6.6985376e-07,0.0017844737,0.014157659,0.019858256,-0.019519588,1.6256151,-0.0046821875,488.03537,0.1,0.03003605,1.2013232,0.16971722,0.07511255,inf,inf,inf,inf,0,1,0,1,1,1,1,1,1,0,1,1,0,0,1
4440000,4440000,4204000,47.3977508,8.5456073,-1.5101254e-05,0.0024128996,-0.056579318,-3.1109433e-08,4.019123e-09,0.0,0.00014591608,0.007121473,-0.020124123,-0.04722208,-5.1849056e-06,6.6985376e-07,0.0017844737,0.010792384,0.016114324,-0.02678763,1.625663,-0.0046821875,488.03537,0.1,0.031356018,1.2013324,0.17421888,0.075697996,inf,inf,inf,inf,0,1,0,1,1,1,1,1,1,0,1,1,0,0,1
4448000,4448000,4204000,47.3977508,8.5456073,-2.3868912e-05,0.002408169,-0.056946855,-3.1109433e-08,4.019123e-09,0.0,0.0004023689,0.0070754336,-0.020339005,-0.04745215,-5.1849056e-06,6.6985376e-07,0.0017844737,0.030341659,0.01603867,-0.04312023,1.625717,-0.0046821875,488.03537,0.1,0.032718144,1.2013422,0.17878605,0.076283425,inf,inf,inf,inf,0,1,0,1,1,1,1,1,1,0,1,1,0,0,1
4456000,4456000,4204000,47.3977508,8.5456073,-3.158775e-05,0.0024036386,-0.05730885,-3.1109433e-08,4.019123e-09,0.0,0.00029695246,0.007005042,-0.020290324,-0.047411446,-5.1849056e-06,6.6985376e-07,0.0017844737,-0.015390832,0.0026318738,0.008471309,1.6257397,-0.0046821875,488.03537,0.1,0.03412264,1.2013522,0.18340641,0.07686883,inf,inf,inf,inf,0,1,0,1,1,1,1,1,1,0,1,1,0,0,1
4464000,4464000,4204000,47.3977508,8.5456073,-3.9720893e-05,0.0023985012,-0.05747492,-3.1109433e-08,4.019123e-09,0.0,0.00022554066,0.0068105757,-0.020293795,-0.04722748,-5.1849056e-06,6.6985376e-07,0.0017844737,-0.0031671806,-0.008107017,-0.023828818,1.6257727,-0.0046821875,488.03537,0.10438092,0.035569627,1.1362885,0.18807884,0.07745312,inf,inf,inf,inf,0,1,0,1,1,1,1,1,1,0,1,1,0,0,1
4472000,4472000,4204000,47.3977508,8.5456073,-4.693772e-05,0.0023922804,-0.057641678,-3.1109433e-08,4.019123e-09,0.0,0.00040976258,0.006607887,-0.020558117,-0.04730434,-5.1849056e-06,6.6985376e-07,0.0017844737,0.02585999,-0.007631766,-0.04235934,1.625785,-0.0046821875,488.03537,0.10439421,0.037059255,1.1362989,0.19280463,0.07803849,inf,inf,inf,inf,0,1,0,1,1,1,1,1,1,0,1,1,0,0,1
4480000,4480000,4204000,47.3977508,8.5456073,-5.2943476e-05,0.0023848398,-0.057809144,-3.1109433e-08,4.019123e-09,0.0,0.00039956102,0.0063614235,-0.020570362,-0.047129147,-5.1849056e-06,6.6985376e-07,0.0017844737,-0.004670102,-0.014048622,0.00010151415,1.6258434,-0.0046821875,488.03537,0.10440689,0.0385917,1.1363096,0.19759585,0.078623846,inf,inf,inf,inf,0,1,0,1,1,1,1,1,1,0,1,1,0,0,1
4488000,4488000,4204000,47.3977508,8.5456073,-5.8283134e-05,0.0023633784,-0.057975937,-3.1109433e-08,4.019123e-09,0.0,0.00042020757,0.006063751,-0.020583818,-0.046955254,-5.1849056e-06,6.6985376e-07,0.0017844737,0.007410344,-0.008347021,-0.016242264,1.625906,-0.0046821875,488.03537,0.104417205,0.013339492,1.136321,0.092548326,0.07920909,inf,inf,inf,inf,0,1,0,1,1,1,1,1,1,0,1,1,0,0,1
4496000,4496000,4204000,47.3977508,8.5456073,-6.3602354e-05,0.0023406928,-0.058142826,-3.1109433e-08,4.019123e-09,0.0,0.00027023852,0.005894646,-0.020728694,-0.046912905,-5.1849056e-06,6.6985376e-07,0.0017844737,-0.022423161,-0.0021916493,-0.03576092,1.6259815,-0.0046821875,488.03537,0.10442631,0.013887526,1.1363328,0.09530113,0.0797944,inf,inf,inf,inf,0,1,0,1,1,1,1,1,1,0,1,1,0,0,1
4504000,4504000,4204000,47.3977508,8.5456073,-6.9018424e-05,0.0023168302,-0.05831019,-3.1109433e-08,4.019123e-09,0.0,0.0003494621,0.005696222,-0.020723188,-0.04672035,-5.1849056e-06,6.6985376e-07,0.0017844737,0.019343628,0.00704512,0.006032176,1.6260448,-0.0046821875,488.03537,0.10443531,0.014470639,1.1363449,0.09807465,0.080379695,inf,inf,inf,inf,0,1,0,1,1,1,1,1,1,0,1,1,0,0,1
4512000,4512000,4204000,47.3977508,8.5456073,-7.281969e-05,0.0022924691,-0.058476698,-3.1109433e-08,4.019123e-09,0.0,0.0005663587,0.0056053787,-0.020699864,-0.046510186,-5.1849056e-06,6.6985376e-07,0.0017844737,0.03382773,0.011417155,-0.012686475,1.6261053,-0.0046821875,488.03537,0.10444394,0.015088451,1.1363577,0.10088791,0.080964975,inf,inf,inf,inf,0,1,0,1,1,1,1,1,1,0,1,1,0,0,1
4520000,4520000,4204000,47.3977508,8.5456073,-7.4418385e-05,0.002267341,-0.058708634,-3.1109433e-08,4.019123e-09,0.0,0.00085631694,0.0054968405,-0.020710176,-0.046390247,-5.1849056e-06,6.6985376e-07,0.0017844737,0.037799545,0.0064327754,-0.019841826,1.6261522,-0.0046821875,488.03537,0.10248113,0.015173005,1.0808032,0.09740207,0.0755128,inf,inf,inf,inf,0,1,0,1,1,1,1,1,1,0,1,1,0,0,1
4528000,4528000,4204000,47.3977508,8.5456073,-7.363275e-05,0.0022415027,-0.058937617,-3.1109433e-08,4.019123e-09,0.0,0.0010312143,0.0053062704,-0.020715402,-0.04626334,-5.1849056e-06,6.6985376e-07,0.0017844737,0.013143391,-0.0023005267,-0.021835787,1.6262119,-0.0046821875,488.03537,0.102571785,0.015801216,1.0808144,0.10013179,0.07606297,inf,inf,inf,inf,0,1,0,1,1,1,1,1,1,0,1,1,0,0,1
4536000,4536000,4204000,47.3977508,8.5456073,-7.229051e-05,0.002214829,-0.059164137,-3.1109433e-08,4.019123e-09,0.0,0.00092385756,0.005155819,-0.020809973,-0.046224,-5.1849056e-06,6.6985376e-07,0.0017844737,-0.017935758,0.0019016878,-0.031836327,1.6262802,-0.0046821875,488.03537,0.10265881,0.016461372,1.0808259,0.10288447,0.07661312,inf,inf,inf,inf,0,1,0,1,1,1,1,1,1,0,1,1,0,0,1
4544000,4544000,4204000,47.3977508,8.5456073,-7.112858e-05,0.0021872427,-0.059387825,-3.1109433e-08,4.019123e-09,0.0,0.00096879934,0.0049627274,-0.02069055,-0.045968994,-5.1849056e-06,6.6985376e-07,0.0017844737,0.018700054,0.0006746122,-0.0023720784,1.6263478,-0.0046821875,488.03537,0.102742694,0.01715318,1.0808381,0.10567271,0.07716326,inf,inf,inf,inf,0,1,0,1,1,1,1,1,1,0,1,1,0,0,1
4552000,4552000,4204000,47.3977508,8.5456073,-6.7894325e-05,0.0021591005,-0.059608415,-3.1109433e-08,4.019123e-09,0.0,0.0013279528,0.004862246,-0.02068618,-0.045827467,-5.1849056e-06,6.6985376e-07,0.0017844737,0.050906684,0.0070870733,-0.012331641,1.6264211,-0.0046821875,488.03537,0.102821946,0.017876415,1.0808506,0.10850512,0.07771338,inf,inf,inf,inf,0,1,0,1,1,1,1,1,1,0,1,1,0,0,1
4560000,4560000,4204000,47.3977508,8.5456073,-6.208386e-05,0.0021305324,-0.05982558,-3.1109433e-08,4.019123e-09,0.0,0.0014774562,0.0047548693,-0.020492647,-0.0454953,-5.1849056e-06,6.6985376e-07,0.0017844737,0.011669471,0.014773395,0.008738599,1.6264778,-0.0046821875,488.03537,0.10289621,0.018630913,1.0808636,0.111360475,0.078263484,inf,inf,inf,inf,0,1,0,1,1,1,1,1,1,0,1,1,0,0,1
4568000,4568000,4204000,47.3977508,8.5456073,-5.463607e-05,0.0021019897,-0.060039133,-3.1109433e-08,4.019123e-09,0.0,0.0017057764,0.004664804,-0.020405745,-0.045268387,-5.1849056e-06,6.6985376e-07,0.0017844737,0.034330048,0.00049470685,-0.004277564,1.6265408,-0.0046821875,488.03537,0.10296634,0.01941641,1.0808771,0.114249155,0.078813575,inf,inf,inf,inf,0,1,0,1,1,1,1,1,1,0,1,1,0,0,1
4576000,4576000,4204000,47.3977508,8.5456073,-4.5951794e-05,0.002073201,-0.06024887,-3.1109433e-08,4.019123e-09,0.0,0.0016407924,0.0046235328,-0.020172952,-0.044894286,-5.1849056e-06,6.6985376e-07,0.0017844737,-0.01880947,0.02464521,0.0061262394,1.6265926,-0.0046821875,488.03537,0.10303161,0.020232711,1.080891,0.11717656,0.07936365,inf,inf,inf,inf,0,1,0,1,1,1,1,1,1,0,1,1,0,0,1
