timestamp,timestamp_sample,time_last_fuse,device_id,observation,observation_variance,innovation,innovation_variance,test_ratio,estimator_instance,fusion_enabled,innovation_rejected,fused
3272000,3189914,0,0,-0.001739502,12.25,1.3032695e-05,112.451,6.041784e-14,3,0,0,0
3336000,3250907,0,0,-0.011505127,12.25,0.012689596,112.25,5.7381147e-08,3,0,0,0
3392000,3311031,0,0,0.0017700195,12.25,-0.0012579176,112.25,5.638688e-10,3,0,0,0
3456000,3371060,0,0,-0.01626587,12.25,0.015784472,62.25,1.600961e-07,3,0,0,0
3512000,3431175,0,0,-0.013305664,12.25,0.01422106,62.249985,1.2995251e-07,3,0,0,0
3568000,3487192,0,0,0.026000977,12.25,-0.025196234,62.249985,4.0793594e-07,3,0,0,0
3624000,3539262,0,0,-0.03591919,12.25,0.036490753,62.249985,8.556308e-07,3,0,0,0
3680000,3599305,0,0,0.0010375977,12.25,-0.00094669627,45.58333,7.864575e-10,3,0,0,0
3744000,3659371,0,0,-0.046020508,12.25,0.04563807,45.58333,1.827715e-06,3,0,0,0
3800000,3719408,0,0,0.11437988,12.25,-0.11525771,45.58333,1.1657191e-05,3,0,0,0
3864000,3778120,0,0,0.017700195,12.25,-0.019212078,45.58337,3.2389352e-07,3,0,0,0
3920000,3839486,3840000,0,-0.02923584,12.25,0.0275787,37.250046,8.1673426e-07,3,0,0,0
3984000,3899530,3904000,0,-0.14395142,12.25,0.14154749,37.250107,2.1514774e-05,3,1,0,1
4040000,3959558,3960000,0,0.010955811,12.25,-0.10911657,20.47152,2.326437e-05,3,1,0,1
4104000,4019596,4024000,0,-0.106414795,12.25,0.051126923,17.169739,6.0896964e-06,3,1,0,1
4160000,4079620,4080000,0,-0.04537964,12.25,-0.025268838,15.760104,1.6205837e-06,3,1,0,1
4224000,4139653,4144000,0,0.043823242,12.25,-0.10987721,14.978404,3.2241085e-05,3,1,0,1
4280000,4199673,4200000,0,-0.02658081,12.25,-0.020429347,14.481495,1.1528042e-06,3,1,0,1
4344000,4259701,4264000,0,-0.1111145,12.25,0.066525064,14.137736,1.2521337e-05,3,1,0,1
4400000,4319719,4320000,0,-0.08291626,12.25,0.0284772,13.8858,2.3360578e-06,3,1,0,1
4464000,4379746,4384000,0,-0.003112793,12.25,-0.055870406,13.693273,9.118353e-06,3,1,0,1
4520000,4439758,4440000,0,-0.08291626,12.25,0.028723735,13.541339,2.4371384e-06,3,1,0,1
4584000,4499779,4504000,0,0.039154053,12.25,-0.09651747,13.418357,2.7769787e-05,3,1,0,1
4640000,4559792,4560000,0,-0.068847656,12.25,0.018848151,13.316856,1.067077e-06,3,1,0,1
4704000,4619810,4624000,0,-0.021881104,12.25,-0.030865807,13.231697,2.880048e-06,3,1,0,1
4760000,4679821,4680000,0,-0.08291626,12.25,0.032578688,13.1589985,3.226297e-06,3,1,0,1
4824000,4739837,4744000,0,0.025054932,12.25,-0.07875686,13.096555,1.894435e-05,3,1,0,1
4880000,4799846,4800000,0,-0.08291626,12.25,0.03331229,13.042185,3.403444e-06,3,1,0,1
4944000,4858526,4864000,0,-0.08761597,12.25,0.036268804,12.994229,4.0492628e-06,3,1,0,1
5000000,4919868,4920000,0,0.025054932,12.25,-0.07938033,12.951976,1.946031e-05,3,1,0,1
5064000,4978545,4984000,0,-0.04067993,12.25,-0.01041425,12.91441,3.3592434e-07,3,1,0,1
5120000,5039887,5040000,0,0.020355225,12.25,-0.07187362,12.880699,1.6042039e-05,3,1,0,1
5184000,5099896,5104000,0,-0.0078125,12.25,-0.039566007,12.849936,4.8730794e-06,3,1,0,1
5240000,5159902,5160000,0,-0.068847656,12.25,0.02245396,12.822401,1.5728109e-06,3,1,0,1
5304000,5219911,5224000,0,-0.017211914,12.25,-0.03121819,12.797452,3.0461542e-06,3,1,0,1
5360000,5279916,5280000,0,-0.050079346,12.25,0.0038885102,12.774021,4.7347694e-08,3,1,0,1
5424000,5339923,5344000,0,-0.068847656,12.25,0.02160294,12.753116,1.4637585e-06,3,1,0,1
5480000,5399928,5400000,0,-0.08761597,12.25,0.038720623,12.733837,4.7096146e-06,3,1,0,1
5544000,5459934,5464000,0,-0.02658081,12.25,-0.024775282,12.716167,1.9308163e-06,3,1,0,1
5600000,5517938,5520000,0,0.090789795,12.25,-0.14011046,12.698972,6.183475e-05,3,1,0,1
5648000,5567942,5568000,0,0.010955811,12.25,-0.0559697,12.683603,9.879234e-06,3,1,0,1
5712000,5627947,5632000,0,-0.031280518,12.25,-0.012703683,12.66951,5.09518e-07,3,1,0,1
5768000,5687951,5688000,0,-0.14865112,12.25,0.10427673,12.656314,3.436589e-05,3,1,0,1
5832000,5746620,5752000,0,-0.04067993,12.25,-0.0059862062,12.643172,1.1337239e-07,3,1,0,1
5888000,5807958,5808000,0,-0.012512207,12.25,-0.03469717,12.631604,3.8123223e-06,3,1,0,1
5952000,5866627,5872000,0,-0.059448242,12.25,0.012403157,12.62089,4.875672e-07,3,1,0,1
6008000,5927963,5928000,0,-0.035980225,12.25,-0.010184117,12.609747,3.2900334e-07,3,1,0,1
6072000,5987966,5992000,0,-0.02658081,12.25,-0.020081393,12.600251,1.2801725e-06,3,1,0,1
6128000,6047968,6048000,0,-0.04537964,12.25,-0.0014525615,12.591238,6.7028667e-09,3,1,0,1
6192000,6107971,6112000,0,0.0015869141,12.25,-0.0472371,12.581809,7.0938713e-06,3,1,0,1
6248000,6167973,6168000,0,-0.050079346,12.25,0.005072076,12.573737,8.1840284e-08,3,1,0,1
6312000,6227976,6232000,0,0.006286621,12.25,-0.05212578,12.566235,8.648883e-06,3,1,0,1
6368000,6287977,6288000,0,-0.050079346,12.25,0.004892446,12.559055,7.6235125e-08,3,1,0,1
6432000,6347979,6352000,0,-0.021881104,12.25,-0.022327404,12.551195,1.5887348e-06,3,1,0,1
6488000,6407980,6408000,0,-0.07354736,12.25,0.029341564,12.544697,2.7451515e-06,3,1,0,1
6552000,6467982,6472000,0,-0.04537964,12.25,-0.00010963157,12.538663,3.8342465e-11,3,1,0,1
6608000,6527983,6528000,0,-0.04537964,12.25,0.00083212554,12.531635,2.2101918e-09,3,1,0,1
6672000,6587984,6592000,0,-0.04537964,12.25,0.00029494986,12.526138,2.7780445e-10,3,1,0,1
6728000,6647986,6648000,0,-0.059448242,12.25,0.013871174,12.520825,6.1468626e-07,3,1,0,1
6792000,6707987,6712000,0,-0.050079346,12.25,0.0036299564,12.515907,4.2111477e-08,3,1,0,1
6848000,6767988,6768000,0,0.0015869141,12.25,-0.047232907,12.509808,7.1334357e-06,3,1,0,1
6912000,6827989,6832000,0,0.006286621,12.25,-0.05133992,12.505291,8.430951e-06,3,1,0,1
6968000,6887989,6888000,0,-0.050079346,12.25,0.0057568885,12.500894,1.06046066e-07,3,1,0,1
7032000,6947990,6952000,0,-0.021881104,12.25,-0.021883048,12.495515,1.532927e-06,3,1,0,1
7088000,7007991,7008000,0,0.034454346,12.25,-0.07807168,12.491454,1.9517945e-05,3,1,0,1
7152000,7067992,7072000,0,0.015655518,12.25,-0.058064833,12.487708,1.07995e-05,3,1,0,1
7208000,7127992,7128000,0,-0.012512207,12.25,-0.029034104,12.484035,2.7009833e-06,3,1,0,1
7272000,7187993,7192000,0,-0.04537964,12.25,0.004871119,12.479251,7.60552e-08,3,1,0,1
7328000,7247993,7248000,0,0.010955811,12.25,-0.051765732,12.475837,8.59162e-06,3,1,0,1
7392000,7307994,7312000,0,-0.02658081,12.25,-0.013531454,12.472709,5.872028e-07,3,1,0,1
7448000,7367994,7368000,0,0.010955811,12.25,-0.050510105,12.468221,8.184875e-06,3,1,0,1
7512000,7427995,7432000,0,-0.07824707,12.25,0.0394377,12.465302,4.9909168e-06,3,1,0,1
7568000,7485995,7488000,0,-0.059448242,12.25,0.01983416,12.462413,1.2626573e-06,3,1,0,1
7616000,7535996,7536000,0,-0.054748535,12.25,0.014717773,12.459532,6.9541244e-07,3,1,0,1
7680000,7595996,7600000,0,-0.02658081,12.25,-0.013550788,12.455585,5.896917e-07,3,1,0,1
7736000,7655996,7656000,0,-0.1111145,12.25,0.07110439,12.452999,1.6239734e-05,3,1,0,1
7800000,7715997,7720000,0,-0.003112793,12.25,-0.038166154,12.450658,4.67977e-06,3,1,0,1
7856000,7773997,7776000,0,-0.1251831,12.25,0.08474183,12.446889,2.3077826e-05,3,1,0,1
7904000,7823997,7824000,0,-0.02658081,12.25,-0.015283018,12.444452,7.5076235e-07,3,1,0,1
7968000,7883997,7888000,0,0.010955811,12.25,-0.052710477,12.442357,8.932051e-06,3,1,0,1
8024000,7943998,7944000,0,-0.08291626,12.25,0.041867793,12.4402485,5.6362605e-06,3,1,0,1
8088000,8003998,8008000,0,-0.10171509,12.25,0.060239095,12.436894,1.1670916e-05,3,1,0,1
8144000,8063998,8064000,0,-0.068847656,12.25,0.026358195,12.434901,2.2348531e-06,3,1,0,1
8208000,8123998,8128000,0,-0.003112793,12.25,-0.039942503,12.4331255,5.1327515e-06,3,1,0,1
8264000,8183998,8184000,0,-0.054748535,12.25,0.012086317,12.43132,4.700355e-07,3,1,0,1
8328000,8243999,8248000,0,-0.1251831,12.25,0.08281436,12.428191,2.2073102e-05,3,1,0,1
8384000,8303999,8304000,0,-0.059448242,12.25,0.015733682,12.4264765,7.9684287e-07,3,1,0,1
8448000,8363999,8368000,0,-0.07824707,12.25,0.03414697,12.4249735,3.75378e-06,3,1,0,1
8504000,8423999,8424000,0,-0.02658081,12.25,-0.017681032,12.421915,1.006669e-06,3,1,0,1
8568000,8483999,8488000,0,-0.09701538,12.25,0.05291079,12.420483,9.015919e-06,3,1,0,1
8624000,8543999,8544000,0,0.0022888184,12.250271,-0.06996563,13.250273,1.4777626e-05,3,1,0,1
8688000,8603999,8608000,0,-0.10568237,12.251352,0.043210864,13.175914,5.6684607e-06,3,1,0,1
8744000,8663999,8664000,0,-0.06814575,12.252299,0.0025776327,13.112044,2.0268969e-08,3,1,0,1
8808000,8723999,8728000,0,0.049224854,12.253381,-0.11501138,13.056859,4.0523122e-05,3,1,0,1
8864000,8783999,8784000,0,-0.10571289,12.254326,0.04697847,13.008487,6.786267e-06,3,1,0,1
8928000,8844000,8848000,0,-0.082214355,12.255406,0.020738825,12.965971,1.3268544e-06,3,1,0,1
8984000,8904000,8904000,0,-0.08691406,12.2563505,0.024268486,12.928142,1.8222553e-06,3,1,0,1
9048000,8964000,8968000,0,-0.1385498,12.257429,0.07200193,12.646626,1.6397345e-05,3,1,0,1
9104000,9022000,9024000,0,-0.025848389,12.258371,-0.042915873,12.6356945,5.830379e-06,3,1,0,1
9152000,9072000,9072000,0,-0.14794922,12.259177,0.08048182,12.625373,2.0521607e-05,3,1,0,1
9216000,9132000,9136000,0,-0.0023498535,12.260253,-0.0674333,12.616049,1.4417349e-05,3,1,0,1
9272000,9190000,9192000,0,-0.063446045,12.26119,-0.0044448003,12.607181,6.268253e-08,3,1,0,1
9320000,9240000,9240000,0,-0.025878906,12.261992,-0.04189755,12.5985775,5.5733426e-06,3,1,0,1
9384000,9300000,9304000,0,-0.040008545,12.2630625,-0.02664201,12.590944,2.2549434e-06,3,1,0,1
9440000,9360000,9360000,0,-0.021240234,12.263995,-0.044643916,12.506239,6.3746716e-06,3,1,0,1
9504000,9420000,9424000,0,-0.09643555,12.265061,0.031429097,12.502901,3.1601887e-06,3,1,0,1
9560000,9478000,9480000,0,-0.025970459,12.26599,-0.03962478,12.499432,5.024623e-06,3,1,0,1
9608000,9528000,9528000,0,0.053771973,12.266781,-0.11857663,12.496103,4.5007364e-05,3,1,0,1
9672000,9588000,9592000,0,-0.044952393,12.26784,-0.01760424,12.493312,9.922404e-07,3,1,0,1
9728000,9648000,9648000,0,0.03012085,12.268761,-0.092375785,12.490275,2.7327775e-05,3,1,0,1
9792000,9708000,9712000,0,-0.12496948,12.2698145,0.064455315,12.487785,1.3307364e-05,3,1,0,1
9848000,9768000,9768000,0,0.006591797,12.270729,-0.06721009,12.44741,1.4516102e-05,3,1,0,1
9912000,9828000,9832000,0,0.01586914,12.271776,-0.07533963,12.44634,1.82417e-05,3,1,0,1
9968000,9888000,9888000,0,-0.10632324,12.272685,0.04784817,12.444905,7.3586652e-06,3,1,0,1
10032000,9948000,9952000,0,-0.08746338,12.2737255,0.028529879,12.443979,2.6163784e-06,3,1,0,1
10088000,10008000,10008000,0,0.020568848,12.274627,-0.079688475,12.442951,2.0413976e-05,3,1,0,1
10152000,10068000,10072000,0,-0.0546875,12.27566,-0.003510654,12.441839,3.9623373e-08,3,1,0,1
10208000,10126000,10128000,0,-0.11102295,12.276553,0.053134877,12.440928,9.077506e-06,3,1,0,1
10272000,10186666,10192000,0,-0.063964844,12.277577,0.006089922,12.417587,1.1946652e-07,3,1,0,1
10328000,10248000,10248000,0,-0.063964844,12.278463,0.006281104,12.41732,1.2708786e-07,3,1,0,1
10392000,10308000,10312000,0,-0.06866455,12.279479,0.010747932,12.416906,3.7213147e-07,3,1,0,1
10448000,10368000,10368000,0,-0.087402344,12.280355,0.02957264,12.416701,2.8173054e-06,3,1,0,1
10512000,10428000,10432000,0,-0.06387329,12.2813635,0.0059994347,12.416756,1.1595047e-07,3,1,0,1
10568000,10488000,10488000,0,-0.08734131,12.28223,0.029109601,12.416165,2.729889e-06,3,1,0,1
10632000,10548000,10552000,0,-0.0027770996,12.283229,-0.055697557,12.400672,1.0006613e-05,3,1,0,1
10688000,10608000,10608000,0,0.011169434,12.284086,-0.06881231,12.400878,1.5273545e-05,3,1,0,1
10752000,10668000,10672000,0,-0.04534912,12.285073,-0.011245489,12.401335,4.0789493e-07,3,1,0,1
10808000,10728000,10728000,0,0.010955811,12.285921,-0.06777485,12.401095,1.4816208e-05,3,1,0,1
10872000,10788000,10792000,0,-0.13946533,12.286899,0.083737016,12.401581,2.2616108e-05,3,1,0,1
10928000,10848000,10848000,0,-0.045318604,12.287735,-0.010726757,12.401897,3.7111525e-07,3,1,0,1
10992000,10906666,10912000,0,-0.092315674,12.288702,0.03588682,12.401846,4.153781e-06,3,1,0,1
11048000,10966000,10968000,0,-0.017059326,12.289528,-0.039714236,12.390812,5.091581e-06,3,1,0,1
11096000,11016000,11016000,0,-0.054748535,12.290213,-0.001248464,12.391113,5.031549e-09,3,1,0,1
11160000,11076000,11080000,0,-0.14865112,12.291163,0.09333953,12.391874,2.8122522e-05,3,1,0,1
11216000,11136000,11136000,0,0.030059814,12.291973,-0.08679508,12.39181,2.4317304e-05,3,1,0,1
11280000,11196000,11200000,0,-0.0078125,12.2929125,-0.047528163,12.392578,7.2912226e-06,3,1,0,1
11336000,11256000,11256000,0,-0.106536865,12.293711,0.052233785,12.393166,8.806042e-06,3,1,0,1
11400000,11316000,11320000,0,0.034484863,12.294639,-0.09002784,12.393273,2.6159389e-05,3,1,0,1
11456000,11376000,11376000,0,-0.008117676,12.2954235,-0.048098877,12.38508,7.4718996e-06,3,1,0,1
11520000,11436000,11440000,0,-0.06933594,12.296339,0.01431359,12.385999,6.6164665e-07,3,1,0,1
11576000,11494000,11496000,0,-0.02230835,12.2971115,-0.032010198,12.38673,3.3088725e-06,3,1,0,1
11624000,11544000,11544000,0,-0.09286499,12.297744,0.037535984,12.386512,4.5499496e-06,3,1,0,1
11688000,11604000,11608000,0,-0.069244385,12.298641,0.014577258,12.387453,6.8616674e-07,3,1,0,1
11744000,11664000,11664000,0,-0.045684814,12.2993965,-0.008235808,12.388205,2.1901009e-07,3,1,0,1
11808000,11724000,11728000,0,-0.09738159,12.300282,0.042346787,12.388377,5.7901057e-06,3,1,0,1
11864000,11784000,11784000,0,-0.07373047,12.3010235,0.017631218,12.382031,1.0042289e-06,3,1,0,1
11928000,11844000,11848000,0,-0.040802002,12.301895,-0.014486171,12.383071,6.7785817e-07,3,1,0,1
11984000,11904000,11904000,0,-0.059631348,12.302624,0.005235836,12.383915,8.8547054e-08,3,1,0,1
12048000,11964000,11968000,0,0.0014343262,12.303482,-0.056891996,12.384151,1.0454327e-05,3,1,0,1
12104000,12022000,12024000,0,-0.12088013,12.304197,0.06655523,12.38498,1.4306357e-05,3,1,0,1
12152000,12072000,12072000,0,-0.13467407,12.304771,0.080584325,12.385601,2.0972204e-05,3,1,0,1
12216000,12129333,12136000,0,-0.035705566,12.305611,-0.018021617,12.386719,1.0487965e-06,3,1,0,1
12264000,12180000,12184000,0,-0.115600586,12.306172,0.05985771,12.380472,1.1576119e-05,3,1,0,1
12320000,12239000,12240000,0,-0.063690186,12.306864,0.008322824,12.381352,2.2378619e-07,3,1,0,1
12376000,12296000,12296000,0,-0.21859741,12.307549,0.16392684,12.382258,8.6808104e-05,3,1,0,1
12440000,12358000,12360000,0,-0.02532959,12.308364,-0.031430345,12.382499,3.1911702e-06,3,1,0,1
12496000,12416000,12416000,0,-0.14755249,12.309035,0.09167319,12.383384,2.7145968e-05,3,1,0,1
12552000,12468000,12472000,0,-0.11425781,12.3097,0.05857769,12.384293,1.1082897e-05,3,1,0,1
12608000,12526000,12528000,0,-0.052947998,12.310358,-0.0023146756,12.385227,1.7303593e-08,3,1,0,1
12664000,12584000,12584000,0,-0.13278198,12.31101,0.07543159,12.380055,1.8384168e-05,3,1,0,1
12720000,12636000,12640000,0,-0.02911377,12.311657,-0.027932845,12.380974,2.5207833e-06,3,1,0,1
12776000,12695000,12696000,0,-0.03866577,12.312296,-0.017463468,12.381917,9.852198e-07,3,1,0,1
12840000,12756000,12760000,0,-0.13265991,12.313064,0.07753044,12.383127,1.9416644e-05,3,1,0,1
12896000,12816000,12816000,0,-0.0524292,12.313689,-0.004526548,12.383049,6.6186075e-08,3,1,0,1
12952000,12872000,12872000,0,-0.1463623,12.314308,0.09018178,12.383989,2.6268608e-05,3,1,0,1
13008000,12924000,12928000,0,-0.08956909,12.31492,0.033643927,12.384954,3.6557706e-06,3,1,0,1
13064000,12984000,12984000,0,-0.15512085,12.315527,0.09689985,12.380376,3.0336982e-05,3,1,0,1
13128000,13044000,13048000,0,0.033203125,12.316261,-0.09114421,12.381546,2.6837577e-05,3,1,0,1
13184000,13104000,13104000,0,-0.08465576,12.316854,0.027926475,12.382509,2.5193212e-06,3,1,0,1
13248000,13162666,13168000,0,0.061035156,12.317574,-0.11702432,12.383741,4.423442e-05,3,1,0,1
13304000,13224000,13224000,0,-0.05227661,12.318151,-0.0045538433,12.383615,6.698364e-08,3,1,0,1
13368000,13284000,13288000,0,-0.042907715,12.318858,-0.013096541,12.384813,5.5396686e-07,3,1,0,1
13424000,13344000,13344000,0,-0.104003906,12.319422,0.047680963,12.381678,7.3446404e-06,3,1,0,1
13488000,13404000,13408000,0,-0.09436035,12.320114,0.036581293,12.381854,4.323071e-06,3,1,0,1
13544000,13464000,13464000,0,-0.12231445,12.320663,0.06500703,12.382801,1.3650913e-05,3,1,0,1
13608000,13524000,13528000,0,-0.103149414,12.3213415,0.046284385,12.384015,6.919385e-06,3,1,0,1
13664000,13584000,13584000,0,-0.11227417,12.321877,0.055833682,12.385014,1.0068297e-05,3,1,0,1
13728000,13644000,13648000,0,-0.079071045,12.322541,0.021130484,12.385064,1.4420509e-06,3,1,0,1
13784000,13704000,13704000,0,-0.15878296,12.323063,0.10136073,12.386028,3.3179313e-05,3,1,0,1
13848000,13764000,13768000,0,0.006164551,12.323713,-0.064409,12.383502,1.3400149e-05,3,1,0,1
13904000,13824000,13824000,0,-0.088134766,12.324221,0.029123336,12.38337,2.7397023e-06,3,1,0,1
13968000,13884000,13888000,0,-0.1348877,12.324858,0.07638408,12.384558,1.8844526e-05,3,1,0,1
14024000,13944000,13944000,0,0.034576416,12.325352,-0.092872016,12.385529,2.785577e-05,3,1,0,1
14088000,14004000,14008000,0,-0.012939453,12.325974,-0.04416698,12.386777,6.2993686e-06,3,1,0,1
14144000,14064000,14064000,0,-0.08364868,12.326455,0.02541354,12.386514,2.085649e-06,3,1,0,1
14208000,14124000,14128000,0,0.099609375,12.3270645,-0.15727091,12.387721,7.986664e-05,3,1,0,1
14264000,14184000,14184000,0,0.03289795,12.327532,-0.09031437,12.385225,2.6343278e-05,3,1,0,1
14328000,14244000,14248000,0,0.046417236,12.328128,-0.104500845,12.385271,3.5269077e-05,3,1,0,1
14384000,14304000,14304000,0,-0.04345703,12.328582,-0.013570696,12.3862095,5.9473814e-07,3,1,0,1
14448000,14364000,14368000,0,0.031555176,12.3291645,-0.0878797,12.387421,2.4937692e-05,3,1,0,1
14504000,14424000,14424000,0,-0.12863159,12.329605,0.073292434,12.38841,1.7344539e-05,3,1,0,1
14568000,14484000,14488000,0,-0.06713867,12.330175,0.010391213,12.388332,3.4864195e-07,3,1,0,1
14624000,14544000,14544000,0,-0.071777344,12.330603,0.014672477,12.386042,6.952393e-07,3,1,0,1
14688000,14604000,14608000,0,-0.09515381,12.33116,0.038583614,12.387252,4.8071847e-06,3,1,0,1
14744000,14664000,14664000,0,-0.06674194,12.331574,0.009022571,12.386989,2.628784e-07,3,1,0,1
14808000,14724000,14728000,0,-0.09484863,12.332119,0.037574757,12.388159,4.5587476e-06,3,1,0,1
14864000,14782000,14784000,0,-0.038269043,12.3325205,-0.01872833,12.389108,1.1324476e-06,3,1,0,1
14928000,14842666,14848000,0,-0.06655884,12.333053,0.008891605,12.389036,2.5526e-07,3,1,0,1
14984000,14904000,14904000,0,-0.038330078,12.333443,-0.019004066,12.389948,1.1659597e-06,3,1,0,1
15048000,14964000,14968000,0,-0.104156494,12.333962,0.046525702,12.388074,6.989435e-06,3,1,0,1
15104000,15024000,15024000,0,-0.089782715,12.334339,0.03236989,12.389019,3.3830274e-06,3,1,0,1
15168000,15082666,15088000,0,-0.08016968,12.3348465,0.021723296,12.388943,1.5236219e-06,3,1,0,1
15224000,15144000,15144000,0,-0.028381348,12.335212,-0.0297237,12.389851,2.852329e-06,3,1,0,1
15288000,15204000,15208000,0,-0.061462402,12.335708,0.004004907,12.391037,5.1777032e-08,3,1,0,1
15344000,15264000,15264000,0,-0.05203247,12.3360615,-0.006413918,12.390659,1.3280437e-07,3,1,0,1
15408000,15324000,15328000,0,-0.14596558,12.336545,0.08803666,12.391801,2.5018004e-05,3,1,0,1
15464000,15384000,15384000,0,-0.13595581,12.336887,0.07690106,12.38981,1.9092378e-05,3,1,0,1
15528000,15444000,15448000,0,-0.10723877,12.337359,0.04838128,12.39099,7.556291e-06,3,1,0,1
15584000,15504000,15504000,0,-0.04586792,12.337689,-0.014227249,12.390607,6.5344534e-07,3,1,0,1
15648000,15564000,15568000,0,-0.022491455,12.338151,-0.03703419,12.391746,4.4272415e-06,3,1,0,1
15704000,15624000,15624000,0,0.06643677,12.33847,-0.1253069,12.392661,5.0681032e-05,3,1,0,1
15768000,15684000,15688000,0,-0.06591797,12.33892,0.006555751,12.39248,1.3872241e-07,3,1,0,1
15824000,15742000,15744000,0,-0.1409607,12.339229,0.08181755,12.390587,2.1610314e-05,3,1,0,1
15872000,15792000,15792000,0,-0.041778564,12.339397,-0.01729745,12.391217,9.658512e-07,3,1,0,1
15936000,15850666,15856000,0,-0.060699463,12.339833,0.0022026189,12.392376,1.5659726e-08,3,1,0,1
15992000,15912000,15912000,0,-0.09353638,12.340129,0.034052845,12.391957,3.743061e-06,3,1,0,1
16056000,15970666,15976000,0,-0.16369629,12.340555,0.1045984,12.393074,3.531271e-05,3,1,0,1
16112000,16032000,16032000,0,0.015472412,12.340839,-0.074496165,12.393965,1.7910907e-05,3,1,0,1
16176000,16090666,16096000,0,-0.0836792,12.341255,0.023889061,12.393754,1.8418543e-06,3,1,0,1
16232000,16152000,16152000,0,-0.01776123,12.34153,-0.042099565,12.391947,5.721049e-06,3,1,0,1
16296000,16212000,16216000,0,-0.036865234,12.341935,-0.022244588,12.393055,1.5970935e-06,3,1,0,1
16352000,16272000,16272000,0,-0.07455444,12.3422,0.01606381,12.393941,8.328133e-07,3,1,0,1
16416000,16332000,16336000,0,-0.1026001,12.342595,0.042977322,12.393725,5.9612426e-06,3,1,0,1
16472000,16390000,16392000,0,-0.060028076,12.34285,0.0007793568,12.394571,1.9602036e-09,3,1,0,1
16536000,16450666,16456000,0,-0.09289551,12.343236,0.03434134,12.3957,3.805602e-06,3,1,0,1
16592000,16512000,16512000,0,-0.06918335,12.343481,0.009013396,12.395189,2.6217043e-07,3,1,0,1
16656000,16572000,16576000,0,-0.14892578,12.343858,0.08927783,12.393696,2.572447e-05,3,1,0,1
16712000,16632000,16632000,0,-0.06845093,12.344093,0.009129103,12.394535,2.6895896e-07,3,1,0,1
16776000,16692000,16696000,0,-0.15289307,12.3444605,0.094357565,12.395658,2.8730543e-05,3,1,0,1
16832000,16752000,16752000,0,-0.03945923,12.344687,-0.0,12.396553,1.1320537e-06,3,1,0,1
16896000,16810666,16816000,0,0.02142334,12.345046,-0.0,12.397747,1.9988236e-05,3,1,0,1
16952000,16872000,16872000,0,-0.049621582,12.3452635,-0.0,12.398704,1.5002784e-07,3,1,0,1
17016000,16932000,16936000,0,0.001953125,12.345613,-0.0,12.397178,1.0803919e-05,3,1,0,1
17072000,16992000,16992000,0,-0.01727295,12.345822,-0.0,12.398172,4.5955344e-06,3,1,0,1
17136000,17052000,17056000,0,-0.08331299,12.346163,0.029372118,12.399488,2.783087e-06,3,1,0,1
17192000,17112000,17112000,0,-0.1159668,12.346363,0.0628552,12.400556,1.2743868e-05,3,1,0,1
17256000,17172000,17176000,0,-0.0920105,12.346696,0.03973462,12.401962,5.0922263e-06,3,1,0,1
17312000,17232000,17232000,0,-0.040039062,12.346889,-0.0,12.403108,4.197644e-07,3,1,0,1
17376000,17292000,17296000,0,-0.06832886,12.347214,0.018066585,12.404611,1.0525167e-06,3,1,0,1
17432000,17352000,17352000,0,-0.13858032,12.347398,0.088153705,12.402642,2.5062645e-05,3,1,0,1
17496000,17412000,17416000,0,-0.053375244,12.347714,0.0037650242,12.404194,4.571166e-08,3,1,0,1
17552000,17472000,17472000,0,-0.04864502,12.347892,0.000105608255,12.405469,3.5961893e-11,3,1,0,1
17616000,17532000,17536000,0,0.017089844,12.348201,-0.0,12.40713,1.3378719e-05,3,1,0,1
17672000,17592000,17592000,0,-0.091430664,12.34837,0.045128167,12.408499,6.5650215e-06,3,1,0,1
17736000,17652000,17656000,0,-0.020629883,12.348671,-0.0,12.410275,1.968649e-06,3,1,0,1
17792000,17712000,17712000,0,-0.0067443848,12.348833,-0.0,12.411745,4.5436723e-06,3,1,0,1
17856000,17772000,17776000,0,0.011749268,12.349128,-0.0,12.409818,1.0239344e-05,3,1,0,1
17912000,17832000,17832000,0,-0.03567505,12.349282,-0.0,12.411329,2.0096071e-07,3,1,0,1
17976000,17892000,17896000,0,-0.09677124,12.34957,0.05445361,12.41328,9.554915e-06,3,1,0,1
18032000,17952000,17952000,0,-0.07284546,12.349717,0.031381335,12.4149,3.1729235e-06,3,1,0,1
18096000,18012000,18016000,0,-0.10546875,12.349998,0.06518547,12.416985,1.3688173e-05,3,1,0,1
18152000,18072000,18072000,0,0.07815552,12.35014,-0.0,12.41872,4.450596e-05,3,1,0,1
18216000,18132000,18136000,0,-0.07772827,12.350413,0.037901625,12.416314,4.627889e-06,3,1,0,1
18272000,18192000,18192000,0,-0.025787354,12.350548,-0.0,12.418081,5.3791706e-07,3,1,0,1
18336000,18252000,18256000,0,-0.030578613,12.350815,-0.0,12.4203415,1.3889347e-07,3,1,0,1
18392000,18310000,18312000,0,0.0069274902,12.350944,-0.0,12.422232,5.873019e-06,3,1,0,1
18440000,18360000,18360000,0,-0.04034424,12.350934,0.0057677776,12.423719,1.07108846e-07,3,1,0,1
18504000,18420000,18424000,0,0.001953125,12.351195,-0.0,12.426189,3.920541e-06,3,1,0,1
18560000,18478000,18480000,0,0.025146484,12.351318,-0.0,12.428256,1.0308718e-05,3,1,0,1
18608000,18528000,18528000,0,-0.041015625,12.351303,0.01088501,12.429885,3.8128567e-07,3,1,0,1
18672000,18588000,18592000,0,-0.10195923,12.35156,0.07126984,12.426706,1.6349915e-05,3,1,0,1
18728000,18648000,18648000,0,-0.12017822,12.351676,0.09062887,12.428839,2.643398e-05,3,1,0,1
18792000,18708000,18712000,0,-0.077178955,12.351925,0.048910566,12.4315405,7.697336e-06,3,1,0,1
18848000,18768000,18768000,0,-0.1659851,12.352036,0.13903838,12.4338045,6.219069e-05,3,1,0,1
18912000,18828000,18832000,0,-0.024017334,12.352281,-0.0,12.436668,1.2163715e-08,3,1,0,1
18968000,18888000,18888000,0,-0.04751587,12.3523855,0.023263497,12.439063,1.740293e-06,3,1,0,1
19032000,18946666,18952000,0,0.023101807,12.352624,-0.0,12.434838,7.689698e-06,3,1,0,1
19088000,19006000,19008000,0,-0.06652832,12.352724,0.04246171,12.437219,5.798713e-06,3,1,0,1
19152000,19065333,19072000,0,-0.056793213,12.352957,0.034440354,12.440225,3.8138794e-06,3,1,0,1
19200000,19116000,19120000,0,0.02331543,12.352916,-0.0,12.442163,6.3342322e-06,3,1,0,1
19256000,19176000,19176000,0,-0.028717041,12.353011,0.009448079,12.444732,2.8692048e-07,3,1,0,1
19320000,19236000,19240000,0,0.023040771,12.35324,-0.0,12.447963,5.300818e-06,3,1,0,1
19376000,19296000,19296000,0,-0.00079345703,12.353331,-0.0,12.450662,8.2428886e-07,3,1,0,1
19440000,19356000,19360000,0,-0.11828613,12.353555,0.09635892,12.445043,2.984334e-05,3,1,0,1
19496000,19415000,19416000,0,-0.103393555,12.353639,0.0788939,12.447688,2.0001296e-05,3,1,0,1
19560000,19476000,19480000,0,-0.018218994,12.353858,-0.0,12.451022,3.6837864e-07,3,1,0,1
19616000,19535000,19536000,0,-0.14978027,12.353938,0.11617212,12.4538,4.334729e-05,3,1,0,1
19680000,19596000,19600000,0,-0.07366943,12.354152,0.032240756,12.457283,3.3376984e-06,3,1,0,1
19736000,19654000,19656000,0,-0.08279419,12.354227,0.033299234,12.46018,3.559624e-06,3,1,0,1
19792000,19712000,19712000,0,0.0630188,12.354302,-0.0,12.463131,4.8302136e-05,3,1,0,1
19848000,19764000,19768000,0,-0.17745972,12.354376,0.10089089,12.455151,3.269e-05,3,1,0,1
19904000,19824000,19824000,0,-0.054534912,12.354447,-0.0,12.457996,4.647832e-06,3,1,0,1
19968000,19884000,19888000,0,-0.1816101,12.354653,0.06814319,12.461578,1.4904996e-05,3,1,0,1
20024000,19944000,19944000,0,-0.16223145,12.354721,0.026774943,12.464547,2.300597e-06,3,1,0,1
20088000,20004000,20008000,0,-0.15264893,12.354922,-0.0,12.468274,3.9346745e-07,3,1,0,1
20144000,20064000,20064000,0,-0.25131226,12.354986,0.060029224,12.471342,1.1557723e-05,3,1,0,1
20208000,20124000,20128000,0,-0.21792603,12.355184,-0.0,12.47521,2.359061e-07,3,1,0,1
20264000,20184000,20184000,0,-0.19451904,12.355244,-0.0,12.465311,1.5889309e-05,3,1,0,1
20328000,20244000,20248000,0,-0.25613403,12.355436,-0.0,12.46902,6.865319e-06,3,1,0,1
20384000,20302000,20304000,0,-0.44433594,12.355491,0.109415025,12.472091,3.8395e-05,3,1,0,1
20432000,20352000,20352000,0,-0.49505615,12.35541,0.13165623,12.474472,5.5580265e-05,3,1,0,1
20496000,20412000,20416000,0,-0.4704895,12.355601,0.06926921,12.478384,1.5380912e-05,3,1,0,1
20552000,20472000,20472000,0,-0.5121765,12.355654,0.07803482,12.481576,1.9514948e-05,3,1,0,1
20616000,20530666,20536000,0,-0.520874,12.355841,0.04277721,12.470773,5.869371e-06,3,1,0,1
20672000,20592000,20592000,0,-0.5158386,12.355889,0.0039542913,12.473841,5.014148e-08,3,1,0,1
20736000,20652000,20656000,0,-0.6566467,12.356071,0.10608828,12.477679,3.607954e-05,3,1,0,1
20792000,20712000,20712000,0,-0.49609375,12.356116,-0.0,12.480844,2.5888674e-05,3,1,0,1
20856000,20772000,20776000,0,-0.6470947,12.356296,0.021360695,12.484826,1.4618684e-06,3,1,0,1
20912000,20832000,20832000,0,-0.6938782,12.356338,0.032832444,12.488078,3.4527948e-06,3,1,0,1
20976000,20890666,20896000,0,-0.6560364,12.356513,-0.0,12.492148,6.6655507e-06,3,1,0,1
21032000,20952000,20952000,0,-0.848938,12.356551,0.10448629,12.47875,3.4995122e-05,3,1,0,1
21096000,21012000,21016000,0,-0.7541504,12.356723,-0.0,12.482638,3.3575977e-06,3,1,0,1
21152000,21072000,21072000,0,-0.88586426,12.356757,0.063325524,12.485785,1.2846999e-05,3,1,0,1
21216000,21132000,21136000,0,-0.9604492,12.356926,0.09585333,12.489786,2.9425197e-05,3,1,0,1
21272000,21192000,21192000,0,-0.95492554,12.3569565,0.05303359,12.493036,9.005214e-06,3,1,0,1
21336000,21250666,21256000,0,-0.91690063,12.357122,-0.0,12.497142,2.3474083e-06,3,1,0,1
21392000,21310000,21312000,0,-0.99697876,12.357151,0.016812682,12.500419,9.0450175e-07,3,1,0,1
21440000,21360000,21360000,0,-1.2033997,12.357043,0.18290794,12.484655,0.00010718859,3,1,0,1
21504000,21420000,21424000,0,-1.1408081,12.357207,0.07694054,12.488571,1.8960844e-05,3,1,0,1
21560000,21480000,21480000,0,-1.215271,12.357233,0.11444819,12.491708,4.1942665e-05,3,1,0,1
21624000,21540000,21544000,0,-1.1062927,12.357394,-0.0,12.495724,4.397349e-06,3,1,0,1
21680000,21600000,21600000,0,-1.2333679,12.357418,0.054080963,12.498963,9.359977e-06,3,1,0,1
21744000,21660000,21664000,0,-1.2657776,12.357576,0.045102358,12.50307,6.5079143e-06,3,1,0,1
21800000,21720000,21720000,0,-1.3311157,12.357597,0.074579835,12.5063095,1.7789906e-05,3,1,0,1
21864000,21780000,21784000,0,-1.3492432,12.357753,0.043407917,12.490841,6.0340126e-06,3,1,0,1
21920000,21840000,21840000,0,-1.4146118,12.35777,0.07337332,12.493965,1.7235981e-05,3,1,0,1
21984000,21900000,21904000,0,-1.4092712,12.357922,0.027721047,12.497873,2.4594792e-06,3,1,0,1
22040000,21960000,21960000,0,-1.5029297,12.357936,0.08685291,12.501052,2.4136938e-05,3,1,0,1
22104000,22017333,22024000,0,-1.5350342,12.358086,0.07935524,12.505092,2.0143008e-05,3,1,0,1
22152000,22068000,22072000,0,-1.6846008,12.357963,0.19938493,12.507467,0.00012713797,3,1,0,1
22208000,22127000,22128000,0,-1.4950867,12.357978,-0.0,12.510646,2.0802443e-06,3,1,0,1
22272000,22188000,22192000,0,-1.6784058,12.358127,0.11164749,12.494251,3.9906867e-05,3,1,0,1
22328000,22247000,22248000,0,-1.6915283,12.358138,0.09129369,12.497329,2.6676222e-05,3,1,0,1
22392000,22308000,22312000,0,-1.6203003,12.358284,-0.0,12.5011835,9.537622e-07,3,1,0,1
22448000,22368000,22368000,0,-1.7706909,12.358292,0.101935744,12.504307,3.3239416e-05,3,1,0,1
22512000,22428000,22432000,0,-1.8496094,12.358436,0.14466584,12.508289,6.6925866e-05,3,1,0,1
22568000,22487000,22488000,0,-1.8014221,12.358442,0.064656615,12.511454,1.3365283e-05,3,1,0,1
22632000,22548000,22552000,0,-1.8008728,12.358583,0.019871235,12.494423,1.2641352e-06,3,1,0,1
22688000,22606000,22608000,0,-1.9133606,12.358586,0.10331774,12.49742,3.4165627e-05,3,1,0,1
22752000,22668000,22672000,0,-1.8702393,12.358725,0.027825117,12.501241,2.477313e-06,3,1,0,1
22808000,22726000,22728000,0,-1.9732666,12.358726,0.10552859,12.5042305,3.5624053e-05,3,1,0,1
22872000,22788000,22792000,0,-2.0568848,12.358862,0.16317141,12.5081215,8.514439e-05,3,1,0,1
22928000,22848000,22848000,0,-1.9756165,12.358861,0.06236601,12.511205,1.2435314e-05,3,1,0,1
22992000,22908000,22912000,0,-2.0736694,12.358995,0.144135,12.515157,6.639916e-05,3,1,0,1
23048000,22968000,22968000,0,-2.0254517,12.358993,0.070669174,12.496768,1.5985357e-05,3,1,0,1
23112000,23028000,23032000,0,-2.029541,12.359123,0.06389928,12.500495,1.3065461e-05,3,1,0,1
23168000,23086000,23088000,0,-2.0853271,12.359117,0.11126745,12.503462,3.9606453e-05,3,1,0,1
23232000,23148000,23152000,0,-2.09375,12.359246,0.110034466,12.507209,3.8721937e-05,3,1,0,1
23288000,23206000,23208000,0,-2.0364685,12.359239,0.04409778,12.510215,6.217685e-06,3,1,0,1
23344000,23264000,23264000,0,-1.9281006,12.359231,-0.0,12.513235,1.6864149e-05,3,1,0,1
23408000,23326000,23328000,0,-2.032013,12.359359,0.021512032,12.51712,1.4788305e-06,3,1,0,1
23472000,23388000,23392000,0,-2.1914673,12.359486,0.15712667,12.499221,7.900905e-05,3,1,0,1
23528000,23448000,23448000,0,-2.1149597,12.359472,0.06896114,12.502112,1.5215475e-05,3,1,0,1
23592000,23508000,23512000,0,-2.048645,12.359595,-0.0,12.505824,2.9820606e-07,3,1,0,1
23648000,23568000,23568000,0,-2.0862732,12.359582,0.017860174,12.508715,1.0200434e-06,3,1,0,1
23712000,23628000,23632000,0,-2.0532532,12.359703,-0.0,12.512488,2.2492795e-06,3,1,0,1
23768000,23688000,23688000,0,-2.1333313,12.359688,0.044071436,12.515454,6.2076583e-06,3,1,0,1
23832000,23748000,23752000,0,-2.1094666,12.359808,-0.0,12.497604,6.0741506e-08,3,1,0,1
23888000,23808000,23808000,0,-2.1517334,12.35979,0.028604507,12.500396,2.6182142e-06,3,1,0,1
23952000,23868000,23872000,0,-2.1843567,12.359907,0.05062437,12.5040245,8.198406e-06,3,1,0,1
24008000,23927000,23928000,0,-2.118164,12.359887,-0.0,12.506895,1.9865408e-06,3,1,0,1
24072000,23988000,23992000,0,-2.1559448,12.360003,0.0030794144,12.510557,3.031933e-08,3,1,0,1
24128000,24048000,24048000,0,-2.1746826,12.3599825,0.013610601,12.513463,5.9215733e-07,3,1,0,1
24192000,24108000,24112000,0,-2.1463928,12.360097,-0.0,12.517219,1.805967e-06,3,1,0,1
24248000,24168000,24168000,0,-2.3250122,12.360075,0.132936,12.4984865,5.6557186e-05,3,1,0,1
24312000,24228000,24232000,0,-2.3144836,12.360188,0.112338305,12.502016,4.037715e-05,3,1,0,1
24368000,24288000,24288000,0,-2.2477722,12.360163,0.037147522,12.504831,4.4140966e-06,3,1,0,1
24432000,24348000,24352000,0,-2.3976746,12.360273,0.1787188,12.50846,0.00010214019,3,1,0,1
24488000,24408000,24408000,0,-2.2505493,12.360248,0.02285695,12.511289,1.6703001e-06,3,1,0,1
24544000,24464000,24464000,0,-2.2033691,12.360223,-0.0,12.51416,3.022899e-06,3,1,0,1
24600000,24516000,24520000,0,-2.302246,12.360199,0.062345505,12.517047,1.2421338e-05,3,1,0,1
24656000,24576000,24576000,0,-2.3533325,12.360175,0.09328246,12.498437,2.7848659e-05,3,1,0,1
24720000,24636000,24640000,0,-2.296173,12.360285,0.028942585,12.501941,2.680138e-06,3,1,0,1
24776000,24696000,24696000,0,-2.3428955,12.360259,0.07024002,12.504729,1.5781743e-05,3,1,0,1
24840000,24756000,24760000,0,-2.3751526,12.360368,0.09619236,12.508327,2.9589793e-05,3,1,0,1
24896000,24816000,24816000,0,-2.374298,12.36034,0.0896337,12.511137,2.5686557e-05,3,1,0,1
24960000,24874666,24880000,0,-2.3359375,12.360449,0.04532695,12.514801,6.5667277e-06,3,1,0,1
25016000,24936000,24936000,0,-2.1900024,12.36042,-0.0,12.49638,4.504322e-05,3,1,0,1
25080000,24996000,25000000,0,-2.2849426,12.360526,-0.0,12.499851,2.5561117e-06,3,1,0,1
25136000,25056000,25056000,0,-2.350891,12.360496,0.033839464,12.502586,3.6635915e-06,3,1,0,1
25200000,25116000,25120000,0,-2.3975525,12.3606,0.07597685,12.506136,1.8462877e-05,3,1,0,1
25256000,25174000,25176000,0,-2.3921814,12.360569,0.06626439,12.508933,1.40410675e-05,3,1,0,1
25304000,25224000,25224000,0,-2.401001,12.360403,0.07138848,12.510934,1.6293958e-05,3,1,0,1
25368000,25284000,25288000,0,-2.3346252,12.36051,0.00046992302,12.51458,7.058252e-10,3,1,0,1
25424000,25344000,25344000,0,-2.3721924,12.36048,0.019511461,12.496301,1.2185914e-06,3,1,0,1
25488000,25404000,25408000,0,-2.4424133,12.360585,0.085870504,12.49976,2.3596434e-05,3,1,0,1
25544000,25464000,25464000,0,-2.4416504,12.360554,0.08103514,12.50249,2.1009233e-05,3,1,0,1
25608000,25524000,25528000,0,-2.3752136,12.360658,0.010317087,12.50603,3.404511e-07,3,1,0,1
25664000,25584000,25584000,0,-2.4737244,12.360624,0.10598707,12.50882,3.5921083e-05,3,1,0,1
25728000,25642666,25648000,0,-2.4634094,12.360728,0.091509104,12.512423,2.6769927e-05,3,1,0,1
25784000,25704000,25704000,0,-2.4250183,12.360695,0.04961872,12.515253,7.8688545e-06,3,1,0,1
25848000,25764000,25768000,0,-2.5043945,12.360797,0.10961199,12.497747,3.8454247e-05,3,1,0,1
25904000,25822000,25824000,0,-2.4001465,12.360762,0.0018661022,12.5004635,1.1143066e-08,3,1,0,1
25952000,25872000,25872000,0,-2.536255,12.360591,0.13608336,12.502434,5.9248247e-05,3,1,0,1
26016000,25932000,25936000,0,-2.4129944,12.360694,0.008964777,12.505972,2.5705233e-07,3,1,0,1
26072000,25992000,25992000,0,-2.4927063,12.360661,0.08679986,12.508761,2.4092604e-05,3,1,0,1
26136000,26052000,26056000,0,-2.369873,12.360764,-0.0,12.512368,4.808921e-06,3,1,0,1
26192000,26112000,26112000,0,-2.4077759,12.360729,-0.0,12.5152,1.3947901e-08,3,1,0,1
26256000,26172000,26176000,0,-2.454773,12.360831,0.028455496,12.4978,2.591545e-06,3,1,0,1
26312000,26232000,26232000,0,-2.5108643,12.360795,0.08319807,12.50052,2.214922e-05,3,1,0,1
26376000,26292000,26296000,0,-2.4960327,12.360894,0.066408396,12.504026,1.4107696e-05,3,1,0,1
26432000,26352000,26352000,0,-2.5517883,12.360857,0.12073374,12.506801,4.661987e-05,3,1,0,1
26496000,26412000,26416000,0,-2.4943848,12.360956,0.061472654,12.510394,1.20823925e-05,3,1,0,1
26552000,26472000,26472000,0,-2.611206,12.360919,0.1774199,12.51321,0.00010062268,3,1,0,1
26616000,26532000,26536000,0,-2.5532837,12.361017,0.100227356,12.495938,3.215612e-05,3,1,0,1
26672000,26592000,26592000,0,-2.5523987,12.360977,0.09825516,12.49864,3.0896404e-05,3,1,0,1
26736000,26652000,26656000,0,-2.5562134,12.3610735,0.101169586,12.5021305,3.274733e-05,3,1,0,1
26792000,26712000,26712000,0,-2.545929,12.3610325,0.09004283,12.504888,2.5934536e-05,3,1,0,1
26856000,26772000,26776000,0,-2.5075989,12.361129,0.051247835,12.508462,8.398604e-06,3,1,0,1
26912000,26832000,26832000,0,-2.5681763,12.361088,0.11196494,12.511274,4.007952e-05,3,1,0,1
26976000,26892000,26896000,0,-2.5014343,12.361183,0.04499221,12.51492,6.470033e-06,3,1,0,1
27032000,26952000,26952000,0,-2.5667725,12.361141,0.09338808,12.496806,2.79154e-05,3,1,0,1
27096000,27012000,27016000,0,-2.4908142,12.361235,0.017606735,12.500275,9.91969e-07,3,1,0,1
27152000,27072000,27072000,0,-2.546997,12.361191,0.074781656,12.503024,1.789102e-05,3,1,0,1
27216000,27132000,27136000,0,-2.5698242,12.361284,0.09825134,12.506578,3.0874395e-05,3,1,0,1
27272000,27192000,27192000,0,-2.4750366,12.36124,0.0037007332,12.509383,4.379249e-08,3,1,0,1
27336000,27252000,27256000,0,-2.5266418,12.361333,0.056945562,12.51302,1.0366153e-05,3,1,0,1
27392000,27312000,27312000,0,-2.5167236,12.361288,0.047892332,12.515868,7.330456e-06,3,1,0,1
27456000,27370666,27376000,0,-2.497528,12.361381,0.012573719,12.498463,5.0597714e-07,3,1,0,1
27512000,27432000,27432000,0,-2.497406,12.361334,0.013733149,12.501201,6.0345997e-07,3,1,0,1
27576000,27492000,27496000,0,-2.54422,12.361424,0.062070847,12.50474,1.2324254e-05,3,1,0,1
27632000,27552000,27552000,0,-2.5108032,12.361378,0.029492855,12.507536,2.7817744e-06,3,1,0,1
27696000,27610666,27616000,0,-2.5903625,12.361467,0.11069584,12.511158,3.9176448e-05,3,1,0,1
27752000,27670000,27672000,0,-2.6644897,12.361421,0.18539047,12.514006,0.00010985973,3,1,0,1
27800000,27720000,27720000,0,-2.573639,12.36124,0.09394002,12.516047,2.8202925e-05,3,1,0,1
27864000,27780000,27784000,0,-2.572815,12.361333,0.07640433,12.49868,1.8682364e-05,3,1,0,1
27920000,27840000,27840000,0,-2.5299072,12.361287,0.03442192,12.501433,3.791145e-06,3,1,0,1
27984000,27900000,27904000,0,-2.5483704,12.361379,0.05454302,12.504992,9.516011e-06,3,1,0,1
28040000,27960000,27960000,0,-2.4915466,12.361333,-0.0,12.507803,3.5081773e-09,3,1,0,1
28104000,28020000,28024000,0,-2.4962463,12.3614235,0.0060009956,12.511445,1.1513281e-07,3,1,0,1
28160000,28080000,28080000,0,-2.5759888,12.361378,0.08788633,12.514309,2.4688563e-05,3,1,0,1
28224000,28140000,28144000,0,-2.5939636,12.361468,0.08539271,12.496996,2.3339739e-05,3,1,0,1
28280000,28200000,28200000,0,-2.5744324,12.36142,0.06701851,12.499738,1.4373039e-05,3,1,0,1
28344000,28260000,28264000,0,-2.5644226,12.361508,0.05868721,12.50328,1.1018513e-05,3,1,0,1
28400000,28318000,28320000,0,-2.704773,12.361461,0.20058942,12.506085,0.00012869292,3,1,0,1
28448000,28368000,28368000,0,-2.5856018,12.361279,0.08108592,12.5081215,2.1026104e-05,3,1,0,1
28512000,28428000,28432000,0,-2.6271057,12.36137,0.124489546,12.511783,4.954577e-05,3,1,0,1
28568000,28488000,28488000,0,-2.5509033,12.361325,0.04946065,12.514661,7.819168e-06,3,1,0,1
28632000,28548000,28552000,0,-2.6302795,12.361416,0.110111,12.497343,3.8806433e-05,3,1,0,1
28688000,28608000,28608000,0,-2.4696655,12.361369,-0.0,12.500101,7.669096e-06,3,1,0,1
28752000,28668000,28672000,0,-2.63443,12.361459,0.119109154,12.503662,4.5385073e-05,3,1,0,1
28808000,28728000,28728000,0,-2.6427612,12.361411,0.12910604,12.506482,5.3311138e-05,3,1,0,1
28872000,28788000,28792000,0,-2.571167,12.361501,0.05970049,12.51013,1.13960405e-05,3,1,0,1
28928000,28848000,28848000,0,-2.6504517,12.361453,0.14177442,12.513004,6.425311e-05,3,1,0,1
28992000,28908000,28912000,0,-2.5834656,12.361542,0.07728529,12.516729,1.9088104e-05,3,1,0,1
29048000,28968000,28968000,0,-2.6015625,12.361494,0.07424593,12.4984665,1.764203e-05,3,1,0,1
29112000,29028000,29032000,0,-2.6478271,12.361582,0.12379384,12.502008,4.9031853e-05,3,1,0,1
29168000,29086000,29088000,0,-2.6655273,12.361532,0.14371538,12.504819,6.606768e-05,3,1,0,1
29216000,29136000,29136000,0,-2.579712,12.361348,0.059411287,12.506866,1.1288843e-05,3,1,0,1
29280000,29196000,29200000,0,-2.644928,12.361439,0.12838888,12.510531,5.2703457e-05,3,1,0,1
29336000,29254000,29256000,0,-2.5498962,12.361392,0.03601694,12.513418,4.146653e-06,3,1,0,1
29384000,29304000,29304000,0,-2.5777283,12.361212,0.06720519,12.515497,1.4435025e-05,3,1,0,1
29448000,29364000,29368000,0,-2.567749,12.361305,0.03559017,12.498136,4.0539176e-06,3,1,0,1
29504000,29424000,29424000,0,-2.6096802,12.36126,0.08156228,12.500922,2.1286129e-05,3,1,0,1
29568000,29484000,29488000,0,-2.5854797,12.361352,0.061576605,12.5045185,1.2128986e-05,3,1,0,1
29624000,29544000,29544000,0,-2.439392,12.361306,-0.08067703,12.507366,2.0815842e-05,3,1,0,1
29688000,29604000,29608000,0,-2.7171326,12.361398,0.20333362,12.511048,0.00013218576,3,1,0,1
29744000,29664000,29664000,0,-2.5369263,12.361352,0.025409698,12.513948,2.0637858e-06,3,1,0,1
29808000,29724000,29728000,0,-2.6071167,12.361443,0.10074735,12.517707,3.2434145e-05,3,1,0,1
29864000,29784000,29784000,0,-2.6625977,12.361397,0.13366938,12.499363,5.717892e-05,3,1,0,1
29928000,29842666,29848000,0,-2.614441,12.3614855,0.088947535,12.502937,2.5311376e-05,3,1,0,1
29984000,29904000,29904000,0,-2.5760803,12.361438,0.053839922,12.505774,9.271676e-06,3,1,0,1
30048000,29962666,29968000,0,-2.6225586,12.3615265,0.104576826,12.509438,3.49698e-05,3,1,0,1
30104000,30020000,30024000,0,-2.5934448,12.361479,0.07861805,12.512329,1.9759063e-05,3,1,0,1
30152000,30072000,30072000,0,-2.6819458,12.361297,0.16998076,12.514416,9.2352566e-05,3,1,0,1
30216000,30132000,30136000,0,-2.638153,12.361388,0.10203004,12.497017,3.3320364e-05,3,1,0,1
30272000,30192000,30192000,0,-2.5621338,12.361342,0.02900219,12.499801,2.6916493e-06,3,1,0,1
30336000,30252000,30256000,0,-2.6322937,12.361432,0.10354042,12.503389,3.429668e-05,3,1,0,1
30392000,30312000,30312000,0,-2.6126099,12.361385,0.08680844,12.506236,2.4102234e-05,3,1,0,1
30456000,30370666,30376000,0,-2.5789795,12.361475,0.057041407,12.5099125,1.0403661e-05,3,1,0,1
30512000,30432000,30432000,0,-2.6488953,12.361427,0.1307249,12.512813,5.462881e-05,3,1,0,1
30576000,30490666,30496000,0,-2.6524353,12.361517,0.13798809,12.516568,6.0849627e-05,3,1,0,1
30632000,30550000,30552000,0,-2.5338135,12.36147,-0.005438328,12.498196,9.465497e-08,3,1,0,1
30680000,30600000,30600000,0,-2.646576,12.361287,0.1111877,12.500229,3.9559927e-05,3,1,0,1
30744000,30660000,30664000,0,-2.6549683,12.361378,0.1234386,12.503829,4.8743746e-05,3,1,0,1
30800000,30720000,30720000,0,-2.7196045,12.361332,0.19112396,12.506684,0.0001168283,3,1,0,1
30864000,30780000,30784000,0,-2.6333923,12.361423,0.10788536,12.510372,3.7214722e-05,3,1,0,1
30920000,30840000,30840000,0,-2.6418457,12.361377,0.1197958,12.513281,4.5874567e-05,3,1,0,1
30984000,30900000,30904000,0,-2.6454773,12.361466,0.12761903,12.517046,5.20462e-05,3,1,0,1
31040000,30958000,30960000,0,-2.6208496,12.361421,0.07609105,12.49863,1.8529547e-05,3,1,0,1
31088000,31008000,31008000,0,-2.6295776,12.3612385,0.0879879,12.500669,2.477266e-05,3,1,0,1
31152000,31068000,31072000,0,-2.6006165,12.36133,0.06347537,12.504279,1.28887805e-05,3,1,0,1
31208000,31128000,31128000,0,-2.5624695,12.361285,0.029434443,12.507142,2.7708531e-06,3,1,0,1
31272000,31188000,31192000,0,-2.6420288,12.361377,0.11429191,12.510839,4.176423e-05,3,1,0,1
31328000,31248000,31248000,0,-2.5752869,12.361332,0.051230192,12.513755,8.389273e-06,3,1,0,1
31392000,31308000,31312000,0,-2.5419617,12.361423,0.023145199,12.517529,1.7118404e-06,3,1,0,1
31448000,31368000,31368000,0,-2.607483,12.361378,0.06261778,12.499068,1.2548091e-05,3,1,0,1
31512000,31428000,31432000,0,-2.625702,12.361466,0.085467815,12.502652,2.3370232e-05,3,1,0,1
31568000,31486000,31488000,0,-2.6296387,12.361419,0.09307408,12.505497,2.770873e-05,3,1,0,1
31616000,31536000,31536000,0,-2.6194153,12.361238,0.085766315,12.50757,2.3524506e-05,3,1,0,1
31680000,31594666,31600000,0,-2.5904846,12.36133,0.061278105,12.511276,1.2005189e-05,3,1,0,1
31736000,31656000,31656000,0,-2.571167,12.361285,0.046120882,12.514195,6.7991136e-06,3,1,0,1
31800000,31716000,31720000,0,-2.5660706,12.361378,0.046215534,12.517977,6.8249865e-06,3,1,0,1
31856000,31776000,31776000,0,-2.6548767,12.361333,0.107825756,12.49948,3.7206006e-05,3,1,0,1
31920000,31836000,31840000,0,-2.5975952,12.361423,0.054662704,12.503072,9.559288e-06,3,1,0,1
31976000,31896000,31896000,0,-2.7144775,12.361377,0.17556787,12.505922,9.8590324e-05,3,1,0,1
32040000,31954666,31960000,0,-2.5908508,12.361466,0.055309296,12.509603,9.781665e-06,3,1,0,1
32096000,32014000,32016000,0,-2.7359009,12.361419,0.20459032,12.512506,0.00013380915,3,1,0,1
32144000,32064000,32064000,0,-2.6730347,12.3612385,0.14353728,12.514603,6.585252e-05,3,1,0,1
32208000,32124000,32128000,0,-2.648285,12.361331,0.122895,12.51839,4.8259182e-05,3,1,0,1
32264000,32184000,32184000,0,-2.6941223,12.361287,0.13985276,12.499865,6.258882e-05,3,1,0,1
32328000,32242666,32248000,0,-2.5849,12.361378,0.034499645,12.503463,3.8076666e-06,3,1,0,1
32384000,32304000,32304000,0,-2.6174622,12.361332,0.07149267,12.506317,1.6347585e-05,3,1,0,1
32448000,32364000,32368000,0,-2.6262207,12.361423,0.0850482,12.510003,2.3127717e-05,3,1,0,1
32504000,32424000,32424000,0,-2.6395264,12.361377,0.10245085,12.512912,3.3553104e-05,3,1,0,1
32568000,32484000,32488000,0,-2.6010437,12.361467,0.06877947,12.516675,1.5117802e-05,3,1,0,1
32624000,32542000,32544000,0,-2.6802673,12.361421,0.1198411,12.498183,4.5964724e-05,3,1,0,1
32672000,32592000,32592000,0,-2.5899963,12.3612385,0.03251481,12.50022,3.383022e-06,3,1,0,1
32736000,32652000,32656000,0,-2.622589,12.36133,0.07046628,12.503824,1.5884729e-05,3,1,0,1
32792000,32712000,32712000,0,-2.7017517,12.361285,0.15389037,12.506682,7.57427e-05,3,1,0,1
32856000,32772000,32776000,0,-2.6487427,12.361377,0.10503101,12.510374,3.5271572e-05,3,1,0,1
32912000,32832000,32832000,0,-2.7088318,12.361332,0.16927338,12.513285,9.159378e-05,3,1,0,1
32976000,32892000,32896000,0,-2.683838,12.361423,0.14863157,12.517052,7.0596e-05,3,1,0,1
33032000,32952000,32952000,0,-2.6402893,12.361378,0.07736206,12.49854,1.915388e-05,3,1,0,1
33096000,33012000,33016000,0,-2.6959229,12.361466,0.1381464,12.502113,6.105984e-05,3,1,0,1
33152000,33072000,33072000,0,-2.6759338,12.361419,0.122219324,12.504951,4.778128e-05,3,1,0,1
33216000,33132000,33136000,0,-2.707672,12.361507,0.16090679,12.508614,8.279413e-05,3,1,0,1
33272000,33192000,33192000,0,-2.593567,12.36146,0.05540371,12.511506,9.813593e-06,3,1,0,1
33336000,33252000,33256000,0,-2.5367432,12.361548,0.015096903,12.515248,7.2844415e-07,3,1,0,1
33392000,33312000,33312000,0,-2.6305237,12.361501,0.12932897,12.518186,5.3445383e-05,3,1,0,1
33456000,33372000,33376000,0,-2.5636292,12.361589,0.05837369,12.500339,1.09036655e-05,3,1,0,1
33512000,33432000,33432000,0,-2.4926758,12.36154,0.02032423,12.503154,1.3215044e-06,3,1,0,1
33576000,33492000,33496000,0,-2.4831238,12.361626,0.056773663,12.506785,1.03088e-05,3,1,0,1
33632000,33552000,33552000,0,-2.4403381,12.361576,0.059017897,12.509659,1.1137354e-05,3,1,0,1
33696000,33612000,33616000,0,-2.3553162,12.361663,0.029354572,12.513374,2.7544638e-06,3,1,0,1
33752000,33672000,33672000,0,-2.4019775,12.361612,0.1265142,12.5162945,5.1152016e-05,3,1,0,1
33816000,33732000,33736000,0,-2.3163452,12.361699,0.06252122,12.498511,1.250998e-05,3,1,0,1
33872000,33792000,33792000,0,-2.3439636,12.361647,0.13932014,12.501303,6.210585e-05,3,1,0,1
33936000,33852000,33856000,0,-2.2112427,12.361732,0.059873343,12.504904,1.14669165e-05,3,1,0,1
33992000,33912000,33912000,0,-2.2013245,12.36168,0.094961405,12.507756,2.8838645e-05,3,1,0,1
34056000,33972000,33976000,0,-2.0596008,12.361764,0.002478838,12.511442,1.9644858e-08,3,1,0,1
34112000,34032000,34032000,0,-1.9891663,12.361712,-0.0,12.514345,1.9598765e-06,3,1,0,1
34176000,34090666,34096000,0,-2.0551147,12.361796,0.09021282,12.518107,2.6005058e-05,3,1,0,1
34232000,34152000,34152000,0,-1.9369202,12.361744,-0.0,12.499414,1.7455067e-06,3,1,0,1
34296000,34212000,34216000,0,-1.998169,12.361827,0.08625877,12.502982,2.3804163e-05,3,1,0,1
34352000,34272000,34272000,0,-1.973938,12.3617735,0.10346389,12.505813,3.423936e-05,3,1,0,1
34416000,34332000,34336000,0,-1.8321838,12.3618555,0.0091404915,12.509468,2.6715313e-07,3,1,0,1
34472000,34392000,34392000,0,-1.8320923,12.361802,0.051761627,12.512353,8.565186e-06,3,1,0,1
34536000,34452000,34456000,0,-1.8081665,12.361884,0.07656205,12.516088,1.873348e-05,3,1,0,1
34592000,34512000,34512000,0,-1.769928,12.361831,0.08090031,12.519016,2.091174e-05,3,1,0,1
34656000,34572000,34576000,0,-1.6846924,12.361914,0.008310199,12.501034,2.2097181e-07,3,1,0,1
34712000,34632000,34632000,0,-1.6094971,12.361857,-0.0,12.50384,1.7739545e-06,3,1,0,1
34776000,34692000,34696000,0,-1.6566467,12.361938,0.07339239,12.507465,1.7226328e-05,3,1,0,1
34832000,34752000,34752000,0,-1.5245361,12.361883,-0.0,12.510329,8.049233e-07,3,1,0,1
34896000,34812000,34816000,0,-1.566925,12.361964,0.07674217,12.514036,1.8824818e-05,3,1,0,1
34952000,34868000,34872000,0,-1.5474548,12.361909,0.10053456,12.516948,3.229924e-05,3,1,0,1
35000000,34918000,34920000,0,-1.4197998,12.361719,0.009714961,12.519033,3.0155834e-07,3,1,0,1
35048000,34968000,34968000,0,-1.4056396,12.361534,-0.0,12.499585,3.2177172e-10,3,1,0,1
35112000,35028000,35032000,0,-1.4291077,12.36162,0.07362759,12.503159,1.7342887e-05,3,1,0,1
35168000,35088000,35088000,0,-1.2875671,12.36157,-0.0,12.505993,1.922255e-06,3,1,0,1
35232000,35148000,35152000,0,-1.3300476,12.361656,0.068626404,12.509653,1.5059037e-05,3,1,0,1
35288000,35208000,35208000,0,-1.2684021,12.361606,0.050557613,12.51254,8.171234e-06,3,1,0,1
35352000,35268000,35272000,0,-1.2538757,12.361692,0.08634806,12.51628,2.3828123e-05,3,1,0,1
35408000,35328000,35328000,0,-1.2390137,12.361642,0.115127325,12.519211,4.2348674e-05,3,1,0,1
35472000,35388000,35392000,0,-1.2004089,12.361728,0.09255552,12.501306,2.7410015e-05,3,1,0,1
35528000,35448000,35448000,0,-1.0540466,12.361675,-0.0,12.504118,3.6420101e-07,3,1,0,1
35592000,35506666,35512000,0,-0.9837036,12.36176,-0.0,12.507751,2.9836697e-06,3,1,0,1
35648000,35568000,35568000,0,-1.0450134,12.361708,0.07497877,12.51062,1.7974538e-05,3,1,0,1
35712000,35628000,35632000,0,-0.9692383,12.361792,0.048929513,12.514334,7.6523365e-06,3,1,0,1
35768000,35688000,35688000,0,-0.8091736,12.361739,-0.0,12.517249,1.45059585e-05,3,1,0,1
35832000,35746666,35752000,0,-0.8989868,12.361824,0.04096514,12.499422,5.3703047e-06,3,1,0,1
35888000,35808000,35808000,0,-0.93618774,12.36177,0.121608496,12.502213,4.7315232e-05,3,1,0,1
35952000,35865333,35872000,0,-0.7989197,12.361852,0.033115447,12.505815,3.5075934e-06,3,1,0,1
36000000,35916000,35920000,0,-0.6108093,12.361663,-0.0,12.50787,4.4369368e-05,3,1,0,1
36056000,35975000,35976000,0,-0.7010803,12.361612,0.016325712,12.510741,8.521602e-07,3,1,0,1
36120000,36036000,36040000,0,-0.6680603,12.361698,0.033251822,12.514459,3.5340995e-06,3,1,0,1
36176000,36096000,36096000,0,-0.61608887,12.361648,0.024797022,12.517377,1.964924e-06,3,1,0,1
36240000,36156000,36160000,0,-0.60180664,12.361733,0.028144956,12.499581,2.5349282e-06,3,1,0,1
36296000,36216000,36216000,0,-0.45602417,12.361681,-0.0,12.502376,1.7792745e-05,3,1,0,1
36360000,36276000,36280000,0,-0.3909607,12.361765,-0.0,12.505983,2.5976913e-05,3,1,0,1
36416000,36336000,36336000,0,-0.4480896,12.361712,0.010340869,12.508837,3.419457e-07,3,1,0,1
36480000,36396000,36400000,0,-0.3869629,12.361796,-0.0,12.512528,5.4257057e-09,3,1,0,1
36536000,36456000,36456000,0,-0.3916626,12.361744,0.046912313,12.515431,7.033765e-06,3,1,0,1
36600000,36516000,36520000,0,-0.30670166,12.361828,0.011211574,12.5191965,4.016213e-07,3,1,0,1
36656000,36575000,36576000,0,-0.2972412,12.361775,0.015261948,12.50049,7.4533733e-07,3,1,0,1
36720000,36636000,36640000,0,-0.22198486,12.361857,-0.0,12.504066,3.7114955e-07,3,1,0,1
36776000,36696000,36696000,0,-0.17984009,12.361803,-0.0,12.506901,3.0085255e-07,3,1,0,1
36840000,36756000,36760000,0,-0.09539795,12.361885,-0.0,12.510565,6.3884063e-06,3,1,0,1
36896000,36816000,36816000,0,-0.11929321,12.361831,0.02256348,12.513452,1.6274026e-06,3,1,0,1
36960000,36876000,36880000,0,-0.18011475,12.361914,0.13275477,12.517194,5.6318793e-05,3,1,0,1
37016000,36935000,36936000,0,-0.00048828125,12.361859,-0.0,12.498583,3.39798e-06,3,1,0,1
37072000,36992000,36992000,0,0.0038757324,12.361804,0.006074137,12.501362,1.1805158e-07,3,1,0,1
37128000,37042666,37048000,0,0.15887451,12.361751,-0.0,12.504172,3.5945814e-05,3,1,0,1
37184000,37104000,37104000,0,0.14855957,12.361698,-0.0,12.50701,8.3677905e-06,3,1,0,1
37248000,37164000,37168000,0,0.09643555,12.361782,0.08178803,12.510661,2.1387463e-05,3,1,0,1
37304000,37224000,37224000,0,0.07369995,12.361731,0.16344069,12.513501,8.538892e-05,3,1,0,1
37368000,37282666,37288000,0,0.09863281,12.3618145,0.19195905,12.517147,0.000117752956,3,1,0,1
37424000,37344000,37344000,0,-0.06866455,12.361762,0.34027863,12.498511,0.0003705707,3,1,0,1
37488000,37404000,37408000,0,0.00012207031,12.361844,0.3112625,12.501899,0.0003099828,3,1,0,1
37544000,37464000,37464000,0,-0.044067383,12.36179,0.38890278,12.504538,0.00048380956,3,1,0,1
37608000,37522666,37528000,0,0.0016784668,12.361872,0.3812067,12.507928,0.00046472455,3,1,0,1
37664000,37582000,37584000,0,-0.121673584,12.361817,0.5388796,12.510547,0.0009284685,3,1,0,1
37712000,37632000,37632000,0,-0.09338379,12.3616295,0.539114,12.512379,0.0009291403,3,1,0,1
37776000,37692000,37696000,0,-0.1871643,12.361715,0.675619,12.515752,0.001458837,3,1,0,1
37832000,37752000,37752000,0,-0.1670227,12.361665,0.57767856,12.497334,0.0010681079,3,1,0,1
37896000,37809333,37816000,0,-0.22290039,12.361748,0.6796435,12.500478,0.0014780726,3,1,0,1
37944000,37860000,37864000,0,-0.07598877,12.361561,0.56578726,12.502192,0.0010241892,3,1,0,1
38000000,37920000,37920000,0,-0.2164917,12.361511,0.7489018,12.504612,0.0017940706,3,1,0,1
38056000,37976000,37976000,0,-0.39761353,12.361464,0.9728292,12.507025,0.0030267683,3,1,0,1
38112000,38028000,38032000,0,-0.27624512,12.361416,0.89428747,12.509424,0.0025572723,3,1,0,1
38168000,38088000,38088000,0,-0.2260437,12.36137,0.89039874,12.51181,0.002534597,3,1,0,1
38232000,38148000,38152000,0,-0.283844,12.361461,0.8469729,12.49472,0.0022965318,3,1,0,1
38288000,38208000,38208000,0,-0.29034424,12.361413,0.9037868,12.496976,0.00261449,3,1,0,1
38352000,38268000,38272000,0,-0.291687,12.361501,0.9649524,12.499907,0.0029796485,3,1,0,1
38408000,38328000,38328000,0,-0.32531738,12.361453,1.0505652,12.502151,0.0035311917,3,1,0,1
38472000,38388000,38392000,0,-0.25961304,12.361541,1.0474458,12.505081,0.0035094302,3,1,0,1
38528000,38448000,38448000,0,-0.1845398,12.361492,1.0281627,12.507306,0.0033808034,3,1,0,1
38592000,38508000,38512000,0,-0.114349365,12.36158,1.0263572,12.510229,0.0033681528,3,1,0,1
38648000,38568000,38568000,0,-0.19909668,12.361531,0.98309284,12.492973,0.0030944485,3,1,0,1
38712000,38628000,38632000,0,-0.11050415,12.361617,0.96592987,12.495732,0.0029866854,3,1,0,1
38768000,38686000,38688000,0,-0.26620483,12.361567,1.1840463,12.49784,0.0044870656,3,1,0,1
38816000,38736000,38736000,0,-0.22747803,12.361382,1.1958988,12.499286,0.004576818,3,1,0,1
38880000,38796000,38800000,0,-0.16046143,12.361471,1.2026764,12.502059,0.0046278154,3,1,0,1
38936000,38856000,38856000,0,-0.13568115,12.3614235,1.2427912,12.504159,0.004940852,3,1,0,1
39000000,38916000,38920000,0,0.030334473,12.361512,1.1545256,12.506936,0.004263009,3,1,0,1
39056000,38976000,38976000,0,-0.015716553,12.3614645,1.0582926,12.490421,0.003586695,3,1,0,1
39120000,39036000,39040000,0,-0.057922363,12.361551,1.1813273,12.49306,0.0044681905,3,1,0,1
39176000,39096000,39096000,0,0.004272461,12.361502,1.1876221,12.495077,0.004515206,3,1,0,1
39240000,39156000,39160000,0,0.0524292,12.361588,1.2205974,12.497738,0.0047684084,3,1,0,1
39296000,39216000,39216000,0,0.13842773,12.361538,1.2052282,12.499761,0.004648329,3,1,0,1
39360000,39274666,39280000,0,0.08343506,12.361625,1.3449701,12.502443,0.0057874913,3,1,0,1
39416000,39336000,39336000,0,0.18933105,12.361574,1.0849397,12.48666,0.0037707256,3,1,0,1
39480000,39396000,39400000,0,0.16616821,12.361659,1.1948584,12.489217,0.004572542,3,1,0,1
39536000,39456000,39456000,0,0.23788452,12.361607,1.1969085,12.491178,0.0045875255,3,1,0,1
39600000,39516000,39520000,0,0.19692993,12.361691,1.3241556,12.493773,0.0056136376,3,1,0,1
39656000,39576000,39576000,0,0.2604065,12.361639,1.3341004,12.495754,0.005697371,3,1,0,1
39720000,39634666,39640000,0,0.37564087,12.361723,1.3062745,12.498385,0.0054610358,3,1,0,1
39776000,39696000,39696000,0,0.55166626,12.361671,1.2063762,12.500385,0.0046569556,3,1,0,1
39840000,39754666,39760000,0,0.3981018,12.361755,1.2152219,12.485784,0.004731026,3,1,0,1
39896000,39816000,39816000,0,0.43243408,12.361701,1.2340723,12.4877205,0.0048781824,3,1,0,1
39960000,39876000,39880000,0,0.46694946,12.361784,1.2503532,12.490274,0.0050067217,3,1,0,1
40016000,39936000,39936000,0,0.52511597,12.36173,1.2348077,12.492224,0.0048822374,3,1,0,1
40080000,39993333,40000000,0,0.54556274,12.361812,1.2648143,12.494799,0.005121347,3,1,0,1
40128000,40044000,40048000,0,0.32211304,12.361623,1.5222814,12.496122,0.0074177915,3,1,0,1
40184000,40104000,40104000,0,0.47659302,12.361571,1.4066944,12.498075,0.0063331006,3,1,0,1
40248000,40164000,40168000,0,0.5313721,12.361657,1.1614516,12.483972,0.0043222457,3,1,0,1
40304000,40224000,40224000,0,0.64974976,12.361605,1.0838294,12.485845,0.0037632575,3,1,0,1
40368000,40284000,40288000,0,0.617157,12.361689,1.1652509,12.488317,0.0043490557,3,1,0,1
40424000,40344000,40344000,0,0.62286377,12.361636,1.1998543,12.490196,0.0046104966,3,1,0,1
40488000,40404000,40408000,0,0.66174316,12.36172,1.2081201,12.492683,0.004673309,3,1,0,1
40544000,40464000,40464000,0,0.6866455,12.361668,1.2226274,12.494563,0.004785498,3,1,0,1
40608000,40524000,40528000,0,0.5708008,12.361752,1.3849615,12.497058,0.0061394237,3,1,0,1
40664000,40584000,40584000,0,0.62075806,12.361698,1.132106,12.482731,0.0041069984,3,1,0,1
40728000,40644000,40648000,0,0.6637573,12.36178,1.13421,12.485107,0.0041214935,3,1,0,1
40784000,40704000,40704000,0,0.7114868,12.361726,1.1243653,12.486913,0.0040496713,3,1,0,1
40848000,40764000,40768000,0,0.53375244,12.361808,1.3469071,12.489307,0.005810278,3,1,0,1
40904000,40824000,40824000,0,0.61621094,12.361753,1.2996829,12.491115,0.0054092067,3,1,0,1
40968000,40884000,40888000,0,0.66070557,12.3618355,1.2976899,12.493521,0.0053915917,3,1,0,1
41024000,40944000,40944000,0,0.7098999,12.36178,1.0439123,12.479689,0.0034928848,3,1,0,1
41088000,41004000,41008000,0,0.81314087,12.361861,0.98339653,12.481982,0.003099087,3,1,0,1
41144000,41063000,41064000,0,0.6482544,12.361805,1.1848149,12.483724,0.0044979737,3,1,0,1
41208000,41124000,41128000,0,0.7527771,12.361885,1.1213251,12.486039,0.0040280833,3,1,0,1
41264000,41184000,41184000,0,0.7674866,12.361829,1.1415473,12.48779,0.0041740937,3,1,0,1
41328000,41244000,41248000,0,0.5805359,12.361909,1.369659,12.490126,0.0060078357,3,1,0,1
41384000,41304000,41304000,0,0.7289429,12.361853,1.2532887,12.491881,0.0050296113,3,1,0,1
41448000,41364000,41368000,0,0.8951111,12.361933,0.88839424,12.479012,0.0025298295,3,1,0,1
41504000,41424000,41424000,0,0.7199707,12.361876,1.0984536,12.480709,0.0038670893,3,1,0,1
41560000,41480000,41480000,0,0.7251587,12.361818,1.1260427,12.482415,0.004063227,3,1,0,1
41616000,41532000,41536000,0,0.8291321,12.361763,1.0544473,12.484131,0.0035624718,3,1,0,1
41672000,41592000,41592000,0,0.9371643,12.36171,0.9793289,12.485856,0.003072549,3,1,0,1
41736000,41652000,41656000,0,0.7628174,12.361792,1.1933436,12.48816,0.0045613414,3,1,0,1
41792000,41712000,41712000,0,0.7687988,12.361737,1.2185183,12.4899,0.00475516,3,1,0,1
