timestamp,timestamp_sample,time_last_fuse,device_id,observation,observation_variance,innovation,innovation_variance,test_ratio,estimator_instance,fusion_enabled,innovation_rejected,fused
3408000,3289097,0,0,-488.10403,1.0,488.10428,101.0,94.35477,3,0,1,0
3808000,3689454,0,0,-488.11102,1.0,488.11008,34.33333,277.57455,3,0,1,0
4208000,4089670,0,0,-0.06564331,1.0,-0.00014100224,3.7283819,2.1330036e-10,3,0,0,0
4608000,4489800,0,0,-0.06665039,1.0,0.017251622,2.0667179,5.7602147e-06,3,0,0,0
5008000,4885879,0,0,-0.06665039,1.0,0.01649449,1.6639848,6.5401605e-06,3,0,0,0
5408000,5289927,0,0,-0.061645508,1.0,0.01462521,1.5029597,5.6926815e-06,3,0,0,0
5808000,5689956,0,0,-0.06765747,1.0,0.021297865,1.392902,1.3026013e-05,3,0,0,0
6208000,6089974,0,0,-0.06265259,1.0,0.018075611,1.323246,9.876552e-06,3,0,0,0
6608000,6489984,0,0,-0.073638916,1.0,0.029072702,1.2753056,2.6510414e-05,3,0,0,0
7008000,6889991,0,0,-0.074645996,1.0,0.02995351,1.2464645,2.8792243e-05,3,0,0,0
7408000,7289995,0,0,-0.06866455,1.0,0.028734699,1.2189786,2.7094255e-05,3,0,0,0
7808000,7689997,0,0,-0.06665039,1.0,0.025975235,1.1975479,2.2536478e-05,3,0,0,0
8208000,8089998,0,0,-0.06765747,1.0,0.02519048,1.1804284,2.1502712e-05,3,0,0,0
8608000,8489999,8528000,0,-0.06765747,1.0,0.022775888,1.1687559,1.7753617e-05,3,0,0,0
9016000,8894000,8936000,0,-0.07064819,1.0,0.006718211,1.6369891,1.1028627e-06,3,1,0,1
9408000,9290000,9328000,0,-0.06564331,1.0,-0.00031675398,1.3194616,3.0416374e-09,3,1,0,1
9808000,9690000,9728000,0,-0.056640625,1.0,-0.004964404,1.2142677,8.118574e-07,3,1,0,1
10208000,10090000,10128000,0,-0.055664062,1.0,-0.0029260516,1.1622032,2.9467407e-07,3,1,0,1
10608000,10490000,10528000,0,-0.060638428,1.0,0.0023076013,1.1328294,1.8802561e-07,3,1,0,1
11008000,10890000,10928000,0,-0.061645508,1.0,0.005024586,1.1122625,9.0793185e-07,3,1,0,1
11408000,11290000,11328000,0,-0.07766724,1.0,0.022930581,1.0979313,1.9156447e-05,3,1,0,1
11808000,11690000,11728000,0,-0.074645996,1.0,0.019310053,1.0874697,1.3715441e-05,3,1,0,1
12216000,12094000,12136000,0,-0.06564331,1.0,0.012034133,1.0805771,5.360852e-06,3,1,0,1
12608000,12490000,12528000,0,-0.06765747,1.0,0.012408789,1.0744163,5.7325287e-06,3,1,0,1
13008000,12890000,12928000,0,-0.06964111,1.0,0.013525698,1.0696381,6.8413606e-06,3,1,0,1
13408000,13290000,13328000,0,-0.073638916,1.0,0.018232223,1.0661501,1.2471563e-05,3,1,0,1
13808000,13690000,13728000,0,-0.074645996,1.0,0.01697294,1.0629796,1.0840498e-05,3,1,0,1
14208000,14090000,14128000,0,-0.076660156,1.0,0.0197687,1.0603592,1.474223e-05,3,1,0,1
14608000,14490000,14528000,0,-0.07165527,1.0,0.01523808,1.0584483,8.775075e-06,3,1,0,1
15008000,14890000,14928000,0,-0.07266235,1.0,0.015582606,1.0565888,9.192512e-06,3,1,0,1
15408000,15290000,15328000,0,-0.08065796,1.0,0.022336476,1.0550096,1.8916155e-05,3,1,0,1
15808000,15690000,15728000,0,-0.06365967,1.0,0.0046160966,1.053895,8.0874656e-07,3,1,0,1
16208000,16090000,16128000,0,-0.06866455,1.0,0.009041864,1.0527283,3.1064167e-06,3,1,0,1
16608000,16490000,16528000,0,-0.06365967,1.0,0.0036281832,1.0517191,5.006551e-07,3,1,0,1
17008000,16890000,16928000,0,-0.06466675,1.0,0.009096127,1.0542133,3.1393847e-06,3,1,0,1
17408000,17290000,17328000,0,-0.07064819,1.0,0.020908255,1.0578725,1.6529595e-05,3,1,0,1
17808000,17690000,17728000,0,-0.06964111,1.0,0.025650822,1.0630647,2.4757275e-05,3,1,0,1
18208000,18090000,18128000,0,-0.06765747,1.0,0.029585708,1.0702322,3.2714925e-05,3,1,0,1
18608000,18490000,18528000,0,-0.061645508,1.0,0.031446077,1.0780853,3.668933e-05,3,1,0,1
19008000,18890000,18928000,0,-0.06466675,1.0,0.041503415,1.0881742,6.331829e-05,3,1,0,1
19408000,19290000,19328000,0,-0.06866455,1.0,0.051839426,1.0985138,9.785315e-05,3,1,0,1
19808000,19690000,19728000,0,-0.10864258,1.0,0.045717254,1.1089721,7.538756e-05,3,1,0,1
20208000,20090000,20128000,0,-0.28466797,1.0,0.058164388,1.1188717,0.0001209467,3,1,0,1
20608000,20490000,20528000,0,-0.51763916,1.0,0.049988,1.1291213,8.852195e-05,3,1,0,1
21008000,20890000,20928000,0,-0.7816467,1.0,0.059690654,1.1368636,0.00012536155,3,1,0,1
21408000,21290000,21328000,0,-1.0626526,1.0,0.071940124,1.143025,0.00018111174,3,1,0,1
21808000,21686000,21728000,0,-1.3256531,1.0,0.06319082,1.1476566,0.00013917332,3,1,0,1
22208000,22090000,22128000,0,-1.5876465,1.0,0.067052364,1.1508054,0.00015627385,3,1,0,1
22608000,22490000,22528000,0,-1.830658,1.0,0.071905494,1.1546601,0.00017911418,3,1,0,1
23008000,22890000,22928000,0,-2.028656,1.0,0.09397006,1.1555817,0.0003056598,3,1,0,1
23408000,23290000,23328000,0,-2.1046448,1.0,0.093872786,1.1557734,0.00030497674,3,1,0,1
23808000,23690000,23728000,0,-2.194641,1.0,0.09819269,1.1573356,0.00033324142,3,1,0,1
24208000,24090000,24128000,0,-2.277649,1.0,0.10531521,1.1565428,0.00038360164,3,1,0,1
24608000,24490000,24528000,0,-2.3436584,1.0,0.10218048,1.1555715,0.0003614091,3,1,0,1
25008000,24890000,24928000,0,-2.3936462,1.0,0.09901142,1.1565503,0.0003390518,3,1,0,1
25408000,25290000,25328000,0,-2.450653,1.0,0.114285946,1.1555701,0.00045211543,3,1,0,1
25808000,25694000,25728000,0,-2.496643,1.0,0.11964178,1.1546838,0.0004958641,3,1,0,1
26208000,26090000,26128000,0,-2.5236511,1.0,0.11348486,1.1539173,0.000446438,3,1,0,1
26608000,26490000,26528000,0,-2.5636597,1.0,0.12778115,1.1551688,0.00056539004,3,1,0,1
27008000,26890000,26928000,0,-2.5866394,1.0,0.1302917,1.1545645,0.0005881327,3,1,0,1
27408000,27290000,27328000,0,-2.5976562,1.0,0.12869644,1.1540335,0.00057408295,3,1,0,1
27808000,27690000,27728000,0,-2.6126404,1.0,0.13206363,1.153574,0.0006047571,3,1,0,1
28208000,28090000,28128000,0,-2.6506653,1.0,0.16346288,1.1551639,0.0009252406,3,1,0,1
28608000,28490000,28528000,0,-2.658661,1.0,0.15864205,1.1548859,0.00087168097,3,1,0,1
29008000,28890000,28928000,0,-2.6836548,1.0,0.17761183,1.1546452,0.0010928366,3,1,0,1
29408000,29290000,29328000,0,-2.7026672,1.0,0.19327736,1.1544523,0.0012943328,3,1,0,1
29808000,29690000,29728000,0,-2.699646,1.0,0.19201899,1.1543136,0.0012776871,3,1,0,1
30208000,30090000,30128000,0,-2.7106628,1.0,0.20110703,1.156094,0.0013993338,3,1,0,1
30608000,30490000,30528000,0,-2.7186584,1.0,0.20521474,1.1559192,0.0014573021,3,1,0,1
31008000,30890000,30928000,0,-2.7406616,1.0,0.22337103,1.1557404,0.0017268452,3,1,0,1
31408000,31290000,31328000,0,-2.7446594,1.0,0.22702599,1.1555572,0.0017841021,3,1,0,1
31808000,31690000,31728000,0,-2.752655,1.0,0.23295021,1.15534,0.0018787821,3,1,0,1
32208000,32090000,32128000,0,-2.7656555,1.0,0.23872375,1.1550878,0.001973496,3,1,0,1
32608000,32490000,32528000,0,-2.7696533,1.0,0.24039769,1.1567831,0.0019983365,3,1,0,1
33008000,32890000,32928000,0,-2.7656555,1.0,0.23185682,1.1564941,0.0018593293,3,1,0,1
33408000,33290000,33328000,0,-2.7396545,1.0,0.24380827,1.1561264,0.002056608,3,1,0,1
33808000,33690000,33728000,0,-2.4846497,1.0,0.25886917,1.1576715,0.0023154498,3,1,0,1
34208000,34090000,34128000,0,-2.2126465,1.0,0.27108037,1.1571678,0.0025401525,3,1,0,1
34608000,34490000,34528000,0,-1.9426575,1.0,0.2650956,1.1566167,0.0024303875,3,1,0,1
35008000,34890000,34928000,0,-1.6526489,1.0,0.24880302,1.1560383,0.0021418994,3,1,0,1
35408000,35290000,35328000,0,-1.3706665,1.0,0.24533117,1.1555856,0.002083355,3,1,0,1
35808000,35690000,35728000,0,-1.080658,1.0,0.23582971,1.1570755,0.0019226283,3,1,0,1
36208000,36090000,36128000,0,-0.8026428,1.0,0.23614973,1.1565869,0.0019286642,3,1,0,1
36608000,36490000,36528000,0,-0.508667,1.0,0.21927044,1.1560919,0.0016635191,3,1,0,1
37008000,36890000,36928000,0,-0.21365356,1.0,0.20191291,1.1575534,0.0014087929,3,1,0,1
37408000,37290000,37328000,0,-0.11166382,1.0,0.43025634,1.1568137,0.006401048,3,1,0,1
37808000,37690000,37728000,0,-0.34664917,1.0,0.85248977,1.1547097,0.02517477,3,1,0,1
38208000,38090000,38128000,0,-0.50064087,1.0,1.1964082,1.1516393,0.049716692,3,1,0,1
38608000,38490000,38528000,0,-0.5256653,1.0,1.445957,1.1480206,0.072848566,3,1,0,1
39008000,38890000,38928000,0,-0.4706421,1.0,1.6537071,1.1442747,0.09559758,3,1,0,1
39408000,39290000,39328000,0,-0.324646,1.0,1.8126818,1.1423653,0.11505304,3,1,0,1
39808000,39690000,39728000,0,-0.118652344,1.0,1.9153929,1.1392193,0.12881558,3,1,0,1
40208000,40090000,40128000,0,-0.073638916,1.0,1.9652036,1.136499,0.1359271,3,1,0,1
40608000,40490000,40528000,0,-0.06665039,1.0,2.0074177,1.1338416,0.14216185,3,1,0,1
41008000,40886000,40928000,0,-0.061645508,1.0,2.0413046,1.1326094,0.14716193,3,1,0,1
41408000,41290000,41328000,0,-0.06466675,1.0,2.0535784,1.130024,0.14927769,3,1,0,1
41808000,41690000,41728000,0,-0.076660156,1.0,2.0638065,1.127729,0.1510752,3,1,0,1
42208000,42090000,42128000,0,-0.06964111,1.0,2.041304,1.1258835,0.14804098,3,1,0,1
42608000,42490000,42528000,0,-0.060638428,1.0,2.0087643,1.1246135,0.14352073,3,1,0,1
43008000,42890000,42928000,0,-0.075653076,1.0,2.0005755,1.1252917,0.14226721,3,1,0,1
43408000,43290000,43328000,0,-0.06564331,1.0,1.9449512,1.1254569,0.13444619,3,1,0,1
43808000,43690000,43728000,0,-0.06265259,1.0,1.8888793,1.1263481,0.12670559,3,1,0,1
44208000,44090000,44128000,0,-0.06265259,1.0,1.8257207,1.1279483,0.11820599,3,1,0,1
44608000,44490000,44528000,0,-0.06466675,1.0,1.7595979,1.1315105,0.10945316,3,1,0,1
45008000,44890000,44928000,0,-0.061645508,1.0,1.4404663,1.1113653,0.074680865,3,1,0,1
45408000,45290000,45328000,0,-0.06466675,1.0,1.2022407,1.0914922,0.052969057,3,1,0,1
45808000,45690000,45728000,0,-0.061645508,1.0,1.0781068,1.081851,0.042975016,3,1,0,1
46208000,46090000,46128000,0,-0.06466675,1.0,1.0061979,1.0751247,0.037667602,3,1,0,1
46608000,46490000,46528000,0,-0.06964111,1.0,0.9504881,1.0701758,0.033767447,3,1,0,1
47008000,46890000,46928000,0,-0.060638428,1.0,0.8896055,1.0666382,0.029678214,3,1,0,1
47408000,47290000,47328000,0,-0.07064819,1.0,0.85162854,1.0649779,0.027240798,3,1,0,1
47808000,47690000,47728000,0,-0.073638916,1.0,0.81366175,1.0620836,0.024933837,3,1,0,1
