timestamp,timestamp_sample,time_last_fuse,device_id,observation[0],observation[1],observation[2],observation_variance[0],observation_variance[1],observation_variance[2],innovation[0],innovation[1],innovation[2],innovation_variance[0],innovation_variance[1],innovation_variance[2],test_ratio[0],test_ratio[1],test_ratio[2],estimator_instance,fusion_enabled,innovation_rejected,fused
3160000,3131000,0,0,0.011217158,-0.20997937,0.4273909,0.0,0.0,0.0,-0.011217158,0.20997937,-0.4273909,0.0,0.0,0.0,0.0,0.0,0.0,0,0,0,0
3288000,3201838,0,0,0.0076781046,-0.21528386,0.42834878,0.0,0.0,0.0,-0.0076781046,0.21528386,-0.42834878,0.0,0.0,0.0,inf,inf,inf,0,0,1,0
3352000,3270939,0,0,0.016584555,-0.21678011,0.42892292,0.0,0.0,0.0,-0.0055877287,0.006201476,-0.0014735758,0.0,0.0,0.0,inf,inf,inf,0,0,1,0
3424000,3340288,0,0,0.010356781,-0.21734492,0.42832088,0.0,0.0,0.0,0.00080200564,0.0067462325,-0.0008856058,0.0,0.0,0.0,inf,inf,inf,0,0,1,0
3496000,3411115,0,0,0.009704949,-0.21841197,0.42853785,0.0,0.0,0.0,0.0004981812,0.009081826,-0.00045603514,0.0,0.0,0.0,inf,inf,inf,0,0,1,0
3560000,3477897,0,0,0.009199813,-0.21304162,0.42817327,0.0,0.0,0.0,0.0019372255,0.00057958066,-0.00040867925,0.0,0.0,0.0,inf,inf,inf,0,0,1,0
3632000,3545254,0,0,0.009027701,-0.21799555,0.42922693,0.0,0.0,0.0,0.0020468272,0.0054922104,-0.0014812946,0.0,0.0,0.0,inf,inf,inf,0,0,1,0
3704000,3616559,0,0,0.010224251,-0.2167571,0.4292524,0.0,0.0,0.0,0.0008051712,0.004239425,-0.0015126467,0.0,0.0,0.0,inf,inf,inf,0,0,1,0
3768000,3683371,0,0,0.008847909,-0.21678595,0.4320665,0.0,0.0,0.0,0.0022861492,0.0042824596,-0.0043224692,0.0,0.0,0.0,inf,inf,inf,0,0,1,0
3840000,3753646,0,0,0.01042369,-0.21679902,0.42984104,0.0,0.0,0.0,0.0006728694,0.004271224,-0.002108097,0.0,0.0,0.0,inf,inf,inf,0,0,1,0
3904000,3823470,0,0,0.008579639,-0.21951872,0.42903864,0.0,0.0,0.0,0.0023947908,0.007020682,-0.0012877584,0.0,0.0,0.0,inf,inf,inf,0,0,1,0
3976000,3891944,0,0,0.013254299,-0.21549383,0.4294106,0.0,0.0,0.0,-0.0023366353,0.0029796958,-0.0016662776,0.0,0.0,0.0,inf,inf,inf,0,0,1,0
4040000,3959553,0,0,0.012440238,-0.21378548,0.42928588,0.0,0.0,0.0,-0.001271572,0.0012899488,-0.0015388131,0.0,0.0,0.0,inf,inf,inf,0,0,1,0
4112000,4031620,0,0,0.011072086,-0.21636266,0.42885065,0.0,0.0,0.0,-0.00016896613,0.0039207637,-0.0010700226,0.0,0.0,0.0,inf,inf,inf,0,0,1,0
4184000,4103627,0,0,0.00018584289,-0.2138204,0.43316028,0.0,0.0,0.0,0.010802348,0.0013476312,-0.005397171,0.0,0.0,0.0,inf,inf,inf,0,0,1,0
4256000,4174958,0,0,0.010638248,-0.21762599,0.42827567,0.0,0.0,0.0,-0.00028647855,0.0051383227,-0.0005041063,0.0,0.0,0.0,inf,inf,inf,0,0,1,0
4328000,4247689,0,0,0.007988659,-0.21790615,0.4313569,0.0,0.0,0.0,0.0019478155,0.0054276288,-0.0035709739,0.0,0.0,0.0,inf,inf,inf,0,0,1,0
4400000,4319010,0,0,0.010667568,-0.21509598,0.4290491,0.0,0.0,0.0,-0.00083017163,0.0026324987,-0.0012533963,0.0,0.0,0.0,inf,inf,inf,0,0,1,0
4472000,4391741,0,0,0.0069457083,-0.21301103,0.42866403,0.0,0.0,0.0,0.0029468075,0.0005543381,-0.0008662343,0.0,0.0,0.0,inf,inf,inf,0,0,1,0
4544000,4463415,0,0,0.00996012,-0.21743734,0.42682138,0.0,0.0,0.0,-0.0005602138,0.004970506,0.0009824932,0.0,0.0,0.0,inf,inf,inf,0,0,1,0
4616000,4535784,0,0,0.011253883,-0.22112648,0.43212444,0.0,0.0,0.0,-0.001871516,0.008664027,-0.004317999,0.0,0.0,0.0,inf,inf,inf,0,0,1,0
4688000,4607088,0,0,0.011719371,-0.21575904,0.43109393,0.0,0.0,0.0,-0.0022733836,0.0032865852,-0.0032938719,0.0,0.0,0.0,inf,inf,inf,0,0,1,0
4760000,4679820,0,0,0.009117897,-0.20763583,0.4280336,0.0,0.0,0.0,0.00036461372,-0.0046907216,-0.00016191602,0.0,0.0,0.0,inf,inf,inf,0,0,1,0
4832000,4750755,0,0,0.009458557,-0.21598476,0.42965898,0.0,0.0,0.0,-7.31349e-05,0.003658563,-0.0017849505,0.0,0.0,0.0,inf,inf,inf,0,0,1,0
4904000,4823850,0,0,0.006182859,-0.2184627,0.42708164,0.0,0.0,0.0,0.0031861118,0.006191805,0.0008201301,0.0,0.0,0.0,inf,inf,inf,0,0,1,0
4976000,4893691,0,0,0.008360201,-0.21679224,0.42719722,0.0,0.0,0.0,0.0007937839,0.0047875494,0.00084120035,0.0,0.0,0.0,inf,inf,inf,0,0,1,0
5048000,4967874,0,0,0.009596094,-0.21596369,0.43175364,0.0,0.0,0.0,-0.00054024067,0.00398618,-0.0036996603,0.0,0.0,0.0,inf,inf,inf,0,0,1,0
5120000,5039165,0,0,0.01092976,-0.2169028,0.42897668,0.0,0.0,0.0,-0.0018591695,0.0050462335,-0.00086316466,0.0,0.0,0.0,inf,inf,inf,0,0,1,0
5192000,5111895,0,0,0.009485276,-0.21519054,0.42982575,0.0,0.0,0.0,-0.00033562072,0.0033629686,-0.001699537,0.0,0.0,0.0,inf,inf,inf,0,0,1,0
5264000,5183183,0,0,0.01167665,-0.21566407,0.42925802,0.0,0.0,0.0,-0.0025556935,0.003845498,-0.0011267364,0.0,0.0,0.0,inf,inf,inf,0,0,1,0
5336000,5255913,0,0,0.011546331,-0.22072841,0.43010786,0.0,0.0,0.0,-0.0022686822,0.008942172,-0.0019639432,0.0,0.0,0.0,inf,inf,inf,0,0,1,0
5408000,5327199,0,0,0.0116070565,-0.21539879,0.42865542,0.0,0.0,0.0,-0.0021988433,0.0036601126,-0.00049081445,0.0,0.0,0.0,inf,inf,inf,0,0,1,0
5480000,5399927,0,0,0.0074100285,-0.21907283,0.4326523,0.0,0.0,0.0,0.002124703,0.007371679,-0.0044720173,0.0,0.0,0.0,inf,inf,inf,0,0,1,0
5552000,5470847,0,0,0.009974177,-0.2154075,0.4300367,0.0,0.0,0.0,-0.00062091183,0.0036257803,-0.0018922389,0.0,0.0,0.0,inf,inf,inf,0,0,1,0
5624000,5543939,0,0,0.00914997,-0.21418707,0.4337378,0.0,0.0,0.0,0.00019095745,0.0024050623,-0.0055932105,0.0,0.0,0.0,inf,inf,inf,0,0,1,0
5696000,5614858,0,0,0.008264567,-0.21669385,0.4296172,0.0,0.0,0.0,0.0010109963,0.004937947,-0.0014582574,0.0,0.0,0.0,inf,inf,inf,0,0,1,0
5768000,5687950,0,0,0.010819141,-0.21261686,0.42459476,0.0,0.0,0.0,-0.0016568415,0.00073871017,0.003506124,0.0,0.0,0.0,inf,inf,inf,0,0,1,0
5840000,5758502,0,0,0.010217972,-0.21504349,0.42873544,0.0,0.0,0.0,-0.00096779317,0.0031609237,-0.00063860416,0.0,0.0,0.0,inf,inf,inf,0,0,1,0
5912000,5831958,0,0,0.0032846346,-0.21613753,0.4259216,0.0,0.0,0.0,0.0060057254,0.004254505,0.0021740794,0.0,0.0,0.0,inf,inf,inf,0,0,1,0
5984000,5902145,0,0,0.010578201,-0.21569327,0.4277828,0.0,0.0,0.0,-0.0016796822,0.0038074106,0.00031983852,0.0,0.0,0.0,inf,inf,inf,0,0,1,0
6056000,5975965,0,0,0.012677219,-0.2129458,0.43061733,0.0,0.0,0.0,-0.003712874,0.0010509789,-0.0025205612,0.0,0.0,0.0,inf,inf,inf,0,0,1,0
6128000,6046515,0,0,0.009377566,-0.21555795,0.4295962,0.0,0.0,0.0,-0.00019862223,0.0036859661,-0.0014925897,0.0,0.0,0.0,inf,inf,inf,0,0,1,0
6200000,6119971,0,0,0.0103835715,-0.2114115,0.43213555,0.0,0.0,0.0,-0.0012117876,-0.00045642257,-0.0040297806,0.0,0.0,0.0,inf,inf,inf,0,0,1,0
6272000,6190885,0,0,0.010455714,-0.21397635,0.42883202,0.0,0.0,0.0,-0.0012363503,0.002123326,-0.0007199049,0.0,0.0,0.0,inf,inf,inf,0,0,1,0
6344000,6263976,0,0,0.0121272905,-0.2146567,0.4233935,0.0,0.0,0.0,-0.0028238175,0.002861008,0.0047451854,0.0,0.0,0.0,inf,inf,inf,0,0,1,0
6416000,6334888,0,0,0.009512444,-0.21700124,0.42779845,0.0,0.0,0.0,1.9642524e-05,0.005222842,0.00034368038,0.0,0.0,0.0,inf,inf,inf,0,0,1,0
6488000,6407980,0,0,0.008531912,-0.21577391,0.43162033,0.0,0.0,0.0,0.0009835372,0.0040293634,-0.003461033,0.0,0.0,0.0,inf,inf,inf,0,0,1,0
6560000,6478528,0,0,0.009389042,-0.21538566,0.430199,0.0,0.0,0.0,2.6502647e-05,0.0036671013,-0.0020246208,0.0,0.0,0.0,inf,inf,inf,0,0,1,0
6632000,6551983,0,0,0.016640246,-0.22017927,0.42320928,0.0,0.0,0.0,-0.007151559,0.008480266,0.0049731433,0.0,0.0,0.0,inf,inf,inf,0,0,1,0
6704000,6622895,0,0,0.009775368,-0.21781595,0.42862892,0.0,0.0,0.0,0.00012881588,0.0061826557,-0.0004234314,0.0,0.0,0.0,inf,inf,inf,0,0,1,0
6776000,6695986,0,0,0.008122162,-0.21288766,0.43265024,0.0,0.0,0.0,0.0017697578,0.0012958497,-0.004423946,0.0,0.0,0.0,inf,inf,inf,0,0,1,0
6848000,6766897,0,0,0.009823802,-0.21654789,0.42986506,0.0,0.0,0.0,3.818143e-05,0.00497137,-0.0016305447,0.0,0.0,0.0,inf,inf,inf,0,0,1,0
6920000,6839989,0,0,0.006286981,-0.22103935,0.43089572,0.0,0.0,0.0,0.0035634763,0.009497464,-0.0026438534,0.0,0.0,0.0,inf,inf,inf,0,0,1,0
6992000,6910535,0,0,0.010624965,-0.2153304,0.4291663,0.0,0.0,0.0,-0.0009473162,0.0037552267,-0.00092694163,0.0,0.0,0.0,inf,inf,inf,0,0,1,0
7064000,6983991,0,0,0.014115975,-0.20998009,0.42945197,0.0,0.0,0.0,-0.0043641785,-0.0015792698,-0.0012064576,0.0,0.0,0.0,inf,inf,inf,0,0,1,0
7136000,7054901,0,0,0.011016251,-0.21523808,0.42936513,0.0,0.0,0.0,-0.0009928579,0.0037071258,-0.0011118352,0.0,0.0,0.0,inf,inf,inf,0,0,1,0
7208000,7127992,0,0,0.01556722,-0.2117918,0.43176648,0.0,0.0,0.0,-0.0054548075,0.00015713274,-0.0035665631,0.0,0.0,0.0,inf,inf,inf,0,0,1,0
7280000,7198902,0,0,0.007687406,-0.21495488,0.43075484,0.0,0.0,0.0,0.0027313964,0.0033362359,-0.002554357,0.0,0.0,0.0,inf,inf,inf,0,0,1,0
7352000,7271994,0,0,0.015137452,-0.21651939,0.42763406,0.0,0.0,0.0,-0.0048416657,0.0049446374,0.00059109926,0.0,0.0,0.0,inf,inf,inf,0,0,1,0
7424000,7341813,0,0,0.010240224,-0.2126262,0.43266577,0.0,0.0,0.0,0.00031300168,0.0009831488,-0.00448066,0.0,0.0,0.0,inf,inf,inf,0,0,1,0
7496000,7415995,0,0,0.015183165,-0.22002092,0.4347967,0.0,0.0,0.0,-0.0046120277,0.0083538,-0.006623924,0.0,0.0,0.0,inf,inf,inf,0,0,1,0
7568000,7487268,0,0,0.008832464,-0.2159417,0.42984948,0.0,0.0,0.0,0.0020425674,0.004300654,-0.0016714036,0.0,0.0,0.0,inf,inf,inf,0,0,1,0
7640000,7559996,0,0,0.012706193,-0.22196808,0.4292716,0.0,0.0,0.0,-0.0019270433,0.010205984,-0.0011509955,0.0,0.0,0.0,inf,inf,inf,0,0,1,0
7712000,7630541,0,0,0.012752166,-0.21577395,0.42867917,0.0,0.0,0.0,-0.0018413719,0.004013777,-0.0005608797,0.0,0.0,0.0,inf,inf,inf,0,0,1,0
7784000,7703996,0,0,0.012540931,-0.21601605,0.42573655,0.0,0.0,0.0,-0.0015443731,0.004259631,0.0023814142,0.0,0.0,0.0,inf,inf,inf,0,0,1,0
7856000,7773815,0,0,0.009125622,-0.21477087,0.4277676,0.0,0.0,0.0,0.0019649174,0.0029575378,0.00031980872,0.0,0.0,0.0,inf,inf,inf,0,0,1,0
7928000,7847997,0,0,0.007913508,-0.21455874,0.42960358,0.0,0.0,0.0,0.0030773943,0.0027938336,-0.0014896989,0.0,0.0,0.0,inf,inf,inf,0,0,1,0
8000000,7919634,0,0,0.01091119,-0.21757144,0.4293399,0.0,0.0,0.0,-3.720168e-05,0.005821824,-0.0012154579,0.0,0.0,0.0,inf,inf,inf,0,0,1,0
8072000,7991998,0,0,0.010298254,-0.2207238,0.43358472,0.0,0.0,0.0,0.00059708767,0.008934841,-0.0054803193,0.0,0.0,0.0,inf,inf,inf,0,0,1,0
8144000,8062543,0,0,0.010728283,-0.21665515,0.4277801,0.0,0.0,0.0,0.00014201738,0.0048848838,0.00033423305,0.0,0.0,0.0,inf,inf,inf,0,0,1,0
8216000,8135998,0,0,0.010868839,-0.22049132,0.43353283,0.0,0.0,0.0,-1.23670325e-05,0.008732736,-0.0054124,0.0,0.0,0.0,inf,inf,inf,0,0,1,0
8288000,8207635,0,0,0.0066550598,-0.21566853,0.42925835,0.0,0.0,0.0,0.0042249635,0.0039058626,-0.0011405349,0.0,0.0,0.0,inf,inf,inf,0,0,1,0
8360000,8279999,0,0,0.0142179495,-0.21481772,0.43137395,0.0,0.0,0.0,-0.003543741,0.0030635893,-0.0032467246,0.0,0.0,0.0,inf,inf,inf,0,0,1,0
8432000,8351635,0,0,0.009422071,-0.21593364,0.42770466,0.0,0.0,0.0,0.0014050975,0.004214987,0.0004362464,0.0,0.0,0.0,inf,inf,inf,0,0,1,0
8504000,8423999,0,0,0.011721137,-0.21458584,0.4344056,0.0,0.0,0.0,-0.0008937819,0.0028908402,-0.006253004,0.0,0.0,0.0,inf,inf,inf,0,0,1,0
8576000,8495271,0,0,0.009171946,-0.21480854,0.42973706,0.0,0.0,0.0,0.0016834605,0.0031221956,-0.0015808642,0.0,0.0,0.0,inf,inf,inf,0,0,1,0
8648000,8567999,0,0,0.013246536,-0.21665843,0.4287039,0.0,0.0,0.0,-0.002484277,0.0050027817,-0.0005302131,0.0,0.0,0.0,inf,inf,inf,0,0,1,0
8720000,8639271,0,0,0.008551456,-0.21732724,0.42760056,0.0,0.0,0.0,0.0023413673,0.0057105273,0.0005891025,0.0,0.0,0.0,inf,inf,inf,0,0,1,0
8792000,8711999,0,0,0.011612541,-0.22159393,0.43399385,0.0,0.0,0.0,-0.00077404734,0.009977639,-0.005802542,0.0,0.0,0.0,inf,inf,inf,0,0,1,0
8864000,8783636,0,0,0.010187958,-0.21483725,0.42824304,0.0,0.0,0.0,0.0006786017,0.0032253563,-5.0336123e-05,0.0,0.0,0.0,inf,inf,inf,0,0,1,0
8936000,8856000,0,0,0.009698083,-0.21800247,0.42811513,0.0,0.0,0.0,0.0011602594,0.0063961893,8.058548e-05,0.0,0.0,0.0,inf,inf,inf,0,0,1,0
9008000,8928000,0,0,0.008320717,-0.21486366,0.4275691,0.0,0.0,0.0,0.0024967212,0.003278926,0.00063830614,0.0,0.0,0.0,inf,inf,inf,0,0,1,0
9080000,9000000,0,0,0.006721952,-0.21389194,0.42773998,0.0,0.0,0.0,0.003987617,0.0023221672,0.0004774928,0.0,0.0,0.0,inf,inf,inf,0,0,1,0
9152000,9070909,0,0,0.009123143,-0.21697348,0.42955023,0.0,0.0,0.0,0.0013950281,0.0053857416,-0.0013368726,0.0,0.0,0.0,inf,inf,inf,0,0,1,0
9224000,9140000,0,0,0.012076965,-0.21748926,0.43318325,0.0,0.0,0.0,-0.0016341265,0.0059033483,-0.004967183,0.0,0.0,0.0,inf,inf,inf,0,0,1,0
9296000,9209600,0,0,0.009406172,-0.21657375,0.4294713,0.0,0.0,0.0,0.0011522099,0.0049861968,-0.0012588501,0.0,0.0,0.0,inf,inf,inf,0,0,1,0
9360000,9280000,0,0,0.010803705,-0.21353883,0.42768598,0.0,0.0,0.0,-0.00027628057,0.001979515,0.0005411804,0.0,0.0,0.0,inf,inf,inf,0,0,1,0
9432000,9348000,0,0,0.007666558,-0.21767148,0.42948902,0.0,0.0,0.0,0.002863571,0.0061279833,-0.0012541115,0.0,0.0,0.0,inf,inf,inf,0,0,1,0
9504000,9418666,0,0,0.013211517,-0.2122728,0.43075466,0.0,0.0,0.0,-0.0028056856,0.000729084,-0.0025168061,0.0,0.0,0.0,inf,inf,inf,0,0,1,0
9576000,9491111,0,0,0.0075368113,-0.21665883,0.43109593,0.0,0.0,0.0,0.0029642233,0.005136952,-0.0028496087,0.0,0.0,0.0,inf,inf,inf,0,0,1,0
9640000,9558000,0,0,0.005961671,-0.21631595,0.42983925,0.0,0.0,0.0,0.0044089635,0.0048194528,-0.0015772581,0.0,0.0,0.0,inf,inf,inf,0,0,1,0
9712000,9627600,0,0,0.009712955,-0.21490125,0.4272085,0.0,0.0,0.0,0.0004958529,0.0034410208,0.0010752976,0.0,0.0,0.0,inf,inf,inf,0,0,1,0
9784000,9698000,0,0,0.008687531,-0.21828729,0.43021607,0.0,0.0,0.0,0.0014610766,0.006788969,-0.0019496083,0.0,0.0,0.0,inf,inf,inf,0,0,1,0
9848000,9767111,0,0,0.009950912,-0.21622904,0.4277648,0.0,0.0,0.0,0.00014589913,0.0047439635,0.0005094111,0.0,0.0,0.0,inf,inf,inf,0,0,1,0
9920000,9834000,0,0,0.0051153754,-0.21478176,0.42408413,0.0,0.0,0.0,0.004999764,0.0033079982,0.0041952133,0.0,0.0,0.0,inf,inf,inf,0,0,1,0
9992000,9906000,0,0,0.00993318,-0.21774979,0.4298368,0.0,0.0,0.0,-3.44133e-05,0.006300956,-0.0015400648,0.0,0.0,0.0,inf,inf,inf,0,0,1,0
10064000,9978000,0,0,0.0089392355,-0.21536388,0.43089622,0.0,0.0,0.0,0.0009838277,0.003954023,-0.0025808513,0.0,0.0,0.0,inf,inf,inf,0,0,1,0
10136000,10050000,0,0,0.009075749,-0.21677406,0.42965373,0.0,0.0,0.0,0.0008325549,0.0053758174,-0.0013322532,0.0,0.0,0.0,inf,inf,inf,0,0,1,0
10208000,10122000,0,0,0.010484052,-0.21157849,0.42817047,0.0,0.0,0.0,-0.0005745189,0.00017417967,0.00014796853,0.0,0.0,0.0,inf,inf,inf,0,0,1,0
10272000,10192000,0,0,0.009811519,-0.21493399,0.4282239,0.0,0.0,0.0,0.00014459528,0.0034563094,5.7280064e-05,0.0,0.0,0.0,inf,inf,inf,0,0,1,0
10344000,10264000,0,0,0.009223371,-0.21900332,0.43348336,0.0,0.0,0.0,0.0007094601,0.007522583,-0.005203247,0.0,0.0,0.0,inf,inf,inf,0,0,1,0
10416000,10330666,0,0,0.010343929,-0.21508145,0.42838275,0.0,0.0,0.0,-0.0004715221,0.0036189556,-9.217858e-05,0.0,0.0,0.0,inf,inf,inf,0,0,1,0
10488000,10402666,0,0,0.012326505,-0.21366327,0.43322787,0.0,0.0,0.0,-0.002427768,0.0021728426,-0.0049516857,0.0,0.0,0.0,inf,inf,inf,0,0,1,0
10552000,10469500,0,0,0.008415169,-0.21529025,0.4298326,0.0,0.0,0.0,0.0015484476,0.00382787,-0.0015440881,0.0,0.0,0.0,inf,inf,inf,0,0,1,0
10624000,10541000,0,0,0.011064794,-0.21737899,0.42660496,0.0,0.0,0.0,-0.001155261,0.0059128553,0.001682967,0.0,0.0,0.0,inf,inf,inf,0,0,1,0
10696000,10613000,0,0,0.007746993,-0.21518452,0.43001634,0.0,0.0,0.0,0.0022261902,0.0037354976,-0.0017214715,0.0,0.0,0.0,inf,inf,inf,0,0,1,0
10768000,10685000,0,0,0.010094469,-0.21564434,0.4326358,0.0,0.0,0.0,-0.00017334335,0.004203558,-0.0043356717,0.0,0.0,0.0,inf,inf,inf,0,0,1,0
10840000,10757000,0,0,0.009863728,-0.21334809,0.42822278,0.0,0.0,0.0,2.002623e-05,0.0019513369,9.998679e-05,0.0,0.0,0.0,inf,inf,inf,0,0,1,0
10912000,10828000,0,0,0.007937194,-0.21830165,0.4285348,0.0,0.0,0.0,0.0019092998,0.0069315434,-0.00019800663,0.0,0.0,0.0,inf,inf,inf,0,0,1,0
10976000,10894857,0,0,0.009500125,-0.21593802,0.42954972,0.0,0.0,0.0,0.00030338578,0.004594192,-0.0011989772,0.0,0.0,0.0,inf,inf,inf,0,0,1,0
11048000,10967200,0,0,0.009985945,-0.21629654,0.42817265,0.0,0.0,0.0,-0.00024503376,0.0049055964,0.00015625358,0.0,0.0,0.0,inf,inf,inf,0,0,1,0
11120000,11034000,0,0,0.00901232,-0.21573874,0.43152,0.0,0.0,0.0,0.00074192043,0.004374951,-0.0031780005,0.0,0.0,0.0,inf,inf,inf,0,0,1,0
11184000,11104000,0,0,0.007922431,-0.2169358,0.4313053,0.0,0.0,0.0,0.0018073935,0.005544707,-0.002976209,0.0,0.0,0.0,inf,inf,inf,0,0,1,0
11264000,11176666,0,0,0.009902467,-0.21715274,0.43021306,0.0,0.0,0.0,-0.00022940058,0.005774975,-0.001876086,0.0,0.0,0.0,inf,inf,inf,0,0,1,0
11328000,11248000,0,0,0.00873509,-0.21674064,0.42905444,0.0,0.0,0.0,0.0009290287,0.005363494,-0.0007170141,0.0,0.0,0.0,inf,inf,inf,0,0,1,0
11408000,11320666,0,0,0.011150369,-0.21624467,0.43009531,0.0,0.0,0.0,-0.001576433,0.004876852,-0.0017512143,0.0,0.0,0.0,inf,inf,inf,0,0,1,0
11472000,11392000,0,0,0.009354429,-0.21579051,0.43073496,0.0,0.0,0.0,0.00027583353,0.0044079423,-0.0023994744,0.0,0.0,0.0,inf,inf,inf,0,0,1,0
11544000,11460000,0,0,0.00878068,-0.21411715,0.43011498,0.0,0.0,0.0,0.00085727964,0.0027363747,-0.0017787218,0.0,0.0,0.0,inf,inf,inf,0,0,1,0
11616000,11530285,0,0,0.008589744,-0.21789092,0.42802784,0.0,0.0,0.0,0.0010469491,0.006496787,0.00030189753,0.0,0.0,0.0,inf,inf,inf,0,0,1,0
11680000,11597000,0,0,0.010313274,-0.2146544,0.4288268,0.0,0.0,0.0,-0.000702912,0.003275618,-0.0004889369,0.0,0.0,0.0,inf,inf,inf,0,0,1,0
11744000,11664000,0,0,0.0066213063,-0.21609616,0.42877388,0.0,0.0,0.0,0.0029897117,0.004738629,-0.00042551756,0.0,0.0,0.0,inf,inf,inf,0,0,1,0
11816000,11735200,0,0,0.011247922,-0.21368757,0.42910954,0.0,0.0,0.0,-0.0017334335,0.0023229122,-0.000762552,0.0,0.0,0.0,inf,inf,inf,0,0,1,0
11888000,11802000,0,0,0.008644592,-0.21621281,0.42918548,0.0,0.0,0.0,0.0008825399,0.004854277,-0.0008357465,0.0,0.0,0.0,inf,inf,inf,0,0,1,0
11960000,11873333,0,0,0.010147953,-0.21379623,0.42953932,0.0,0.0,0.0,-0.00067334063,0.0024456978,-0.0011845231,0.0,0.0,0.0,inf,inf,inf,0,0,1,0
12024000,11940000,0,0,0.00998653,-0.21542428,0.42526278,0.0,0.0,0.0,-0.0004911674,0.004082471,0.003095895,0.0,0.0,0.0,inf,inf,inf,0,0,1,0
12096000,12010285,0,0,0.008062019,-0.21332584,0.42968553,0.0,0.0,0.0,0.0014139498,0.0020159036,-0.0013107061,0.0,0.0,0.0,inf,inf,inf,0,0,1,0
12160000,12078000,0,0,0.0091296695,-0.21752834,0.4292036,0.0,0.0,0.0,0.00028393045,0.0062479377,-0.00081282854,0.0,0.0,0.0,inf,inf,inf,0,0,1,0
12232000,12149000,0,0,0.009477234,-0.21558492,0.42826924,0.0,0.0,0.0,-5.894061e-05,0.0043267757,0.00013235211,0.0,0.0,0.0,inf,inf,inf,0,0,1,0
12304000,12221000,0,0,0.008776599,-0.21937281,0.42932254,0.0,0.0,0.0,0.0006794473,0.008127421,-0.00091543794,0.0,0.0,0.0,inf,inf,inf,0,0,1,0
12376000,12292500,0,0,0.009702641,-0.21707627,0.42923418,0.0,0.0,0.0,-0.00023141783,0.005846292,-0.0008197725,0.0,0.0,0.0,inf,inf,inf,0,0,1,0
12448000,12365000,0,0,0.012736999,-0.21766326,0.42828766,0.0,0.0,0.0,-0.0032469714,0.0064359307,0.00012758374,0.0,0.0,0.0,inf,inf,inf,0,0,1,0
12520000,12437000,0,0,0.007967796,-0.21817902,0.42884022,0.0,0.0,0.0,0.0015974008,0.0069729686,-0.00041615963,0.0,0.0,0.0,inf,inf,inf,0,0,1,0
12584000,12504000,0,0,0.010807841,-0.21265464,0.42687976,0.0,0.0,0.0,-0.0012508249,0.0014372915,0.0015389025,0.0,0.0,0.0,inf,inf,inf,0,0,1,0
12656000,12573777,0,0,0.010949614,-0.21683964,0.4270902,0.0,0.0,0.0,-0.0013612835,0.0056362003,0.0013346374,0.0,0.0,0.0,inf,inf,inf,0,0,1,0
12728000,12642000,0,0,0.007373062,-0.21331468,0.4311189,0.0,0.0,0.0,0.002264033,0.0021249354,-0.002688408,0.0,0.0,0.0,inf,inf,inf,0,0,1,0
12800000,12713200,0,0,0.010593972,-0.21606766,0.42825595,0.0,0.0,0.0,-0.0009950241,0.0048735887,0.0001732707,0.0,0.0,0.0,inf,inf,inf,0,0,1,0
12864000,12780000,0,0,0.011128337,-0.2145637,0.4207509,0.0,0.0,0.0,-0.0015044073,0.0033682287,0.0076770782,0.0,0.0,0.0,inf,inf,inf,0,0,1,0
12936000,12850545,0,0,0.00774493,-0.21649835,0.4284601,0.0,0.0,0.0,0.0019054343,0.005332142,-1.8298626e-05,0.0,0.0,0.0,inf,inf,inf,0,0,1,0
13000000,12920000,0,0,0.010997797,-0.21940455,0.43586615,0.0,0.0,0.0,-0.0013808114,0.008254945,-0.007415384,0.0,0.0,0.0,inf,inf,inf,0,0,1,0
13072000,12989600,0,0,0.008942895,-0.21450393,0.42949897,0.0,0.0,0.0,0.000694111,0.0033202916,-0.001065433,0.0,0.0,0.0,inf,inf,inf,0,0,1,0
13144000,13062000,0,0,0.010990766,-0.21241915,0.4264508,0.0,0.0,0.0,-0.0013908567,0.0012201667,0.0019760132,0.0,0.0,0.0,inf,inf,inf,0,0,1,0
13216000,13134000,0,0,0.010558408,-0.21638088,0.4280865,0.0,0.0,0.0,-0.0009414591,0.005202666,0.0003501475,0.0,0.0,0.0,inf,inf,inf,0,0,1,0
13288000,13206000,0,0,0.007495161,-0.21696648,0.42798352,0.0,0.0,0.0,0.002138909,0.0058008432,0.00045892596,0.0,0.0,0.0,inf,inf,inf,0,0,1,0
13360000,13276800,0,0,0.008275273,-0.21750188,0.42998573,0.0,0.0,0.0,0.0012856768,0.0063160956,-0.0015515983,0.0,0.0,0.0,inf,inf,inf,0,0,1,0
13424000,13344000,0,0,0.0074207946,-0.21635912,0.43758583,0.0,0.0,0.0,0.0021242336,0.005283132,-0.009097189,0.0,0.0,0.0,inf,inf,inf,0,0,1,0
13496000,13414545,0,0,0.010419632,-0.2164931,0.43104696,0.0,0.0,0.0,-0.0009705005,0.0054086745,-0.0025604367,0.0,0.0,0.0,inf,inf,inf,0,0,1,0
13568000,13488000,0,0,-0.00026076834,-0.22139683,0.433161,0.0,0.0,0.0,0.009739799,0.010283768,-0.004689187,0.0,0.0,0.0,inf,inf,inf,0,0,1,0
13640000,13560000,0,0,0.008937164,-0.21633598,0.43015277,0.0,0.0,0.0,0.00030785892,0.005225599,-0.0016745627,0.0,0.0,0.0,inf,inf,inf,0,0,1,0
13712000,13632000,0,0,0.0030956112,-0.21905997,0.43500304,0.0,0.0,0.0,0.006119185,0.007994592,-0.0065020025,0.0,0.0,0.0,inf,inf,inf,0,0,1,0
13784000,13702909,0,0,0.010551893,-0.21597438,0.42853212,0.0,0.0,0.0,-0.0014689798,0.0049372613,-1.4334917e-05,0.0,0.0,0.0,inf,inf,inf,0,0,1,0
13856000,13776000,0,0,0.012965325,-0.22192194,0.42879808,0.0,0.0,0.0,-0.00387137,0.010874674,-0.00028550625,0.0,0.0,0.0,inf,inf,inf,0,0,1,0
13928000,13848000,0,0,0.009837925,-0.21544327,0.42951524,0.0,0.0,0.0,-0.000647746,0.0043801665,-0.0010125339,0.0,0.0,0.0,inf,inf,inf,0,0,1,0
14000000,13920000,0,0,0.008956493,-0.21537434,0.43348026,0.0,0.0,0.0,0.00023813453,0.0042956024,-0.0049853325,0.0,0.0,0.0,inf,inf,inf,0,0,1,0
14072000,13991636,0,0,0.011047813,-0.21778297,0.4286949,0.0,0.0,0.0,-0.0018796204,0.006725788,-0.00018876791,0.0,0.0,0.0,inf,inf,inf,0,0,1,0
14144000,14064000,0,0,0.014424544,-0.21576425,0.42601264,0.0,0.0,0.0,-0.005230617,0.004704714,0.0024917722,0.0,0.0,0.0,inf,inf,inf,0,0,1,0
14216000,14134909,0,0,0.00955309,-0.21591638,0.430185,0.0,0.0,0.0,-0.0002727732,0.004801497,-0.0017097294,0.0,0.0,0.0,inf,inf,inf,0,0,1,0
14288000,14204000,0,0,0.013977421,-0.21438311,0.4232616,0.0,0.0,0.0,-0.004690444,0.0032893866,0.0052239597,0.0,0.0,0.0,inf,inf,inf,0,0,1,0
14360000,14272800,0,0,0.009266343,-0.21457648,0.4266286,0.0,0.0,0.0,0.00010376051,0.0034602284,0.0018441081,0.0,0.0,0.0,inf,inf,inf,0,0,1,0
14424000,14340000,0,0,0.009371542,-0.2229052,0.4325894,0.0,0.0,0.0,-3.323797e-05,0.011787012,-0.004117042,0.0,0.0,0.0,inf,inf,inf,0,0,1,0
14496000,14411272,0,0,0.009756879,-0.21501492,0.4301774,0.0,0.0,0.0,-0.00042977277,0.0039197505,-0.0016934276,0.0,0.0,0.0,inf,inf,inf,0,0,1,0
14568000,14484000,0,0,0.007153787,-0.21571422,0.4242689,0.0,0.0,0.0,0.002181306,0.0046156645,0.004213214,0.0,0.0,0.0,inf,inf,inf,0,0,1,0
14640000,14554909,0,0,0.009658577,-0.21495724,0.4299196,0.0,0.0,0.0,-0.00046871044,0.0038137287,-0.0014564693,0.0,0.0,0.0,inf,inf,inf,0,0,1,0
14704000,14624000,0,0,0.014337,-0.21915221,0.43681163,0.0,0.0,0.0,-0.005147961,0.0080188215,-0.008343518,0.0,0.0,0.0,inf,inf,inf,0,0,1,0
14776000,14693600,0,0,0.008874313,-0.21700166,0.42862555,0.0,0.0,0.0,0.00042218622,0.0058737546,-0.00015708804,0.0,0.0,0.0,inf,inf,inf,0,0,1,0
14848000,14764000,0,0,0.013370702,-0.2127128,0.42681938,0.0,0.0,0.0,-0.0041213427,0.0015987158,0.0016569495,0.0,0.0,0.0,inf,inf,inf,0,0,1,0
14912000,14831555,0,0,0.011259262,-0.21634598,0.43100297,0.0,0.0,0.0,-0.0019088285,0.005216524,-0.002536416,0.0,0.0,0.0,inf,inf,inf,0,0,1,0
14984000,14902666,0,0,0.008413842,-0.2134063,0.4299408,0.0,0.0,0.0,0.0010234583,0.0022903085,-0.0014695227,0.0,0.0,0.0,inf,inf,inf,0,0,1,0
15056000,14975111,0,0,0.00796741,-0.21541168,0.4308395,0.0,0.0,0.0,0.0014190329,0.004234597,-0.0023971498,0.0,0.0,0.0,inf,inf,inf,0,0,1,0
15128000,15045333,0,0,0.009764466,-0.21148357,0.42881018,0.0,0.0,0.0,-0.00040404126,0.00029931962,-0.0003708005,0.0,0.0,0.0,inf,inf,inf,0,0,1,0
15200000,15112500,0,0,0.010411929,-0.21620296,0.4307799,0.0,0.0,0.0,-0.0010827743,0.005029395,-0.0023346245,0.0,0.0,0.0,inf,inf,inf,0,0,1,0
15264000,15180000,0,0,0.009040743,-0.21754424,0.43035644,0.0,0.0,0.0,0.00027959794,0.0064115673,-0.0018908083,0.0,0.0,0.0,inf,inf,inf,0,0,1,0
15336000,15250222,0,0,0.0107640335,-0.21486452,0.4306788,0.0,0.0,0.0,-0.0014426196,0.0037570447,-0.0022007525,0.0,0.0,0.0,inf,inf,inf,0,0,1,0
15400000,15318000,0,0,0.012404029,-0.2105235,0.43120155,0.0,0.0,0.0,-0.0030730711,-0.0005952269,-0.0027292967,0.0,0.0,0.0,inf,inf,inf,0,0,1,0
15472000,15388800,0,0,0.012447494,-0.21559863,0.43089485,0.0,0.0,0.0,-0.003109458,0.00455977,-0.0023833811,0.0,0.0,0.0,inf,inf,inf,0,0,1,0
15536000,15456000,0,0,0.0037119128,-0.21434294,0.43166152,0.0,0.0,0.0,0.0056366064,0.0033214837,-0.003141731,0.0,0.0,0.0,inf,inf,inf,0,0,1,0
15608000,15527272,0,0,0.010826528,-0.21589683,0.42948633,0.0,0.0,0.0,-0.0016511902,0.004879713,-0.00096067786,0.0,0.0,0.0,inf,inf,inf,0,0,1,0
15680000,15600000,0,0,0.009427717,-0.21201639,0.43030152,0.0,0.0,0.0,-0.00024221651,0.000997439,-0.0017769635,0.0,0.0,0.0,inf,inf,inf,0,0,1,0
15752000,15670909,0,0,0.010416408,-0.21561112,0.43048874,0.0,0.0,0.0,-0.0012608664,0.0045896173,-0.0019647777,0.0,0.0,0.0,inf,inf,inf,0,0,1,0
15824000,15744000,0,0,0.008271533,-0.21860263,0.42714635,0.0,0.0,0.0,0.0008755373,0.007592976,0.0013836324,0.0,0.0,0.0,inf,inf,inf,0,0,1,0
15896000,15814909,0,0,0.009339355,-0.21650887,0.42927846,0.0,0.0,0.0,-0.00021123141,0.0055269897,-0.0007343888,0.0,0.0,0.0,inf,inf,inf,0,0,1,0
15968000,15888000,0,0,0.00806902,-0.21748742,0.43475327,0.0,0.0,0.0,0.0010220893,0.0064817667,-0.006220132,0.0,0.0,0.0,inf,inf,inf,0,0,1,0
16040000,15959272,0,0,0.011699268,-0.21622899,0.42935434,0.0,0.0,0.0,-0.0026577646,0.0052140355,-0.0008247793,0.0,0.0,0.0,inf,inf,inf,0,0,1,0
16112000,16032000,0,0,0.008251167,-0.21323024,0.43109497,0.0,0.0,0.0,0.0008086348,0.0022194833,-0.0025637448,0.0,0.0,0.0,inf,inf,inf,0,0,1,0
16184000,16102545,0,0,0.011269495,-0.21584257,0.43053532,0.0,0.0,0.0,-0.0022615194,0.004795462,-0.0020208359,0.0,0.0,0.0,inf,inf,inf,0,0,1,0
16256000,16176000,0,0,0.012218919,-0.21592376,0.42978373,0.0,0.0,0.0,-0.0031510629,0.004883647,-0.0012671053,0.0,0.0,0.0,inf,inf,inf,0,0,1,0
16328000,16246545,0,0,0.009877754,-0.2147074,0.43144813,0.0,0.0,0.0,-0.00071694516,0.0036572814,-0.0029383898,0.0,0.0,0.0,inf,inf,inf,0,0,1,0
16400000,16320000,0,0,0.008171906,-0.21593095,0.42854562,0.0,0.0,0.0,0.0009889109,0.0048722774,-4.0113926e-05,0.0,0.0,0.0,inf,inf,inf,0,0,1,0
16472000,16388727,0,0,0.0103384275,-0.21848983,0.4287562,0.0,0.0,0.0,-0.0012318362,0.007465422,-0.00023263693,0.0,0.0,0.0,inf,inf,inf,0,0,1,0
16544000,16464000,0,0,0.0059784465,-0.22283164,0.42907196,0.0,0.0,0.0,0.0031380095,0.011782527,-0.0005607307,0.0,0.0,0.0,inf,inf,inf,0,0,1,0
16616000,16534545,0,0,0.008476761,-0.21718054,0.42740676,0.0,0.0,0.0,0.0005534319,0.0061589926,0.0011198223,0.0,0.0,0.0,inf,inf,inf,0,0,1,0
16688000,16604000,0,0,0.014393488,-0.21366805,0.42650247,0.0,0.0,0.0,-0.005356023,0.0026597828,0.0020304918,0.0,0.0,0.0,inf,inf,inf,0,0,1,0
16760000,16672800,0,0,0.0100164795,-0.21617866,0.429265,0.0,0.0,0.0,-0.00084801856,0.00514248,-0.00074854493,0.0,0.0,0.0,inf,inf,inf,0,0,1,0
16824000,16744000,0,0,0.007794569,-0.2174369,0.4324696,0.0,0.0,0.0,0.0014016978,0.0063935965,-0.003957212,0.0,0.0,0.0,inf,inf,inf,0,0,1,0
16896000,16811111,0,0,0.0098501295,-0.21471904,0.42991516,0.0,0.0,0.0,-0.0006956011,0.0036522895,-0.0014134347,0.0,0.0,0.0,inf,inf,inf,0,0,1,0
16968000,16882666,0,0,0.011240872,-0.21795522,0.42905566,0.0,0.0,0.0,-0.0020902175,0.0068636388,-0.0005661249,0.0,0.0,0.0,inf,inf,inf,0,0,1,0
17040000,16954666,0,0,0.0095150815,-0.21446103,0.4301582,0.0,0.0,0.0,-0.0003477754,0.0033721328,-0.0016677082,0.0,0.0,0.0,inf,inf,inf,0,0,1,0
17104000,17022000,0,0,0.010504765,-0.21648054,0.42412618,0.0,0.0,0.0,-0.0013499614,0.0053944737,0.004365951,0.0,0.0,0.0,inf,inf,inf,0,0,1,0
17176000,17094000,0,0,0.008721219,-0.21535364,0.42878327,0.0,0.0,0.0,0.00043967925,0.0042642057,-0.00029292703,0.0,0.0,0.0,inf,inf,inf,0,0,1,0
17248000,17166000,0,0,0.014576415,-0.21432917,0.43487358,0.0,0.0,0.0,-0.0054356474,0.00325723,-0.006374091,0.0,0.0,0.0,inf,inf,inf,0,0,1,0
17320000,17236800,0,0,0.008504423,-0.21479602,0.42928454,0.0,0.0,0.0,0.0007806616,0.003725633,-0.00078743696,0.0,0.0,0.0,inf,inf,inf,0,0,1,0
17384000,17304000,0,0,0.011980275,-0.22130093,0.43391353,0.0,0.0,0.0,-0.0027454365,0.010212511,-0.005424291,0.0,0.0,0.0,inf,inf,inf,0,0,1,0
17456000,17374909,0,0,0.008864341,-0.2160567,0.43152413,0.0,0.0,0.0,0.00041561015,0.004979193,-0.0030304492,0.0,0.0,0.0,inf,inf,inf,0,0,1,0
17528000,17448000,0,0,0.014460302,-0.21512799,0.42523503,0.0,0.0,0.0,-0.0051915264,0.004083723,0.0032752752,0.0,0.0,0.0,inf,inf,inf,0,0,1,0
17600000,17519272,0,0,0.0089908205,-0.21603377,0.4297096,0.0,0.0,0.0,0.00039163604,0.0050380677,-0.0011778474,0.0,0.0,0.0,inf,inf,inf,0,0,1,0
17672000,17592000,0,0,0.012648799,-0.21856344,0.42732796,0.0,0.0,0.0,-0.0032427842,0.0075761974,0.0012074411,0.0,0.0,0.0,inf,inf,inf,0,0,1,0
17744000,17662909,0,0,0.009736992,-0.21604256,0.42862028,0.0,0.0,0.0,-0.00029473007,0.0050752163,-7.593632e-05,0.0,0.0,0.0,inf,inf,inf,0,0,1,0
17816000,17736000,0,0,0.0068692677,-0.21143802,0.42474228,0.0,0.0,0.0,0.002533134,0.0005208701,0.003827691,0.0,0.0,0.0,inf,inf,inf,0,0,1,0
17888000,17806181,0,0,0.009479599,-0.21715777,0.43042836,0.0,0.0,0.0,-0.00016714074,0.006255865,-0.0018489063,0.0,0.0,0.0,inf,inf,inf,0,0,1,0
17960000,17880000,0,0,0.008371997,-0.2212439,0.43280086,0.0,0.0,0.0,0.0009217309,0.010368243,-0.004208058,0.0,0.0,0.0,inf,inf,inf,0,0,1,0
18032000,17951636,0,0,0.009013491,-0.21578343,0.43076238,0.0,0.0,0.0,0.00023676269,0.0048802644,-0.0021822155,0.0,0.0,0.0,inf,inf,inf,0,0,1,0
18104000,18024000,0,0,0.008613813,-0.21566908,0.43033296,0.0,0.0,0.0,0.0006630318,0.004735902,-0.0017681718,0.0,0.0,0.0,inf,inf,inf,0,0,1,0
18176000,18095636,0,0,0.008650476,-0.21521352,0.4291417,0.0,0.0,0.0,0.0006104391,0.004296884,-0.0005683601,0.0,0.0,0.0,inf,inf,inf,0,0,1,0
18248000,18164000,0,0,0.014094259,-0.21685912,0.429437,0.0,0.0,0.0,-0.0048732636,0.005942151,-0.00086304545,0.0,0.0,0.0,inf,inf,inf,0,0,1,0
18320000,18233200,0,0,0.010871927,-0.21469858,0.43183094,0.0,0.0,0.0,-0.0015737591,0.0038099438,-0.0032446384,0.0,0.0,0.0,inf,inf,inf,0,0,1,0
18384000,18304000,0,0,0.010692229,-0.2135413,0.42914236,0.0,0.0,0.0,-0.0013721483,0.0026796162,-0.00054323673,0.0,0.0,0.0,inf,inf,inf,0,0,1,0
18456000,18371555,0,0,0.009370136,-0.21523853,0.42977268,0.0,0.0,0.0,2.7986243e-06,0.0043911785,-0.0011677146,0.0,0.0,0.0,inf,inf,inf,0,0,1,0
18528000,18444000,0,0,0.0067310454,-0.21950233,0.42957056,0.0,0.0,0.0,0.0026324792,0.008631647,-0.0009768009,0.0,0.0,0.0,inf,inf,inf,0,0,1,0
18600000,18515111,0,0,0.00914507,-0.21455432,0.4273699,0.0,0.0,0.0,0.00015093759,0.003659591,0.0012134314,0.0,0.0,0.0,inf,inf,inf,0,0,1,0
18672000,18586666,0,0,0.009322601,-0.220565,0.4306264,0.0,0.0,0.0,-5.6858175e-05,0.009689659,-0.002032876,0.0,0.0,0.0,inf,inf,inf,0,0,1,0
18744000,18658666,0,0,0.009711681,-0.21353436,0.43019202,0.0,0.0,0.0,-0.00047917478,0.0026410222,-0.001606673,0.0,0.0,0.0,inf,inf,inf,0,0,1,0
18816000,18730666,0,0,0.010499241,-0.21648997,0.42946196,0.0,0.0,0.0,-0.0012801979,0.005592197,-0.00087845325,0.0,0.0,0.0,inf,inf,inf,0,0,1,0
18888000,18803111,0,0,0.009889828,-0.21565676,0.42971998,0.0,0.0,0.0,-0.00065669604,0.0047565848,-0.0011379719,0.0,0.0,0.0,inf,inf,inf,0,0,1,0
18960000,18874666,0,0,0.010881329,-0.21534245,0.42918026,0.0,0.0,0.0,-0.001637632,0.004433483,-0.0006027818,0.0,0.0,0.0,inf,inf,inf,0,0,1,0
19032000,18945777,0,0,0.010233712,-0.2168024,0.42911905,0.0,0.0,0.0,-0.00095548946,0.00596714,-0.00050610304,0.0,0.0,0.0,inf,inf,inf,0,0,1,0
19104000,19018666,0,0,0.010650018,-0.21761656,0.43172893,0.0,0.0,0.0,-0.0013554264,0.0067722797,-0.00312078,0.0,0.0,0.0,inf,inf,inf,0,0,1,0
19176000,19090222,0,0,0.009992332,-0.21573868,0.4288456,0.0,0.0,0.0,-0.0006745169,0.004897088,-0.00023660064,0.0,0.0,0.0,inf,inf,inf,0,0,1,0
19240000,19158000,0,0,0.011849418,-0.22176334,0.42204,0.0,0.0,0.0,-0.002543673,0.010897666,0.0065574646,0.0,0.0,0.0,inf,inf,inf,0,0,1,0
19312000,19229600,0,0,0.010079033,-0.21287501,0.42951655,0.0,0.0,0.0,-0.0007362878,0.0025030375,-0.0006774664,0.0,0.0,0.0,inf,inf,inf,0,0,1,0
19384000,19302000,0,0,0.010976078,-0.21466145,0.42979607,0.0,0.0,0.0,-0.0016139615,0.0069430172,0.00033420324,0.0,0.0,0.0,inf,inf,inf,0,0,1,0
19456000,19374000,0,0,0.006830187,-0.20642205,0.43363214,0.0,0.0,0.0,0.0012760148,0.0035506636,-0.0011692047,0.0,0.0,0.0,inf,inf,inf,0,0,1,0
19528000,19444000,0,0,0.004111743,-0.19931984,0.43924344,0.0,0.0,0.0,-0.0006717802,0.0024619699,-0.0039483607,0.0,0.0,0.0,inf,inf,inf,0,0,1,0
19592000,19511555,0,0,-0.005550451,-0.19298092,0.4388687,0.0,0.0,0.0,0.0017758007,0.002227217,-0.00086706877,0.0,0.0,0.0,inf,inf,inf,0,0,1,0
19664000,19582666,0,0,-0.0127318455,-0.19269997,0.44079924,0.0,0.0,0.0,-0.0005013617,0.008206189,-0.0003067255,0.0,0.0,0.0,inf,inf,inf,0,0,1,0
19736000,19654222,0,0,-0.016941631,-0.18959075,0.4414188,0.0,0.0,0.0,-0.000768302,0.0060325265,-0.0006927848,0.0,0.0,0.0,inf,inf,inf,0,0,1,0
19808000,19726666,0,0,-0.015244231,-0.19047281,0.43939096,0.0,0.0,0.0,-0.00043562055,0.002671972,-0.00037884712,0.0,0.0,0.0,inf,inf,inf,0,0,1,0
19880000,19794000,0,0,-0.009519966,-0.19926901,0.43820405,0.0,0.0,0.0,-9.970181e-05,0.004952401,-0.0018610954,0.0,0.0,0.0,inf,inf,inf,0,0,1,0
19952000,19866000,0,0,-0.0050057936,-0.20169991,0.43210727,0.0,0.0,0.0,0.002364898,0.0010997504,0.001481533,0.0,0.0,0.0,inf,inf,inf,0,0,1,0
20024000,19937500,0,0,0.0019210186,-0.21048579,0.43444604,0.0,0.0,0.0,0.0010029916,0.0050109327,-0.003147751,0.0,0.0,0.0,inf,inf,inf,0,0,1,0
20096000,20009000,0,0,0.004363928,-0.21613657,0.42994365,0.0,0.0,0.0,0.0020847954,0.007419169,-0.00024363399,0.0,0.0,0.0,inf,inf,inf,0,0,1,0
20160000,20076000,0,0,0.008340652,-0.21465279,0.42998442,0.0,0.0,0.0,-0.00034733396,0.004109159,-0.0012022555,0.0,0.0,0.0,inf,inf,inf,0,0,1,0
20232000,20146400,0,0,0.010447677,-0.21725614,0.42897734,0.0,0.0,0.0,-0.0015958585,0.00536336,-0.00087717175,0.0,0.0,0.0,inf,inf,inf,0,0,1,0
20304000,20218857,0,0,0.009660974,-0.2191326,0.4292161,0.0,0.0,0.0,-0.00021722168,0.0059341043,-0.0017773509,0.0,0.0,0.0,inf,inf,inf,0,0,1,0
20376000,20290400,0,0,0.010088199,-0.21900664,0.42629424,0.0,0.0,0.0,0.00015905406,0.004528165,0.000485152,0.0,0.0,0.0,inf,inf,inf,0,0,1,0
20440000,20358000,0,0,0.012818108,-0.22107986,0.42586964,0.0,0.0,0.0,-0.0015210388,0.0053109527,0.0002322495,0.0,0.0,0.0,inf,inf,inf,0,0,1,0
20512000,20428666,0,0,0.010644378,-0.2182073,0.42564625,0.0,0.0,0.0,0.001985846,0.0007863939,-0.00042244792,0.0,0.0,0.0,inf,inf,inf,0,0,1,0
20584000,20501333,0,0,0.012932724,-0.22351395,0.42677483,0.0,0.0,0.0,0.0007247785,0.004744798,-0.0022749007,0.0,0.0,0.0,inf,inf,inf,0,0,1,0
20656000,20572000,0,0,0.013691532,-0.22594874,0.4235397,0.0,0.0,0.0,0.00063008536,0.006281227,0.00047415495,0.0,0.0,0.0,inf,inf,inf,0,0,1,0
20720000,20639200,0,0,0.0136263585,-0.2266916,0.4265214,0.0,0.0,0.0,0.001097911,0.0065427423,-0.0027710497,0.0,0.0,0.0,inf,inf,inf,0,0,1,0
20792000,20710285,0,0,0.016398102,-0.22549328,0.42413986,0.0,0.0,0.0,-0.0013747141,0.005103782,-0.0005251467,0.0,0.0,0.0,inf,inf,inf,0,0,1,0
20864000,20778000,0,0,0.015623301,-0.22303382,0.42060047,0.0,0.0,0.0,-0.00032544136,0.002424255,0.0028898716,0.0,0.0,0.0,inf,inf,inf,0,0,1,0
20936000,20849000,0,0,0.016384557,-0.2239914,0.42306507,0.0,0.0,0.0,-0.0008228272,0.0031771064,0.00030899048,0.0,0.0,0.0,inf,inf,inf,0,0,1,0
21000000,20916000,0,0,0.01982568,-0.22564982,0.42451176,0.0,0.0,0.0,-0.0040562134,0.0047320426,-0.0011994541,0.0,0.0,0.0,inf,inf,inf,0,0,1,0
21072000,20986222,0,0,0.01646093,-0.22309597,0.42495155,0.0,0.0,0.0,-0.0006440934,0.0023324937,-0.0015605092,0.0,0.0,0.0,inf,inf,inf,0,0,1,0
21136000,21054000,0,0,0.01887225,-0.22252122,0.42471045,0.0,0.0,0.0,-0.0030687936,0.002012536,-0.0011861324,0.0,0.0,0.0,inf,inf,inf,0,0,1,0
21208000,21124400,0,0,0.01579713,-0.22432223,0.42436847,0.0,0.0,0.0,-0.00014258176,0.0041524023,-0.0006624162,0.0,0.0,0.0,inf,inf,inf,0,0,1,0
21272000,21192000,0,0,0.0070568495,-0.22365132,0.42269948,0.0,0.0,0.0,0.008361852,0.0037620515,0.0011608899,0.0,0.0,0.0,inf,inf,inf,0,0,1,0
21344000,21261454,0,0,0.015964841,-0.22463182,0.42253643,0.0,0.0,0.0,-0.0010033976,0.004996419,0.0014719367,0.0,0.0,0.0,inf,inf,inf,0,0,1,0
21416000,21336000,0,0,0.008461259,-0.22770405,0.4287468,0.0,0.0,0.0,0.0062172264,0.008452922,-0.004529685,0.0,0.0,0.0,inf,inf,inf,0,0,1,0
21488000,21406545,0,0,0.014163786,-0.2244637,0.4245152,0.0,0.0,0.0,9.02107e-05,0.0056375265,-6.425381e-05,0.0,0.0,0.0,inf,inf,inf,0,0,1,0
21560000,21480000,0,0,0.018445361,-0.21953815,0.42450714,0.0,0.0,0.0,-0.004585061,0.0012699068,0.00024396181,0.0,0.0,0.0,inf,inf,inf,0,0,1,0
21632000,21549818,0,0,0.01351804,-0.22262204,0.42680067,0.0,0.0,0.0,-3.3276156e-06,0.004846692,-0.0017854273,0.0,0.0,0.0,inf,inf,inf,0,0,1,0
21704000,21620000,0,0,0.012474102,-0.22047143,0.41911826,0.0,0.0,0.0,0.000723402,0.0030548573,0.0060905516,0.0,0.0,0.0,inf,inf,inf,0,0,1,0
21768000,21688000,0,0,0.011938012,-0.22114539,0.4245225,0.0,0.0,0.0,0.00094129983,0.004055083,0.00086277723,0.0,0.0,0.0,inf,inf,inf,0,0,1,0
21840000,21756000,0,0,0.015282365,-0.22583488,0.43147683,0.0,0.0,0.0,-0.0027808938,0.009220809,-0.0058376193,0.0,0.0,0.0,inf,inf,inf,0,0,1,0
21912000,21827272,0,0,0.010737576,-0.21964443,0.42772606,0.0,0.0,0.0,0.0014748275,0.0034799129,-0.0018499792,0.0,0.0,0.0,inf,inf,inf,0,0,1,0
21984000,21900000,0,0,0.011148189,-0.22183189,0.43192834,0.0,0.0,0.0,0.0007676063,0.006172985,-0.005787611,0.0,0.0,0.0,inf,inf,inf,0,0,1,0
22056000,21970545,0,0,0.012173484,-0.21925327,0.4258599,0.0,0.0,0.0,-0.00045338552,0.0040021837,0.00049236417,0.0,0.0,0.0,inf,inf,inf,0,0,1,0
22120000,22040000,0,0,0.014839084,-0.21875069,0.42992187,0.0,0.0,0.0,-0.0033103982,0.0038102567,-0.0034075975,0.0,0.0,0.0,inf,inf,inf,0,0,1,0
22192000,22109200,0,0,0.010710344,-0.21948902,0.42715618,0.0,0.0,0.0,0.0006489605,0.0049400777,-0.00044038892,0.0,0.0,0.0,inf,inf,inf,0,0,1,0
22256000,22176000,0,0,0.0014611606,-0.21499726,0.43461484,0.0,0.0,0.0,0.009666639,0.00094503164,-0.007643521,0.0,0.0,0.0,inf,inf,inf,0,0,1,0
22328000,22247636,0,0,0.011878663,-0.21759367,0.42783713,0.0,0.0,0.0,-0.0018704915,-0.0023614466,8.431077e-05,0.0,0.0,0.0,inf,inf,inf,0,0,1,0
22400000,22320000,0,0,0.009119967,-0.2151101,0.42858937,0.0,0.0,0.0,0.0007895287,-0.004416302,-0.00044551492,0.0,0.0,0.0,inf,inf,inf,0,0,1,0
22472000,22391272,0,0,0.011142099,-0.21721934,0.4290452,0.0,0.0,0.0,-0.0015072245,-0.0019875914,-0.0007313788,0.0,0.0,0.0,inf,inf,inf,0,0,1,0
22544000,22464000,0,0,0.00974477,-0.21858995,0.42559212,0.0,0.0,0.0,-0.00014111307,-0.00031118095,0.0028787255,0.0,0.0,0.0,inf,inf,inf,0,0,1,0
22616000,22534545,0,0,0.010767706,-0.21627685,0.42807192,0.0,0.0,0.0,-0.001273863,-0.0022507012,0.00059202313,0.0,0.0,0.0,inf,inf,inf,0,0,1,0
22688000,22608000,0,0,0.006299724,-0.2119928,0.43174157,0.0,0.0,0.0,0.0030903546,-0.006218612,-0.0029143095,0.0,0.0,0.0,inf,inf,inf,0,0,1,0
22760000,22678545,0,0,0.008193919,-0.216732,0.42841735,0.0,0.0,0.0,0.0007086601,-0.0010760576,0.0006252825,0.0,0.0,0.0,inf,inf,inf,0,0,1,0
22832000,22752000,0,0,0.008209818,-0.21313202,0.42300513,0.0,0.0,0.0,0.00024582352,-0.004298568,0.006237954,0.0,0.0,0.0,inf,inf,inf,0,0,1,0
22904000,22823272,0,0,0.00855962,-0.2159156,0.42977986,0.0,0.0,0.0,-0.0004950594,-0.0012498945,-0.0003950894,0.0,0.0,0.0,inf,inf,inf,0,0,1,0
22976000,22896000,0,0,0.0066463286,-0.21906851,0.42738193,0.0,0.0,0.0,0.0010830155,0.002073124,0.0020950735,0.0,0.0,0.0,inf,inf,inf,0,0,1,0
23048000,22967272,0,0,0.006479191,-0.2149761,0.43041217,0.0,0.0,0.0,0.0011395044,-0.0020171106,-0.00093209743,0.0,0.0,0.0,inf,inf,inf,0,0,1,0
23120000,23040000,0,0,0.009185549,-0.20963953,0.42266673,0.0,0.0,0.0,-0.0017438345,-0.007178381,0.00690493,0.0,0.0,0.0,inf,inf,inf,0,0,1,0
23192000,23110909,0,0,0.005522413,-0.21442297,0.42837867,0.0,0.0,0.0,0.0018577967,-0.0021330118,0.0013261139,0.0,0.0,0.0,inf,inf,inf,0,0,1,0
23264000,23184000,0,0,0.008918319,-0.2185499,0.42564303,0.0,0.0,0.0,-0.0018780045,0.0024504066,0.0042972565,0.0,0.0,0.0,inf,inf,inf,0,0,1,0
23336000,23254909,0,0,0.0063052652,-0.21344723,0.43157935,0.0,0.0,0.0,0.00043981243,-0.002153933,-0.0013842583,0.0,0.0,0.0,inf,inf,inf,0,0,1,0
23408000,23328000,0,0,0.005681146,-0.2116675,0.43471712,0.0,0.0,0.0,0.000704024,-0.003498137,-0.004298508,0.0,0.0,0.0,inf,inf,inf,0,0,1,0
23480000,23399636,0,0,0.0043322425,-0.2125394,0.4319582,0.0,0.0,0.0,0.0018571336,-0.0022565424,-0.0013521314,0.0,0.0,0.0,inf,inf,inf,0,0,1,0
23552000,23472000,0,0,0.007371133,-0.21087259,0.43550634,0.0,0.0,0.0,-0.0013940316,-0.0037746131,-0.0048230886,0.0,0.0,0.0,inf,inf,inf,0,0,1,0
23624000,23543272,0,0,0.004997717,-0.21214044,0.43118495,0.0,0.0,0.0,0.00093054585,-0.0024376512,-0.00046655536,0.0,0.0,0.0,inf,inf,inf,0,0,1,0
23696000,23616000,0,0,0.0006079054,-0.20813219,0.42967394,0.0,0.0,0.0,0.0052048513,-0.006498441,0.0010197759,0.0,0.0,0.0,inf,inf,inf,0,0,1,0
23768000,23688000,0,0,0.005124084,-0.21530294,0.43205118,0.0,0.0,0.0,0.0003708084,0.00058811903,-0.0013951957,0.0,0.0,0.0,inf,inf,inf,0,0,1,0
23840000,23760000,0,0,0.0016767189,-0.21509007,0.4306737,0.0,0.0,0.0,0.0037576302,0.00024163723,-8.3595514e-05,0.0,0.0,0.0,inf,inf,inf,0,0,1,0
23912000,23831272,0,0,0.0069043217,-0.21121925,0.4285493,0.0,0.0,0.0,-0.0017077206,-0.003687635,0.0020145476,0.0,0.0,0.0,inf,inf,inf,0,0,1,0
23984000,23904000,0,0,0.0084492285,-0.21312104,0.4301359,0.0,0.0,0.0,-0.0032142792,-0.0018256456,0.00040760636,0.0,0.0,0.0,inf,inf,inf,0,0,1,0
24056000,23974909,0,0,0.0039326483,-0.21484974,0.43003795,0.0,0.0,0.0,0.0014173901,-0.00013552606,0.00048488379,0.0,0.0,0.0,inf,inf,inf,0,0,1,0
24128000,24048000,0,0,0.0015571794,-0.21550535,0.42816502,0.0,0.0,0.0,0.003828145,0.0004670173,0.0023308992,0.0,0.0,0.0,inf,inf,inf,0,0,1,0
24200000,24119272,0,0,0.00569058,-0.21306041,0.42914072,0.0,0.0,0.0,-0.00030607497,-0.002062425,0.0013129711,0.0,0.0,0.0,inf,inf,inf,0,0,1,0
24272000,24192000,0,0,0.0060675605,-0.21209827,0.43269122,0.0,0.0,0.0,-0.000735031,-0.0029214025,-0.0021853447,0.0,0.0,0.0,inf,inf,inf,0,0,1,0
24344000,24262545,0,0,0.007010562,-0.21329573,0.42960763,0.0,0.0,0.0,-0.0015529147,-0.0017782897,0.00086954236,0.0,0.0,0.0,inf,inf,inf,0,0,1,0
24416000,24336000,0,0,0.010937447,-0.21322761,0.43617657,0.0,0.0,0.0,-0.0050595943,-0.0020846426,-0.0058240592,0.0,0.0,0.0,inf,inf,inf,0,0,1,0
24488000,24407272,0,0,0.0072963876,-0.213521,0.43002233,0.0,0.0,0.0,-0.00071415724,-0.0024456978,-8.016825e-06,0.0,0.0,0.0,inf,inf,inf,0,0,1,0
24560000,24480000,0,0,0.012805951,-0.21450362,0.43305653,0.0,0.0,0.0,-0.005549264,-0.0021729171,-0.003410399,0.0,0.0,0.0,inf,inf,inf,0,0,1,0
24632000,24551636,0,0,0.007374474,-0.21626833,0.42894608,0.0,0.0,0.0,0.0004249802,-0.00091193616,0.000436157,0.0,0.0,0.0,inf,inf,inf,0,0,1,0
24704000,24624000,0,0,0.013756052,-0.21725406,0.43154058,0.0,0.0,0.0,-0.0056283623,-0.0001641661,-0.0022848547,0.0,0.0,0.0,inf,inf,inf,0,0,1,0
24776000,24695636,0,0,0.010140894,-0.21515983,0.4292914,0.0,0.0,0.0,-0.0016927104,-0.00239186,-0.000109523535,0.0,0.0,0.0,inf,inf,inf,0,0,1,0
24848000,24768000,0,0,0.006236872,-0.21718402,0.42915606,0.0,0.0,0.0,0.002471657,-0.00055731833,-7.557869e-05,0.0,0.0,0.0,inf,inf,inf,0,0,1,0
24920000,24838545,0,0,0.008771407,-0.21636799,0.42982736,0.0,0.0,0.0,0.00014031399,-0.0016168058,-0.00087466836,0.0,0.0,0.0,inf,inf,inf,0,0,1,0
24992000,24912000,0,0,0.0029469822,-0.21099557,0.42703354,0.0,0.0,0.0,0.0061983075,-0.0071475506,0.0018337369,0.0,0.0,0.0,inf,inf,inf,0,0,1,0
25064000,24984000,0,0,0.01115926,-0.21615481,0.42783803,0.0,0.0,0.0,-0.0019827075,-0.0020616949,0.000991255,0.0,0.0,0.0,inf,inf,inf,0,0,1,0
25136000,25056000,0,0,0.00879597,-0.21648654,0.4269616,0.0,0.0,0.0,0.000531896,-0.0017152131,0.0018719435,0.0,0.0,0.0,inf,inf,inf,0,0,1,0
25208000,25127272,0,0,0.010960447,-0.21687183,0.42984033,0.0,0.0,0.0,-0.0015885178,-0.0013428628,-0.0010143518,0.0,0.0,0.0,inf,inf,inf,0,0,1,0
25280000,25200000,0,0,0.007462698,-0.21335332,0.42858142,0.0,0.0,0.0,0.0020750957,-0.004900247,0.00022113323,0.0,0.0,0.0,inf,inf,inf,0,0,1,0
25352000,25272000,0,0,0.009761551,-0.2172849,0.42991513,0.0,0.0,0.0,-9.598769e-05,-0.0009416193,-0.0011017025,0.0,0.0,0.0,inf,inf,inf,0,0,1,0
25424000,25344000,0,0,0.011233574,-0.21601035,0.42926756,0.0,0.0,0.0,-0.0013709348,-0.0022040904,-0.00045242906,0.0,0.0,0.0,inf,inf,inf,0,0,1,0
25496000,25415636,0,0,0.009018318,-0.2164935,0.42851496,0.0,0.0,0.0,0.00089120027,-0.0016395897,0.00034046173,0.0,0.0,0.0,inf,inf,inf,0,0,1,0
25568000,25488000,0,0,0.008827502,-0.21433146,0.4226559,0.0,0.0,0.0,0.0010267254,-0.003763482,0.006220162,0.0,0.0,0.0,inf,inf,inf,0,0,1,0
25640000,25558545,0,0,0.010727863,-0.215599,0.42741793,0.0,0.0,0.0,-0.0009387089,-0.002506137,0.0014544129,0.0,0.0,0.0,inf,inf,inf,0,0,1,0
25712000,25632000,0,0,0.008979216,-0.21039045,0.43434006,0.0,0.0,0.0,0.0007024184,-0.0077206343,-0.0054682493,0.0,0.0,0.0,inf,inf,inf,0,0,1,0
25784000,25703636,0,0,0.009105423,-0.2179215,0.42929348,0.0,0.0,0.0,0.00045037828,-0.00023418665,-0.000441581,0.0,0.0,0.0,inf,inf,inf,0,0,1,0
25856000,25776000,0,0,0.007925674,-0.21242735,0.43183511,0.0,0.0,0.0,0.0014307722,-0.0056957006,-0.002962172,0.0,0.0,0.0,inf,inf,inf,0,0,1,0
25928000,25847272,0,0,0.0086302925,-0.21725683,0.4282703,0.0,0.0,0.0,0.0005809348,-0.0008575022,0.00061020255,0.0,0.0,0.0,inf,inf,inf,0,0,1,0
26000000,25920000,0,0,0.007998204,-0.22181696,0.43488762,0.0,0.0,0.0,0.0010962207,0.003742829,-0.0059841573,0.0,0.0,0.0,inf,inf,inf,0,0,1,0
26072000,25990545,0,0,0.010243383,-0.2168437,0.4284141,0.0,0.0,0.0,-0.0010435777,-0.0012668371,0.0004685223,0.0,0.0,0.0,inf,inf,inf,0,0,1,0
26144000,26064000,0,0,0.006692228,-0.21452132,0.42833906,0.0,0.0,0.0,0.0027253656,-0.0037615895,0.00045120716,0.0,0.0,0.0,inf,inf,inf,0,0,1,0
26216000,26134909,0,0,0.009553074,-0.2161526,0.4278507,0.0,0.0,0.0,-4.0790997e-05,-0.0023145527,0.00084361434,0.0,0.0,0.0,inf,inf,inf,0,0,1,0
26288000,26208000,0,0,0.008810361,-0.21571916,0.4258198,0.0,0.0,0.0,0.00079933833,-0.002854824,0.0028178096,0.0,0.0,0.0,inf,inf,inf,0,0,1,0
26360000,26278545,0,0,0.010193073,-0.21537873,0.42588726,0.0,0.0,0.0,-0.0006387094,-0.0031585246,0.0027703643,0.0,0.0,0.0,inf,inf,inf,0,0,1,0
26432000,26352000,0,0,0.008189468,-0.21014184,0.4296705,0.0,0.0,0.0,0.0013420451,-0.00818333,-0.00090429187,0.0,0.0,0.0,inf,inf,inf,0,0,1,0
26504000,26422909,0,0,0.011224829,-0.21752991,0.4272003,0.0,0.0,0.0,-0.0017201155,-0.00039352477,0.0017708838,0.0,0.0,0.0,inf,inf,inf,0,0,1,0
26576000,26496000,0,0,0.008279584,-0.21066125,0.42749465,0.0,0.0,0.0,0.0012519509,-0.006871864,0.0016739666,0.0,0.0,0.0,inf,inf,inf,0,0,1,0
26648000,26567272,0,0,0.009784015,-0.21487397,0.4297684,0.0,0.0,0.0,-0.00014902838,-0.0024450868,-0.00049367547,0.0,0.0,0.0,inf,inf,inf,0,0,1,0
26720000,26640000,0,0,0.006302763,-0.21042937,0.42467788,0.0,0.0,0.0,0.003316138,-0.006785691,0.0046498477,0.0,0.0,0.0,inf,inf,inf,0,0,1,0
26792000,26710181,0,0,0.009412931,-0.2146996,0.4272508,0.0,0.0,0.0,0.00012744777,-0.0025132,0.0020797849,0.0,0.0,0.0,inf,inf,inf,0,0,1,0
26864000,26784000,0,0,0.0033957316,-0.21994622,0.42943925,0.0,0.0,0.0,0.0059244307,0.0026457757,-0.00014814734,0.0,0.0,0.0,inf,inf,inf,0,0,1,0
26936000,26854545,0,0,0.008918474,-0.21382248,0.42839473,0.0,0.0,0.0,2.4189241e-05,-0.0036649406,0.0008096993,0.0,0.0,0.0,inf,inf,inf,0,0,1,0
27008000,26928000,0,0,0.0101865595,-0.21062265,0.4228468,0.0,0.0,0.0,-0.0014838865,-0.006992176,0.0062980056,0.0,0.0,0.0,inf,inf,inf,0,0,1,0
27080000,27000000,0,0,0.0075860634,-0.21729816,0.42936215,0.0,0.0,0.0,0.00096768,-0.00036275387,-0.00023773313,0.0,0.0,0.0,inf,inf,inf,0,0,1,0
27152000,27072000,0,0,0.008699509,-0.2112257,0.42796534,0.0,0.0,0.0,-0.00023427885,-0.0065087825,0.001123488,0.0,0.0,0.0,inf,inf,inf,0,0,1,0
27224000,27143272,0,0,0.009999731,-0.2173816,0.42941195,0.0,0.0,0.0,-0.0015229741,-0.00037372112,-0.00033390522,0.0,0.0,0.0,inf,inf,inf,0,0,1,0
27296000,27216000,0,0,0.009133824,-0.20841132,0.42774925,0.0,0.0,0.0,-0.0005630115,-0.009346381,0.0013256967,0.0,0.0,0.0,inf,inf,inf,0,0,1,0
27368000,27287636,0,0,0.008013075,-0.21630538,0.4261601,0.0,0.0,0.0,0.0005912874,-0.0014844239,0.0028979182,0.0,0.0,0.0,inf,inf,inf,0,0,1,0
27440000,27360000,0,0,0.009453833,-0.21295874,0.42891315,0.0,0.0,0.0,-0.00081302226,-0.0048921555,0.00011309981,0.0,0.0,0.0,inf,inf,inf,0,0,1,0
27512000,27430545,0,0,0.008159235,-0.21830976,0.42797488,0.0,0.0,0.0,0.0005456805,0.0003631413,0.0010014772,0.0,0.0,0.0,inf,inf,inf,0,0,1,0
27584000,27504000,0,0,0.00081636343,-0.22330393,0.42492828,0.0,0.0,0.0,0.007864352,0.005243376,0.00399065,0.0,0.0,0.0,inf,inf,inf,0,0,1,0
27656000,27575272,0,0,0.008681794,-0.21738528,0.4287336,0.0,0.0,0.0,-0.000255947,-0.0006432235,0.00020670891,0.0,0.0,0.0,inf,inf,inf,0,0,1,0
27728000,27648000,0,0,0.007832509,-0.21692958,0.42403525,0.0,0.0,0.0,0.00043132436,-0.0010444522,0.004935831,0.0,0.0,0.0,inf,inf,inf,0,0,1,0
27800000,27718909,0,0,0.011549663,-0.21729507,0.4296664,0.0,0.0,0.0,-0.0034403466,-0.0006158799,-0.00066030025,0.0,0.0,0.0,inf,inf,inf,0,0,1,0
27872000,27792000,0,0,0.0044186967,-0.22121964,0.42592788,0.0,0.0,0.0,0.0036679697,0.003261134,0.0030545592,0.0,0.0,0.0,inf,inf,inf,0,0,1,0
27944000,27862181,0,0,0.007904204,-0.21624878,0.43102068,0.0,0.0,0.0,0.00016600452,-0.0017230511,-0.0020447373,0.0,0.0,0.0,inf,inf,inf,0,0,1,0
28016000,27936000,0,0,0.005266598,-0.21854666,0.43590102,0.0,0.0,0.0,0.0027756556,0.00066131353,-0.006880611,0.0,0.0,0.0,inf,inf,inf,0,0,1,0
28088000,28006909,0,0,0.010257398,-0.21753947,0.42854485,0.0,0.0,0.0,-0.0024166303,-0.00018750131,0.000559628,0.0,0.0,0.0,inf,inf,inf,0,0,1,0
28160000,28076000,0,0,0.011526624,-0.2171647,0.4281687,0.0,0.0,0.0,-0.0038157348,-0.00033545494,0.0010531843,0.0,0.0,0.0,inf,inf,inf,0,0,1,0
28232000,28145200,0,0,0.008199529,-0.21461515,0.43025142,0.0,0.0,0.0,-0.00062142406,-0.0027653426,-0.0009665489,0.0,0.0,0.0,inf,inf,inf,0,0,1,0
28296000,28216000,0,0,0.011139498,-0.21714425,0.42984205,0.0,0.0,0.0,-0.0036466205,-0.00020244718,-0.0005386472,0.0,0.0,0.0,inf,inf,inf,0,0,1,0
28376000,28288400,0,0,0.0071833814,-0.21599548,0.4289847,0.0,0.0,0.0,0.0002960628,-0.0014117211,0.00028836727,0.0,0.0,0.0,inf,inf,inf,0,0,1,0
28440000,28360000,0,0,0.008001259,-0.21545395,0.42928252,0.0,0.0,0.0,-0.0004334282,-0.0019745976,-2.1785498e-05,0.0,0.0,0.0,inf,inf,inf,0,0,1,0
28512000,28432000,0,0,0.010905784,-0.2160007,0.42922315,0.0,0.0,0.0,-0.0029977895,-0.0014298856,3.0428171e-05,0.0,0.0,0.0,inf,inf,inf,0,0,1,0
28584000,28504000,0,0,0.006314738,-0.21609145,0.4314099,0.0,0.0,0.0,0.001974502,-0.0013993531,-0.002194047,0.0,0.0,0.0,inf,inf,inf,0,0,1,0
28656000,28571111,0,0,0.009543024,-0.21802235,0.42877084,0.0,0.0,0.0,-0.0010289028,0.00037005544,0.00035873055,0.0,0.0,0.0,inf,inf,inf,0,0,1,0
28728000,28642666,0,0,0.006572883,-0.2196402,0.42774853,0.0,0.0,0.0,0.002068196,0.0018516481,0.0013094246,0.0,0.0,0.0,inf,inf,inf,0,0,1,0
28792000,28709500,0,0,0.009242907,-0.21729074,0.42961526,0.0,0.0,0.0,-0.00061208755,-0.00059856474,-0.0006082654,0.0,0.0,0.0,inf,inf,inf,0,0,1,0
28864000,28781000,0,0,0.010820561,-0.21405476,0.42634678,0.0,0.0,0.0,-0.002120928,-0.0037305653,0.002711594,0.0,0.0,0.0,inf,inf,inf,0,0,1,0
28928000,28848000,0,0,0.009319123,-0.21565175,0.42897683,0.0,0.0,0.0,-0.0006359108,-0.001947388,0.00017631054,0.0,0.0,0.0,inf,inf,inf,0,0,1,0
29000000,28919200,0,0,0.007985876,-0.217615,0.42889243,0.0,0.0,0.0,0.0006889915,0.00022514164,0.0003669262,0.0,0.0,0.0,inf,inf,inf,0,0,1,0
29072000,28990285,0,0,0.00922062,-0.21821421,0.43006662,0.0,0.0,0.0,-0.000619662,0.0009301156,-0.0007521808,0.0,0.0,0.0,inf,inf,inf,0,0,1,0
29144000,29058000,0,0,0.0070440173,-0.21325979,0.42994806,0.0,0.0,0.0,0.0015392154,-0.0040506423,-0.000646621,0.0,0.0,0.0,inf,inf,inf,0,0,1,0
29216000,29129000,0,0,0.010679949,-0.21685986,0.42934582,0.0,0.0,0.0,-0.0020983033,-0.00055091083,-9.5158815e-05,0.0,0.0,0.0,inf,inf,inf,0,0,1,0
29280000,29196000,0,0,0.0093844645,-0.2158032,0.43311346,0.0,0.0,0.0,-0.000774432,-0.0016634315,-0.0038916469,0.0,0.0,0.0,inf,inf,inf,0,0,1,0
29352000,29267111,0,0,0.010180007,-0.2162953,0.43138304,0.0,0.0,0.0,-0.0015459461,-0.001138404,-0.0021450222,0.0,0.0,0.0,inf,inf,inf,0,0,1,0
29416000,29334000,0,0,0.009040959,-0.21878412,0.42537338,0.0,0.0,0.0,-0.00030073524,0.0014899075,0.003933072,0.0,0.0,0.0,inf,inf,inf,0,0,1,0
29488000,29406000,0,0,0.009779712,-0.2151504,0.43286416,0.0,0.0,0.0,-0.0009930935,-0.0020303577,-0.0035012066,0.0,0.0,0.0,inf,inf,inf,0,0,1,0
29560000,29478000,0,0,0.0035740293,-0.21373275,0.42679214,0.0,0.0,0.0,0.0052695638,-0.003506139,0.0025401711,0.0,0.0,0.0,inf,inf,inf,0,0,1,0
29632000,29548800,0,0,0.008107468,-0.21596268,0.42865896,0.0,0.0,0.0,0.00065770093,-0.0014466345,0.0005887151,0.0,0.0,0.0,inf,inf,inf,0,0,1,0
29696000,29616000,0,0,0.004105707,-0.20936914,0.42410684,0.0,0.0,0.0,0.0045255446,-0.008103311,0.005111575,0.0,0.0,0.0,inf,inf,inf,0,0,1,0
29768000,29686909,0,0,0.009438381,-0.21683328,0.42983928,0.0,0.0,0.0,-0.0009403601,-0.0006637722,-0.00063064694,0.0,0.0,0.0,inf,inf,inf,0,0,1,0
29840000,29760000,0,0,0.004622077,-0.2088852,0.43057352,0.0,0.0,0.0,0.003914366,-0.008677542,-0.0013989806,0.0,0.0,0.0,inf,inf,inf,0,0,1,0
29912000,29831636,0,0,0.008447659,-0.21660006,0.43057573,0.0,0.0,0.0,2.4679117e-05,-0.0010281056,-0.0014330745,0.0,0.0,0.0,inf,inf,inf,0,0,1,0
29984000,29904000,0,0,0.0061693476,-0.21238829,0.43547025,0.0,0.0,0.0,0.0024375035,-0.0053112656,-0.0063664913,0.0,0.0,0.0,inf,inf,inf,0,0,1,0
30056000,29974545,0,0,0.0074988543,-0.21737716,0.42919612,0.0,0.0,0.0,0.001204221,-0.00036805868,-0.00011745095,0.0,0.0,0.0,inf,inf,inf,0,0,1,0
30128000,30044000,0,0,0.009045713,-0.21136138,0.42631903,0.0,0.0,0.0,-0.00023052841,-0.0063732564,0.002762735,0.0,0.0,0.0,inf,inf,inf,0,0,1,0
30200000,30112800,0,0,0.00922159,-0.21564937,0.42707705,0.0,0.0,0.0,-0.00032208022,-0.0020478964,0.0020218492,0.0,0.0,0.0,inf,inf,inf,0,0,1,0
30264000,30184000,0,0,0.009418849,-0.21385545,0.43011722,0.0,0.0,0.0,-0.0004942082,-0.0038057864,-0.0010004938,0.0,0.0,0.0,inf,inf,inf,0,0,1,0
30336000,30251111,0,0,0.009930263,-0.21814562,0.4296959,0.0,0.0,0.0,-0.00097538065,0.0006044954,-0.00051891804,0.0,0.0,0.0,inf,inf,inf,0,0,1,0
30400000,30318000,0,0,0.009005688,-0.2198891,0.42612606,0.0,0.0,0.0,-7.932633e-05,0.002429843,0.0030930042,0.0,0.0,0.0,inf,inf,inf,0,0,1,0
30472000,30389200,0,0,0.008164541,-0.21487606,0.42781672,0.0,0.0,0.0,0.00053947326,-0.0025627315,0.0014172494,0.0,0.0,0.0,inf,inf,inf,0,0,1,0
30536000,30456000,0,0,0.009146078,-0.21555927,0.42807633,0.0,0.0,0.0,-0.0006336849,-0.0018242002,0.0011895299,0.0,0.0,0.0,inf,inf,inf,0,0,1,0
30608000,30525818,0,0,0.008097676,-0.21610543,0.42940196,0.0,0.0,0.0,0.00022621732,-0.001219362,-0.000102728605,0.0,0.0,0.0,inf,inf,inf,0,0,1,0
30680000,30600000,0,0,0.007848653,-0.21606717,0.43390286,0.0,0.0,0.0,0.00041399617,-0.0012214184,-0.004584104,0.0,0.0,0.0,inf,inf,inf,0,0,1,0
30752000,30672000,0,0,0.008648552,-0.21469234,0.43187243,0.0,0.0,0.0,-0.00031922758,-0.002540335,-0.0025265813,0.0,0.0,0.0,inf,inf,inf,0,0,1,0
30824000,30744000,0,0,0.008030055,-0.21435617,0.42817435,0.0,0.0,0.0,0.00038474984,-0.002888009,0.0011638999,0.0,0.0,0.0,inf,inf,inf,0,0,1,0
30896000,30816000,0,0,0.010358086,-0.21711867,0.43088213,0.0,0.0,0.0,-0.001889756,-0.00026597083,-0.0016159713,0.0,0.0,0.0,inf,inf,inf,0,0,1,0
30968000,30888000,0,0,0.009547173,-0.21147549,0.42800483,0.0,0.0,0.0,-0.0011573872,-0.006036818,0.0011981726,0.0,0.0,0.0,inf,inf,inf,0,0,1,0
31040000,30959636,0,0,0.007874245,-0.21690786,0.42694747,0.0,0.0,0.0,0.0005669277,-0.0007751286,0.0021679997,0.0,0.0,0.0,inf,inf,inf,0,0,1,0
31112000,31032000,0,0,0.012596051,-0.21490669,0.43169054,0.0,0.0,0.0,-0.004087369,-0.0028461814,-0.0026119053,0.0,0.0,0.0,inf,inf,inf,0,0,1,0
31184000,31103272,0,0,0.007855775,-0.21514833,0.4263767,0.0,0.0,0.0,0.0008557644,-0.002579987,0.0027103424,0.0,0.0,0.0,inf,inf,inf,0,0,1,0
31256000,31176000,0,0,0.010049098,-0.21332842,0.42778152,0.0,0.0,0.0,-0.0014242241,-0.0043371916,0.001339078,0.0,0.0,0.0,inf,inf,inf,0,0,1,0
31328000,31247272,0,0,0.007614199,-0.21543762,0.43027878,0.0,0.0,0.0,0.000881996,-0.0020852685,-0.001083225,0.0,0.0,0.0,inf,inf,inf,0,0,1,0
31400000,31320000,0,0,0.004947217,-0.2161235,0.42867833,0.0,0.0,0.0,0.0034725722,-0.0012893677,0.00057449937,0.0,0.0,0.0,inf,inf,inf,0,0,1,0
31472000,31390545,0,0,0.009786918,-0.21522906,0.4288713,0.0,0.0,0.0,-0.0013568318,-0.0020735264,0.00043711066,0.0,0.0,0.0,inf,inf,inf,0,0,1,0
31544000,31464000,0,0,0.012144987,-0.21274264,0.43434465,0.0,0.0,0.0,-0.0037014894,-0.0044676363,-0.004989773,0.0,0.0,0.0,inf,inf,inf,0,0,1,0
31616000,31534545,0,0,0.008588239,-0.21470945,0.43058372,0.0,0.0,0.0,-5.280599e-07,-0.0025471896,-0.0012551546,0.0,0.0,0.0,inf,inf,inf,0,0,1,0
31688000,31608000,0,0,0.012405205,-0.21385999,0.43446788,0.0,0.0,0.0,-0.0037745414,-0.003470257,-0.005177468,0.0,0.0,0.0,inf,inf,inf,0,0,1,0
31760000,31678545,0,0,0.008781643,-0.2151231,0.4277144,0.0,0.0,0.0,-0.00014776085,-0.0021871328,0.0015861094,0.0,0.0,0.0,inf,inf,inf,0,0,1,0
31832000,31752000,0,0,0.0103297485,-0.21557048,0.4341915,0.0,0.0,0.0,-0.0016595302,-0.0018043816,-0.004924506,0.0,0.0,0.0,inf,inf,inf,0,0,1,0
31904000,31822181,0,0,0.008472385,-0.2156566,0.43050075,0.0,0.0,0.0,0.00024422817,-0.0017608851,-0.0012562275,0.0,0.0,0.0,inf,inf,inf,0,0,1,0
31976000,31896000,0,0,0.011504367,-0.21366122,0.4308144,0.0,0.0,0.0,-0.0027340502,-0.0037485957,-0.0015670657,0.0,0.0,0.0,inf,inf,inf,0,0,1,0
32048000,31966909,0,0,0.008163311,-0.21695332,0.42926607,0.0,0.0,0.0,0.0005467385,-0.00043842196,-8.374453e-06,0.0,0.0,0.0,inf,inf,inf,0,0,1,0
32120000,32040000,0,0,0.012852909,-0.2112736,0.42861593,0.0,0.0,0.0,-0.0042757783,-0.0061262846,0.0006403327,0.0,0.0,0.0,inf,inf,inf,0,0,1,0
32192000,32111272,0,0,0.009040719,-0.21553051,0.42833868,0.0,0.0,0.0,-0.00058612786,-0.0019141138,0.00089737773,0.0,0.0,0.0,inf,inf,inf,0,0,1,0
32264000,32184000,0,0,0.003832027,-0.21485348,0.4274,0.0,0.0,0.0,0.0046560094,-0.002638802,0.0018112361,0.0,0.0,0.0,inf,inf,inf,0,0,1,0
32336000,32254909,0,0,0.010015523,-0.21623302,0.42796868,0.0,0.0,0.0,-0.0015406366,-0.0012992024,0.0012225509,0.0,0.0,0.0,inf,inf,inf,0,0,1,0
32408000,32328000,0,0,0.017899383,-0.21264517,0.43387997,0.0,0.0,0.0,-0.009418663,-0.004793465,-0.0046414137,0.0,0.0,0.0,inf,inf,inf,0,0,1,0
32480000,32400000,0,0,0.00665279,-0.21655443,0.42865244,0.0,0.0,0.0,0.0019940333,-0.00076906383,0.00064107776,0.0,0.0,0.0,inf,inf,inf,0,0,1,0
32552000,32472000,0,0,0.001830648,-0.21258935,0.42632905,0.0,0.0,0.0,0.006735463,-0.004662603,0.0030023158,0.0,0.0,0.0,inf,inf,inf,0,0,1,0
32624000,32543636,0,0,0.00840527,-0.21508014,0.4301966,0.0,0.0,0.0,0.00018928759,-0.002092272,-0.00082555413,0.0,0.0,0.0,inf,inf,inf,0,0,1,0
32696000,32616000,0,0,0.014697914,-0.21668515,0.42524233,0.0,0.0,0.0,-0.0060346173,-0.00043940544,0.004151553,0.0,0.0,0.0,inf,inf,inf,0,0,1,0
32768000,32687636,0,0,0.0071933223,-0.2141775,0.4305903,0.0,0.0,0.0,0.001622838,-0.0029832423,-0.0012178719,0.0,0.0,0.0,inf,inf,inf,0,0,1,0
32840000,32760000,0,0,0.008990245,-0.20966715,0.42564863,0.0,0.0,0.0,-0.00025177933,-0.007561147,0.003691256,0.0,0.0,0.0,inf,inf,inf,0,0,1,0
32912000,32830909,0,0,0.006658557,-0.21619327,0.43113497,0.0,0.0,0.0,0.0019438015,-0.0010570139,-0.0018035471,0.0,0.0,0.0,inf,inf,inf,0,0,1,0
32984000,32904000,0,0,0.006782018,-0.21804388,0.43528464,0.0,0.0,0.0,0.0016144882,0.00089870393,-0.0058959424,0.0,0.0,0.0,inf,inf,inf,0,0,1,0
33056000,32974545,0,0,0.006834295,-0.21569593,0.42802024,0.0,0.0,0.0,0.0015399712,-0.0013440698,0.0014221072,0.0,0.0,0.0,inf,inf,inf,0,0,1,0
33128000,33048000,0,0,0.012577384,-0.21880466,0.43097082,0.0,0.0,0.0,-0.003988399,0.0018776953,-0.0014756024,0.0,0.0,0.0,inf,inf,inf,0,0,1,0
33200000,33119636,0,0,0.008207445,-0.21668634,0.42972553,0.0,0.0,0.0,0.0009563891,-0.00029987097,-0.000272125,0.0,0.0,0.0,inf,inf,inf,0,0,1,0
33272000,33192000,0,0,0.0147634335,-0.2132756,0.43659374,0.0,0.0,0.0,-0.005147826,-0.003966376,-0.007279545,0.0,0.0,0.0,inf,inf,inf,0,0,1,0
