timestamp,timestamp_sample,time_last_fuse,device_id,observation,observation_variance,innovation,innovation_variance,test_ratio,estimator_instance,fusion_enabled,innovation_rejected,fused
3272000,3189914,0,0,-0.001739502,12.25,1.3032695e-05,112.451,6.041784e-14,0,0,0,0
3336000,3250907,0,0,-0.011505127,12.25,0.012689596,112.25,5.7381147e-08,0,0,0,0
3392000,3311031,0,0,0.0017700195,12.25,-0.0012579155,112.25,5.6386684e-10,0,0,0,0
3456000,3371060,0,0,-0.01626587,12.25,0.015784474,62.25,1.6009615e-07,0,0,0,0
3512000,3431175,0,0,-0.013305664,12.25,0.014221391,62.249985,1.2995856e-07,0,0,0,0
3568000,3487192,0,0,0.026000977,12.25,-0.02519567,62.249985,4.079177e-07,0,0,0,0
3624000,3539269,0,0,-0.03591919,12.25,0.03649155,62.249985,8.556682e-07,0,0,0,0
3680000,3599305,0,0,0.0010375977,12.25,-0.0009459654,45.58333,7.8524365e-10,0,0,0,0
3744000,3659371,0,0,-0.04598999,12.25,0.04560854,45.58333,1.8253504e-06,0,0,0,0
3800000,3719408,0,0,0.11437988,12.25,-0.11525648,45.58333,1.1656943e-05,0,0,0,0
3864000,3778120,0,0,0.017730713,12.25,-0.019241082,45.58337,3.248722e-07,0,0,0,0
3920000,3839486,3840000,0,-0.029205322,12.25,0.027549373,37.250046,8.1499815e-07,0,0,0,0
3984000,3899535,3904000,0,-0.14395142,12.25,0.14154893,37.250107,2.1515212e-05,0,1,0,1
4040000,3959558,3960000,0,0.010955811,12.25,-0.10911587,20.47152,2.3264072e-05,0,1,0,1
4104000,4019596,4024000,0,-0.106414795,12.25,0.05112754,17.169739,6.0898433e-06,0,1,0,1
4160000,4079624,4080000,0,-0.04537964,12.25,-0.025268294,15.760104,1.6205139e-06,0,1,0,1
4224000,4139653,4144000,0,0.043823242,12.25,-0.109876655,14.978404,3.224076e-05,0,1,0,1
4280000,4199673,4200000,0,-0.02658081,12.25,-0.020428758,14.481495,1.1527377e-06,0,1,0,1
4344000,4259701,4264000,0,-0.1111145,12.25,0.06652558,14.137736,1.2521531e-05,0,1,0,1
4400000,4319719,4320000,0,-0.08291626,12.25,0.028477699,13.8858,2.33614e-06,0,1,0,1
4464000,4379746,4384000,0,-0.003112793,12.25,-0.0558699,13.693273,9.118187e-06,0,1,0,1
4520000,4439758,4440000,0,-0.08291626,12.25,0.028724574,13.541339,2.4372807e-06,0,1,0,1
4584000,4499781,4504000,0,0.039154053,12.25,-0.09651673,13.418357,2.7769356e-05,0,1,0,1
4640000,4559792,4560000,0,-0.068847656,12.25,0.01884891,13.316856,1.067163e-06,0,1,0,1
4704000,4619810,4624000,0,-0.021881104,12.25,-0.03086428,13.231697,2.8797629e-06,0,1,0,1
4760000,4679821,4680000,0,-0.08291626,12.25,0.032580007,13.158998,3.2265584e-06,0,1,0,1
4824000,4739837,4744000,0,0.025054932,12.25,-0.07875548,13.096555,1.8943687e-05,0,1,0,1
4880000,4799846,4800000,0,-0.08291626,12.25,0.033313718,13.042185,3.4037357e-06,0,1,0,1
4944000,4858526,4864000,0,-0.08761597,12.25,0.036270577,12.994228,4.049659e-06,0,1,0,1
5000000,4919868,4920000,0,0.025054932,12.25,-0.07937851,12.951975,1.945942e-05,0,1,0,1
5064000,4978545,4984000,0,-0.04067993,12.25,-0.010412335,12.91441,3.3580082e-07,0,1,0,1
5120000,5039887,5040000,0,0.020355225,12.25,-0.07187097,12.880699,1.6040854e-05,0,1,0,1
5184000,5099897,5104000,0,-0.0078125,12.25,-0.03956366,12.849936,4.8725014e-06,0,1,0,1
5240000,5159903,5160000,0,-0.068847656,12.25,0.02245637,12.822401,1.5731487e-06,0,1,0,1
5304000,5219911,5224000,0,-0.017211914,12.25,-0.03121562,12.797452,3.0456526e-06,0,1,0,1
5360000,5279916,5280000,0,-0.050079346,12.25,0.003891427,12.77402,4.7418762e-08,0,1,0,1
5424000,5339924,5344000,0,-0.068847656,12.25,0.021606069,12.753116,1.4641826e-06,0,1,0,1
5480000,5399929,5400000,0,-0.08761597,12.25,0.038723867,12.733837,4.710404e-06,0,1,0,1
5544000,5459934,5464000,0,-0.02658081,12.25,-0.024771385,12.716167,1.930209e-06,0,1,0,1
5600000,5517938,5520000,0,0.090789795,12.25,-0.14010715,12.698971,6.183183e-05,0,1,0,1
5648000,5567942,5568000,0,0.010955811,12.25,-0.055966314,12.683603,9.878039e-06,0,1,0,1
5712000,5627947,5632000,0,-0.031280518,12.25,-0.01270017,12.66951,5.0923626e-07,0,1,0,1
5768000,5687951,5688000,0,-0.14865112,12.25,0.10428069,12.656313,3.43685e-05,0,1,0,1
5832000,5746620,5752000,0,-0.04067993,12.25,-0.005982764,12.643172,1.1324204e-07,0,1,0,1
5888000,5807958,5808000,0,-0.012512207,12.25,-0.03469363,12.631604,3.8115438e-06,0,1,0,1
5952000,5866627,5872000,0,-0.059448242,12.25,0.0124069005,12.62089,4.8786154e-07,0,1,0,1
6008000,5927963,5928000,0,-0.035980225,12.25,-0.0101808235,12.609747,3.2879063e-07,0,1,0,1
6072000,5987966,5992000,0,-0.02658081,12.25,-0.020077951,12.600251,1.2797336e-06,0,1,0,1
6128000,6047969,6048000,0,-0.04537964,12.25,-0.0014490336,12.591238,6.670348e-09,0,1,0,1
6192000,6107971,6112000,0,0.0015869141,12.25,-0.047233805,12.581808,7.092883e-06,0,1,0,1
6248000,6167973,6168000,0,-0.050079346,12.25,0.0050754584,12.573737,8.194948e-08,0,1,0,1
6312000,6227976,6232000,0,0.006286621,12.25,-0.05212229,12.566235,8.647724e-06,0,1,0,1
6368000,6287977,6288000,0,-0.050079346,12.25,0.004895985,12.559055,7.634546e-08,0,1,0,1
6432000,6347979,6352000,0,-0.021881104,12.25,-0.022324312,12.551195,1.5882947e-06,0,1,0,1
6488000,6407980,6408000,0,-0.07354736,12.25,0.0293447,12.544697,2.7457384e-06,0,1,0,1
6552000,6467982,6472000,0,-0.04537964,12.25,-0.00010642037,12.538663,3.6129193e-11,0,1,0,1
6608000,6527983,6528000,0,-0.04537964,12.25,0.0008342415,12.531635,2.2214461e-09,0,1,0,1
6672000,6587984,6592000,0,-0.04537964,12.25,0.00029714778,12.526138,2.8196018e-10,0,1,0,1
6728000,6647986,6648000,0,-0.059448242,12.25,0.013873387,12.520825,6.148824e-07,0,1,0,1
6792000,6707987,6712000,0,-0.050079346,12.25,0.0036311597,12.515906,4.2139405e-08,0,1,0,1
6848000,6767988,6768000,0,0.0015869141,12.25,-0.04723179,12.509808,7.133098e-06,0,1,0,1
6912000,6827989,6832000,0,0.006286621,12.25,-0.051338848,12.505291,8.430599e-06,0,1,0,1
6968000,6887989,6888000,0,-0.050079346,12.25,0.0057578906,12.500894,1.0608299e-07,0,1,0,1
7032000,6947990,6952000,0,-0.021881104,12.25,-0.02188291,12.495515,1.5329076e-06,0,1,0,1
7088000,7007991,7008000,0,0.034454346,12.25,-0.078071594,12.491454,1.95179e-05,0,1,0,1
7152000,7067992,7072000,0,0.015655518,12.25,-0.058064807,12.487708,1.079949e-05,0,1,0,1
7208000,7127992,7128000,0,-0.012512207,12.25,-0.02903505,12.484035,2.7011592e-06,0,1,0,1
7272000,7187993,7192000,0,-0.04537964,12.25,0.004870385,12.479251,7.6032286e-08,0,1,0,1
7328000,7247993,7248000,0,0.010955811,12.25,-0.051766574,12.475837,8.591899e-06,0,1,0,1
7392000,7307994,7312000,0,-0.02658081,12.25,-0.013532374,12.472709,5.8728267e-07,0,1,0,1
7448000,7367994,7368000,0,0.010955811,12.25,-0.050511513,12.468221,8.185331e-06,0,1,0,1
7512000,7427995,7432000,0,-0.07824707,12.25,0.039436214,12.465302,4.9905407e-06,0,1,0,1
7568000,7485995,7488000,0,-0.059448242,12.25,0.019832578,12.462413,1.2624557e-06,0,1,0,1
7616000,7535996,7536000,0,-0.054748535,12.25,0.014715631,12.459532,6.952101e-07,0,1,0,1
7680000,7595996,7600000,0,-0.02658081,12.25,-0.013552643,12.455585,5.8985313e-07,0,1,0,1
7736000,7655996,7656000,0,-0.1111145,12.25,0.071102485,12.452999,1.6238862e-05,0,1,0,1
7800000,7715997,7720000,0,-0.003112793,12.25,-0.038168143,12.450658,4.6802575e-06,0,1,0,1
7856000,7773997,7776000,0,-0.1251831,12.25,0.08473982,12.446889,2.307673e-05,0,1,0,1
7904000,7823997,7824000,0,-0.02658081,12.25,-0.015285082,12.444452,7.509651e-07,0,1,0,1
7968000,7883997,7888000,0,0.010955811,12.25,-0.052712645,12.442357,8.932787e-06,0,1,0,1
8024000,7943998,7944000,0,-0.08291626,12.25,0.04186557,12.4402485,5.6356616e-06,0,1,0,1
8088000,8003998,8008000,0,-0.10171509,12.25,0.060236856,12.436894,1.1670048e-05,0,1,0,1
8144000,8063998,8064000,0,-0.068847656,12.25,0.026355922,12.434901,2.2344677e-06,0,1,0,1
8208000,8123998,8128000,0,-0.003112793,12.25,-0.039944824,12.4331255,5.133348e-06,0,1,0,1
8264000,8183998,8184000,0,-0.054748535,12.25,0.012083776,12.43132,4.6983791e-07,0,1,0,1
8328000,8243999,8248000,0,-0.1251831,12.25,0.08281203,12.428191,2.2071861e-05,0,1,0,1
8384000,8303999,8304000,0,-0.059448242,12.25,0.01573139,12.4264765,7.9661083e-07,0,1,0,1
8448000,8363999,8368000,0,-0.07824707,12.25,0.034144532,12.4249735,3.7532445e-06,0,1,0,1
8504000,8423999,8424000,0,-0.02658081,12.25,-0.017683458,12.421915,1.0069451e-06,0,1,0,1
8568000,8483999,8488000,0,-0.09701538,12.25,0.05290847,12.420483,9.015129e-06,0,1,0,1
8624000,8543999,8544000,0,0.0022888184,12.250271,-0.06914555,13.250322,1.4433181e-05,0,1,0,1
8688000,8603999,8608000,0,-0.10568237,12.251352,0.047236945,13.17714,6.773333e-06,0,1,0,1
8744000,8663999,8664000,0,-0.06814575,12.252299,0.009175252,13.115342,2.567535e-07,0,1,0,1
8808000,8723999,8728000,0,0.049224854,12.253381,-0.105583385,13.063595,3.41341e-05,0,1,0,1
8864000,8783999,8784000,0,-0.10571289,12.254326,0.058750913,13.01886,1.0605137e-05,0,1,0,1
8928000,8844000,8848000,0,-0.082214355,12.255406,0.035031226,12.981472,3.7813486e-06,0,1,0,1
8984000,8904000,8904000,0,-0.08691406,12.2563505,0.04058621,12.948438,5.0886156e-06,0,1,0,1
9048000,8964000,8968000,0,-0.13851929,12.257429,0.076783195,12.651999,1.8639454e-05,0,1,0,1
9104000,9022000,9024000,0,-0.025817871,12.258371,-0.03717649,12.6435375,4.3724835e-06,0,1,0,1
9152000,9072000,9072000,0,-0.1479187,12.259177,0.087042294,12.635515,2.3984336e-05,0,1,0,1
9216000,9132000,9136000,0,-0.002319336,12.260253,-0.059851546,12.62985,1.134521e-05,0,1,0,1
9272000,9190000,9192000,0,-0.06341553,12.261191,0.004115436,12.624434,5.36636e-08,0,1,0,1
9320000,9240000,9240000,0,-0.025848389,12.261992,-0.032619942,12.618992,3.3728863e-06,0,1,0,1
9384000,9300000,9304000,0,-0.039978027,12.2630625,-0.0162666,12.616125,8.389335e-07,0,1,0,1
9440000,9360000,9360000,0,-0.021209717,12.263995,-0.03889742,12.517568,4.8348356e-06,0,1,0,1
9504000,9420000,9424000,0,-0.09637451,12.265061,0.03792935,12.517318,4.5972643e-06,0,1,0,1
9560000,9478000,9480000,0,-0.025909424,12.26599,-0.032520343,12.51688,3.3796687e-06,0,1,0,1
9608000,9528000,9528000,0,0.053863525,12.266781,-0.11094385,12.51609,3.9336683e-05,0,1,0,1
9672000,9588000,9592000,0,-0.04486084,12.26784,-0.009055603,12.517162,2.6205285e-07,0,1,0,1
9728000,9648000,9648000,0,0.03024292,12.268761,-0.08311682,12.517826,2.2075417e-05,0,1,0,1
9792000,9708000,9712000,0,-0.124816895,12.2698145,0.07461127,12.519705,1.7785856e-05,0,1,0,1
9848000,9768000,9768000,0,0.0067749023,12.27073,-0.065584615,12.465388,1.3802512e-05,0,1,0,1
9912000,9828000,9832000,0,0.016052246,12.271777,-0.07346366,12.46748,1.731516e-05,0,1,0,1
9968000,9888000,9888000,0,-0.10614014,12.272685,0.050214887,12.469159,8.088869e-06,0,1,0,1
10032000,9948000,9952000,0,-0.08728027,12.2737255,0.03097304,12.471801,3.0767944e-06,0,1,0,1
10088000,10008000,10008000,0,0.020751953,12.274627,-0.07717231,12.473928,1.909764e-05,0,1,0,1
10152000,10068000,10072000,0,-0.054504395,12.2756605,-0.00016314909,12.477068,8.533295e-11,0,1,0,1
10208000,10126000,10128000,0,-0.110839844,12.276554,0.055075146,12.471552,9.728611e-06,0,1,0,1
10272000,10186666,10192000,0,-0.06378174,12.277579,0.0077538155,12.442602,1.9327679e-07,0,1,0,1
10328000,10248000,10248000,0,-0.06375122,12.278464,0.007998623,12.444997,2.0563435e-07,0,1,0,1
10392000,10308000,10312000,0,-0.06842041,12.279481,0.012995999,12.448249,5.4271413e-07,0,1,0,1
10448000,10368000,10368000,0,-0.0871582,12.280357,0.03191333,12.450949,3.2719133e-06,0,1,0,1
10512000,10428000,10432000,0,-0.06359863,12.281365,0.008363299,12.454551,2.2464005e-07,0,1,0,1
10568000,10488000,10488000,0,-0.08703613,12.282232,0.032147206,12.457522,3.3182937e-06,0,1,0,1
10632000,10548000,10552000,0,-0.0024414062,12.283231,-0.051418003,12.429064,8.50848e-06,0,1,0,1
10688000,10608000,10608000,0,0.011505127,12.284088,-0.06417957,12.431763,1.3253204e-05,0,1,0,1
10752000,10668000,10672000,0,-0.045013428,12.285076,-0.0061711185,12.43525,1.224992e-07,0,1,0,1
10808000,10728000,10728000,0,0.011291504,12.285924,-0.06171325,12.438174,1.2247859e-05,0,1,0,1
10872000,10788000,10792000,0,-0.13912964,12.286901,0.090319335,12.441922,2.6226115e-05,0,1,0,1
10928000,10848000,10848000,0,-0.044952393,12.287739,-0.004192129,12.445046,5.6484946e-08,0,1,0,1
10992000,10906666,10912000,0,-0.091918945,12.288706,0.043798078,12.449031,6.1636015e-06,0,1,0,1
11048000,10966000,10968000,0,-0.016662598,12.289532,-0.033753254,12.424423,3.6678791e-06,0,1,0,1
11096000,11016000,11016000,0,-0.054351807,12.290217,0.0050445013,12.426666,8.191092e-08,0,1,0,1
11160000,11076000,11080000,0,-0.14822388,12.291169,0.09992467,12.430296,3.213098e-05,0,1,0,1
11216000,11136000,11136000,0,0.030517578,12.291979,-0.07898283,12.433343,2.0069541e-05,0,1,0,1
11280000,11196000,11200000,0,-0.0073242188,12.292919,-0.03907036,12.437171,4.9094547e-06,0,1,0,1
11336000,11256000,11256000,0,-0.10601807,12.293717,0.061158318,12.440366,1.2026462e-05,0,1,0,1
11400000,11316000,11320000,0,0.03503418,12.294645,-0.07933607,12.44437,2.0231517e-05,0,1,0,1
11456000,11376000,11376000,0,-0.007507324,12.295431,-0.03908233,12.422796,4.918147e-06,0,1,0,1
11520000,11436000,11440000,0,-0.06869507,12.296347,0.023898449,12.426382,1.8384623e-06,0,1,0,1
11576000,11494000,11496000,0,-0.021636963,12.29712,-0.022122946,12.429394,1.5750559e-06,0,1,0,1
11624000,11544000,11544000,0,-0.092163086,12.297752,0.0498021,12.431788,7.980345e-06,0,1,0,1
11688000,11604000,11608000,0,-0.06851196,12.298651,0.027219769,12.435593,2.3832101e-06,0,1,0,1
11744000,11664000,11664000,0,-0.044921875,12.299407,0.0047735386,12.4387665,7.3276304e-08,0,1,0,1
11808000,11724000,11728000,0,-0.09655762,12.300292,0.05367811,12.436695,9.267219e-06,0,1,0,1
11864000,11784000,11784000,0,-0.07287598,12.301036,0.026997086,12.423195,2.3467157e-06,0,1,0,1
11928000,11844000,11848000,0,-0.039886475,12.301908,-0.004749421,12.426746,7.2607904e-08,0,1,0,1
11984000,11904000,11904000,0,-0.058685303,12.302637,0.015411243,12.429725,7.643176e-07,0,1,0,1
12048000,11964000,11968000,0,0.0024108887,12.303495,-0.044332515,12.433408,6.322874e-06,0,1,0,1
12104000,12022000,12024000,0,-0.11984253,12.304212,0.07977632,12.4364805,2.0469652e-05,0,1,0,1
12152000,12072000,12072000,0,-0.13360596,12.304787,0.09389776,12.438906,2.8352297e-05,0,1,0,1
12216000,12129333,12136000,0,-0.034576416,12.305627,-0.008548889,12.437119,2.3504964e-07,0,1,0,1
12264000,12180000,12184000,0,-0.1144104,12.30619,0.06985518,12.424058,1.5710637e-05,0,1,0,1
12320000,12239000,12240000,0,-0.062469482,12.306882,0.018546902,12.426914,1.1072341e-06,0,1,0,1
12376000,12296000,12296000,0,-0.21731567,12.307568,0.17452744,12.429811,9.8021854e-05,0,1,0,1
12440000,12358000,12360000,0,-0.024017334,12.308383,-0.018974591,12.433385,1.158285e-06,0,1,0,1
12496000,12416000,12416000,0,-0.1461792,12.309055,0.104731716,12.436363,3.527955e-05,0,1,0,1
12552000,12468000,12472000,0,-0.11282349,12.309721,0.07171136,12.439376,1.6536262e-05,0,1,0,1
12608000,12526000,12528000,0,-0.051452637,12.310381,0.0024703592,12.437224,1.9627127e-08,0,1,0,1
12664000,12584000,12584000,0,-0.13128662,12.311034,0.081370994,12.425689,2.1314678e-05,0,1,0,1
12720000,12636000,12640000,0,-0.02758789,12.311681,-0.021884006,12.428467,1.5413316e-06,0,1,0,1
12776000,12695000,12696000,0,-0.037109375,12.312321,-0.010914307,12.431281,3.8329793e-07,0,1,0,1
12840000,12756000,12760000,0,-0.131073,12.31309,0.084617466,12.434754,2.3032591e-05,0,1,0,1
12896000,12816000,12816000,0,-0.050811768,12.313717,0.004848011,12.437641,7.558735e-08,0,1,0,1
12952000,12872000,12872000,0,-0.14468384,12.314337,0.10002254,12.440559,3.216739e-05,0,1,0,1
13008000,12924000,12928000,0,-0.08782959,12.31495,0.04131626,12.438619,5.4894626e-06,0,1,0,1
13064000,12984000,12984000,0,-0.15335083,12.3155575,0.10522236,12.427672,3.563578e-05,0,1,0,1
13128000,13044000,13048000,0,0.035003662,12.316293,-0.08260578,12.430958,2.1957165e-05,0,1,0,1
13184000,13104000,13104000,0,-0.08279419,12.316886,0.03730755,12.433695,4.4776816e-06,0,1,0,1
13248000,13162666,13168000,0,0.06295776,12.317608,-0.10718769,12.437077,3.695145e-05,0,1,0,1
13304000,13224000,13224000,0,-0.05029297,12.318187,0.008552957,12.43988,2.3522118e-07,0,1,0,1
13368000,13284000,13288000,0,-0.04083252,12.318894,0.0006824024,12.443352,1.4969376e-09,0,1,0,1
13424000,13344000,13344000,0,-0.101867676,12.31946,0.053274065,12.428321,9.134383e-06,0,1,0,1
13488000,13404000,13408000,0,-0.0921936,12.320153,0.044606734,12.431491,6.402324e-06,0,1,0,1
13544000,13464000,13464000,0,-0.12011719,12.3207035,0.07342982,12.434127,1.7345614e-05,0,1,0,1
13608000,13524000,13528000,0,-0.10089111,12.3213825,0.055046458,12.437389,9.745172e-06,0,1,0,1
13664000,13584000,13584000,0,-0.10998535,12.321919,0.06494385,12.440092,1.3561649e-05,0,1,0,1
13728000,13644000,13648000,0,-0.07675171,12.322585,0.032650936,12.443444,3.4269729e-06,0,1,0,1
13784000,13704000,13704000,0,-0.15640259,12.323109,0.11336819,12.44621,4.1305255e-05,0,1,0,1
13848000,13764000,13768000,0,0.008605957,12.323761,-0.059017736,12.43214,1.1206737e-05,0,1,0,1
13904000,13824000,13824000,0,-0.085632324,12.324269,0.036952037,12.434683,4.392402e-06,0,1,0,1
13968000,13884000,13888000,0,-0.13235474,12.324907,0.08477847,12.437839,2.3114593e-05,0,1,0,1
14024000,13944000,13944000,0,0.03717041,12.325402,-0.08424721,12.440449,2.2821016e-05,0,1,0,1
14088000,14004000,14008000,0,-0.010284424,12.326027,-0.03445771,12.443694,3.81666e-06,0,1,0,1
14144000,14064000,14064000,0,-0.08093262,12.326509,0.03793052,12.44637,4.6237556e-06,0,1,0,1
14208000,14124000,14128000,0,0.10241699,12.32712,-0.14917634,12.445342,7.152421e-05,0,1,0,1
14264000,14184000,14184000,0,0.0357666,12.327589,-0.083117455,12.435303,2.2222253e-05,0,1,0,1
14328000,14244000,14248000,0,0.049346924,12.328186,-0.09447904,12.43836,2.8705677e-05,0,1,0,1
14384000,14304000,14304000,0,-0.04043579,12.328641,-0.002493512,12.440889,1.9990857e-08,0,1,0,1
14448000,14364000,14368000,0,0.03463745,12.329226,-0.07598154,12.444038,1.8557303e-05,0,1,0,1
14504000,14424000,14424000,0,-0.12548828,12.329668,0.08624784,12.446634,2.3905868e-05,0,1,0,1
14568000,14484000,14488000,0,-0.06390381,12.330239,0.02547424,12.449873,2.0849589e-06,0,1,0,1
14624000,14544000,14544000,0,-0.06845093,12.330668,0.024377476,12.435944,1.9114314e-06,0,1,0,1
14688000,14604000,14608000,0,-0.09176636,12.331227,0.04899056,12.438915,7.717956e-06,0,1,0,1
14744000,14664000,14664000,0,-0.06329346,12.331643,0.021374479,12.44137,1.4688684e-06,0,1,0,1
14808000,14724000,14728000,0,-0.091308594,12.332189,0.05068391,12.444435,8.257051e-06,0,1,0,1
14864000,14782000,14784000,0,-0.03463745,12.332592,-0.0051148534,12.4469595,8.4074266e-08,0,1,0,1
14928000,14842666,14848000,0,-0.06283569,12.333126,0.024638139,12.450118,1.9503038e-06,0,1,0,1
14984000,14904000,14904000,0,-0.03451538,12.333517,-0.0025793165,12.452709,2.1370045e-08,0,1,0,1
15048000,14964000,14968000,0,-0.100250244,12.334039,0.055340067,12.439471,9.847759e-06,0,1,0,1
15104000,15024000,15024000,0,-0.08581543,12.334417,0.041636545,12.44186,5.573449e-06,0,1,0,1
15168000,15082666,15088000,0,-0.07614136,12.334926,0.03304776,12.444851,3.510382e-06,0,1,0,1
15224000,15144000,15144000,0,-0.024291992,12.335293,-0.017799594,12.447313,1.018133e-06,0,1,0,1
15288000,15204000,15208000,0,-0.057281494,12.33579,0.016866107,12.4504,9.1391615e-07,0,1,0,1
15344000,15264000,15264000,0,-0.04776001,12.336145,0.008544348,12.452933,2.3450183e-07,0,1,0,1
15408000,15324000,15328000,0,-0.14160156,12.336631,0.10042968,12.451926,3.2400192e-05,0,1,0,1
15464000,15384000,15384000,0,-0.13150024,12.336974,0.0867003,12.442337,2.416569e-05,0,1,0,1
15528000,15444000,15448000,0,-0.10272217,12.337448,0.05866398,12.445263,1.1061116e-05,0,1,0,1
15584000,15504000,15504000,0,-0.041259766,12.33778,-0.0019864738,12.447669,1.2680538e-08,0,1,0,1
15648000,15564000,15568000,0,-0.017791748,12.338243,-0.023882248,12.450694,1.8323852e-06,0,1,0,1
15704000,15624000,15624000,0,0.07122803,12.338564,-0.111257985,12.453175,3.9759627e-05,0,1,0,1
15768000,15684000,15688000,0,-0.061035156,12.339015,0.0237265,12.456297,1.8077503e-06,0,1,0,1
15824000,15742000,15744000,0,-0.13595581,12.339326,0.09249362,12.442783,2.7502112e-05,0,1,0,1
15872000,15792000,15792000,0,-0.03668213,12.339496,-0.006397903,12.444546,1.315698e-07,0,1,0,1
15936000,15850666,15856000,0,-0.055541992,12.339933,0.014033336,12.447453,6.3285086e-07,0,1,0,1
15992000,15912000,15912000,0,-0.08831787,12.34023,0.048052344,12.44984,7.4186587e-06,0,1,0,1
16056000,15970666,15976000,0,-0.15838623,12.340658,0.11932827,12.452849,4.573808e-05,0,1,0,1
16112000,16032000,16032000,0,0.020874023,12.340944,-0.05952055,12.455313,1.13773e-05,0,1,0,1
16176000,16090666,16096000,0,-0.07815552,12.341362,0.041812126,12.458424,5.6130816e-06,0,1,0,1
16232000,16152000,16152000,0,-0.0121154785,12.341639,-0.031200923,12.444949,3.1289726e-06,0,1,0,1
16296000,16212000,16216000,0,-0.031158447,12.342045,-0.010285895,12.4478035,3.399785e-07,0,1,0,1
16352000,16272000,16272000,0,-0.0687561,12.342311,0.028847776,12.450147,2.673685e-06,0,1,0,1
16416000,16332000,16336000,0,-0.096710205,12.342708,0.058241017,12.453107,1.08953245e-05,0,1,0,1
16472000,16390000,16392000,0,-0.05404663,12.342964,0.016619932,12.45553,8.870667e-07,0,1,0,1
16536000,16450666,16456000,0,-0.08679199,12.343352,0.051080447,12.458594,8.3772275e-06,0,1,0,1
16592000,16512000,16512000,0,-0.062927246,12.343598,0.02843611,12.461094,2.5956383e-06,0,1,0,1
16656000,16572000,16576000,0,-0.14251709,12.343977,0.10147828,12.448096,3.3090495e-05,0,1,0,1
16712000,16632000,16632000,0,-0.061950684,12.344214,0.021689385,12.4503975,1.5113716e-06,0,1,0,1
16776000,16692000,16696000,0,-0.14630127,12.344583,0.10776922,12.453311,3.7304795e-05,0,1,0,1
16832000,16752000,16752000,0,-0.03277588,12.3448105,-0.0,12.455695,8.034567e-08,0,1,0,1
16896000,16810666,16816000,0,0.02822876,12.345171,-0.0,12.458717,1.3145824e-05,0,1,0,1
16952000,16872000,16872000,0,-0.04269409,12.34539,0.008770917,12.461182,2.4693958e-07,0,1,0,1
17016000,16932000,16936000,0,0.009002686,12.345741,-0.0,12.448317,7.543811e-06,0,1,0,1
17072000,16992000,16992000,0,-0.010131836,12.345952,-0.0,12.45058,2.4413102e-06,0,1,0,1
17136000,17052000,17056000,0,-0.07608032,12.346293,0.040447615,12.453448,5.2548003e-06,0,1,0,1
17192000,17112000,17112000,0,-0.10864258,12.346496,0.0744957,12.455795,1.7821774e-05,0,1,0,1
17256000,17172000,17176000,0,-0.08459473,12.346829,0.05191689,12.458775,8.653704e-06,0,1,0,1
17312000,17232000,17232000,0,-0.03253174,12.347023,0.0012874957,12.461204,5.3209797e-09,0,1,0,1
17376000,17292000,17296000,0,-0.06072998,12.347349,0.031698026,12.46429,3.224459e-06,0,1,0,1
17432000,17352000,17352000,0,-0.1308899,12.347536,0.09592613,12.450683,2.9562467e-05,0,1,0,1
17496000,17412000,17416000,0,-0.04562378,12.347853,0.011969779,12.453508,4.6019352e-07,0,1,0,1
17552000,17472000,17472000,0,-0.04083252,12.348031,0.008959889,12.455819,2.57806e-07,0,1,0,1
17616000,17532000,17536000,0,0.024963379,12.348341,-0.0,12.458756,9.634799e-06,0,1,0,1
17672000,17592000,17592000,0,-0.083465576,12.348511,0.05549386,12.46115,9.885343e-06,0,1,0,1
17736000,17652000,17656000,0,-0.01260376,12.348814,-0.0,12.464197,6.064504e-07,0,1,0,1
17792000,17712000,17712000,0,0.0013427734,12.348977,-0.0,12.466675,2.1360438e-06,0,1,0,1
17856000,17772000,17776000,0,0.019927979,12.349273,-0.0,12.453485,1.0748775e-05,0,1,0,1
17912000,17832000,17832000,0,-0.027496338,12.349427,-0.0,12.455756,2.5307153e-07,0,1,0,1
17976000,17892000,17896000,0,-0.08859253,12.349715,0.0540618,12.4586525,9.383609e-06,0,1,0,1
18032000,17952000,17952000,0,-0.06466675,12.349864,0.031318158,12.461012,3.1484667e-06,0,1,0,1
18096000,18012000,18016000,0,-0.09729004,12.350145,0.06561285,12.464019,1.38159185e-05,0,1,0,1
18152000,18072000,18072000,0,0.08633423,12.3502865,-0.0,12.466461,4.3797936e-05,0,1,0,1
18216000,18132000,18136000,0,-0.06954956,12.350561,0.032841664,12.453368,3.4643638e-06,0,1,0,1
18272000,18192000,18192000,0,-0.01763916,12.350696,-0.0,12.455604,9.972492e-07,0,1,0,1
18336000,18252000,18256000,0,-0.022491455,12.350964,-0.0,12.458458,3.702661e-07,0,1,0,1
18392000,18310000,18312000,0,0.014984131,12.351091,-0.0,12.46078,6.920718e-06,0,1,0,1
18440000,18360000,18360000,0,-0.032318115,12.351083,0.0024364889,12.462544,1.9053823e-08,0,1,0,1
18504000,18420000,18424000,0,0.0099487305,12.351344,-0.0,12.465553,4.5594984e-06,0,1,0,1
18560000,18478000,18480000,0,0.033111572,12.351467,-0.0,12.467997,1.11380505e-05,0,1,0,1
18608000,18528000,18528000,0,-0.033081055,12.351452,0.0023720376,12.465374,1.8055015e-08,0,1,0,1
18672000,18588000,18592000,0,-0.09408569,12.351708,0.062311642,12.4565115,1.2468148e-05,0,1,0,1
18728000,18648000,18648000,0,-0.11236572,12.351824,0.08191045,12.458781,2.1540858e-05,0,1,0,1
18792000,18708000,18712000,0,-0.06942749,12.352074,0.04042981,12.461682,5.2467053e-06,0,1,0,1
18848000,18768000,18768000,0,-0.15829468,12.352183,0.13086142,12.46404,5.4957178e-05,0,1,0,1
18912000,18828000,18832000,0,-0.01638794,12.3524275,-0.0,12.467052,3.202598e-07,0,1,0,1
18968000,18888000,18888000,0,-0.03994751,12.352532,0.015573461,12.469495,7.7800325e-07,0,1,0,1
19032000,18946666,18952000,0,0.03060913,12.352771,-0.0,12.456242,1.2300824e-05,0,1,0,1
19088000,19006000,19008000,0,-0.059143066,12.352869,0.029754234,12.458475,2.8424488e-06,0,1,0,1
19152000,19065333,19072000,0,-0.04949951,12.353102,0.022059545,12.461333,1.5620271e-06,0,1,0,1
19200000,19116000,19120000,0,0.030517578,12.35306,-0.0,12.46306,1.0235543e-05,0,1,0,1
19256000,19176000,19176000,0,-0.021606445,12.353154,-0.0,12.465417,1.7872832e-08,0,1,0,1
19320000,19236000,19240000,0,0.030029297,12.353382,-0.0,12.468431,8.677971e-06,0,1,0,1
19376000,19296000,19296000,0,0.0061035156,12.353471,-0.0,12.470872,2.3597147e-06,0,1,0,1
19440000,19356000,19360000,0,-0.11148071,12.353694,0.08307589,12.457537,2.2160411e-05,0,1,0,1
19496000,19415000,19416000,0,-0.09667969,12.353778,0.065880105,12.459769,1.3933446e-05,0,1,0,1
19560000,19476000,19480000,0,-0.011627197,12.353994,-0.0,12.462628,1.7537212e-06,0,1,0,1
19616000,19535000,19536000,0,-0.14328003,12.354074,0.10376769,12.464949,3.455364e-05,0,1,0,1
19680000,19596000,19600000,0,-0.06729126,12.354286,0.02017637,12.46792,1.3060267e-06,0,1,0,1
19736000,19654000,19656000,0,-0.07650757,12.35436,0.021596186,12.470325,1.4960162e-06,0,1,0,1
19792000,19712000,19712000,0,0.06921387,12.354433,-0.0,12.47277,5.75962e-05,0,1,0,1
19848000,19764000,19768000,0,-0.1713562,12.354506,0.08454826,12.458716,2.2950706e-05,0,1,0,1
19904000,19824000,19824000,0,-0.048583984,12.354575,-0.0,12.460946,9.382255e-06,0,1,0,1
19968000,19884000,19888000,0,-0.17581177,12.354779,0.052362427,12.463806,8.799314e-06,0,1,0,1
20024000,19944000,19944000,0,-0.1565857,12.354844,0.011353463,12.466124,4.1360454e-07,0,1,0,1
20088000,20004000,20008000,0,-0.14712524,12.355044,-0.0,12.469095,2.1919939e-06,0,1,0,1
20144000,20064000,20064000,0,-0.24591064,12.355105,0.04515609,12.4714985,6.539944e-06,0,1,0,1
20208000,20124000,20128000,0,-0.212677,12.355302,-0.0,12.469978,2.415611e-06,0,1,0,1
20264000,20184000,20184000,0,-0.18945312,12.355359,-0.0,12.460373,2.4512734e-05,0,1,0,1
20328000,20244000,20248000,0,-0.2512207,12.35555,-0.0,12.463187,1.2788762e-05,0,1,0,1
20384000,20302000,20304000,0,-0.4395752,12.355602,0.092740774,12.4654665,2.7598973e-05,0,1,0,1
20432000,20352000,20352000,0,-0.49041748,12.355518,0.11534867,12.467182,4.2689084e-05,0,1,0,1
20496000,20412000,20416000,0,-0.4659729,12.355707,0.053370893,12.470154,9.136863e-06,0,1,0,1
20552000,20472000,20472000,0,-0.507782,12.355758,0.062451154,12.472554,1.2507933e-05,0,1,0,1
20616000,20530666,20536000,0,-0.5166321,12.355942,0.021115273,12.459171,1.4314106e-06,0,1,0,1
20672000,20592000,20592000,0,-0.5117798,12.355988,-0.0,12.461361,9.733643e-07,0,1,0,1
20736000,20652000,20656000,0,-0.652771,12.356168,0.084741116,12.464174,2.304543e-05,0,1,0,1
20792000,20712000,20712000,0,-0.49240112,12.35621,-0.0,12.466452,3.942079e-05,0,1,0,1
20856000,20772000,20776000,0,-0.6435852,12.356386,0.00046521425,12.4693775,6.9425854e-10,0,1,0,1
20912000,20832000,20832000,0,-0.69055176,12.356425,0.012241602,12.47174,4.8062844e-07,0,1,0,1
20976000,20890666,20896000,0,-0.65289307,12.356599,-0.0,12.474776,1.3967303e-05,0,1,0,1
21032000,20952000,20952000,0,-0.84594727,12.356634,0.07872057,12.460623,1.9892837e-05,0,1,0,1
21096000,21012000,21016000,0,-0.7513733,12.356803,-0.0,12.463389,1.0737264e-05,0,1,0,1
21152000,21072000,21072000,0,-0.8833008,12.356834,0.037718236,12.465628,4.5650822e-06,0,1,0,1
21216000,21132000,21136000,0,-0.95809937,12.357,0.07050121,12.468507,1.5945518e-05,0,1,0,1
21272000,21192000,21192000,0,-0.9527893,12.357029,0.028045118,12.470832,2.5227785e-06,0,1,0,1
21336000,21250666,21256000,0,-0.914978,12.357191,-0.0,12.473821,8.604987e-06,0,1,0,1
21392000,21310000,21312000,0,-0.9952698,12.357217,-0.0,12.476228,2.069253e-07,0,1,0,1
21440000,21360000,21360000,0,-1.2019043,12.357106,0.15715814,12.4613905,7.928065e-05,0,1,0,1
21504000,21420000,21424000,0,-1.1395264,12.357267,0.0516361,12.464155,8.556655e-06,0,1,0,1
21560000,21480000,21480000,0,-1.2142029,12.357291,0.08936,12.466391,2.5621559e-05,0,1,0,1
21624000,21540000,21544000,0,-1.1054382,12.357449,-0.0,12.469267,1.2250558e-05,0,1,0,1
21680000,21600000,21600000,0,-1.232727,12.35747,0.02929008,12.471587,2.7515625e-06,0,1,0,1
21744000,21660000,21664000,0,-1.2653503,12.357625,0.02056694,12.474574,1.3563558e-06,0,1,0,1
21800000,21720000,21720000,0,-1.3309021,12.357643,0.05025685,12.476976,8.097317e-06,0,1,0,1
21864000,21780000,21784000,0,-1.3492432,12.357796,0.017459989,12.463239,9.784013e-07,0,1,0,1
21920000,21840000,21840000,0,-1.4148254,12.35781,0.04761696,12.465434,7.275718e-06,0,1,0,1
21984000,21900000,21904000,0,-1.409729,12.357959,0.0021748543,12.468264,1.5174496e-08,0,1,0,1
22040000,21960000,21960000,0,-1.5036011,12.35797,0.061483026,12.470545,1.2125092e-05,0,1,0,1
22104000,22017333,22024000,0,-1.5359497,12.358117,0.054301858,12.473486,9.455871e-06,0,1,0,1
22152000,22068000,22072000,0,-1.68573,12.357991,0.17470717,12.475219,9.786633e-05,0,1,0,1
22208000,22127000,22128000,0,-1.4963989,12.358003,-0.0,12.4730015,9.276206e-06,0,1,0,1
22272000,22188000,22192000,0,-1.6799622,12.35815,0.08820617,12.463858,2.496925e-05,0,1,0,1
22328000,22247000,22248000,0,-1.6932983,12.358157,0.068223596,12.46605,1.49348325e-05,0,1,0,1
22392000,22308000,22312000,0,-1.6222839,12.3583,-0.0,12.468878,5.1399616e-06,0,1,0,1
22448000,22368000,22368000,0,-1.7728577,12.358306,0.079052925,12.471155,2.0044223e-05,0,1,0,1
22512000,22428000,22432000,0,-1.8519897,12.358447,0.12213504,12.474093,4.7833437e-05,0,1,0,1
22568000,22487000,22488000,0,-1.8039856,12.358451,0.04262674,12.476455,5.8254973e-06,0,1,0,1
22632000,22548000,22552000,0,-1.8036194,12.35859,0.0042238235,12.462838,5.7260422e-08,0,1,0,1
22688000,22606000,22608000,0,-1.9162598,12.35859,0.087855935,12.464991,2.4769102e-05,0,1,0,1
22752000,22668000,22672000,0,-1.8732605,12.358726,0.0127244,12.467772,5.194524e-07,0,1,0,1
22808000,22726000,22728000,0,-1.9764099,12.358724,0.09068787,12.470012,2.6381016e-05,0,1,0,1
22872000,22788000,22792000,0,-2.0601501,12.358857,0.14873147,12.472904,7.094113e-05,0,1,0,1
22928000,22848000,22848000,0,-1.9790039,12.358853,0.04852569,12.475227,7.55014e-06,0,1,0,1
22992000,22908000,22912000,0,-2.077179,12.358986,0.13060594,12.478229,5.468055e-05,0,1,0,1
23048000,22968000,22968000,0,-2.0290833,12.35898,0.05169916,12.463881,8.5777565e-06,0,1,0,1
23112000,23028000,23032000,0,-2.0333252,12.359109,0.045098543,12.466616,6.52584e-06,0,1,0,1
23168000,23086000,23088000,0,-2.089264,12.3591,0.09267187,12.468819,2.7550568e-05,0,1,0,1
23232000,23148000,23152000,0,-2.0978394,12.359227,0.091845036,12.471664,2.705496e-05,0,1,0,1
23288000,23206000,23208000,0,-2.0407104,12.359217,0.026272297,12.473952,2.2133597e-06,0,1,0,1
23344000,23264000,23264000,0,-1.9324951,12.359207,-0.0,12.476278,2.6127425e-05,0,1,0,1
23408000,23326000,23328000,0,-2.03656,12.359333,-0.0,12.474663,9.558337e-12,0,1,0,1
23472000,23388000,23392000,0,-2.1961975,12.359456,0.14149714,12.465426,6.4246306e-05,0,1,0,1
23528000,23448000,23448000,0,-2.119812,12.359442,0.053768158,12.467592,9.275294e-06,0,1,0,1
23592000,23508000,23512000,0,-2.05365,12.359562,-0.0,12.470393,1.9480435e-06,0,1,0,1
23648000,23568000,23568000,0,-2.0914001,12.359546,0.0028631687,12.472644,2.6290287e-08,0,1,0,1
23712000,23628000,23632000,0,-2.0585022,12.359666,-0.0,12.475555,5.51568e-06,0,1,0,1
23768000,23688000,23688000,0,-2.1387024,12.359648,0.029012203,12.477889,2.6982382e-06,0,1,0,1
23832000,23748000,23752000,0,-2.1149902,12.359766,-0.0,12.464202,1.5484484e-06,0,1,0,1
23888000,23808000,23808000,0,-2.1574097,12.359746,0.010887861,12.466331,3.8037024e-07,0,1,0,1
23952000,23868000,23872000,0,-2.1901855,12.359861,0.032891273,12.469087,3.4704572e-06,0,1,0,1
24008000,23927000,23928000,0,-2.124176,12.359839,-0.0,12.471302,5.7995467e-06,0,1,0,1
24072000,23988000,23992000,0,-2.1621094,12.359954,-0.0,12.474169,6.9030904e-07,0,1,0,1
24128000,24048000,24048000,0,-2.1809998,12.359931,-0.0,12.476468,5.9243398e-08,0,1,0,1
24192000,24108000,24112000,0,-2.1528625,12.360044,-0.0,12.479443,5.58921e-06,0,1,0,1
24248000,24168000,24168000,0,-2.3316345,12.36002,0.107809305,12.465048,3.72974e-05,0,1,0,1
24312000,24228000,24232000,0,-2.3213196,12.36013,0.087396145,12.46776,2.450508e-05,0,1,0,1
24368000,24288000,24288000,0,-2.2548218,12.360105,0.012359619,12.46994,4.9001096e-07,0,1,0,1
24432000,24348000,24352000,0,-2.4049377,12.360213,0.15380383,12.472763,7.5863274e-05,0,1,0,1
24488000,24408000,24408000,0,-2.2580261,12.360186,-0.0,12.475028,8.351177e-09,0,1,0,1
24544000,24464000,24464000,0,-2.2110596,12.360159,-0.0,12.477332,9.804596e-06,0,1,0,1
24600000,24516000,24520000,0,-2.3101501,12.360133,0.037436485,12.479674,4.492074e-06,0,1,0,1
24656000,24576000,24576000,0,-2.3614502,12.360107,0.07110572,12.465295,1.622432e-05,0,1,0,1
24720000,24636000,24640000,0,-2.3044739,12.360216,0.006793499,12.468008,1.4806416e-07,0,1,0,1
24776000,24696000,24696000,0,-2.3513794,12.3601885,0.047981262,12.470189,7.384656e-06,0,1,0,1
24840000,24756000,24760000,0,-2.3838196,12.360296,0.073865175,12.473014,1.749718e-05,0,1,0,1
24896000,24816000,24816000,0,-2.3831787,12.360268,0.067485094,12.475281,1.4602438e-05,0,1,0,1
24960000,24874666,24880000,0,-2.3450012,12.360374,0.023188353,12.478215,1.7236429e-06,0,1,0,1
25016000,24936000,24936000,0,-2.1992493,12.360345,-0.0,12.464011,5.9003505e-05,0,1,0,1
25080000,24996000,25000000,0,-2.294342,12.360449,-0.0,12.4666815,6.6798125e-06,0,1,0,1
25136000,25056000,25056000,0,-2.360443,12.360417,0.016183138,12.468829,8.4015574e-07,0,1,0,1
25200000,25116000,25120000,0,-2.407257,12.360521,0.058163643,12.471613,1.0850271e-05,0,1,0,1
25256000,25174000,25176000,0,-2.4020386,12.360488,0.04848814,12.4738455,7.539294e-06,0,1,0,1
25304000,25224000,25224000,0,-2.4110107,12.36032,0.053737402,12.4755,9.258813e-06,0,1,0,1
25368000,25284000,25288000,0,-2.3447876,12.360427,-0.0,12.478438,9.494012e-07,0,1,0,1
25424000,25344000,25344000,0,-2.3825073,12.360395,0.0044870377,12.464239,6.461207e-08,0,1,0,1
25488000,25404000,25408000,0,-2.4528809,12.360499,0.070638895,12.466914,1.6009908e-05,0,1,0,1
25544000,25464000,25464000,0,-2.45224,12.360466,0.065844774,12.469064,1.3908131e-05,0,1,0,1
25608000,25524000,25528000,0,-2.3859253,12.360569,-0.0,12.471852,7.805742e-08,0,1,0,1
25664000,25584000,25584000,0,-2.484558,12.360536,0.090513945,12.474089,2.6271337e-05,0,1,0,1
25728000,25642666,25648000,0,-2.4743958,12.360638,0.07612395,12.476987,1.8577743e-05,0,1,0,1
25784000,25704000,25704000,0,-2.4361572,12.360603,0.034328222,12.479307,3.7772193e-06,0,1,0,1
25848000,25764000,25768000,0,-2.5156555,12.360704,0.09134197,12.465595,2.6772424e-05,0,1,0,1
25904000,25822000,25824000,0,-2.41156,12.360667,-0.0,12.467711,8.645932e-07,0,1,0,1
25952000,25872000,25872000,0,-2.5478516,12.3604965,0.11751461,12.469285,4.4299843e-05,0,1,0,1
26016000,25932000,25936000,0,-2.4247437,12.360599,-0.0,12.472077,2.964785e-07,0,1,0,1
26072000,25992000,25992000,0,-2.5046387,12.360564,0.06790686,12.474318,1.4786673e-05,0,1,0,1
26136000,26052000,26056000,0,-2.381958,12.360666,-0.0,12.4772215,1.07011265e-05,0,1,0,1
26192000,26112000,26112000,0,-2.420044,12.360631,-0.0,12.479545,1.4816069e-06,0,1,0,1
26256000,26172000,26176000,0,-2.4671936,12.360732,0.0046379566,12.46583,6.902273e-08,0,1,0,1
26312000,26232000,26232000,0,-2.5234985,12.360695,0.05908084,12.467952,1.1198457e-05,0,1,0,1
26376000,26292000,26296000,0,-2.5088806,12.360793,0.042048693,12.470705,5.671187e-06,0,1,0,1
26432000,26352000,26352000,0,-2.5648499,12.360755,0.096189976,12.472915,2.9672332e-05,0,1,0,1
26496000,26412000,26416000,0,-2.50766,12.360853,0.036788702,12.47578,4.339315e-06,0,1,0,1
26552000,26472000,26472000,0,-2.6246948,12.360815,0.15258217,12.478074,7.4631134e-05,0,1,0,1
26616000,26532000,26536000,0,-2.5670166,12.360912,0.07443619,12.464516,1.7780863e-05,0,1,0,1
26672000,26592000,26592000,0,-2.5663452,12.360872,0.07224965,12.466606,1.6748783e-05,0,1,0,1
26736000,26652000,26656000,0,-2.570404,12.360968,0.07485843,12.46932,1.797623e-05,0,1,0,1
26792000,26712000,26712000,0,-2.5603333,12.360927,0.06356454,12.4714985,1.295899e-05,0,1,0,1
26856000,26772000,26776000,0,-2.5222168,12.361021,0.024436235,12.474325,1.9147476e-06,0,1,0,1
26912000,26832000,26832000,0,-2.5830383,12.360979,0.084886074,12.476589,2.3101331e-05,0,1,0,1
26976000,26892000,26896000,0,-2.5165405,12.3610735,0.017715454,12.479525,1.0059271e-06,0,1,0,1
27032000,26952000,26952000,0,-2.5821228,12.361032,0.073643446,12.465253,1.740312e-05,0,1,0,1
27096000,27012000,27016000,0,-2.5063477,12.361124,-0.0,12.467927,1.9047928e-08,0,1,0,1
27152000,27072000,27072000,0,-2.5627136,12.36108,0.054343224,12.470075,9.472874e-06,0,1,0,1
27216000,27132000,27136000,0,-2.5857239,12.361173,0.077501535,12.472862,1.9262581e-05,0,1,0,1
27272000,27192000,27192000,0,-2.4911194,12.361128,-0.0,12.475097,9.476832e-07,0,1,0,1
27336000,27252000,27256000,0,-2.5429077,12.361219,0.03538966,12.477995,4.014838e-06,0,1,0,1
27392000,27312000,27312000,0,-2.5332031,12.361175,0.026145458,12.480313,2.1909225e-06,0,1,0,1
27456000,27370666,27376000,0,-2.5141907,12.361266,-0.0,12.466532,3.3310585e-07,0,1,0,1
27512000,27432000,27432000,0,-2.5142822,12.361219,-0.0,12.468648,2.934502e-07,0,1,0,1
27576000,27492000,27496000,0,-2.5613098,12.361309,0.038122177,12.471396,4.661227e-06,0,1,0,1
27632000,27552000,27552000,0,-2.5281067,12.361261,0.00525403,12.4736,8.852243e-08,0,1,0,1
27696000,27610666,27616000,0,-2.6078796,12.361351,0.085944176,12.47646,2.3681081e-05,0,1,0,1
27752000,27670000,27672000,0,-2.6822205,12.361303,0.16048932,12.478749,8.25622e-05,0,1,0,1
27800000,27720000,27720000,0,-2.5915833,12.361122,0.06925511,12.480438,1.5372123e-05,0,1,0,1
27864000,27780000,27784000,0,-2.590973,12.361214,0.05330205,12.466663,9.115858e-06,0,1,0,1
27920000,27840000,27840000,0,-2.5482483,12.361168,0.010966539,12.468784,3.8581143e-07,0,1,0,1
27984000,27900000,27904000,0,-2.566925,12.3612585,0.030531645,12.47154,2.9897872e-06,0,1,0,1
28040000,27960000,27960000,0,-2.510315,12.361213,-0.0,12.47375,2.0702037e-06,0,1,0,1
28104000,28020000,28024000,0,-2.5152283,12.361302,-0.0,12.476617,1.1842188e-06,0,1,0,1
28160000,28080000,28080000,0,-2.5952148,12.361256,0.062036514,12.478911,1.2336106e-05,0,1,0,1
28224000,28140000,28144000,0,-2.6134338,12.361345,0.05648637,12.465294,1.0238698e-05,0,1,0,1
28280000,28200000,28200000,0,-2.5941467,12.361298,0.037689924,12.467385,4.557589e-06,0,1,0,1
28344000,28260000,28264000,0,-2.5844116,12.361385,0.028769255,12.470102,2.6548942e-06,0,1,0,1
28400000,28318000,28320000,0,-2.7250366,12.361337,0.17023277,12.472281,9.2939525e-05,0,1,0,1
28448000,28368000,28368000,0,-2.6061401,12.361155,0.05085659,12.473896,8.293777e-06,0,1,0,1
28512000,28428000,28432000,0,-2.6479187,12.361245,0.09374356,12.476769,2.8173496e-05,0,1,0,1
28568000,28488000,28488000,0,-2.571991,12.3612,0.018494606,12.479071,1.0963971e-06,0,1,0,1
28632000,28548000,28552000,0,-2.6516418,12.361291,0.07686567,12.465449,1.8959066e-05,0,1,0,1
28688000,28608000,28608000,0,-2.491333,12.361243,-0.0,12.467546,2.1900722e-05,0,1,0,1
28752000,28668000,28672000,0,-2.6564026,12.361332,0.08427167,12.470271,2.2779663e-05,0,1,0,1
28808000,28728000,28728000,0,-2.665039,12.361285,0.093898535,12.472458,2.8276494e-05,0,1,0,1
28872000,28788000,28792000,0,-2.5937805,12.361374,0.024016857,12.475295,1.8494454e-06,0,1,0,1
28928000,28848000,28848000,0,-2.6733704,12.361325,0.10558796,12.477566,3.574036e-05,0,1,0,1
28992000,28908000,28912000,0,-2.6066895,12.361414,0.040655136,12.480514,5.297346e-06,0,1,0,1
29048000,28968000,28968000,0,-2.625122,12.361365,0.032408237,12.466167,3.3700621e-06,0,1,0,1
29112000,29028000,29032000,0,-2.6717834,12.361452,0.08111739,12.468854,2.1108695e-05,0,1,0,1
29168000,29086000,29088000,0,-2.6898499,12.3614025,0.10053921,12.47101,3.2421212e-05,0,1,0,1
29216000,29136000,29136000,0,-2.6044312,12.361218,0.01606083,12.472607,8.272537e-07,0,1,0,1
29280000,29196000,29200000,0,-2.6700134,12.361308,0.084172964,12.475451,2.2716893e-05,0,1,0,1
29336000,29254000,29256000,0,-2.575348,12.361261,-0.008634806,12.47773,2.3901742e-07,0,1,0,1
29384000,29304000,29304000,0,-2.6036072,12.361081,0.022156239,12.479412,1.5734681e-06,0,1,0,1
29448000,29364000,29368000,0,-2.5940552,12.361174,0.0013196468,12.465776,5.587996e-09,0,1,0,1
29504000,29424000,29424000,0,-2.6362915,12.361129,0.046577215,12.467887,6.960079e-06,0,1,0,1
29568000,29484000,29488000,0,-2.6123962,12.361219,0.025802135,12.470628,2.1354183e-06,0,1,0,1
29624000,29544000,29544000,0,-2.4666138,12.361175,-0.117078066,12.472827,4.3958833e-05,0,1,0,1
29688000,29604000,29608000,0,-2.7446594,12.361265,0.1657207,12.47568,8.805404e-05,0,1,0,1
29744000,29664000,29664000,0,-2.5647888,12.361218,-0.0123746395,12.477964,4.9088686e-07,0,1,0,1
29808000,29724000,29728000,0,-2.635315,12.361309,0.053324223,12.476337,9.116369e-06,0,1,0,1
29864000,29784000,29784000,0,-2.6911926,12.361262,0.099671364,12.466552,3.1875312e-05,0,1,0,1
29928000,29842666,29848000,0,-2.643341,12.361351,0.054263353,12.4692545,9.44567e-06,0,1,0,1
29984000,29904000,29904000,0,-2.6052856,12.361303,0.018570423,12.471424,1.1060825e-06,0,1,0,1
30048000,29962666,29968000,0,-2.6520996,12.361391,0.0684638,12.474239,1.5030309e-05,0,1,0,1
30104000,30020000,30024000,0,-2.6233215,12.361343,0.04202509,12.476496,5.662193e-06,0,1,0,1
30152000,30072000,30072000,0,-2.7121582,12.36116,0.13305211,12.478163,5.6748304e-05,0,1,0,1
30216000,30132000,30136000,0,-2.6687012,12.361252,0.06824446,12.464655,1.4945639e-05,0,1,0,1
30272000,30192000,30192000,0,-2.592987,12.361205,-0.0054130554,12.466741,9.4013885e-08,0,1,0,1
30336000,30252000,30256000,0,-2.6634521,12.361295,0.068103075,12.469452,1.4878052e-05,0,1,0,1
30392000,30312000,30312000,0,-2.6440735,12.361248,0.050774574,12.471628,8.268551e-06,0,1,0,1
30456000,30370666,30376000,0,-2.6107483,12.361338,0.020165205,12.474453,1.3038984e-06,0,1,0,1
30512000,30432000,30432000,0,-2.6809998,12.36129,0.09318423,12.476715,2.7838421e-05,0,1,0,1
30576000,30490666,30496000,0,-2.6848755,12.361379,0.09979224,12.479649,3.1919142e-05,0,1,0,1
30632000,30550000,30552000,0,-2.5665894,12.361331,-0.041741133,12.465408,5.590903e-06,0,1,0,1
30680000,30600000,30600000,0,-2.679657,12.361148,0.074121475,12.466935,1.7627406e-05,0,1,0,1
30744000,30660000,30664000,0,-2.6883545,12.3612385,0.08547211,12.469654,2.343443e-05,0,1,0,1
30800000,30720000,30720000,0,-2.7533264,12.361193,0.15256763,12.471837,7.4654214e-05,0,1,0,1
30864000,30780000,30784000,0,-2.66745,12.361283,0.068718195,12.474669,1.51416925e-05,0,1,0,1
30920000,30840000,30840000,0,-2.676239,12.361237,0.08003402,12.476937,2.0535308e-05,0,1,0,1
30984000,30900000,30904000,0,-2.6802368,12.361326,0.08711624,12.479879,2.4324721e-05,0,1,0,1
31040000,30958000,30960000,0,-2.6559753,12.3612795,0.04730463,12.465618,7.18048e-06,0,1,0,1
31088000,31008000,31008000,0,-2.6649475,12.361097,0.05867052,12.46715,1.1044161e-05,0,1,0,1
31152000,31068000,31072000,0,-2.636261,12.361189,0.03329134,12.469877,3.5551702e-06,0,1,0,1
31208000,31128000,31128000,0,-2.5983887,12.361144,-0.0014653206,12.472066,6.8863155e-09,0,1,0,1
31272000,31188000,31192000,0,-2.6782227,12.361236,0.0823853,12.474907,2.176317e-05,0,1,0,1
31328000,31248000,31248000,0,-2.6117554,12.36119,0.018778324,12.477181,1.1304651e-06,0,1,0,1
31392000,31308000,31312000,0,-2.5787354,12.36128,-0.010198116,12.480131,3.333349e-07,0,1,0,1
31448000,31368000,31368000,0,-2.6445618,12.361235,0.034439802,12.465846,3.8059188e-06,0,1,0,1
31512000,31428000,31432000,0,-2.663025,12.361323,0.056293488,12.468534,1.0166254e-05,0,1,0,1
31568000,31486000,31488000,0,-2.6672363,12.361276,0.06321478,12.470694,1.2817597e-05,0,1,0,1
31616000,31536000,31536000,0,-2.6572876,12.361094,0.0554626,12.472295,9.865385e-06,0,1,0,1
31680000,31594666,31600000,0,-2.6286316,12.361186,0.030105114,12.4751425,2.905996e-06,0,1,0,1
31736000,31656000,31656000,0,-2.6095886,12.361142,0.014230013,12.477425,6.491508e-07,0,1,0,1
31800000,31716000,31720000,0,-2.6047668,12.361234,0.013365507,12.480382,5.7253624e-07,0,1,0,1
31856000,31776000,31776000,0,-2.6938477,12.361189,0.08059144,12.466072,2.0840504e-05,0,1,0,1
31920000,31836000,31840000,0,-2.6367798,12.361279,0.026507854,12.468769,2.2541642e-06,0,1,0,1
31976000,31896000,31896000,0,-2.7539062,12.361232,0.14659953,12.470935,6.893284e-05,0,1,0,1
32040000,31954666,31960000,0,-2.6305237,12.361321,0.025670528,12.473745,2.1131618e-06,0,1,0,1
32096000,32014000,32016000,0,-2.7758179,12.361274,0.1741662,12.475998,9.725511e-05,0,1,0,1
32144000,32064000,32064000,0,-2.7132263,12.361093,0.11301494,12.477663,4.0944768e-05,0,1,0,1
32208000,32124000,32128000,0,-2.6887512,12.361185,0.0819056,12.476045,2.150851e-05,0,1,0,1
32264000,32184000,32184000,0,-2.7349548,12.36114,0.11449194,12.466294,4.206031e-05,0,1,0,1
32328000,32242666,32248000,0,-2.6259766,12.361232,0.008332729,12.469001,2.227424e-07,0,1,0,1
32384000,32304000,32304000,0,-2.658783,12.361186,0.044451237,12.471173,6.337535e-06,0,1,0,1
32448000,32364000,32368000,0,-2.6677856,12.361276,0.05703807,12.473991,1.0432398e-05,0,1,0,1
32504000,32424000,32424000,0,-2.6813354,12.36123,0.07373166,12.47625,1.7429462e-05,0,1,0,1
32568000,32484000,32488000,0,-2.643097,12.36132,0.03920698,12.479179,4.9272066e-06,0,1,0,1
32624000,32542000,32544000,0,-2.7225952,12.361273,0.094269276,12.464991,2.8517301e-05,0,1,0,1
32672000,32592000,32592000,0,-2.6325378,12.361091,0.006412983,12.466515,1.319578e-07,0,1,0,1
32736000,32652000,32656000,0,-2.6653442,12.361182,0.04318285,12.469228,5.981954e-06,0,1,0,1
32792000,32712000,32712000,0,-2.744751,12.361137,0.12578392,12.471406,5.0745184e-05,0,1,0,1
32856000,32772000,32776000,0,-2.691986,12.361229,0.07613492,12.474233,1.85872e-05,0,1,0,1
32912000,32832000,32832000,0,-2.7523499,12.361183,0.13971257,12.476498,6.258039e-05,0,1,0,1
32976000,32892000,32896000,0,-2.7276,12.361274,0.11836386,12.479434,4.4905893e-05,0,1,0,1
33032000,32952000,32952000,0,-2.6842957,12.361228,0.0453732,12.46522,6.6063085e-06,0,1,0,1
33096000,33012000,33016000,0,-2.7402344,12.361318,0.10499835,12.467896,3.5369732e-05,0,1,0,1
33152000,33072000,33072000,0,-2.72052,12.36127,0.088305235,12.470044,2.5012949e-05,0,1,0,1
33216000,33132000,33136000,0,-2.7525635,12.361359,0.1259861,12.472832,5.0902625e-05,0,1,0,1
33272000,33192000,33192000,0,-2.6387634,12.361311,0.019851446,12.475067,1.2635761e-06,0,1,0,1
33336000,33252000,33256000,0,-2.5822449,12.361399,-0.021621943,12.477966,1.4986686e-06,0,1,0,1
33392000,33312000,33312000,0,-2.6763306,12.361351,0.091582775,12.480287,2.688209e-05,0,1,0,1
33456000,33372000,33376000,0,-2.6097717,12.361439,0.019076824,12.466544,1.1676859e-06,0,1,0,1
33512000,33432000,33432000,0,-2.539154,12.361389,-0.0,12.468661,1.2917648e-06,0,1,0,1
33576000,33492000,33496000,0,-2.5299683,12.361476,0.014772654,12.471411,6.99941e-07,0,1,0,1
33632000,33552000,33552000,0,-2.4875793,12.361425,0.016003847,12.473616,8.2132755e-07,0,1,0,1
33696000,33612000,33616000,0,-2.4029236,12.361512,-0.0,12.476478,7.1802344e-07,0,1,0,1
33752000,33672000,33672000,0,-2.4499817,12.361462,0.0809865,12.478768,2.1023912e-05,0,1,0,1
33816000,33732000,33736000,0,-2.364746,12.361547,0.026778221,12.4651785,2.301044e-06,0,1,0,1
33872000,33792000,33792000,0,-2.3926697,12.361496,0.10247874,12.467264,3.3694294e-05,0,1,0,1
33936000,33852000,33856000,0,-2.2602844,12.36158,0.021915674,12.4699745,1.5406505e-06,0,1,0,1
33992000,33912000,33912000,0,-2.2507324,12.361528,0.05598426,12.472149,1.00519555e-05,0,1,0,1
34056000,33972000,33976000,0,-2.109375,12.361612,-0.0,12.474972,4.551245e-06,0,1,0,1
34112000,34032000,34032000,0,-2.0393066,12.361561,-0.0,12.477233,1.4144388e-05,0,1,0,1
34176000,34090666,34096000,0,-2.1056213,12.361645,0.046723366,12.480166,6.9969356e-06,0,1,0,1
34232000,34152000,34152000,0,-1.987793,12.361592,-0.0,12.465859,1.08958975e-05,0,1,0,1
34296000,34212000,34216000,0,-2.049347,12.361675,0.049503446,12.468531,7.861684e-06,0,1,0,1
34352000,34272000,34272000,0,-2.0254211,12.361621,0.065678835,12.470674,1.3836331e-05,0,1,0,1
34416000,34332000,34336000,0,-1.8840027,12.361704,-0.0,12.473458,2.8578424e-06,0,1,0,1
34472000,34392000,34392000,0,-1.8842773,12.3616495,0.011338592,12.475689,4.122054e-07,0,1,0,1
34536000,34452000,34456000,0,-1.8607178,12.361732,0.03483653,12.478584,3.890133e-06,0,1,0,1
34592000,34512000,34512000,0,-1.8228455,12.361678,0.038236737,12.480899,4.685714e-06,0,1,0,1
34656000,34572000,34576000,0,-1.7380066,12.36176,-0.0,12.467083,2.106032e-06,0,1,0,1
34712000,34632000,34632000,0,-1.6631165,12.361705,-0.0,12.469195,1.1146202e-05,0,1,0,1
34776000,34692000,34696000,0,-1.7105713,12.361786,0.036150336,12.471941,4.191318e-06,0,1,0,1
34832000,34752000,34752000,0,-1.5787964,12.36173,-0.0,12.47414,9.394736e-06,0,1,0,1
34896000,34812000,34816000,0,-1.621521,12.361811,0.03664112,12.476997,4.30415e-06,0,1,0,1
34952000,34868000,34872000,0,-1.602417,12.361755,0.059481144,12.479282,1.1340417e-05,0,1,0,1
35000000,34918000,34920000,0,-1.4751282,12.361566,-0.0,12.480966,3.2673026e-06,0,1,0,1
35048000,34968000,34968000,0,-1.4613342,12.36138,-0.0,12.466025,2.948403e-06,0,1,0,1
35112000,35028000,35032000,0,-1.4850769,12.361466,0.041871667,12.468711,5.6244357e-06,0,1,0,1
35168000,35088000,35088000,0,-1.3438416,12.361416,-0.0,12.470864,1.0524843e-05,0,1,0,1
35232000,35148000,35152000,0,-1.3866272,12.361502,0.03409934,12.473662,3.7287043e-06,0,1,0,1
35288000,35208000,35208000,0,-1.3252869,12.361452,0.0150306225,12.475904,7.2433903e-07,0,1,0,1
35352000,35268000,35272000,0,-1.3110962,12.361538,0.04954648,12.478812,7.868869e-06,0,1,0,1
35408000,35328000,35328000,0,-1.2965393,12.361487,0.07357156,12.476546,1.7353439e-05,0,1,0,1
35472000,35388000,35392000,0,-1.2583008,12.361572,0.06826568,12.46732,1.4951737e-05,0,1,0,1
35528000,35448000,35448000,0,-1.1121521,12.361521,-0.0,12.469445,4.1387734e-06,0,1,0,1
35592000,35506666,35512000,0,-1.0420532,12.361605,-0.0,12.472204,1.0577919e-05,0,1,0,1
35648000,35568000,35568000,0,-1.1036072,12.361552,0.04667759,12.474416,6.986451e-06,0,1,0,1
35712000,35628000,35632000,0,-1.0280762,12.361636,0.019442797,12.477287,1.2118735e-06,0,1,0,1
35768000,35688000,35688000,0,-0.8682556,12.361584,-0.0,12.479584,3.0704374e-05,0,1,0,1
35832000,35746666,35752000,0,-0.9583435,12.361668,0.025577188,12.465922,2.0991388e-06,0,1,0,1
35888000,35808000,35808000,0,-0.9956665,12.361614,0.10516137,12.468017,3.5479305e-05,0,1,0,1
35952000,35865333,35872000,0,-0.858551,12.361696,0.015669048,12.470737,7.875046e-07,0,1,0,1
36000000,35916000,35920000,0,-0.67059326,12.361507,-0.0,12.4723215,5.937365e-05,0,1,0,1
36056000,35975000,35976000,0,-0.76104736,12.361457,-0.0,12.47454,3.2946172e-08,0,1,0,1
36120000,36036000,36040000,0,-0.72821045,12.361543,0.012447894,12.477418,4.967376e-07,0,1,0,1
36176000,36096000,36096000,0,-0.6764221,12.361491,0.0030104518,12.479719,2.9048154e-08,0,1,0,1
36240000,36156000,36160000,0,-0.662323,12.361577,0.015084982,12.466053,7.301643e-07,0,1,0,1
36296000,36216000,36216000,0,-0.5166626,12.361525,-0.0,12.468153,2.5239658e-05,0,1,0,1
36360000,36276000,36280000,0,-0.4517212,12.3616085,-0.0,12.470881,3.5832305e-05,0,1,0,1
36416000,36336000,36336000,0,-0.5090027,12.361556,-0.0,12.473069,1.3446041e-07,0,1,0,1
36480000,36396000,36400000,0,-0.44802856,12.36164,-0.0,12.475911,1.2127392e-06,0,1,0,1
36536000,36456000,36456000,0,-0.45291138,12.361588,0.027541071,12.478185,2.4314775e-06,0,1,0,1
36600000,36516000,36520000,0,-0.36813354,12.361671,-0.0,12.481135,2.7615653e-07,0,1,0,1
36656000,36575000,36576000,0,-0.3588562,12.361619,0.0075425804,12.466744,1.8253529e-07,0,1,0,1
36720000,36636000,36640000,0,-0.2836609,12.361701,-0.0,12.469434,1.2480745e-06,0,1,0,1
36776000,36696000,36696000,0,-0.24160767,12.361647,-0.0,12.471592,1.2561e-06,0,1,0,1
36840000,36756000,36760000,0,-0.15725708,12.361729,-0.0,12.474395,1.0100301e-05,0,1,0,1
36896000,36816000,36816000,0,-0.1812439,12.361674,0.009973854,12.47664,3.1892486e-07,0,1,0,1
36960000,36876000,36880000,0,-0.2421875,12.361756,0.119032234,12.479553,4.5414035e-05,0,1,0,1
37016000,36935000,36936000,0,-0.062683105,12.361702,-0.0,12.46533,3.2046328e-06,0,1,0,1
37072000,36992000,36992000,0,-0.058288574,12.361648,0.006020155,12.46741,1.16278414e-07,0,1,0,1
37128000,37042666,37048000,0,0.096710205,12.361594,-0.0,12.469532,3.6764017e-05,0,1,0,1
37184000,37104000,37104000,0,0.08639526,12.361542,-0.0,12.471696,9.082123e-06,0,1,0,1
37248000,37164000,37168000,0,0.034240723,12.361626,0.078579195,12.474494,1.9799409e-05,0,1,0,1
37304000,37224000,37224000,0,0.011474609,12.361573,0.15949225,12.476708,8.155285e-05,0,1,0,1
37368000,37282666,37288000,0,0.036376953,12.361657,0.18738405,12.479557,0.00011254497,0,1,0,1
37424000,37344000,37344000,0,-0.13095093,12.361605,0.19830117,12.465473,0.00012618327,0,1,0,1
37488000,37404000,37408000,0,-0.063446045,12.361687,0.16720921,12.468028,8.969796e-05,0,1,0,1
37544000,37464000,37464000,0,-0.10891724,12.361632,0.24346696,12.470042,0.0001901394,0,1,0,1
37608000,37522666,37528000,0,-0.06448364,12.361715,0.23405078,12.472647,0.0001756797,0,1,0,1
37664000,37582000,37584000,0,-0.18914795,12.361661,0.39073944,12.47469,0.0004895587,0,1,0,1
37712000,37632000,37632000,0,-0.16217041,12.361472,0.39118582,12.476158,0.0004906201,0,1,0,1
37776000,37692000,37696000,0,-0.25726318,12.361558,0.5266715,12.478818,0.000889132,0,1,0,1
37832000,37752000,37752000,0,-0.23846436,12.361507,0.3292585,12.465112,0.00034788667,0,1,0,1
37896000,37809333,37816000,0,-0.2965393,12.361591,0.42854944,12.467513,0.00058922614,0,1,0,1
37944000,37860000,37864000,0,-0.15185547,12.361403,0.314559,12.468847,0.00031742267,0,1,0,1
38000000,37920000,37920000,0,-0.29458618,12.361355,0.4963045,12.470737,0.00079006766,0,1,0,1
38056000,37976000,37976000,0,-0.4779663,12.361307,0.71949536,12.472639,0.0016601894,0,1,0,1
38112000,38028000,38032000,0,-0.3588562,12.361259,0.6409627,12.474549,0.0013173484,0,1,0,1
38168000,38088000,38088000,0,-0.3109131,12.361214,0.63700277,12.476469,0.0013009211,0,1,0,1
38232000,38148000,38152000,0,-0.37097168,12.361304,0.5300137,12.463852,0.0009015335,0,1,0,1
38288000,38208000,38208000,0,-0.38031006,12.361257,0.58525825,12.465597,0.0010991121,0,1,0,1
38352000,38268000,38272000,0,-0.38449097,12.361345,0.6438459,12.467879,0.0013299376,0,1,0,1
38408000,38328000,38328000,0,-0.42099,12.361298,0.728549,12.469651,0.0017026416,0,1,0,1
38472000,38388000,38392000,0,-0.3581543,12.361385,0.72359586,12.4719715,0.0016792566,0,1,0,1
38528000,38448000,38448000,0,-0.2859497,12.361337,0.7039262,12.473765,0.0015889736,0,1,0,1
38592000,38508000,38512000,0,-0.21862793,12.361424,0.70056856,12.47612,0.0015735542,0,1,0,1
38648000,38568000,38568000,0,-0.3062744,12.361376,0.6255839,12.46333,0.0012560212,0,1,0,1
38712000,38628000,38632000,0,-0.22088623,12.361463,0.60516113,12.465486,0.0011751488,0,1,0,1
38768000,38686000,38688000,0,-0.37982178,12.361412,0.8216391,12.467154,0.0021659823,0,1,0,1
38816000,38736000,38736000,0,-0.34429932,12.361228,0.83396894,12.468322,0.002231268,0,1,0,1
38880000,38796000,38800000,0,-0.28048706,12.361317,0.8384571,12.470538,0.0022549478,0,1,0,1
38936000,38856000,38856000,0,-0.25894165,12.36127,0.8779541,12.472249,0.0024720593,0,1,0,1
39000000,38916000,38920000,0,-0.09616089,12.361359,0.7878923,12.474507,0.0019905372,0,1,0,1
39056000,38976000,38976000,0,-0.1454773,12.361311,0.6698555,12.462165,0.0014402197,0,1,0,1
39120000,39036000,39040000,0,-0.19113159,12.361399,0.7888585,12.464245,0.0019970653,0,1,0,1
39176000,39096000,39096000,0,-0.13244629,12.361349,0.7932562,12.465853,0.002019133,0,1,0,1
39240000,39156000,39160000,0,-0.08779907,12.361436,0.82289594,12.467982,0.0021724694,0,1,0,1
39296000,39216000,39216000,0,-0.005340576,12.361386,0.8060659,12.469626,0.0020842396,0,1,0,1
39360000,39274666,39280000,0,-0.06387329,12.361473,0.9428432,12.471808,0.0028510806,0,1,0,1
39416000,39336000,39336000,0,0.03845215,12.3614235,0.68823063,12.459949,0.0015205885,0,1,0,1
39480000,39396000,39400000,0,0.011749268,12.361508,0.7932453,12.461961,0.0020197083,0,1,0,1
39536000,39456000,39456000,0,0.07989502,12.361457,0.79253024,12.463519,0.0020158163,0,1,0,1
39600000,39516000,39520000,0,0.035339355,12.361542,0.9154397,12.465593,0.0026890973,0,1,0,1
39656000,39576000,39576000,0,0.09515381,12.36149,0.9233229,12.467197,0.0027352588,0,1,0,1
39720000,39634666,39640000,0,0.20672607,12.361574,0.8918365,12.469332,0.0025514513,0,1,0,1
39776000,39696000,39696000,0,0.37902832,12.361523,0.7901751,12.470982,0.0020026544,0,1,0,1
39840000,39754666,39760000,0,0.22177124,12.361607,0.81324756,12.459852,0.0021232085,0,1,0,1
39896000,39816000,39816000,0,0.25253296,12.361553,0.82851064,12.461382,0.0022033828,0,1,0,1
39960000,39876000,39880000,0,0.28341675,12.361636,0.8395605,12.463415,0.0022621786,0,1,0,1
40016000,39936000,39936000,0,0.33789062,12.361583,0.8208709,12.464984,0.00216231,0,1,0,1
40080000,39993333,40000000,0,0.35464478,12.361666,0.84601426,12.467067,0.0022964187,0,1,0,1
40128000,40044000,40048000,0,0.1274414,12.361477,1.1025454,12.468164,0.0038998728,0,1,0,1
40184000,40104000,40104000,0,0.27816772,12.361426,0.9848542,12.469779,0.0031113233,0,1,0,1
40248000,40164000,40168000,0,0.32919312,12.361512,0.76714134,12.458945,0.0018894244,0,1,0,1
40304000,40224000,40224000,0,0.44406128,12.361461,0.6852193,12.460435,0.0015072523,0,1,0,1
40368000,40284000,40288000,0,0.40792847,12.361546,0.7604035,12.462415,0.0018558635,0,1,0,1
40424000,40344000,40344000,0,0.41003418,12.361493,0.791033,12.463934,0.0020081403,0,1,0,1
40488000,40404000,40408000,0,0.44528198,12.361577,0.7936801,12.465954,0.0020212752,0,1,0,1
40544000,40464000,40464000,0,0.4664917,12.361526,0.8046588,12.467502,0.0020773232,0,1,0,1
40608000,40524000,40528000,0,0.34692383,12.361609,0.8873079,12.467115,0.0025260542,0,1,0,1
40664000,40584000,40584000,0,0.39242554,12.361556,0.7474719,12.458474,0.001793845,0,1,0,1
40728000,40644000,40648000,0,0.43197632,12.361639,0.74289143,12.460378,0.0017716564,0,1,0,1
40784000,40704000,40704000,0,0.4761963,12.361586,0.72844946,12.461835,0.001703244,0,1,0,1
40848000,40764000,40768000,0,0.29492188,12.361668,0.94458544,12.463778,0.002863471,0,1,0,1
40904000,40824000,40824000,0,0.3737793,12.361613,0.8935621,12.465261,0.0025621708,0,1,0,1
40968000,40884000,40888000,0,0.41464233,12.361696,0.8858594,12.467242,0.002517788,0,1,0,1
41024000,40944000,40944000,0,0.46014404,12.361642,0.6747788,12.456544,0.0014621278,0,1,0,1
41088000,41004000,41008000,0,0.5600891,12.361723,0.60681367,12.458381,0.0011822495,0,1,0,1
41144000,41063000,41064000,0,0.3918152,12.361667,0.802843,12.459783,0.0020692393,0,1,0,1
41208000,41124000,41128000,0,0.49291992,12.361748,0.73249495,12.461661,0.0017222386,0,1,0,1
41264000,41184000,41184000,0,0.5041504,12.361692,0.7478663,12.463095,0.0017950725,0,1,0,1
41328000,41244000,41248000,0,0.3136902,12.361773,0.9693756,12.465014,0.0030154448,0,1,0,1
41384000,41304000,41304000,0,0.4585266,12.361717,0.84896815,12.466476,0.0023125922,0,1,0,1
41448000,41364000,41368000,0,0.62106323,12.361797,0.53448975,12.456456,0.0009173693,0,1,0,1
41504000,41424000,41424000,0,0.44274902,12.36174,0.7384604,12.457819,0.0017509448,0,1,0,1
41560000,41480000,41480000,0,0.44470215,12.361685,0.76051486,12.4592,0.001856886,0,1,0,1
41616000,41532000,41536000,0,0.54537964,12.3616295,0.6835524,12.460598,0.0014999083,0,1,0,1
41672000,41592000,41592000,0,0.65011597,12.361576,0.60301936,12.462014,0.0011671704,0,1,0,1
41736000,41652000,41656000,0,0.4724121,12.361659,0.80969965,12.463916,0.0021040372,0,1,0,1
41792000,41712000,41712000,0,0.4749756,12.361605,0.8300475,12.465367,0.0022108578,0,1,0,1
41856000,41770666,41776000,0,0.44018555,12.361687,0.71410334,12.455582,0.0016376389,0,1,0,1
41912000,41832000,41832000,0,0.59213257,12.361632,0.5836015,12.456942,0.0010936575,0,1,0,1
