timestamp,timestamp_sample,q[0],q[1],q[2],q[3],delta_q_reset[0],delta_q_reset[1],delta_q_reset[2],delta_q_reset[3],quat_reset_counter
3492000,3492000,0.68856996,0.0011013243,-0.016737854,0.72497594,1.0,0.0,0.0,0.0,0
3500000,3500000,0.690264,0.0010691839,-0.016654128,0.7233651,0.99999726,9.313226e-10,-5.2386895e-10,-0.0023410916,1
3504000,3504000,0.69025975,0.0010767659,-0.016611846,0.72337013,0.99999726,9.313226e-10,-5.2386895e-10,-0.0023410916,1
3508000,3508000,0.6902524,0.0010831051,-0.016566206,0.7233782,0.99999726,9.313226e-10,-5.2386895e-10,-0.0023410916,1
3512000,3512000,0.6902436,0.0010848736,-0.016519919,0.72338766,0.99999726,9.313226e-10,-5.2386895e-10,-0.0023410916,1
3516000,3516000,0.69023466,0.0010879547,-0.016479999,0.7233971,0.99999726,9.313226e-10,-5.2386895e-10,-0.0023410916,1
3520000,3520000,0.69022495,0.0010948008,-0.01644075,0.72340727,0.99999726,9.313226e-10,-5.2386895e-10,-0.0023410916,1
3524000,3524000,0.6902183,0.0011027604,-0.016396562,0.7234146,0.99999726,9.313226e-10,-5.2386895e-10,-0.0023410916,1
3528000,3528000,0.6902159,0.0011108515,-0.016353874,0.7234179,0.99999726,9.313226e-10,-5.2386895e-10,-0.0023410916,1
3536000,3536000,0.6902104,0.0011237864,-0.01625724,0.7234253,0.99999726,9.313226e-10,-5.2386895e-10,-0.0023410916,1
3540000,3540000,0.69020563,0.0011302024,-0.016207768,0.7234309,0.99999726,9.313226e-10,-5.2386895e-10,-0.0023410916,1
3544000,3544000,0.69020087,0.001134869,-0.016163988,0.7234364,0.99999726,9.313226e-10,-5.2386895e-10,-0.0023410916,1
3552000,3552000,0.6901836,0.0011414329,-0.016076824,0.72345483,0.99999726,9.313226e-10,-5.2386895e-10,-0.0023410916,1
3556000,3556000,0.6901761,0.0011426134,-0.016030429,0.72346294,0.99999726,9.313226e-10,-5.2386895e-10,-0.0023410916,1
3560000,3560000,0.69016945,0.0011456665,-0.015982857,0.7234704,0.99999726,9.313226e-10,-5.2386895e-10,-0.0023410916,1
3568000,3568000,0.69013923,0.0011605307,-0.01589344,0.7235012,0.99999726,9.313226e-10,-5.2386895e-10,-0.0023410916,1
3572000,3572000,0.690126,0.0011664128,-0.015850173,0.72351474,0.99999726,9.313226e-10,-5.2386895e-10,-0.0023410916,1
3576000,3576000,0.6901116,0.0011696789,-0.015808852,0.7235294,0.99999726,9.313226e-10,-5.2386895e-10,-0.0023410916,1
3580000,3580000,0.6900967,0.0011771141,-0.015774112,0.7235444,0.99999726,9.313226e-10,-5.2386895e-10,-0.0023410916,1
3584000,3584000,0.69008315,0.0011906421,-0.015740732,0.723558,0.99999726,9.313226e-10,-5.2386895e-10,-0.0023410916,1
3588000,3588000,0.6900714,0.0012052534,-0.01570948,0.7235698,0.99999726,9.313226e-10,-5.2386895e-10,-0.0023410916,1
3592000,3592000,0.69006014,0.0012171931,-0.015676409,0.72358125,0.99999726,9.313226e-10,-5.2386895e-10,-0.0023410916,1
3596000,3596000,0.69004875,0.001226776,-0.015645174,0.72359276,0.99999726,9.313226e-10,-5.2386895e-10,-0.0023410916,1
3604000,3604000,0.6900245,0.0012334306,-0.015586671,0.72361714,0.99999726,9.313226e-10,-5.2386895e-10,-0.0023410916,1
3608000,3608000,0.6900112,0.0012368673,-0.0155581245,0.7236305,0.99999726,9.313226e-10,-5.2386895e-10,-0.0023410916,1
3612000,3612000,0.6899973,0.0012420316,-0.015529433,0.72364426,0.99999726,9.313226e-10,-5.2386895e-10,-0.0023410916,1
3616000,3616000,0.6899862,0.0012449771,-0.015500038,0.72365546,0.99999726,9.313226e-10,-5.2386895e-10,-0.0023410916,1
3620000,3620000,0.6899765,0.0012512852,-0.015474227,0.7236653,0.99999726,9.313226e-10,-5.2386895e-10,-0.0023410916,1
3624000,3624000,0.6899652,0.0012631805,-0.015447156,0.7236766,0.99999726,9.313226e-10,-5.2386895e-10,-0.0023410916,1
3628000,3628000,0.68995446,0.0012746389,-0.015423007,0.72368735,0.99999726,9.313226e-10,-5.2386895e-10,-0.0023410916,1
3632000,3632000,0.68994385,0.001282001,-0.01540084,0.723698,0.99999726,9.313226e-10,-5.2386895e-10,-0.0023410916,1
3640000,3640000,0.68990415,0.0013050226,-0.015357603,0.72373664,0.99999726,9.313226e-10,-5.2386895e-10,-0.0023410916,1
3644000,3644000,0.6898846,0.0013132186,-0.015345009,0.72375554,0.99999726,9.313226e-10,-5.2386895e-10,-0.0023410916,1
3648000,3648000,0.68986577,0.0013233405,-0.015333497,0.7237737,0.99999726,9.313226e-10,-5.2386895e-10,-0.0023410916,1
3652000,3652000,0.6898465,0.0013332235,-0.015319261,0.7237924,0.99999726,9.313226e-10,-5.2386895e-10,-0.0023410916,1
3656000,3656000,0.6898257,0.00134155,-0.01530431,0.72381246,0.99999726,9.313226e-10,-5.2386895e-10,-0.0023410916,1
3660000,3660000,0.68980634,0.0013533338,-0.01529029,0.72383124,0.99999726,9.313226e-10,-5.2386895e-10,-0.0023410916,1
3664000,3664000,0.68978846,0.0013673183,-0.015272448,0.7238486,0.99999726,9.313226e-10,-5.2386895e-10,-0.0023410916,1
3672000,3672000,0.68975484,0.0013942769,-0.015252284,0.72388107,0.99999726,9.313226e-10,-5.2386895e-10,-0.0023410916,1
3676000,3676000,0.689741,0.0014056619,-0.015244596,0.72389436,0.99999726,9.313226e-10,-5.2386895e-10,-0.0023410916,1
3684000,3684000,0.6897153,0.0014233344,-0.015224973,0.7239192,0.99999726,9.313226e-10,-5.2386895e-10,-0.0023410916,1
3688000,3688000,0.6896979,0.0014341167,-0.0152167035,0.72393596,0.99999726,9.313226e-10,-5.2386895e-10,-0.0023410916,1
3692000,3692000,0.6896812,0.0014432686,-0.015209814,0.72395205,0.99999726,9.313226e-10,-5.2386895e-10,-0.0023410916,1
3696000,3696000,0.68966717,0.0014502365,-0.0152037265,0.7239655,0.99999726,9.313226e-10,-5.2386895e-10,-0.0023410916,1
3700000,3700000,0.6896548,0.00145797,-0.015201653,0.7239772,0.99999726,9.313226e-10,-5.2386895e-10,-0.0023410916,1
3704000,3704000,0.6896422,0.0014649242,-0.015198848,0.7239893,0.99999726,9.313226e-10,-5.2386895e-10,-0.0023410916,1
3712000,3712000,0.68960667,0.0014795766,-0.015201036,0.7240231,0.99999726,9.313226e-10,-5.2386895e-10,-0.0023410916,1
3720000,3720000,0.6895691,0.001501172,-0.015204968,0.72405875,0.99999726,9.313226e-10,-5.2386895e-10,-0.0023410916,1
3724000,3724000,0.6895529,0.0015094877,-0.0152082,0.7240741,0.99999726,9.313226e-10,-5.2386895e-10,-0.0023410916,1
3728000,3728000,0.68953633,0.0015135716,-0.015208145,0.72408986,0.99999726,9.313226e-10,-5.2386895e-10,-0.0023410916,1
3732000,3732000,0.6895204,0.0015152566,-0.015206403,0.72410506,0.99999726,9.313226e-10,-5.2386895e-10,-0.0023410916,1
3736000,3736000,0.68950564,0.0015165617,-0.015203539,0.7241192,0.99999726,9.313226e-10,-5.2386895e-10,-0.0023410916,1
3744000,3744000,0.68947977,0.0015278643,-0.015204018,0.72414374,0.99999726,9.313226e-10,-5.2386895e-10,-0.0023410916,1
3748000,3748000,0.6894679,0.0015348109,-0.015206576,0.724155,0.99999726,9.313226e-10,-5.2386895e-10,-0.0023410916,1
3756000,3756000,0.6894451,0.0015397441,-0.015218105,0.7241765,0.99999726,9.313226e-10,-5.2386895e-10,-0.0023410916,1
3760000,3760000,0.689436,0.0015444552,-0.01522314,0.72418505,0.99999726,9.313226e-10,-5.2386895e-10,-0.0023410916,1
3764000,3764000,0.68942773,0.0015498316,-0.015227462,0.7241928,0.99999726,9.313226e-10,-5.2386895e-10,-0.0023410916,1
3768000,3768000,0.6894183,0.0015544678,-0.015233312,0.7242016,0.99999726,9.313226e-10,-5.2386895e-10,-0.0023410916,1
3772000,3772000,0.6894014,0.0015583716,-0.0152368555,0.72421765,0.99999726,9.313226e-10,-5.2386895e-10,-0.0023410916,1
3776000,3776000,0.68938214,0.0015614736,-0.015240423,0.7242359,0.99999726,9.313226e-10,-5.2386895e-10,-0.0023410916,1
3780000,3780000,0.6893632,0.0015639038,-0.015249924,0.7242538,0.99999726,9.313226e-10,-5.2386895e-10,-0.0023410916,1
3784000,3784000,0.68934804,0.001565662,-0.015259433,0.7242679,0.99999726,9.313226e-10,-5.2386895e-10,-0.0023410916,1
3788000,3788000,0.6893336,0.0015718634,-0.015267879,0.72428143,0.99999726,9.313226e-10,-5.2386895e-10,-0.0023410916,1
3792000,3792000,0.6893168,0.0015825897,-0.015278477,0.72429717,0.99999726,9.313226e-10,-5.2386895e-10,-0.0023410916,1
3796000,3796000,0.68929815,0.001590322,-0.015294144,0.72431463,0.99999726,9.313226e-10,-5.2386895e-10,-0.0023410916,1
3800000,3800000,0.6892788,0.001593116,-0.015308805,0.72433275,0.99999726,9.313226e-10,-5.2386895e-10,-0.0023410916,1
3804000,3804000,0.68926454,0.0015962019,-0.0153181935,0.7243461,0.99999726,9.313226e-10,-5.2386895e-10,-0.0023410916,1
3808000,3808000,0.68925214,0.0016041761,-0.015325575,0.7243577,0.99999726,9.313226e-10,-5.2386895e-10,-0.0023410916,1
3812000,3812000,0.68924123,0.0016170761,-0.015335041,0.7243679,0.99999726,9.313226e-10,-5.2386895e-10,-0.0023410916,1
3816000,3816000,0.6892318,0.0016278623,-0.015349077,0.72437656,0.99999726,9.313226e-10,-5.2386895e-10,-0.0023410916,1
3820000,3820000,0.6892213,0.0016283863,-0.015362502,0.7243863,0.99999726,9.313226e-10,-5.2386895e-10,-0.0023410916,1
3824000,3824000,0.68920934,0.0016242285,-0.015370771,0.7243974,0.99999726,9.313226e-10,-5.2386895e-10,-0.0023410916,1
3828000,3828000,0.6891973,0.0016267303,-0.015376068,0.7244088,0.99999726,9.313226e-10,-5.2386895e-10,-0.0023410916,1
3832000,3832000,0.6891828,0.0016359405,-0.015380447,0.72442245,0.99999726,9.313226e-10,-5.2386895e-10,-0.0023410916,1
3840000,3840000,0.68915653,0.0016513444,-0.015405025,0.72444683,0.99999726,9.313226e-10,-5.2386895e-10,-0.0023410916,1
3844000,3844000,0.6891429,0.0016543543,-0.015416213,0.72445965,0.99999726,9.313226e-10,-5.2386895e-10,-0.0023410916,1
3848000,3848000,0.68912953,0.0016606943,-0.015424676,0.7244721,0.99999726,9.313226e-10,-5.2386895e-10,-0.0023410916,1
3852000,3852000,0.6891148,0.0016677476,-0.015433946,0.72448593,0.99999726,9.313226e-10,-5.2386895e-10,-0.0023410916,1
3856000,3856000,0.6890967,0.0016702282,-0.01544409,0.724503,0.99999726,9.313226e-10,-5.2386895e-10,-0.0023410916,1
3864000,3864000,0.6890668,0.0016752044,-0.015462919,0.7245309,0.99999726,9.313226e-10,-5.2386895e-10,-0.0023410916,1
3868000,3868000,0.6890559,0.0016784002,-0.015467039,0.7245412,0.99999726,9.313226e-10,-5.2386895e-10,-0.0023410916,1
3872000,3872000,0.6890446,0.0016850422,-0.015473711,0.72455186,0.99999726,9.313226e-10,-5.2386895e-10,-0.0023410916,1
3876000,3876000,0.6890332,0.0016950478,-0.0154813565,0.7245624,0.99999726,9.313226e-10,-5.2386895e-10,-0.0023410916,1
3880000,3880000,0.68902147,0.0017053935,-0.015487866,0.72457343,0.99999726,9.313226e-10,-5.2386895e-10,-0.0023410916,1
3888000,3888000,0.68899244,0.0017106121,-0.015493565,0.7246009,0.99999726,9.313226e-10,-5.2386895e-10,-0.0023410916,1
3896000,3896000,0.6889707,0.001711504,-0.015504409,0.72462136,0.99999726,9.313226e-10,-5.2386895e-10,-0.0023410916,1
3900000,3900000,0.68896127,0.0017126638,-0.015506011,0.72463024,0.99999726,9.313226e-10,-5.2386895e-10,-0.0023410916,1
3908000,3908000,0.68893814,0.0017142785,-0.015505284,0.7246523,0.99999726,9.313226e-10,-5.2386895e-10,-0.0023410916,1
3912000,3912000,0.688925,0.0017182232,-0.015506253,0.72466475,0.99999726,9.313226e-10,-5.2386895e-10,-0.0023410916,1
3920000,3920000,0.6888923,0.001730786,-0.015508874,0.7246958,0.99999726,9.313226e-10,-5.2386895e-10,-0.0023410916,1
3928000,3928000,0.6888576,0.0017425444,-0.01551493,0.7247286,0.99999726,9.313226e-10,-5.2386895e-10,-0.0023410916,1
3932000,3932000,0.68884283,0.0017512701,-0.015518639,0.7247425,0.99999726,9.313226e-10,-5.2386895e-10,-0.0023410916,1
3936000,3936000,0.688827,0.0017594706,-0.015517469,0.7247576,0.99999726,9.313226e-10,-5.2386895e-10,-0.0023410916,1
3944000,3944000,0.6887981,0.0017746838,-0.0155144045,0.7247851,0.99999726,9.313226e-10,-5.2386895e-10,-0.0023410916,1
3948000,3948000,0.68878365,0.001773344,-0.015511218,0.7247989,0.99999726,9.313226e-10,-5.2386895e-10,-0.0023410916,1
3952000,3952000,0.6887711,0.0017694008,-0.015507719,0.7248109,0.99999726,9.313226e-10,-5.2386895e-10,-0.0023410916,1
3956000,3956000,0.68876255,0.0017695092,-0.015509456,0.724819,0.99999726,9.313226e-10,-5.2386895e-10,-0.0023410916,1
3960000,3960000,0.6887535,0.0017726975,-0.015514129,0.72482747,0.99999726,9.313226e-10,-5.2386895e-10,-0.0023410916,1
3968000,3968000,0.68872637,0.0017824757,-0.015526203,0.7248529,0.99999726,9.313226e-10,-5.2386895e-10,-0.0023410916,1
3972000,3972000,0.6887098,0.0017882122,-0.015528353,0.7248686,0.99999726,9.313226e-10,-5.2386895e-10,-0.0023410916,1
3976000,3976000,0.6886976,0.0017887695,-0.015530629,0.7248802,0.99999726,9.313226e-10,-5.2386895e-10,-0.0023410916,1
3980000,3980000,0.688695,0.0017885655,-0.015532278,0.72488266,0.99999726,9.313226e-10,-5.2386895e-10,-0.0023410916,1
3984000,3984000,0.68869126,0.0017920821,-0.015533081,0.7248862,0.99999726,9.313226e-10,-5.2386895e-10,-0.0023410916,1
3988000,3988000,0.6886875,0.0017964635,-0.015533275,0.72488976,0.99999726,9.313226e-10,-5.2386895e-10,-0.0023410916,1
3992000,3992000,0.68868566,0.0018008861,-0.015533462,0.7248914,0.99999726,9.313226e-10,-5.2386895e-10,-0.0023410916,1
4000000,4000000,0.68868285,0.001804212,-0.015544127,0.7248939,0.99999726,9.313226e-10,-5.2386895e-10,-0.0023410916,1
4004000,4004000,0.68868023,0.0018063276,-0.01554888,0.7248963,0.99999726,9.313226e-10,-5.2386895e-10,-0.0023410916,1
4008000,4008000,0.6886787,0.0018099544,-0.015552838,0.72489756,0.99999726,9.313226e-10,-5.2386895e-10,-0.0023410916,1
4012000,4012000,0.68867755,0.0018148125,-0.015555829,0.7248986,0.99999726,9.313226e-10,-5.2386895e-10,-0.0023410916,1
4016000,4016000,0.6886752,0.0018184874,-0.015557722,0.7249007,0.99999726,9.313226e-10,-5.2386895e-10,-0.0023410916,1
4020000,4020000,0.6886741,0.0018177943,-0.015559929,0.72490185,0.99999726,9.313226e-10,-5.2386895e-10,-0.0023410916,1
4024000,4024000,0.68867254,0.0018141001,-0.015562966,0.7249033,0.99999726,9.313226e-10,-5.2386895e-10,-0.0023410916,1
4028000,4028000,0.68866926,0.0018131246,-0.015565771,0.7249063,0.99999726,9.313226e-10,-5.2386895e-10,-0.0023410916,1
4032000,4032000,0.6886671,0.0018147997,-0.015568128,0.7249083,0.99999726,9.313226e-10,-5.2386895e-10,-0.0023410916,1
4040000,4040000,0.6886713,0.0018231721,-0.015575401,0.7249042,0.99999726,9.313226e-10,-5.2386895e-10,-0.0023410916,1
4044000,4044000,0.68867695,0.0018333416,-0.01557497,0.7248987,0.99999726,9.313226e-10,-5.2386895e-10,-0.0023410916,1
4048000,4048000,0.68868357,0.0018355162,-0.015570601,0.7248925,0.99999726,9.313226e-10,-5.2386895e-10,-0.0023410916,1
4052000,4052000,0.68869233,0.0018338643,-0.015572191,0.7248842,0.99999726,9.313226e-10,-5.2386895e-10,-0.0023410916,1
4056000,4056000,0.6887005,0.0018376671,-0.015581175,0.7248763,0.99999726,9.313226e-10,-5.2386895e-10,-0.0023410916,1
4060000,4060000,0.6887069,0.0018422476,-0.015588088,0.72486997,0.99999726,9.313226e-10,-5.2386895e-10,-0.0023410916,1
4064000,4064000,0.68871367,0.0018467787,-0.015592745,0.7248634,0.99999726,9.313226e-10,-5.2386895e-10,-0.0023410916,1
4072000,4072000,0.68873096,0.0018648717,-0.015603351,0.7248467,0.99999726,9.313226e-10,-5.2386895e-10,-0.0023410916,1
4076000,4076000,0.68874174,0.0018613072,-0.015598374,0.7248366,0.99999726,9.313226e-10,-5.2386895e-10,-0.0023410916,1
4080000,4080000,0.68875414,0.0018513858,-0.015593934,0.7248249,0.99999726,9.313226e-10,-5.2386895e-10,-0.0023410916,1
4088000,4088000,0.68877345,0.0018266861,-0.01558799,0.7248068,0.99999726,9.313226e-10,-5.2386895e-10,-0.0023410916,1
4092000,4092000,0.68878293,0.0018163997,-0.015583341,0.72479784,0.99999726,9.313226e-10,-5.2386895e-10,-0.0023410916,1
4096000,4096000,0.68879086,0.0018076055,-0.015579412,0.72479045,0.99999726,9.313226e-10,-5.2386895e-10,-0.0023410916,1
4104000,4104000,0.6888065,0.0017872576,-0.015564587,0.7247759,0.99999726,9.313226e-10,-5.2386895e-10,-0.0023410916,1
4108000,4108000,0.688811,0.0017848278,-0.015555649,0.7247719,0.99999726,9.313226e-10,-5.2386895e-10,-0.0023410916,1
4112000,4112000,0.6888162,0.00178363,-0.015550066,0.72476715,0.99999726,9.313226e-10,-5.2386895e-10,-0.0023410916,1
4116000,4116000,0.6888245,0.0017761309,-0.015546541,0.72475934,0.99999726,9.313226e-10,-5.2386895e-10,-0.0023410916,1
4120000,4120000,0.6888355,0.0017645007,-0.015541232,0.72474897,0.99999726,9.313226e-10,-5.2386895e-10,-0.0023410916,1
4124000,4124000,0.68884766,0.0017531965,-0.015533286,0.7247376,0.99999726,9.313226e-10,-5.2386895e-10,-0.0023410916,1
4128000,4128000,0.68885595,0.001743663,-0.015524171,0.7247299,0.99999726,9.313226e-10,-5.2386895e-10,-0.0023410916,1
4132000,4132000,0.68885976,0.0017365948,-0.015512364,0.7247266,0.99999726,9.313226e-10,-5.2386895e-10,-0.0023410916,1
4136000,4136000,0.6888635,0.001732924,-0.015500845,0.7247233,0.99999726,9.313226e-10,-5.2386895e-10,-0.0023410916,1
4140000,4140000,0.68886775,0.0017281683,-0.015491222,0.7247195,0.99999726,9.313226e-10,-5.2386895e-10,-0.0023410916,1
4144000,4144000,0.68887275,0.0017200507,-0.015482059,0.72471493,0.99999726,9.313226e-10,-5.2386895e-10,-0.0023410916,1
4148000,4148000,0.6888781,0.001714992,-0.015475052,0.7247099,0.99999726,9.313226e-10,-5.2386895e-10,-0.0023410916,1
4152000,4152000,0.6888831,0.0017156008,-0.015469036,0.7247054,0.99999726,9.313226e-10,-5.2386895e-10,-0.0023410916,1
4156000,4156000,0.68888694,0.0017176847,-0.0154637,0.7247019,0.99999726,9.313226e-10,-5.2386895e-10,-0.0023410916,1
4160000,4160000,0.68889153,0.0017145716,-0.015460753,0.7246976,0.99999726,9.313226e-10,-5.2386895e-10,-0.0023410916,1
4164000,4164000,0.68889785,0.0017027525,-0.015456268,0.7246917,0.99999726,9.313226e-10,-5.2386895e-10,-0.0023410916,1
4168000,4168000,0.688905,0.0016904115,-0.015445391,0.72468513,0.99999726,9.313226e-10,-5.2386895e-10,-0.0023410916,1
4172000,4172000,0.6889114,0.001685548,-0.015434448,0.7246793,0.99999726,9.313226e-10,-5.2386895e-10,-0.0023410916,1
4176000,4176000,0.6889154,0.001683685,-0.015424939,0.72467566,0.99999726,9.313226e-10,-5.2386895e-10,-0.0023410916,1
4180000,4180000,0.68891716,0.0016794198,-0.015413354,0.7246742,0.99999726,9.313226e-10,-5.2386895e-10,-0.0023410916,1
4184000,4184000,0.68892014,0.0016710669,-0.0154030025,0.72467166,0.99999726,9.313226e-10,-5.2386895e-10,-0.0023410916,1
4188000,4188000,0.6888911,0.0016652528,-0.015397484,0.7246994,0.99999726,9.313226e-10,-5.2386895e-10,-0.0023410916,1
4192000,4192000,0.6888608,0.0016625786,-0.015397917,0.72472817,0.99999726,9.313226e-10,-5.2386895e-10,-0.0023410916,1
4196000,4196000,0.68883044,0.001657387,-0.015401258,0.72475696,0.99999726,9.313226e-10,-5.2386895e-10,-0.0023410916,1
4200000,4200000,0.68880373,0.0016498005,-0.01539637,0.7247826,0.99999726,9.313226e-10,-5.2386895e-10,-0.0023410916,1
4204000,4204000,0.6887781,0.0016444146,-0.015386356,0.72480714,0.99999726,9.313226e-10,-5.2386895e-10,-0.0023410916,1
4208000,4208000,0.6887482,0.0016416218,-0.015378167,0.72483575,0.99999726,9.313226e-10,-5.2386895e-10,-0.0023410916,1
4212000,4212000,0.6887158,0.0016403755,-0.015371658,0.7248666,0.99999726,9.313226e-10,-5.2386895e-10,-0.0023410916,1
4216000,4216000,0.688685,0.001636961,-0.015367461,0.72489595,0.99999726,9.313226e-10,-5.2386895e-10,-0.0023410916,1
4220000,4220000,0.6886542,0.0016310116,-0.015365424,0.72492534,0.99999726,9.313226e-10,-5.2386895e-10,-0.0023410916,1
4224000,4224000,0.6886237,0.0016276183,-0.015359927,0.7249544,0.99999726,9.313226e-10,-5.2386895e-10,-0.0023410916,1
4232000,4232000,0.68856454,0.0016311334,-0.015348706,0.7250109,0.99999726,9.313226e-10,-5.2386895e-10,-0.0023410916,1
4236000,4236000,0.68853354,0.0016320096,-0.015344649,0.7250404,0.99999726,9.313226e-10,-5.2386895e-10,-0.0023410916,1
4240000,4240000,0.68850297,0.001632508,-0.015340223,0.7250695,0.99999726,9.313226e-10,-5.2386895e-10,-0.0023410916,1
4248000,4248000,0.688448,0.001633343,-0.015330655,0.7251219,0.99999726,9.313226e-10,-5.2386895e-10,-0.0023410916,1
4256000,4256000,0.6883887,0.0016289924,-0.015325368,0.72517824,0.99999726,9.313226e-10,-5.2386895e-10,-0.0023410916,1
4264000,4264000,0.68833023,0.0016246022,-0.015318905,0.72523385,0.99999726,9.313226e-10,-5.2386895e-10,-0.0023410916,1
4268000,4268000,0.6882988,0.0016253318,-0.015321198,0.7252636,0.99999726,9.313226e-10,-5.2386895e-10,-0.0023410916,1
4272000,4272000,0.68826747,0.0016261404,-0.015326505,0.72529334,0.99999726,9.313226e-10,-5.2386895e-10,-0.0023410916,1
4280000,4280000,0.68820924,0.0016323084,-0.015326302,0.7253486,0.99999726,9.313226e-10,-5.2386895e-10,-0.0023410916,1
4288000,4288000,0.6881507,0.0016254515,-0.015305583,0.7254045,0.99999726,9.313226e-10,-5.2386895e-10,-0.0023410916,1
4296000,4296000,0.6880957,0.0016204047,-0.01528024,0.7254573,0.99999726,9.313226e-10,-5.2386895e-10,-0.0023410916,1
4300000,4300000,0.6880751,0.0016155766,-0.015268691,0.72547704,0.99999726,9.313226e-10,-5.2386895e-10,-0.0023410916,1
4304000,4304000,0.68805146,0.0016073452,-0.015259121,0.72549963,0.99999726,9.313226e-10,-5.2386895e-10,-0.0023410916,1
4308000,4308000,0.68802804,0.0016000529,-0.015251323,0.72552204,0.99999726,9.313226e-10,-5.2386895e-10,-0.0023410916,1
4312000,4312000,0.6880046,0.0015942868,-0.01524424,0.7255445,0.99999726,9.313226e-10,-5.2386895e-10,-0.0023410916,1
4316000,4316000,0.6879809,0.0015899,-0.01523616,0.7255671,0.99999726,9.313226e-10,-5.2386895e-10,-0.0023410916,1
4324000,4324000,0.6879343,0.0015765849,-0.015215826,0.7256118,0.99999726,9.313226e-10,-5.2386895e-10,-0.0023410916,1
4328000,4328000,0.687911,0.0015661621,-0.015204363,0.72563416,0.99999726,9.313226e-10,-5.2386895e-10,-0.0023410916,1
4332000,4332000,0.687884,0.0015585661,-0.015191871,0.72566,0.99999726,9.313226e-10,-5.2386895e-10,-0.0023410916,1
4336000,4336000,0.6878589,0.0015543684,-0.015178155,0.7256841,0.99999726,9.313226e-10,-5.2386895e-10,-0.0023410916,1
4340000,4340000,0.6878356,0.0015495752,-0.015167629,0.7257064,0.99999726,9.313226e-10,-5.2386895e-10,-0.0023410916,1
4344000,4344000,0.6878103,0.0015466945,-0.015159693,0.72573054,0.99999726,9.313226e-10,-5.2386895e-10,-0.0023410916,1
4348000,4348000,0.6877849,0.0015441567,-0.015150001,0.72575486,0.99999726,9.313226e-10,-5.2386895e-10,-0.0023410916,1
4352000,4352000,0.68776107,0.0015363604,-0.015139693,0.7257777,0.99999726,9.313226e-10,-5.2386895e-10,-0.0023410916,1
4356000,4356000,0.68774176,0.0015272142,-0.015131785,0.72579616,0.99999726,9.313226e-10,-5.2386895e-10,-0.0023410916,1
4360000,4360000,0.6877236,0.0015185598,-0.015127251,0.72581345,0.99999726,9.313226e-10,-5.2386895e-10,-0.0023410916,1
4364000,4364000,0.6877056,0.0015114,-0.015122762,0.7258306,0.99999726,9.313226e-10,-5.2386895e-10,-0.0023410916,1
4368000,4368000,0.6876861,0.0015066502,-0.015111052,0.72584933,0.99999726,9.313226e-10,-5.2386895e-10,-0.0023410916,1
4372000,4372000,0.6876668,0.0014999943,-0.015096939,0.7258679,0.99999726,9.313226e-10,-5.2386895e-10,-0.0023410916,1
4376000,4376000,0.68764824,0.0014908314,-0.015087038,0.72588575,0.99999726,9.313226e-10,-5.2386895e-10,-0.0023410916,1
4384000,4384000,0.6876156,0.0014677616,-0.015067308,0.72591716,0.99999726,9.313226e-10,-5.2386895e-10,-0.0023410916,1
4388000,4388000,0.68760014,0.0014532312,-0.01506351,0.7259318,0.99999726,9.313226e-10,-5.2386895e-10,-0.0023410916,1
4392000,4392000,0.68758506,0.001441049,-0.015062662,0.7259461,0.99999726,9.313226e-10,-5.2386895e-10,-0.0023410916,1
4400000,4400000,0.6875595,0.0014188509,-0.015052881,0.7259706,0.99999726,9.313226e-10,-5.2386895e-10,-0.0023410916,1
4404000,4404000,0.68754977,0.0014062929,-0.015047463,0.72598004,0.99999726,9.313226e-10,-5.2386895e-10,-0.0023410916,1
4412000,4412000,0.6875268,0.0013880418,-0.01503887,0.726002,0.99999726,9.313226e-10,-5.2386895e-10,-0.0023410916,1
4416000,4416000,0.6875137,0.0013811477,-0.015033094,0.72601455,0.99999726,9.313226e-10,-5.2386895e-10,-0.0023410916,1
4420000,4420000,0.6875002,0.0013759147,-0.015030449,0.7260274,0.99999726,9.313226e-10,-5.2386895e-10,-0.0023410916,1
4424000,4424000,0.6874874,0.0013725902,-0.015028128,0.7260396,0.99999726,9.313226e-10,-5.2386895e-10,-0.0023410916,1
4428000,4428000,0.6874765,0.0013705026,-0.015025547,0.72604996,0.99999726,9.313226e-10,-5.2386895e-10,-0.0023410916,1
4432000,4432000,0.687466,0.0013662261,-0.015025285,0.7260599,0.99999726,9.313226e-10,-5.2386895e-10,-0.0023410916,1
4436000,4436000,0.6874576,0.001365043,-0.015023573,0.7260678,0.99999726,9.313226e-10,-5.2386895e-10,-0.0023410916,1
4440000,4440000,0.6874486,0.0013659588,-0.015016534,0.72607654,0.99999726,9.313226e-10,-5.2386895e-10,-0.0023410916,1
4448000,4448000,0.687429,0.0013533245,-0.015006522,0.72609526,0.99999726,9.313226e-10,-5.2386895e-10,-0.0023410916,1
4452000,4452000,0.68742496,0.0013471136,-0.0150052225,0.7260992,0.99999726,9.313226e-10,-5.2386895e-10,-0.0023410916,1
4456000,4456000,0.6874208,0.0013439966,-0.0150068505,0.72610307,0.99999726,9.313226e-10,-5.2386895e-10,-0.0023410916,1
4460000,4460000,0.68741477,0.001339046,-0.01500977,0.72610873,0.99999726,9.313226e-10,-5.2386895e-10,-0.0023410916,1
4464000,4464000,0.6874088,0.0013317338,-0.015008987,0.7261144,0.99999726,9.313226e-10,-5.2386895e-10,-0.0023410916,1
4468000,4468000,0.6874056,0.0013266064,-0.015002195,0.72611755,0.99999726,9.313226e-10,-5.2386895e-10,-0.0023410916,1
4472000,4472000,0.68740433,0.0013225967,-0.014993486,0.7261189,0.99999726,9.313226e-10,-5.2386895e-10,-0.0023410916,1
4476000,4476000,0.68739456,0.0013200236,-0.014988918,0.72612834,0.99999726,9.313226e-10,-5.2386895e-10,-0.0023410916,1
4480000,4480000,0.6873832,0.001318945,-0.014985063,0.72613925,0.99999726,9.313226e-10,-5.2386895e-10,-0.0023410916,1
4484000,4484000,0.687372,0.0013171547,-0.014982764,0.72614986,0.99999726,9.313226e-10,-5.2386895e-10,-0.0023410916,1
4488000,4488000,0.68736047,0.0013120407,-0.014983193,0.72616076,0.99999726,9.313226e-10,-5.2386895e-10,-0.0023410916,1
4496000,4496000,0.68733305,0.001293925,-0.014969465,0.726187,0.99999726,9.313226e-10,-5.2386895e-10,-0.0023410916,1
4504000,4504000,0.68731004,0.0012770254,-0.014948768,0.7262092,0.99999726,9.313226e-10,-5.2386895e-10,-0.0023410916,1
4512000,4512000,0.6872881,0.0012622719,-0.014931572,0.7262304,0.99999726,9.313226e-10,-5.2386895e-10,-0.0023410916,1
4516000,4516000,0.6872802,0.0012515882,-0.01492199,0.7262381,0.99999726,9.313226e-10,-5.2386895e-10,-0.0023410916,1
4520000,4520000,0.6872711,0.0012430771,-0.01491009,0.72624695,0.99999726,9.313226e-10,-5.2386895e-10,-0.0023410916,1
4528000,4528000,0.6872494,0.0012336987,-0.014894336,0.7262678,0.99999726,9.313226e-10,-5.2386895e-10,-0.0023410916,1
4536000,4536000,0.6872246,0.0012188941,-0.014888908,0.7262914,0.99999726,9.313226e-10,-5.2386895e-10,-0.0023410916,1
4540000,4540000,0.6872121,0.0012157931,-0.01488586,0.7263033,0.99999726,9.313226e-10,-5.2386895e-10,-0.0023410916,1
4548000,4548000,0.68718714,0.0012057984,-0.014876243,0.7263272,0.99999726,9.313226e-10,-5.2386895e-10,-0.0023410916,1
4552000,4552000,0.6871735,0.0011984105,-0.014866297,0.72634035,0.99999726,9.313226e-10,-5.2386895e-10,-0.0023410916,1
4560000,4560000,0.68715286,0.0011826055,-0.01484967,0.7263602,0.99999726,9.313226e-10,-5.2386895e-10,-0.0023410916,1
4564000,4564000,0.6871428,0.0011764508,-0.014846676,0.7263698,0.99999726,9.313226e-10,-5.2386895e-10,-0.0023410916,1
4568000,4568000,0.68713,0.0011732103,-0.014842096,0.72638196,0.99999726,9.313226e-10,-5.2386895e-10,-0.0023410916,1
4572000,4572000,0.68711925,0.0011708346,-0.014837566,0.72639227,0.99999726,9.313226e-10,-5.2386895e-10,-0.0023410916,1
4576000,4576000,0.6871112,0.0011658687,-0.014832727,0.7264,0.99999726,9.313226e-10,-5.2386895e-10,-0.0023410916,1
4584000,4584000,0.68709636,0.001150224,-0.014821323,0.72641426,0.99999726,9.313226e-10,-5.2386895e-10,-0.0023410916,1
4588000,4588000,0.6870853,0.0011432077,-0.014814646,0.7264248,0.99999726,9.313226e-10,-5.2386895e-10,-0.0023410916,1
4592000,4592000,0.6870723,0.001141119,-0.014810474,0.7264373,0.99999726,9.313226e-10,-5.2386895e-10,-0.0023410916,1
4596000,4596000,0.68706495,0.0011410565,-0.014808845,0.7264442,0.99999726,9.313226e-10,-5.2386895e-10,-0.0023410916,1
4600000,4600000,0.6870609,0.0011349294,-0.014803617,0.72644824,0.99999726,9.313226e-10,-5.2386895e-10,-0.0023410916,1
4604000,4604000,0.6870549,0.0011256275,-0.014796175,0.726454,0.99999726,9.313226e-10,-5.2386895e-10,-0.0023410916,1
4608000,4608000,0.68704766,0.001118237,-0.014790567,0.72646093,0.99999726,9.313226e-10,-5.2386895e-10,-0.0023410916,1
4616000,4616000,0.6870382,0.0011106881,-0.01478253,0.7264701,0.99999726,9.313226e-10,-5.2386895e-10,-0.0023410916,1
4624000,4624000,0.6870352,0.0011005076,-0.014776814,0.72647303,0.99999726,9.313226e-10,-5.2386895e-10,-0.0023410916,1
4628000,4628000,0.6870301,0.0010935551,-0.014773426,0.726478,0.99999726,9.313226e-10,-5.2386895e-10,-0.0023410916,1
4636000,4636000,0.68702036,0.0010896517,-0.014762951,0.72648746,0.99999726,9.313226e-10,-5.2386895e-10,-0.0023410916,1
4640000,4640000,0.6870161,0.0010924898,-0.0147615215,0.7264915,0.99999726,9.313226e-10,-5.2386895e-10,-0.0023410916,1
4644000,4644000,0.6870156,0.001097983,-0.014761111,0.726492,0.99999726,9.313226e-10,-5.2386895e-10,-0.0023410916,1
4648000,4648000,0.6870197,0.0010990951,-0.014762322,0.726488,0.99999726,9.313226e-10,-5.2386895e-10,-0.0023410916,1
4656000,4656000,0.6870286,0.0010995968,-0.014763215,0.72647965,0.99999726,9.313226e-10,-5.2386895e-10,-0.0023410916,1
4660000,4660000,0.68702906,0.0010962711,-0.014763346,0.72647923,0.99999726,9.313226e-10,-5.2386895e-10,-0.0023410916,1
4664000,4664000,0.6870256,0.0010914027,-0.01476503,0.7264824,0.99999726,9.313226e-10,-5.2386895e-10,-0.0023410916,1
4668000,4668000,0.6870259,0.001084947,-0.014765187,0.72648215,0.99999726,9.313226e-10,-5.2386895e-10,-0.0023410916,1
4672000,4672000,0.6870293,0.0010792861,-0.014764566,0.726479,0.99999726,9.313226e-10,-5.2386895e-10,-0.0023410916,1
4680000,4680000,0.68703026,0.0010691077,-0.014763892,0.7264781,0.99999726,9.313226e-10,-5.2386895e-10,-0.0023410916,1
4684000,4684000,0.68703324,0.0010615871,-0.014760886,0.7264753,0.99999726,9.313226e-10,-5.2386895e-10,-0.0023410916,1
4688000,4688000,0.687042,0.0010598206,-0.014757338,0.7264671,0.99999726,9.313226e-10,-5.2386895e-10,-0.0023410916,1
4692000,4692000,0.6870595,0.0010600275,-0.014752871,0.7264506,0.99999726,9.313226e-10,-5.2386895e-10,-0.0023410916,1
4696000,4696000,0.68707204,0.0010571419,-0.01474925,0.72643894,0.99999726,9.313226e-10,-5.2386895e-10,-0.0023410916,1
4700000,4700000,0.6870805,0.0010559837,-0.014742189,0.7264311,0.99999726,9.313226e-10,-5.2386895e-10,-0.0023410916,1
4704000,4704000,0.68708855,0.0010548176,-0.014735129,0.72642356,0.99999726,9.313226e-10,-5.2386895e-10,-0.0023410916,1
4708000,4708000,0.68709654,0.001050025,-0.0147261,0.7264162,0.99999726,9.313226e-10,-5.2386895e-10,-0.0023410916,1
4716000,4716000,0.6871148,0.0010418115,-0.0147085525,0.72639936,0.99999726,9.313226e-10,-5.2386895e-10,-0.0023410916,1
4720000,4720000,0.68712294,0.0010366263,-0.014705735,0.7263917,0.99999726,9.313226e-10,-5.2386895e-10,-0.0023410916,1
4724000,4724000,0.687129,0.0010346035,-0.014703742,0.72638595,0.99999726,9.313226e-10,-5.2386895e-10,-0.0023410916,1
4728000,4728000,0.68713546,0.0010378169,-0.014700096,0.72637993,0.99999726,9.313226e-10,-5.2386895e-10,-0.0023410916,1
4736000,4736000,0.68714505,0.0010359001,-0.014680842,0.72637117,0.99999726,9.313226e-10,-5.2386895e-10,-0.0023410916,1
4744000,4744000,0.6871551,0.0010329679,-0.014668635,0.726362,0.99999726,9.313226e-10,-5.2386895e-10,-0.0023410916,1
4752000,4752000,0.6871683,0.0010274253,-0.014645772,0.72634995,0.99999726,9.313226e-10,-5.2386895e-10,-0.0023410916,1
4756000,4756000,0.6871761,0.0010245817,-0.014633485,0.72634286,0.99999726,9.313226e-10,-5.2386895e-10,-0.0023410916,1
4760000,4760000,0.68718195,0.0010205385,-0.014620103,0.7263376,0.99999726,9.313226e-10,-5.2386895e-10,-0.0023410916,1
4764000,4764000,0.6871848,0.0010177727,-0.01460864,0.7263351,0.99999726,9.313226e-10,-5.2386895e-10,-0.0023410916,1
4768000,4768000,0.68719304,0.0010190264,-0.014602335,0.7263274,0.99999726,9.313226e-10,-5.2386895e-10,-0.0023410916,1
4776000,4776000,0.68721664,0.0010242523,-0.014594277,0.7263052,0.99999726,9.313226e-10,-5.2386895e-10,-0.0023410916,1
4780000,4780000,0.6872225,0.0010305749,-0.014589063,0.7262998,0.99999726,9.313226e-10,-5.2386895e-10,-0.0023410916,1
4784000,4784000,0.6872299,0.0010353605,-0.014581628,0.72629297,0.99999726,9.313226e-10,-5.2386895e-10,-0.0023410916,1
4788000,4788000,0.68723863,0.0010345832,-0.01457501,0.72628474,0.99999726,9.313226e-10,-5.2386895e-10,-0.0023410916,1
4792000,4792000,0.68724597,0.0010300105,-0.0145685,0.726278,0.99999726,9.313226e-10,-5.2386895e-10,-0.0023410916,1
4796000,4796000,0.6872519,0.0010305714,-0.01455685,0.7262726,0.99999726,9.313226e-10,-5.2386895e-10,-0.0023410916,1
4800000,4800000,0.6872586,0.0010360104,-0.014543935,0.7262665,0.99999726,9.313226e-10,-5.2386895e-10,-0.0023410916,1
4804000,4804000,0.68726355,0.0010422148,-0.014532022,0.7262621,0.99999726,9.313226e-10,-5.2386895e-10,-0.0023410916,1
4808000,4808000,0.68726724,0.0010517944,-0.014520394,0.7262588,0.99999726,9.313226e-10,-5.2386895e-10,-0.0023410916,1
4812000,4812000,0.6872711,0.0010618865,-0.014513155,0.7262553,0.99999726,9.313226e-10,-5.2386895e-10,-0.0023410916,1
4816000,4816000,0.6872769,0.0010691097,-0.014509762,0.7262499,0.99999726,9.313226e-10,-5.2386895e-10,-0.0023410916,1
4820000,4820000,0.68728524,0.0010782483,-0.014506972,0.726242,0.99999726,9.313226e-10,-5.2386895e-10,-0.0023410916,1
4824000,4824000,0.68729514,0.0010877424,-0.014502288,0.7262327,0.99999726,9.313226e-10,-5.2386895e-10,-0.0023410916,1
4828000,4828000,0.68730116,0.0010899162,-0.014496202,0.72622716,0.99999726,9.313226e-10,-5.2386895e-10,-0.0023410916,1
4832000,4832000,0.68730336,0.0010874126,-0.014487235,0.72622526,0.99999726,9.313226e-10,-5.2386895e-10,-0.0023410916,1
4836000,4836000,0.6873062,0.0010849186,-0.014480044,0.72622263,0.99999726,9.313226e-10,-5.2386895e-10,-0.0023410916,1
4840000,4840000,0.6873102,0.0010848102,-0.014476555,0.72621894,0.99999726,9.313226e-10,-5.2386895e-10,-0.0023410916,1
4844000,4844000,0.6873122,0.0010867674,-0.014469512,0.72621727,0.99999726,9.313226e-10,-5.2386895e-10,-0.0023410916,1
4848000,4848000,0.687313,0.0010877829,-0.014456467,0.72621673,0.99999726,9.313226e-10,-5.2386895e-10,-0.0023410916,1
4852000,4852000,0.6873138,0.0010894523,-0.01444216,0.7262163,0.99999726,9.313226e-10,-5.2386895e-10,-0.0023410916,1
4856000,4856000,0.6873176,0.0010928549,-0.01443383,0.72621286,0.99999726,9.313226e-10,-5.2386895e-10,-0.0023410916,1
4860000,4860000,0.6873221,0.001095948,-0.014429914,0.7262087,0.99999726,9.313226e-10,-5.2386895e-10,-0.0023410916,1
4864000,4864000,0.68732274,0.001097804,-0.014424904,0.72620815,0.99999726,9.313226e-10,-5.2386895e-10,-0.0023410916,1
4868000,4868000,0.68732023,0.0010999397,-0.014421279,0.7262106,0.99999726,9.313226e-10,-5.2386895e-10,-0.0023410916,1
4872000,4872000,0.6873212,0.0011028973,-0.014417626,0.72620976,0.99999726,9.313226e-10,-5.2386895e-10,-0.0023410916,1
4876000,4876000,0.68732524,0.0011053783,-0.014410836,0.726206,0.99999726,9.313226e-10,-5.2386895e-10,-0.0023410916,1
4880000,4880000,0.68732744,0.0011100175,-0.01440173,0.7262041,0.99999726,9.313226e-10,-5.2386895e-10,-0.0023410916,1
4884000,4884000,0.6873269,0.0011149824,-0.014395485,0.72620475,0.99999726,9.313226e-10,-5.2386895e-10,-0.0023410916,1
4888000,4888000,0.6873256,0.0011154974,-0.014392376,0.72620606,0.99999726,9.313226e-10,-5.2386895e-10,-0.0023410916,1
4892000,4892000,0.68732435,0.0011137456,-0.014391807,0.72620726,0.99999726,9.313226e-10,-5.2386895e-10,-0.0023410916,1
4896000,4896000,0.68732345,0.0011127958,-0.0143927215,0.7262081,0.99999726,9.313226e-10,-5.2386895e-10,-0.0023410916,1
4904000,4904000,0.68731916,0.0011117783,-0.014393052,0.72621214,0.99999726,9.313226e-10,-5.2386895e-10,-0.0023410916,1
4908000,4908000,0.68730646,0.0011194579,-0.014383734,0.7262243,0.99999726,9.313226e-10,-5.2386895e-10,-0.0023410916,1
4912000,4912000,0.68729496,0.001126449,-0.014375941,0.7262354,0.99999726,9.313226e-10,-5.2386895e-10,-0.0023410916,1
4916000,4916000,0.687285,0.0011346577,-0.014371655,0.72624487,0.99999726,9.313226e-10,-5.2386895e-10,-0.0023410916,1
4920000,4920000,0.68727463,0.0011468854,-0.014363113,0.72625476,0.99999726,9.313226e-10,-5.2386895e-10,-0.0023410916,1
4924000,4924000,0.68726337,0.0011575101,-0.014353249,0.72626567,0.99999726,9.313226e-10,-5.2386895e-10,-0.0023410916,1
4928000,4928000,0.6872521,0.0011644535,-0.014346501,0.72627646,0.99999726,9.313226e-10,-5.2386895e-10,-0.0023410916,1
4932000,4932000,0.6872401,0.0011728362,-0.014339083,0.72628784,0.99999726,9.313226e-10,-5.2386895e-10,-0.0023410916,1
4936000,4936000,0.68722856,0.0011838515,-0.014331217,0.7262989,0.99999726,9.313226e-10,-5.2386895e-10,-0.0023410916,1
4940000,4940000,0.6872199,0.0011912317,-0.014325447,0.7263072,0.99999726,9.313226e-10,-5.2386895e-10,-0.0023410916,1
4944000,4944000,0.6872121,0.0011922589,-0.014320984,0.7263147,0.99999726,9.313226e-10,-5.2386895e-10,-0.0023410916,1
4948000,4948000,0.68720144,0.0011897848,-0.014315587,0.726325,0.99999726,9.313226e-10,-5.2386895e-10,-0.0023410916,1
4952000,4952000,0.6871908,0.0011865161,-0.014308703,0.72633517,0.99999726,9.313226e-10,-5.2386895e-10,-0.0023410916,1
4960000,4960000,0.68717325,0.001194705,-0.014295074,0.726352,0.99999726,9.313226e-10,-5.2386895e-10,-0.0023410916,1
4964000,4964000,0.6871637,0.0012015743,-0.014287692,0.7263611,0.99999726,9.313226e-10,-5.2386895e-10,-0.0023410916,1
4968000,4968000,0.68715036,0.0012064122,-0.014277733,0.726374,0.99999726,9.313226e-10,-5.2386895e-10,-0.0023410916,1
4972000,4972000,0.6871341,0.0012157594,-0.014269971,0.72638947,0.99999726,9.313226e-10,-5.2386895e-10,-0.0023410916,1
4976000,4976000,0.6871178,0.0012259225,-0.0142644495,0.726405,0.99999726,9.313226e-10,-5.2386895e-10,-0.0023410916,1
4980000,4980000,0.68709904,0.0012300598,-0.014257637,0.7264229,0.99999726,9.313226e-10,-5.2386895e-10,-0.0023410916,1
4984000,4984000,0.68708104,0.001234296,-0.014253834,0.72644,0.99999726,9.313226e-10,-5.2386895e-10,-0.0023410916,1
4988000,4988000,0.6870667,0.0012412653,-0.014251119,0.72645354,0.99999726,9.313226e-10,-5.2386895e-10,-0.0023410916,1
4992000,4992000,0.68705356,0.0012459359,-0.014246209,0.72646606,0.99999726,9.313226e-10,-5.2386895e-10,-0.0023410916,1
4996000,4996000,0.6870386,0.0012468765,-0.014241258,0.7264803,0.99999726,9.313226e-10,-5.2386895e-10,-0.0023410916,1
5004000,5004000,0.68700594,0.0012546132,-0.014224258,0.72651154,0.99999726,9.313226e-10,-5.2386895e-10,-0.0023410916,1
5008000,5008000,0.6869921,0.0012577415,-0.014213061,0.7265248,0.99999726,9.313226e-10,-5.2386895e-10,-0.0023410916,1
5016000,5016000,0.68697804,0.0012680882,-0.014200391,0.72653836,0.99999726,9.313226e-10,-5.2386895e-10,-0.0023410916,1
5020000,5020000,0.68696886,0.0012751555,-0.014199675,0.72654706,0.99999726,9.313226e-10,-5.2386895e-10,-0.0023410916,1
5024000,5024000,0.68695354,0.0012789848,-0.01419529,0.7265616,0.99999726,9.313226e-10,-5.2386895e-10,-0.0023410916,1
5028000,5028000,0.6869368,0.0012800914,-0.014186667,0.72657764,0.99999726,9.313226e-10,-5.2386895e-10,-0.0023410916,1
5032000,5032000,0.68692356,0.0012823003,-0.014174617,0.7265904,0.99999726,9.313226e-10,-5.2386895e-10,-0.0023410916,1
5036000,5036000,0.6869137,0.0012884437,-0.01416378,0.7265998,0.99999726,9.313226e-10,-5.2386895e-10,-0.0023410916,1
5040000,5040000,0.6869043,0.001297325,-0.014156258,0.7266089,0.99999726,9.313226e-10,-5.2386895e-10,-0.0023410916,1
5044000,5044000,0.68689466,0.0013017214,-0.014147925,0.7266182,0.99999726,9.313226e-10,-5.2386895e-10,-0.0023410916,1
5048000,5048000,0.6868815,0.0013015327,-0.014139726,0.72663075,0.99999726,9.313226e-10,-5.2386895e-10,-0.0023410916,1
5052000,5052000,0.6868695,0.0013010856,-0.01413474,0.7266422,0.99999726,9.313226e-10,-5.2386895e-10,-0.0023410916,1
5056000,5056000,0.6868594,0.0013013865,-0.014128224,0.72665185,0.99999726,9.313226e-10,-5.2386895e-10,-0.0023410916,1
5064000,5064000,0.686844,0.0013055606,-0.014113575,0.7266667,0.99999726,9.313226e-10,-5.2386895e-10,-0.0023410916,1
5068000,5068000,0.6868361,0.001309464,-0.014108457,0.72667426,0.99999726,9.313226e-10,-5.2386895e-10,-0.0023410916,1
5072000,5072000,0.6868282,0.0013108064,-0.0141060455,0.7266817,0.99999726,9.313226e-10,-5.2386895e-10,-0.0023410916,1
5076000,5076000,0.68682325,0.0013085833,-0.014106554,0.7266864,0.99999726,9.313226e-10,-5.2386895e-10,-0.0023410916,1
5084000,5084000,0.686812,0.0013189005,-0.014094893,0.7266973,0.99999726,9.313226e-10,-5.2386895e-10,-0.0023410916,1
5088000,5088000,0.68680525,0.0013241166,-0.014090464,0.7267037,0.99999726,9.313226e-10,-5.2386895e-10,-0.0023410916,1
5092000,5092000,0.68679875,0.0013265597,-0.014091175,0.7267099,0.99999726,9.313226e-10,-5.2386895e-10,-0.0023410916,1
5096000,5096000,0.68679255,0.0013319792,-0.014090292,0.72671574,0.99999726,9.313226e-10,-5.2386895e-10,-0.0023410916,1
5100000,5100000,0.6867861,0.0013393237,-0.014087244,0.7267219,0.99999726,9.313226e-10,-5.2386895e-10,-0.0023410916,1
5104000,5104000,0.68678004,0.0013429964,-0.014087311,0.72672755,0.99999726,9.313226e-10,-5.2386895e-10,-0.0023410916,1
5112000,5112000,0.6867719,0.0013404277,-0.014085363,0.7267353,0.99999726,9.313226e-10,-5.2386895e-10,-0.0023410916,1
5116000,5116000,0.68676746,0.0013431067,-0.014077005,0.7267397,0.99999726,9.313226e-10,-5.2386895e-10,-0.0023410916,1
5120000,5120000,0.6867629,0.0013469683,-0.014070498,0.72674406,0.99999726,9.313226e-10,-5.2386895e-10,-0.0023410916,1
5124000,5124000,0.68676245,0.0013497311,-0.014064901,0.7267446,0.99999726,9.313226e-10,-5.2386895e-10,-0.0023410916,1
5128000,5128000,0.6867628,0.0013510243,-0.014060098,0.7267444,0.99999726,9.313226e-10,-5.2386895e-10,-0.0023410916,1
5136000,5136000,0.6867678,0.0013508841,-0.01405793,0.7267397,0.99999726,9.313226e-10,-5.2386895e-10,-0.0023410916,1
5140000,5140000,0.6867681,0.0013535147,-0.014060068,0.72673935,0.99999726,9.313226e-10,-5.2386895e-10,-0.0023410916,1
5144000,5144000,0.68676925,0.0013560753,-0.014059194,0.72673833,0.99999726,9.313226e-10,-5.2386895e-10,-0.0023410916,1
5148000,5148000,0.68677235,0.0013582467,-0.0140499985,0.7267356,0.99999726,9.313226e-10,-5.2386895e-10,-0.0023410916,1
5156000,5156000,0.68678236,0.0013642613,-0.014039919,0.72672635,0.99999726,9.313226e-10,-5.2386895e-10,-0.0023410916,1
5160000,5160000,0.6867876,0.0013669987,-0.014040951,0.72672135,0.99999726,9.313226e-10,-5.2386895e-10,-0.0023410916,1
5168000,5168000,0.6867977,0.0013727505,-0.014035605,0.7267119,0.99999726,9.313226e-10,-5.2386895e-10,-0.0023410916,1
5176000,5176000,0.6868017,0.001372999,-0.014034302,0.72670805,0.99999726,9.313226e-10,-5.2386895e-10,-0.0023410916,1
5184000,5184000,0.6868058,0.0013823916,-0.014030205,0.7267043,0.99999726,9.313226e-10,-5.2386895e-10,-0.0023410916,1
5192000,5192000,0.6868052,0.0013983871,-0.014029021,0.7267049,0.99999726,9.313226e-10,-5.2386895e-10,-0.0023410916,1
5200000,5200000,0.6868134,0.0014079852,-0.014029963,0.72669697,0.99999726,9.313226e-10,-5.2386895e-10,-0.0023410916,1
5204000,5204000,0.6868219,0.001408856,-0.014029478,0.726689,0.99999726,9.313226e-10,-5.2386895e-10,-0.0023410916,1
5208000,5208000,0.68682915,0.0014126523,-0.014026652,0.7266822,0.99999726,9.313226e-10,-5.2386895e-10,-0.0023410916,1
5212000,5212000,0.68683475,0.0014169981,-0.014024626,0.726677,0.99999726,9.313226e-10,-5.2386895e-10,-0.0023410916,1
5216000,5216000,0.6868422,0.0014187568,-0.014023047,0.7266699,0.99999726,9.313226e-10,-5.2386895e-10,-0.0023410916,1
5220000,5220000,0.68684953,0.0014206956,-0.014021143,0.72666305,0.99999726,9.313226e-10,-5.2386895e-10,-0.0023410916,1
5224000,5224000,0.6868541,0.0014271205,-0.01401987,0.72665876,0.99999726,9.313226e-10,-5.2386895e-10,-0.0023410916,1
5228000,5228000,0.6868589,0.001434107,-0.014017879,0.7266543,0.99999726,9.313226e-10,-5.2386895e-10,-0.0023410916,1
5232000,5232000,0.68686485,0.0014392018,-0.014014809,0.7266487,0.99999726,9.313226e-10,-5.2386895e-10,-0.0023410916,1
5240000,5240000,0.68687606,0.0014430035,-0.014008206,0.7266382,0.99999726,9.313226e-10,-5.2386895e-10,-0.0023410916,1
5244000,5244000,0.68687814,0.0014406232,-0.014008093,0.72663623,0.99999726,9.313226e-10,-5.2386895e-10,-0.0023410916,1
5248000,5248000,0.68687433,0.0014438303,-0.014009714,0.72663975,0.99999726,9.313226e-10,-5.2386895e-10,-0.0023410916,1
5252000,5252000,0.68687105,0.0014484661,-0.014013601,0.7266428,0.99999726,9.313226e-10,-5.2386895e-10,-0.0023410916,1
5256000,5256000,0.68687093,0.0014467092,-0.014015779,0.72664285,0.99999726,9.313226e-10,-5.2386895e-10,-0.0023410916,1
5260000,5260000,0.68687147,0.0014416144,-0.014011312,0.7266425,0.99999726,9.313226e-10,-5.2386895e-10,-0.0023410916,1
5264000,5264000,0.6868712,0.0014406139,-0.014005602,0.7266429,0.99999726,9.313226e-10,-5.2386895e-10,-0.0023410916,1
5268000,5268000,0.6868767,0.001444222,-0.014002455,0.7266377,0.99999726,9.313226e-10,-5.2386895e-10,-0.0023410916,1
5272000,5272000,0.6868845,0.0014527581,-0.01399879,0.7266304,0.99999726,9.313226e-10,-5.2386895e-10,-0.0023410916,1
5276000,5276000,0.6868948,0.0014619353,-0.0139943855,0.7266207,0.99999726,9.313226e-10,-5.2386895e-10,-0.0023410916,1
5280000,5280000,0.68690515,0.0014677353,-0.013990455,0.726611,0.99999726,9.313226e-10,-5.2386895e-10,-0.0023410916,1
5284000,5284000,0.6869182,0.0014742519,-0.013988045,0.7265987,0.99999726,9.313226e-10,-5.2386895e-10,-0.0023410916,1
5288000,5288000,0.6869351,0.0014812511,-0.013986745,0.72658265,0.99999726,9.313226e-10,-5.2386895e-10,-0.0023410916,1
5292000,5292000,0.686953,0.0014836277,-0.013985607,0.72656584,0.99999726,9.313226e-10,-5.2386895e-10,-0.0023410916,1
5296000,5296000,0.68696815,0.0014817795,-0.013983459,0.7265515,0.99999726,9.313226e-10,-5.2386895e-10,-0.0023410916,1
5300000,5300000,0.6869792,0.0014797392,-0.013981354,0.7265411,0.99999726,9.313226e-10,-5.2386895e-10,-0.0023410916,1
5304000,5304000,0.6869898,0.0014792396,-0.013980716,0.72653115,0.99999726,9.313226e-10,-5.2386895e-10,-0.0023410916,1
5308000,5308000,0.68699926,0.0014804667,-0.0139789255,0.72652215,0.99999726,9.313226e-10,-5.2386895e-10,-0.0023410916,1
5312000,5312000,0.68700796,0.0014827346,-0.013974471,0.726514,0.99999726,9.313226e-10,-5.2386895e-10,-0.0023410916,1
5316000,5316000,0.6870188,0.0014860454,-0.01396888,0.7265039,0.99999726,9.313226e-10,-5.2386895e-10,-0.0023410916,1
5324000,5324000,0.6870455,0.001491398,-0.013956494,0.7264789,0.99999726,9.313226e-10,-5.2386895e-10,-0.0023410916,1
5328000,5328000,0.68705636,0.0014934272,-0.013952722,0.7264687,0.99999726,9.313226e-10,-5.2386895e-10,-0.0023410916,1
5336000,5336000,0.6870675,0.0015001814,-0.01394666,0.72645825,0.99999726,9.313226e-10,-5.2386895e-10,-0.0023410916,1
5340000,5340000,0.68708026,0.0015020733,-0.013938798,0.72644633,0.99999726,9.313226e-10,-5.2386895e-10,-0.0023410916,1
5344000,5344000,0.68709385,0.0014998077,-0.013929919,0.72643363,0.99999726,9.313226e-10,-5.2386895e-10,-0.0023410916,1
5352000,5352000,0.68711275,0.0014987065,-0.013923784,0.72641593,0.99999726,9.313226e-10,-5.2386895e-10,-0.0023410916,1
5356000,5356000,0.6871206,0.0015017502,-0.013930822,0.7264083,0.99999726,9.313226e-10,-5.2386895e-10,-0.0023410916,1
5360000,5360000,0.6871316,0.0015063799,-0.013938564,0.72639775,0.99999726,9.313226e-10,-5.2386895e-10,-0.0023410916,1
5364000,5364000,0.6871428,0.0015074973,-0.013943021,0.726387,0.99999726,9.313226e-10,-5.2386895e-10,-0.0023410916,1
5368000,5368000,0.6871541,0.0015062309,-0.013943026,0.7263764,0.99999726,9.313226e-10,-5.2386895e-10,-0.0023410916,1
5372000,5372000,0.6871656,0.001507461,-0.013938821,0.7263656,0.99999726,9.313226e-10,-5.2386895e-10,-0.0023410916,1
5380000,5380000,0.6871898,0.0015104588,-0.013936049,0.7263427,0.99999726,9.313226e-10,-5.2386895e-10,-0.0023410916,1
5384000,5384000,0.6872039,0.0015135255,-0.0139291575,0.72632957,0.99999726,9.313226e-10,-5.2386895e-10,-0.0023410916,1
5388000,5388000,0.68721926,0.0015176801,-0.01392035,0.7263151,0.99999726,9.313226e-10,-5.2386895e-10,-0.0023410916,1
5392000,5392000,0.6872338,0.0015224152,-0.013919441,0.7263013,0.99999726,9.313226e-10,-5.2386895e-10,-0.0023410916,1
5400000,5400000,0.6872596,0.0015277108,-0.013919633,0.72627693,0.99999726,9.313226e-10,-5.2386895e-10,-0.0023410916,1
5404000,5404000,0.68726975,0.0015258706,-0.013916277,0.7262674,0.99999726,9.313226e-10,-5.2386895e-10,-0.0023410916,1
5408000,5408000,0.6872775,0.0015263485,-0.013916628,0.72626007,0.99999726,9.313226e-10,-5.2386895e-10,-0.0023410916,1
5416000,5416000,0.6873038,0.0015297522,-0.01391131,0.7262352,0.99999726,9.313226e-10,-5.2386895e-10,-0.0023410916,1
5420000,5420000,0.68731886,0.0015302559,-0.013905313,0.7262211,0.99999726,9.313226e-10,-5.2386895e-10,-0.0023410916,1
5424000,5424000,0.68733734,0.0015320074,-0.013901159,0.7262037,0.99999726,9.313226e-10,-5.2386895e-10,-0.0023410916,1
5428000,5428000,0.68735504,0.0015323074,-0.013899331,0.726187,0.99999726,9.313226e-10,-5.2386895e-10,-0.0023410916,1
5432000,5432000,0.68737113,0.0015307263,-0.013898684,0.72617173,0.99999726,9.313226e-10,-5.2386895e-10,-0.0023410916,1
5440000,5440000,0.68740153,0.001532548,-0.013887501,0.72614324,0.99999726,9.313226e-10,-5.2386895e-10,-0.0023410916,1
5444000,5444000,0.6874161,0.0015339378,-0.013885299,0.72612953,0.99999726,9.313226e-10,-5.2386895e-10,-0.0023410916,1
5448000,5448000,0.68743104,0.0015350307,-0.01388574,0.7261154,0.99999726,9.313226e-10,-5.2386895e-10,-0.0023410916,1
5452000,5452000,0.68744487,0.0015345779,-0.013884729,0.7261023,0.99999726,9.313226e-10,-5.2386895e-10,-0.0023410916,1
5456000,5456000,0.6874564,0.0015318221,-0.013883783,0.7260914,0.99999726,9.313226e-10,-5.2386895e-10,-0.0023410916,1
5464000,5464000,0.687475,0.0015244426,-0.013883849,0.72607374,0.99999726,9.313226e-10,-5.2386895e-10,-0.0023410916,1
5472000,5472000,0.6874979,0.0015255632,-0.013886705,0.726052,0.99999726,9.313226e-10,-5.2386895e-10,-0.0023410916,1
5476000,5476000,0.68750894,0.0015252565,-0.0138902385,0.7260415,0.99999726,9.313226e-10,-5.2386895e-10,-0.0023410916,1
5480000,5480000,0.6875211,0.0015241782,-0.013892284,0.72602993,0.99999726,9.313226e-10,-5.2386895e-10,-0.0023410916,1
5484000,5484000,0.68752635,0.0015216955,-0.01389135,0.726025,0.99999726,9.313226e-10,-5.2386895e-10,-0.0023410916,1
5488000,5488000,0.6875323,0.0015222392,-0.013890333,0.7260193,0.99999726,9.313226e-10,-5.2386895e-10,-0.0023410916,1
5496000,5496000,0.6875412,0.0015198822,-0.013886527,0.72601104,0.99999726,9.313226e-10,-5.2386895e-10,-0.0023410916,1
5500000,5500000,0.68754333,0.0015166783,-0.013886383,0.7260091,0.99999726,9.313226e-10,-5.2386895e-10,-0.0023410916,1
5504000,5504000,0.6875467,0.0015160599,-0.01388353,0.726006,0.99999726,9.313226e-10,-5.2386895e-10,-0.0023410916,1
5508000,5508000,0.6875494,0.0015146603,-0.013878442,0.72600347,0.99999726,9.313226e-10,-5.2386895e-10,-0.0023410916,1
5512000,5512000,0.6875522,0.0015113477,-0.013872277,0.72600096,0.99999726,9.313226e-10,-5.2386895e-10,-0.0023410916,1
5520000,5520000,0.68754786,0.0015014668,-0.013868719,0.72600514,0.99999726,9.313226e-10,-5.2386895e-10,-0.0023410916,1
5528000,5528000,0.6875472,0.0014991688,-0.013861187,0.72600585,0.99999726,9.313226e-10,-5.2386895e-10,-0.0023410916,1
5536000,5536000,0.68754524,0.0014936806,-0.013857349,0.7260078,0.99999726,9.313226e-10,-5.2386895e-10,-0.0023410916,1
5540000,5540000,0.68754345,0.0014927143,-0.013857842,0.72600955,0.99999726,9.313226e-10,-5.2386895e-10,-0.0023410916,1
5544000,5544000,0.68754166,0.0014924188,-0.013855304,0.7260113,0.99999726,9.313226e-10,-5.2386895e-10,-0.0023410916,1
5548000,5548000,0.68753725,0.0014905768,-0.013852068,0.7260155,0.99999726,9.313226e-10,-5.2386895e-10,-0.0023410916,1
5552000,5552000,0.6875313,0.0014894786,-0.013849569,0.72602123,0.99999726,9.313226e-10,-5.2386895e-10,-0.0023410916,1
5556000,5556000,0.68752754,0.0014906566,-0.013847771,0.72602475,0.99999726,9.313226e-10,-5.2386895e-10,-0.0023410916,1
5560000,5560000,0.68752575,0.0014930115,-0.013846316,0.7260265,0.99999726,9.313226e-10,-5.2386895e-10,-0.0023410916,1
5564000,5564000,0.6875245,0.0014922025,-0.013845175,0.72602767,0.99999726,9.313226e-10,-5.2386895e-10,-0.0023410916,1
5568000,5568000,0.6875233,0.0014868965,-0.013844908,0.7260288,0.99999726,9.313226e-10,-5.2386895e-10,-0.0023410916,1
5572000,5572000,0.68752146,0.0014804292,-0.013843558,0.72603065,0.99999726,9.313226e-10,-5.2386895e-10,-0.0023410916,1
5580000,5580000,0.6875171,0.0014673686,-0.013836349,0.7260349,0.99999726,9.313226e-10,-5.2386895e-10,-0.0023410916,1
5584000,5584000,0.68751335,0.0014644593,-0.013842072,0.72603834,0.99999726,9.313226e-10,-5.2386895e-10,-0.0023410916,1
5588000,5588000,0.687509,0.001464517,-0.0138462195,0.7260424,0.99999726,9.313226e-10,-5.2386895e-10,-0.0023410916,1
5592000,5592000,0.68750614,0.0014649498,-0.013849224,0.726045,0.99999726,9.313226e-10,-5.2386895e-10,-0.0023410916,1
5600000,5600000,0.6875018,0.0014591762,-0.013859202,0.726049,0.99999726,9.313226e-10,-5.2386895e-10,-0.0023410916,1
5608000,5608000,0.68749267,0.0014545955,-0.013860886,0.72605765,0.99999726,9.313226e-10,-5.2386895e-10,-0.0023410916,1
5612000,5612000,0.6874899,0.0014549767,-0.013861663,0.7260602,0.99999726,9.313226e-10,-5.2386895e-10,-0.0023410916,1
5616000,5616000,0.6874899,0.0014557348,-0.013860541,0.7260602,0.99999726,9.313226e-10,-5.2386895e-10,-0.0023410916,1
5620000,5620000,0.6874934,0.0014567183,-0.013861552,0.72605693,0.99999726,9.313226e-10,-5.2386895e-10,-0.0023410916,1
5624000,5624000,0.68749607,0.0014543914,-0.013866044,0.7260543,0.99999726,9.313226e-10,-5.2386895e-10,-0.0023410916,1
5628000,5628000,0.6874947,0.0014468331,-0.01386981,0.7260555,0.99999726,9.313226e-10,-5.2386895e-10,-0.0023410916,1
5636000,5636000,0.68749046,0.0014358724,-0.01387523,0.7260595,0.99999726,9.313226e-10,-5.2386895e-10,-0.0023410916,1
5640000,5640000,0.68748724,0.0014331124,-0.013873098,0.7260626,0.99999726,9.313226e-10,-5.2386895e-10,-0.0023410916,1
5644000,5644000,0.6874824,0.0014301358,-0.013874245,0.7260671,0.99999726,9.313226e-10,-5.2386895e-10,-0.0023410916,1
5648000,5648000,0.6874788,0.0014238446,-0.013877365,0.7260705,0.99999726,9.313226e-10,-5.2386895e-10,-0.0023410916,1
5656000,5656000,0.6874737,0.0014212437,-0.013880806,0.72607523,0.99999726,9.313226e-10,-5.2386895e-10,-0.0023410916,1
5660000,5660000,0.6874701,0.0014214291,-0.0138785895,0.7260787,0.99999726,9.313226e-10,-5.2386895e-10,-0.0023410916,1
5664000,5664000,0.6874669,0.0014178986,-0.01387798,0.7260818,0.99999726,9.313226e-10,-5.2386895e-10,-0.0023410916,1
5668000,5668000,0.68746525,0.001412754,-0.013882178,0.7260832,0.99999726,9.313226e-10,-5.2386895e-10,-0.0023410916,1
5672000,5672000,0.68746287,0.0014068006,-0.013884891,0.7260854,0.99999726,9.313226e-10,-5.2386895e-10,-0.0023410916,1
5676000,5676000,0.68745786,0.0014000856,-0.013885235,0.72609013,0.99999726,9.313226e-10,-5.2386895e-10,-0.0023410916,1
5680000,5680000,0.68745214,0.0013944544,-0.013884423,0.7260957,0.99999726,9.313226e-10,-5.2386895e-10,-0.0023410916,1
5684000,5684000,0.6874476,0.0013896823,-0.0138826985,0.7261,0.99999726,9.313226e-10,-5.2386895e-10,-0.0023410916,1
5688000,5688000,0.68744576,0.0013846369,-0.01388286,0.72610176,0.99999726,9.313226e-10,-5.2386895e-10,-0.0023410916,1
5692000,5692000,0.687444,0.0013793092,-0.013882518,0.7261034,0.99999726,9.313226e-10,-5.2386895e-10,-0.0023410916,1
5696000,5696000,0.6874411,0.0013734286,-0.0138765415,0.7261063,0.99999726,9.313226e-10,-5.2386895e-10,-0.0023410916,1
5700000,5700000,0.68743455,0.0013677182,-0.013870423,0.7261126,0.99999726,9.313226e-10,-5.2386895e-10,-0.0023410916,1
5704000,5704000,0.6874264,0.0013628342,-0.01386805,0.72612035,0.99999726,9.313226e-10,-5.2386895e-10,-0.0023410916,1
5708000,5708000,0.6874203,0.0013592062,-0.013865136,0.72612625,0.99999726,9.313226e-10,-5.2386895e-10,-0.0023410916,1
5716000,5716000,0.6874139,0.0013560634,-0.013864335,0.7261324,0.99999726,9.313226e-10,-5.2386895e-10,-0.0023410916,1
5720000,5720000,0.68740964,0.0013546856,-0.0138698965,0.72613627,0.99999726,9.313226e-10,-5.2386895e-10,-0.0023410916,1
5728000,5728000,0.68739486,0.0013512707,-0.013882322,0.72615,0.99999726,9.313226e-10,-5.2386895e-10,-0.0023410916,1
5736000,5736000,0.68738467,0.0013570731,-0.013878063,0.7261597,0.99999726,9.313226e-10,-5.2386895e-10,-0.0023410916,1
5740000,5740000,0.6873789,0.0013552781,-0.013879941,0.7261651,0.99999726,9.313226e-10,-5.2386895e-10,-0.0023410916,1
5744000,5744000,0.68737394,0.0013512187,-0.013881128,0.7261698,0.99999726,9.313226e-10,-5.2386895e-10,-0.0023410916,1
5748000,5748000,0.6873706,0.0013483927,-0.013882565,0.7261729,0.99999726,9.313226e-10,-5.2386895e-10,-0.0023410916,1
5752000,5752000,0.6873676,0.0013471629,-0.013886973,0.7261757,0.99999726,9.313226e-10,-5.2386895e-10,-0.0023410916,1
5756000,5756000,0.6873632,0.001344008,-0.013888716,0.72617984,0.99999726,9.313226e-10,-5.2386895e-10,-0.0023410916,1
5764000,5764000,0.68734616,0.0013325613,-0.013887378,0.726196,0.99999726,9.313226e-10,-5.2386895e-10,-0.0023410916,1
5768000,5768000,0.68733686,0.0013304419,-0.013887138,0.7262048,0.99999726,9.313226e-10,-5.2386895e-10,-0.0023410916,1
5772000,5772000,0.68733674,0.001328639,-0.013888036,0.72620493,0.99999726,9.313226e-10,-5.2386895e-10,-0.0023410916,1
5776000,5776000,0.6873386,0.0013261823,-0.013891209,0.72620314,0.99999726,9.313226e-10,-5.2386895e-10,-0.0023410916,1
5780000,5780000,0.6873398,0.0013226138,-0.013893975,0.72620195,0.99999726,9.313226e-10,-5.2386895e-10,-0.0023410916,1
5784000,5784000,0.6873394,0.0013193818,-0.013896356,0.72620225,0.99999726,9.313226e-10,-5.2386895e-10,-0.0023410916,1
5788000,5788000,0.68733704,0.0013191716,-0.013899358,0.7262045,0.99999726,9.313226e-10,-5.2386895e-10,-0.0023410916,1
5792000,5792000,0.6873322,0.0013208092,-0.013902685,0.7262089,0.99999726,9.313226e-10,-5.2386895e-10,-0.0023410916,1
5796000,5796000,0.68733084,0.0013195444,-0.013906794,0.7262102,0.99999726,9.313226e-10,-5.2386895e-10,-0.0023410916,1
5800000,5800000,0.68733335,0.0013142437,-0.0139121385,0.7262077,0.99999726,9.313226e-10,-5.2386895e-10,-0.0023410916,1
5804000,5804000,0.68733543,0.0013085655,-0.013917077,0.7262057,0.99999726,9.313226e-10,-5.2386895e-10,-0.0023410916,1
5808000,5808000,0.68733704,0.0013043028,-0.013918962,0.7262041,0.99999726,9.313226e-10,-5.2386895e-10,-0.0023410916,1
5816000,5816000,0.6873454,0.0012866149,-0.013913863,0.7261964,0.99999726,9.313226e-10,-5.2386895e-10,-0.0023410916,1
5824000,5824000,0.68734735,0.0012770784,-0.013920914,0.7261944,0.99999726,9.313226e-10,-5.2386895e-10,-0.0023410916,1
5828000,5828000,0.68734974,0.0012763162,-0.013920609,0.7261921,0.99999726,9.313226e-10,-5.2386895e-10,-0.0023410916,1
5832000,5832000,0.68735325,0.0012823938,-0.013921621,0.7261888,0.99999726,9.313226e-10,-5.2386895e-10,-0.0023410916,1
5836000,5836000,0.68735653,0.0012920919,-0.013926543,0.7261856,0.99999726,9.313226e-10,-5.2386895e-10,-0.0023410916,1
5840000,5840000,0.68736064,0.0012972461,-0.013930081,0.7261816,0.99999726,9.313226e-10,-5.2386895e-10,-0.0023410916,1
5844000,5844000,0.68736887,0.0012989904,-0.01393019,0.72617376,0.99999726,9.313226e-10,-5.2386895e-10,-0.0023410916,1
5848000,5848000,0.6873763,0.0013036903,-0.013928714,0.7261667,0.99999726,9.313226e-10,-5.2386895e-10,-0.0023410916,1
5852000,5852000,0.68738204,0.0013081072,-0.013927496,0.7261613,0.99999726,9.313226e-10,-5.2386895e-10,-0.0023410916,1
5856000,5856000,0.6873878,0.0013110803,-0.013928581,0.7261559,0.99999726,9.313226e-10,-5.2386895e-10,-0.0023410916,1
5860000,5860000,0.6873947,0.001313126,-0.013931442,0.7261493,0.99999726,9.313226e-10,-5.2386895e-10,-0.0023410916,1
5864000,5864000,0.6874027,0.0013159261,-0.013933526,0.72614163,0.99999726,9.313226e-10,-5.2386895e-10,-0.0023410916,1
5868000,5868000,0.6874127,0.0013203744,-0.013934686,0.7261322,0.99999726,9.313226e-10,-5.2386895e-10,-0.0023410916,1
5872000,5872000,0.68741995,0.001320274,-0.013936725,0.7261253,0.99999726,9.313226e-10,-5.2386895e-10,-0.0023410916,1
5876000,5876000,0.6874225,0.0013186615,-0.013937181,0.72612286,0.99999726,9.313226e-10,-5.2386895e-10,-0.0023410916,1
5880000,5880000,0.6874251,0.0013195914,-0.0139341755,0.7261205,0.99999726,9.313226e-10,-5.2386895e-10,-0.0023410916,1
5884000,5884000,0.6874299,0.0013214414,-0.013931022,0.72611594,0.99999726,9.313226e-10,-5.2386895e-10,-0.0023410916,1
5888000,5888000,0.68743587,0.0013222976,-0.013932037,0.7261103,0.99999726,9.313226e-10,-5.2386895e-10,-0.0023410916,1
5892000,5892000,0.68744063,0.0013198546,-0.013932648,0.72610575,0.99999726,9.313226e-10,-5.2386895e-10,-0.0023410916,1
5896000,5896000,0.68744475,0.001313875,-0.013928459,0.726102,0.99999726,9.313226e-10,-5.2386895e-10,-0.0023410916,1
5900000,5900000,0.6874499,0.0013087911,-0.0139241265,0.7260972,0.99999726,9.313226e-10,-5.2386895e-10,-0.0023410916,1
5904000,5904000,0.6874565,0.0013048765,-0.013920137,0.72609097,0.99999726,9.313226e-10,-5.2386895e-10,-0.0023410916,1
