timestamp,timestamp_sample,gps_hvel[0],gps_hvel[1],gps_vvel,gps_hpos[0],gps_hpos[1],gps_vpos,ev_hvel[0],ev_hvel[1],ev_vvel,ev_hpos[0],ev_hpos[1],ev_vpos,rng_vpos,baro_vpos,aux_hvel[0],aux_hvel[1],aux_vvel,flow[0],flow[1],terr_flow[0],terr_flow[1],heading,mag_field[0],mag_field[1],mag_field[2],gravity[0],gravity[1],gravity[2],drag[0],drag[1],airspeed,beta,hagl,hagl_rate
3264000,3184000,0.0,0.0,0.0,0.0,0.0,0.0,0.0,0.0,0.0,0.0,0.0,0.0,0.0,0.0,0.0,0.0,nan,0.0,0.0,0.0,0.0,0.0,-0.011217158,0.20997937,-0.4273909,0.0043180697,0.036847714,0.0006576886,0.0,0.0,0.0,0.0,0.0,0.0
3272000,3192000,0.0,0.0,0.0,0.0,0.0,0.0,0.0,0.0,0.0,0.0,0.0,0.0,0.0,1.3032695e-05,0.0,0.0,nan,0.0,0.0,0.0,0.0,0.0,-0.011217158,0.20997937,-0.4273909,-0.025656847,0.043039266,0.001438672,0.0,0.0,0.0,0.0,0.0,0.0
3280000,3200000,0.0,0.0,0.0,0.0,0.0,0.0,0.0,0.0,0.0,0.0,0.0,0.0,0.0,1.3032695e-05,0.0,0.0,nan,0.0,0.0,0.0,0.0,0.0,-0.011217158,0.20997937,-0.4273909,-0.013246534,0.03397611,0.0010076973,0.0,0.0,0.0,0.0,0.0,0.0
3288000,3208000,0.0,0.0,0.0,0.0,0.0,0.0,0.0,0.0,0.0,0.0,0.0,0.0,0.0,1.3032695e-05,0.0,0.0,nan,0.0,0.0,0.0,0.0,0.0,-0.0076781046,0.21528386,-0.42834878,-0.0269784,0.038512185,0.0013890266,0.0,0.0,0.0,0.0,0.0,0.0
3296000,3216000,0.0,0.0,0.0,0.0,0.0,0.0,0.0,0.0,0.0,0.0,0.0,0.0,0.0,1.3032695e-05,0.0,0.0,nan,0.0,0.0,0.0,0.0,0.0,-0.0076781046,0.21528386,-0.42834878,-0.03602164,0.04962872,0.00177145,0.0,0.0,0.0,0.0,0.0,0.0
3304000,3224000,0.0,0.0,0.0,0.0,0.0,0.0,0.0,0.0,0.0,0.0,0.0,0.0,0.0,1.3032695e-05,0.0,0.0,nan,0.0,0.0,0.0,0.0,0.0,-0.0076781046,0.21528386,-0.42834878,-0.048168615,0.06504072,0.0022654533,0.0,0.0,0.0,0.0,0.0,0.0
3312000,3232000,0.0,0.0,0.0,0.0,0.0,0.0,0.0,0.0,0.0,0.0,0.0,0.0,0.0,1.3032695e-05,0.0,0.0,nan,0.0,0.0,0.0,0.0,0.0,-0.0076781046,0.21528386,-0.42834878,-0.03998325,0.040782526,0.0016951561,0.0,0.0,0.0,0.0,0.0,0.0
3320000,3240000,0.0,0.0,0.0,0.0,0.0,0.0,0.0,0.0,0.0,0.0,0.0,0.0,0.0,1.3032695e-05,0.0,0.0,nan,0.0,0.0,0.0,0.0,0.0,-0.0076781046,0.21528386,-0.42834878,-0.05174634,0.03235814,0.0017595291,0.0,0.0,0.0,0.0,0.0,0.0
3328000,3248000,0.0,0.0,0.0,0.0,0.0,0.0,0.0,0.0,0.0,0.0,0.0,0.0,0.0,1.3032695e-05,0.0,0.0,nan,0.0,0.0,0.0,0.0,0.0,-0.0076781046,0.21528386,-0.42834878,-0.017509798,0.028701946,0.0010056496,0.0,0.0,0.0,0.0,0.0,0.0
3336000,3256000,0.0,0.0,0.0,0.0,0.0,0.0,0.0,0.0,0.0,0.0,0.0,0.0,0.0,0.012689596,0.0,0.0,nan,0.0,0.0,0.0,0.0,0.0,-0.0076781046,0.21528386,-0.42834878,-0.011399926,0.021879539,0.00073480606,0.0,0.0,0.0,0.0,0.0,0.0
3344000,3264000,0.0,0.0,0.0,0.0,0.0,0.0,0.0,0.0,0.0,0.0,0.0,0.0,0.0,0.012689596,0.0,0.0,nan,0.0,0.0,0.0,0.0,0.0,-0.0076781046,0.21528386,-0.42834878,-0.027944962,0.05971101,0.0017962456,0.0,0.0,0.0,0.0,0.0,0.0
3352000,3272000,0.0,0.0,0.0,0.0,0.0,0.0,0.0,0.0,0.0,0.0,0.0,0.0,0.0,0.012689596,0.0,0.0,nan,0.0,0.0,0.0,0.0,0.0,-0.0055877287,0.006201476,-0.0014735758,-0.035707675,0.020487353,0.0012249947,0.0,0.0,0.0,0.0,0.0,0.0
3360000,3280000,0.0,0.0,0.0,0.0,0.0,0.0,0.0,0.0,0.0,0.0,0.0,0.0,0.0,0.012689596,0.0,0.0,nan,0.0,0.0,0.0,0.0,0.0,-0.0055877287,0.006201476,-0.0014735758,-0.032612234,0.034262046,0.0014381409,0.0,0.0,0.0,0.0,0.0,0.0
3368000,3288000,0.0,0.0,0.0,0.0,0.0,0.0,0.0,0.0,0.0,0.0,0.0,0.0,0.0,0.012689596,0.0,0.0,nan,0.0,0.0,0.0,0.0,0.0,-0.0055877287,0.006201476,-0.0014735758,-0.020164244,0.054522708,0.0015459061,0.0,0.0,0.0,0.0,0.0,0.0
3376000,3296000,0.0,0.0,0.0,0.0,0.0,0.0,0.0,0.0,0.0,0.0,0.0,0.0,0.0,0.012689596,0.0,0.0,nan,0.0,0.0,0.0,0.0,0.0,-0.0055877287,0.006201476,-0.0014735758,-0.018756874,0.051230133,0.0014624596,0.0,0.0,0.0,0.0,0.0,0.0
3384000,3304000,0.0,0.0,0.0,0.0,0.0,0.0,0.0,0.0,0.0,0.0,0.0,0.0,0.0,0.012689596,0.0,0.0,nan,0.0,0.0,0.0,0.0,0.0,-0.0055877287,0.006201476,-0.0014735758,-0.01951624,0.01900728,0.00086021423,0.0,0.0,0.0,0.0,0.0,0.0
3392000,3312000,0.0,0.0,0.0,0.0,0.0,0.0,0.0,0.0,0.0,0.0,0.0,0.0,0.0,-0.0012579155,0.0,0.0,nan,0.0,0.0,0.0,0.0,0.0,-0.0055877287,0.006201476,-0.0014735758,-0.018722504,0.008728087,0.0006246567,0.0,0.0,0.0,0.0,0.0,0.0
3400000,3320000,0.0,0.0,0.0,0.0,0.0,0.0,0.0,0.0,0.0,0.0,0.0,0.0,0.0,-0.0012579155,0.0,0.0,nan,0.0,0.0,0.0,0.0,0.0,-0.0055877287,0.006201476,-0.0014735758,-0.021289043,0.044351384,0.0013961792,0.0,0.0,0.0,0.0,0.0,0.0
3408000,3328000,0.004656586,0.0030060427,-0.037832227,0.0002507359,0.00033261077,488.10428,0.0,0.0,0.0,0.0,0.0,0.0,0.0,-0.0012579155,0.0,0.0,nan,0.0,0.0,0.0,0.0,0.0,-0.0055877287,0.006201476,-0.0014735758,-0.015460737,0.025335506,0.00090169907,0.0,0.0,0.0,0.0,0.0,0.0
3416000,3336000,0.004656586,0.0030060427,-0.037832227,0.0002507359,0.00033261077,488.10428,0.0,0.0,0.0,0.0,0.0,0.0,0.0,-0.0012579155,0.0,0.0,nan,0.0,0.0,0.0,0.0,0.0,-0.0055877287,0.006201476,-0.0014735758,-0.031513244,0.030783147,0.0013585091,0.0,0.0,0.0,0.0,0.0,0.0
3424000,3344000,0.004656586,0.0030060427,-0.037832227,0.0002507359,0.00033261077,488.10428,0.0,0.0,0.0,0.0,0.0,0.0,0.0,-0.0012579155,0.0,0.0,nan,0.0,0.0,0.0,0.0,0.0,0.00080200564,0.0067462325,-0.0008856058,-0.04473343,-0.015836403,0.00059890747,0.0,0.0,0.0,0.0,0.0,0.0
3432000,3352000,0.004656586,0.0030060427,-0.037832227,0.0002507359,0.00033261077,488.10428,0.0,0.0,0.0,0.0,0.0,0.0,0.0,-0.0012579155,0.0,0.0,nan,0.0,0.0,0.0,0.0,0.0,0.00080200564,0.0067462325,-0.0008856058,-0.02506265,0.04342027,0.0014662743,0.0,0.0,0.0,0.0,0.0,0.0
3440000,3360000,0.004656586,0.0030060427,-0.037832227,0.0002507359,0.00033261077,488.10428,0.0,0.0,0.0,0.0,0.0,0.0,0.0,-0.0012579155,0.0,0.0,nan,0.0,0.0,0.0,0.0,0.0,0.00080200564,0.0067462325,-0.0008856058,-0.019554967,0.030484125,0.0011005402,0.0,0.0,0.0,0.0,0.0,0.0
3448000,3368000,0.004656586,0.0030060427,-0.037832227,0.0002507359,0.00033261077,488.10428,0.0,0.0,0.0,0.0,0.0,0.0,0.0,-0.0012579155,0.0,0.0,nan,0.0,0.0,0.0,0.0,0.0,0.00080200564,0.0067462325,-0.0008856058,-0.045348674,-0.006800756,0.0008325577,0.0,0.0,0.0,0.0,0.0,0.0
3456000,3376000,0.004656586,0.0030060427,-0.037832227,0.0002507359,0.00033261077,488.10428,0.0,0.0,0.0,0.0,0.0,0.0,0.0,0.015784474,0.0,0.0,nan,0.0,0.0,0.0,0.0,0.0,0.00080200564,0.0067462325,-0.0008856058,-0.051252864,0.017126292,0.0014834404,0.0,0.0,0.0,0.0,0.0,0.0
3464000,3384000,0.004656586,0.0030060427,-0.037832227,0.0002507359,0.00033261077,488.10428,0.0,0.0,0.0,0.0,0.0,0.0,0.0,0.015784474,0.0,0.0,nan,0.0,0.0,0.0,0.0,0.0,0.00080200564,0.0067462325,-0.0008856058,-0.03165,0.059265792,0.001891613,0.0,0.0,0.0,0.0,0.0,0.0
3472000,3392000,0.004656586,0.0030060427,-0.037832227,0.0002507359,0.00033261077,488.10428,0.0,0.0,0.0,0.0,0.0,0.0,0.0,0.015784474,0.0,0.0,nan,0.0,0.0,0.0,0.0,0.0,0.00080200564,0.0067462325,-0.0008856058,-0.017312467,0.042197064,0.0012779236,0.0,0.0,0.0,0.0,0.0,0.0
3480000,3400000,0.004656586,0.0030060427,-0.037832227,0.0002507359,0.00033261077,488.10428,0.0,0.0,0.0,0.0,0.0,0.0,0.0,0.015784474,0.0,0.0,nan,0.0,0.0,0.0,0.0,0.0,0.00080200564,0.0067462325,-0.0008856058,-0.020159865,0.031643882,0.0011405945,0.0,0.0,0.0,0.0,0.0,0.0
3488000,3408000,0.004656586,0.0030060427,-0.037832227,0.0002507359,0.00033261077,488.10428,0.0,0.0,0.0,0.0,0.0,0.0,0.0,0.015784474,0.0,0.0,nan,0.0,0.0,0.0,0.0,0.0,0.00080200564,0.0067462325,-0.0008856058,0.017463448,0.010437578,-0.00019407272,0.0,0.0,0.0,0.0,0.0,0.0
3496000,3416000,0.004656586,0.0030060427,-0.037832227,0.0002507359,0.00033261077,488.10428,0.0,0.0,0.0,0.0,0.0,0.0,0.0,0.015784474,0.0,0.0,nan,0.0,0.0,0.0,0.0,-0.007293582,0.0004981812,0.009081826,-0.00045603514,0.0067140274,0.024967834,0.00031518936,0.0,0.0,0.0,0.0,0.0,0.0
3504000,3424000,0.004656586,0.0030060427,-0.037832227,0.0002507359,0.00033261077,488.10428,0.0,0.0,0.0,0.0,0.0,0.0,0.0,0.015784474,0.0,0.0,nan,0.0,0.0,0.0,0.0,-0.007293582,0.0004981812,0.009081826,-0.00045603514,0.0096608605,0.0034107715,-0.00014925003,0.0,0.0,0.0,0.0,0.0,0.0
3512000,3432000,0.004656586,0.0030060427,-0.037832227,0.0002507359,0.00033261077,488.10428,0.0,0.0,0.0,0.0,0.0,0.0,0.0,0.014221391,0.0,0.0,nan,0.0,0.0,0.0,0.0,-0.007293582,0.0004981812,0.009081826,-0.00045603514,0.0035868036,0.022234395,0.00033807755,0.0,0.0,0.0,0.0,0.0,0.0
3520000,3440000,0.004656586,0.0030060427,-0.037832227,0.0002507359,0.00033261077,488.10428,0.0,0.0,0.0,0.0,0.0,0.0,0.0,0.014221391,0.0,0.0,nan,0.0,0.0,0.0,0.0,-0.007293582,0.0004981812,0.009081826,-0.00045603514,-0.020622134,0.015178695,0.00071811676,0.0,0.0,0.0,0.0,0.0,0.0
3528000,3448000,0.004656586,0.0030060427,-0.037832227,0.0002507359,0.00033261077,488.10428,0.0,0.0,0.0,0.0,0.0,0.0,0.0,0.014221391,0.0,0.0,nan,0.0,0.0,0.0,0.0,-0.007293582,0.0004981812,0.009081826,-0.00045603514,-0.011444009,0.004762307,0.00033712387,0.0,0.0,0.0,0.0,0.0,0.0
3536000,3456000,0.004656586,0.0030060427,-0.037832227,0.0002507359,0.00033261077,488.10428,0.0,0.0,0.0,0.0,0.0,0.0,0.0,0.014221391,0.0,0.0,nan,0.0,0.0,0.0,0.0,-0.007293582,0.0004981812,0.009081826,-0.00045603514,0.007524009,-0.00070251524,-0.0001821518,0.0,0.0,0.0,0.0,0.0,0.0
3544000,3464000,0.004656586,0.0030060427,-0.037832227,0.0002507359,0.00033261077,488.10428,0.0,0.0,0.0,0.0,0.0,0.0,0.0,0.014221391,0.0,0.0,nan,0.0,0.0,0.0,0.0,-0.007293582,0.0004981812,0.009081826,-0.00045603514,-0.012999869,-0.01736164,-8.535385e-05,0.0,0.0,0.0,0.0,0.0,0.0
3552000,3472000,0.004656586,0.0030060427,-0.037832227,0.0002507359,0.00033261077,488.10428,0.0,0.0,0.0,0.0,0.0,0.0,0.0,0.014221391,0.0,0.0,nan,0.0,0.0,0.0,0.0,-0.007293582,0.0004981812,0.009081826,-0.00045603514,-0.026192527,-0.014669135,0.00023698807,0.0,0.0,0.0,0.0,0.0,0.0
3560000,3480000,0.004656586,0.0030060427,-0.037832227,0.0002507359,0.00033261077,488.10428,0.0,0.0,0.0,0.0,0.0,0.0,0.0,0.014221391,0.0,0.0,nan,0.0,0.0,0.0,0.0,-0.009539485,0.0019372255,0.00057958066,-0.00040867925,-0.015272437,-0.007445678,0.00017309189,0.0,0.0,0.0,0.0,0.0,0.0
3568000,3488000,0.004656586,0.0030060427,-0.037832227,0.0002507359,0.00033261077,488.10428,0.0,0.0,0.0,0.0,0.0,0.0,0.0,-0.02519567,0.0,0.0,nan,0.0,0.0,0.0,0.0,-0.009539485,0.0019372255,0.00057958066,-0.00040867925,0.00015013292,0.011462599,0.00021886826,0.0,0.0,0.0,0.0,0.0,0.0
3576000,3496000,0.004656586,0.0030060427,-0.037832227,0.0002507359,0.00033261077,488.10428,0.0,0.0,0.0,0.0,0.0,0.0,0.0,-0.02519567,0.0,0.0,nan,0.0,0.0,0.0,0.0,-0.009539485,0.0019372255,0.00057958066,-0.00040867925,-0.0041350964,-0.013136238,-0.00018072128,0.0,0.0,0.0,0.0,0.0,0.0
3584000,3504000,0.004656586,0.0030060427,-0.037832227,0.0002507359,0.00033261077,488.10428,0.0,0.0,0.0,0.0,0.0,0.0,0.0,-0.02519567,0.0,0.0,nan,0.0,0.0,0.0,0.0,-0.009539485,0.0019372255,0.00057958066,-0.00040867925,0.013325926,0.004898384,-0.00020885468,0.0,0.0,0.0,0.0,0.0,0.0
3592000,3512000,0.004656586,0.0030060427,-0.037832227,0.0002507359,0.00033261077,488.10428,0.0,0.0,0.0,0.0,0.0,0.0,0.0,-0.02519567,0.0,0.0,nan,0.0,0.0,0.0,0.0,-0.009539485,0.0019372255,0.00057958066,-0.00040867925,0.010998923,-0.0018856823,-0.00028800964,0.0,0.0,0.0,0.0,0.0,0.0
3600000,3520000,0.004656586,0.0030060427,-0.037832227,0.0002507359,0.00033261077,488.10428,0.0,0.0,0.0,0.0,0.0,0.0,0.0,-0.02519567,0.0,0.0,nan,0.0,0.0,0.0,0.0,-0.009539485,0.0019372255,0.00057958066,-0.00040867925,0.00022581406,0.0094148815,0.0001783371,0.0,0.0,0.0,0.0,0.0,0.0
3608000,3528000,0.004656586,0.0030060427,-0.037832227,0.0002507359,0.00033261077,488.10428,0.0,0.0,0.0,0.0,0.0,0.0,0.0,-0.02519567,0.0,0.0,nan,0.0,0.0,0.0,0.0,-0.009539485,0.0019372255,0.00057958066,-0.00040867925,-0.02266455,-0.0055350065,0.00036621094,0.0,0.0,0.0,0.0,0.0,0.0
3616000,3536000,0.004656586,0.0030060427,-0.037832227,0.0002507359,0.00033261077,488.10428,0.0,0.0,0.0,0.0,0.0,0.0,0.0,-0.02519567,0.0,0.0,nan,0.0,0.0,0.0,0.0,-0.009539485,0.0019372255,0.00057958066,-0.00040867925,-0.01496941,0.023473293,0.0007619858,0.0,0.0,0.0,0.0,0.0,0.0
3624000,3544000,0.004656586,0.0030060427,-0.037832227,0.0002507359,0.00033261077,488.10428,0.0,0.0,0.0,0.0,0.0,0.0,0.0,0.03649155,0.0,0.0,nan,0.0,0.0,0.0,0.0,-0.009539485,0.0019372255,0.00057958066,-0.00040867925,-0.011627357,-0.0105885565,3.385544e-05,0.0,0.0,0.0,0.0,0.0,0.0
3632000,3552000,0.004656586,0.0030060427,-0.037832227,0.0002507359,0.00033261077,488.10428,0.0,0.0,0.0,0.0,0.0,0.0,0.0,0.03649155,0.0,0.0,nan,0.0,0.0,0.0,0.0,-0.010126233,0.0020468272,0.0054922104,-0.0014812946,-0.0142455455,-0.0069188923,0.00016498566,0.0,0.0,0.0,0.0,0.0,0.0
3640000,3560000,0.004656586,0.0030060427,-0.037832227,0.0002507359,0.00033261077,488.10428,0.0,0.0,0.0,0.0,0.0,0.0,0.0,0.03649155,0.0,0.0,nan,0.0,0.0,0.0,0.0,-0.010126233,0.0020468272,0.0054922104,-0.0014812946,-0.013333997,0.024966016,0.00075626373,0.0,0.0,0.0,0.0,0.0,0.0
3648000,3568000,0.004656586,0.0030060427,-0.037832227,0.0002507359,0.00033261077,488.10428,0.0,0.0,0.0,0.0,0.0,0.0,0.0,0.03649155,0.0,0.0,nan,0.0,0.0,0.0,0.0,-0.010126233,0.0020468272,0.0054922104,-0.0014812946,-0.027088787,0.017081201,0.00089645386,0.0,0.0,0.0,0.0,0.0,0.0
3656000,3576000,0.004656586,0.0030060427,-0.037832227,0.0002507359,0.00033261077,488.10428,0.0,0.0,0.0,0.0,0.0,0.0,0.0,0.03649155,0.0,0.0,nan,0.0,0.0,0.0,0.0,-0.010126233,0.0020468272,0.0054922104,-0.0014812946,-0.004193876,0.008250788,0.00025463104,0.0,0.0,0.0,0.0,0.0,0.0
3664000,3584000,0.004656586,0.0030060427,-0.037832227,0.0002507359,0.00033261077,488.10428,0.0,0.0,0.0,0.0,0.0,0.0,0.0,0.03649155,0.0,0.0,nan,0.0,0.0,0.0,0.0,-0.010126233,0.0020468272,0.0054922104,-0.0014812946,0.030575395,0.024872258,-0.00026798248,0.0,0.0,0.0,0.0,0.0,0.0
3672000,3592000,0.004656586,0.0030060427,-0.037832227,0.0002507359,0.00033261077,488.10428,0.0,0.0,0.0,0.0,0.0,0.0,0.0,0.03649155,0.0,0.0,nan,0.0,0.0,0.0,0.0,-0.010126233,0.0020468272,0.0054922104,-0.0014812946,0.008304676,-0.01197058,-0.0004377365,0.0,0.0,0.0,0.0,0.0,0.0
3680000,3600000,0.004656586,0.0030060427,-0.037832227,0.0002507359,0.00033261077,488.10428,0.0,0.0,0.0,0.0,0.0,0.0,0.0,-0.0009459654,0.0,0.0,nan,0.0,0.0,0.0,0.0,-0.010126233,0.0020468272,0.0054922104,-0.0014812946,-0.0033495855,-0.022284389,-0.00039815903,0.0,0.0,0.0,0.0,0.0,0.0
3688000,3608000,0.004656586,0.0030060427,-0.037832227,0.0002507359,0.00033261077,488.10428,0.0,0.0,0.0,0.0,0.0,0.0,0.0,-0.0009459654,0.0,0.0,nan,0.0,0.0,0.0,0.0,-0.010126233,0.0020468272,0.0054922104,-0.0014812946,-0.0028030202,-0.009222373,-0.00012731552,0.0,0.0,0.0,0.0,0.0,0.0
3696000,3616000,0.004656586,0.0030060427,-0.037832227,0.0002507359,0.00033261077,488.10428,0.0,0.0,0.0,0.0,0.0,0.0,0.0,-0.0009459654,0.0,0.0,nan,0.0,0.0,0.0,0.0,-0.010126233,0.0020468272,0.0054922104,-0.0014812946,-0.004870927,-0.009024039,-7.677078e-05,0.0,0.0,0.0,0.0,0.0,0.0
3704000,3624000,0.004656586,0.0030060427,-0.037832227,0.0002507359,0.00033261077,488.10428,0.0,0.0,0.0,0.0,0.0,0.0,0.0,-0.0009459654,0.0,0.0,nan,0.0,0.0,0.0,0.0,-0.0041656494,0.0008051712,0.004239425,-0.0015126467,0.0002737511,-0.02215086,-0.0004749298,0.0,0.0,0.0,0.0,0.0,0.0
3712000,3632000,0.004656586,0.0030060427,-0.037832227,0.0002507359,0.00033261077,488.10428,0.0,0.0,0.0,0.0,0.0,0.0,0.0,-0.0009459654,0.0,0.0,nan,0.0,0.0,0.0,0.0,-0.0041656494,0.0008051712,0.004239425,-0.0015126467,-0.019680865,-0.017040357,6.9618225e-05,0.0,0.0,0.0,0.0,0.0,0.0
3720000,3640000,0.004656586,0.0030060427,-0.037832227,0.0002507359,0.00033261077,488.10428,0.0,0.0,0.0,0.0,0.0,0.0,0.0,-0.0009459654,0.0,0.0,nan,0.0,0.0,0.0,0.0,-0.0041656494,0.0008051712,0.004239425,-0.0015126467,-0.0076221265,0.009939373,0.0003643036,0.0,0.0,0.0,0.0,0.0,0.0
3728000,3648000,0.004656586,0.0030060427,-0.037832227,0.0002507359,0.00033261077,488.10428,0.0,0.0,0.0,0.0,0.0,0.0,0.0,-0.0009459654,0.0,0.0,nan,0.0,0.0,0.0,0.0,-0.0041656494,0.0008051712,0.004239425,-0.0015126467,-0.032354567,-0.010122731,0.0004749298,0.0,0.0,0.0,0.0,0.0,0.0
3736000,3656000,0.004656586,0.0030060427,-0.037832227,0.0002507359,0.00033261077,488.10428,0.0,0.0,0.0,0.0,0.0,0.0,0.0,-0.0009459654,0.0,0.0,nan,0.0,0.0,0.0,0.0,-0.0041656494,0.0008051712,0.004239425,-0.0015126467,-0.018586589,0.00969483,0.0005955696,0.0,0.0,0.0,0.0,0.0,0.0
3744000,3664000,0.004656586,0.0030060427,-0.037832227,0.0002507359,0.00033261077,488.10428,0.0,0.0,0.0,0.0,0.0,0.0,0.0,0.04560854,0.0,0.0,nan,0.0,0.0,0.0,0.0,-0.0041656494,0.0008051712,0.004239425,-0.0015126467,-0.012375388,0.02028437,0.00066041946,0.0,0.0,0.0,0.0,0.0,0.0
3752000,3672000,0.004656586,0.0030060427,-0.037832227,0.0002507359,0.00033261077,488.10428,0.0,0.0,0.0,0.0,0.0,0.0,0.0,0.04560854,0.0,0.0,nan,0.0,0.0,0.0,0.0,-0.0041656494,0.0008051712,0.004239425,-0.0015126467,-0.020521559,0.021199793,0.00085020065,0.0,0.0,0.0,0.0,0.0,0.0
3760000,3680000,0.004656586,0.0030060427,-0.037832227,0.0002507359,0.00033261077,488.10428,0.0,0.0,0.0,0.0,0.0,0.0,0.0,0.04560854,0.0,0.0,nan,0.0,0.0,0.0,0.0,-0.0041656494,0.0008051712,0.004239425,-0.0015126467,0.004642386,0.015740663,0.00019598007,0.0,0.0,0.0,0.0,0.0,0.0
3768000,3688000,0.004656586,0.0030060427,-0.037832227,0.0002507359,0.00033261077,488.10428,0.0,0.0,0.0,0.0,0.0,0.0,0.0,0.04560854,0.0,0.0,nan,0.0,0.0,0.0,0.0,-0.011587858,0.0022861492,0.0042824596,-0.0043224692,-0.004550591,0.007795647,0.00025558472,0.0,0.0,0.0,0.0,0.0,0.0
3776000,3696000,0.004656586,0.0030060427,-0.037832227,0.0002507359,0.00033261077,488.10428,0.0,0.0,0.0,0.0,0.0,0.0,0.0,0.04560854,0.0,0.0,nan,0.0,0.0,0.0,0.0,-0.011587858,0.0022861492,0.0042824596,-0.0043224692,-0.034744218,0.005259365,0.0008430481,0.0,0.0,0.0,0.0,0.0,0.0
3784000,3704000,0.004656586,0.0030060427,-0.037832227,0.0002507359,0.00033261077,488.10428,0.0,0.0,0.0,0.0,0.0,0.0,0.0,0.04560854,0.0,0.0,nan,0.0,0.0,0.0,0.0,-0.011587858,0.0022861492,0.0042824596,-0.0043224692,-0.0038571209,0.009806946,0.0002799034,0.0,0.0,0.0,0.0,0.0,0.0
3792000,3712000,0.004656586,0.0030060427,-0.037832227,0.0002507359,0.00033261077,488.10428,0.0,0.0,0.0,0.0,0.0,0.0,0.0,0.04560854,0.0,0.0,nan,0.0,0.0,0.0,0.0,-0.011587858,0.0022861492,0.0042824596,-0.0043224692,0.007988041,-0.0071736574,-0.00033426285,0.0,0.0,0.0,0.0,0.0,0.0
3800000,3720000,0.004656586,0.0030060427,-0.037832227,0.0002507359,0.00033261077,488.10428,0.0,0.0,0.0,0.0,0.0,0.0,0.0,-0.11525648,0.0,0.0,nan,0.0,0.0,0.0,0.0,-0.011587858,0.0022861492,0.0042824596,-0.0043224692,-0.023325374,-0.0013388544,0.00048685074,0.0,0.0,0.0,0.0,0.0,0.0
3808000,3728000,0.00046716782,0.0021994445,0.010557521,8.9872294e-05,0.00019146426,488.11008,0.0,0.0,0.0,0.0,0.0,0.0,0.0,-0.11525648,0.0,0.0,nan,0.0,0.0,0.0,0.0,-0.011587858,0.0022861492,0.0042824596,-0.0043224692,-0.021377513,-0.02887392,-0.00014686584,0.0,0.0,0.0,0.0,0.0,0.0
3816000,3736000,0.00046716782,0.0021994445,0.010557521,8.9872294e-05,0.00019146426,488.11008,0.0,0.0,0.0,0.0,0.0,0.0,0.0,-0.11525648,0.0,0.0,nan,0.0,0.0,0.0,0.0,-0.011587858,0.0022861492,0.0042824596,-0.0043224692,-0.023243634,0.0015541464,0.0005440712,0.0,0.0,0.0,0.0,0.0,0.0
3824000,3744000,0.00046716782,0.0021994445,0.010557521,8.9872294e-05,0.00019146426,488.11008,0.0,0.0,0.0,0.0,0.0,0.0,0.0,-0.11525648,0.0,0.0,nan,0.0,0.0,0.0,0.0,-0.011587858,0.0022861492,0.0042824596,-0.0043224692,-0.019069202,0.007411197,0.0005712509,0.0,0.0,0.0,0.0,0.0,0.0
3832000,3752000,0.00046716782,0.0021994445,0.010557521,8.9872294e-05,0.00019146426,488.11008,0.0,0.0,0.0,0.0,0.0,0.0,0.0,-0.11525648,0.0,0.0,nan,0.0,0.0,0.0,0.0,-0.011587858,0.0022861492,0.0042824596,-0.0043224692,-0.00478236,-0.020332038,-0.00031805038,0.0,0.0,0.0,0.0,0.0,0.0
3840000,3760000,0.00046716782,0.0021994445,0.010557521,8.9872294e-05,0.00019146426,488.11008,0.0,0.0,0.0,0.0,0.0,0.0,0.0,-0.11525648,0.0,0.0,nan,0.0,0.0,0.0,0.0,-0.0035786629,0.0006728694,0.004271224,-0.002108097,-0.0262552,0.0009906441,0.0005970001,0.0,0.0,0.0,0.0,0.0,0.0
3848000,3768000,0.00046716782,0.0021994445,0.010557521,8.9872294e-05,0.00019146426,488.11008,0.0,0.0,0.0,0.0,0.0,0.0,0.0,-0.11525648,0.0,0.0,nan,0.0,0.0,0.0,0.0,-0.0035786629,0.0006728694,0.004271224,-0.002108097,-0.010081774,-0.0059099495,0.00010967255,0.0,0.0,0.0,0.0,0.0,0.0
3856000,3776000,0.00046716782,0.0021994445,0.010557521,8.9872294e-05,0.00019146426,488.11008,0.0,0.0,0.0,0.0,0.0,0.0,0.0,-0.11525648,0.0,0.0,nan,0.0,0.0,0.0,0.0,-0.0035786629,0.0006728694,0.004271224,-0.002108097,-0.031952098,0.024735808,0.001159668,0.0,0.0,0.0,0.0,0.0,0.0
3864000,3784000,0.00046716782,0.0021994445,0.010557521,8.9872294e-05,0.00019146426,488.11008,0.0,0.0,0.0,0.0,0.0,0.0,0.0,-0.019241082,0.0,0.0,nan,0.0,0.0,0.0,0.0,-0.0035786629,0.0006728694,0.004271224,-0.002108097,-0.020093367,-0.003917724,0.00037050247,0.0,0.0,0.0,0.0,0.0,0.0
3872000,3792000,0.00046716782,0.0021994445,0.010557521,8.9872294e-05,0.00019146426,488.11008,0.0,0.0,0.0,0.0,0.0,0.0,0.0,-0.019241082,0.0,0.0,nan,0.0,0.0,0.0,0.0,-0.0035786629,0.0006728694,0.004271224,-0.002108097,-0.025700007,-0.008837879,0.00037908554,0.0,0.0,0.0,0.0,0.0,0.0
3880000,3800000,0.00046716782,0.0021994445,0.010557521,8.9872294e-05,0.00019146426,488.11008,0.0,0.0,0.0,0.0,0.0,0.0,0.0,-0.019241082,0.0,0.0,nan,0.0,0.0,0.0,0.0,-0.0035786629,0.0006728694,0.004271224,-0.002108097,-0.012626203,0.01002793,0.00047826767,0.0,0.0,0.0,0.0,0.0,0.0
3888000,3808000,0.00046716782,0.0021994445,0.010557521,8.9872294e-05,0.00019146426,488.11008,0.0,0.0,0.0,0.0,0.0,0.0,0.0,-0.019241082,0.0,0.0,nan,0.0,0.0,0.0,0.0,-0.0035786629,0.0006728694,0.004271224,-0.002108097,0.005453743,0.013771996,0.00013589859,0.0,0.0,0.0,0.0,0.0,0.0
3896000,3816000,0.00046716782,0.0021994445,0.010557521,8.9872294e-05,0.00019146426,488.11008,0.0,0.0,0.0,0.0,0.0,0.0,0.0,-0.019241082,0.0,0.0,nan,0.0,0.0,0.0,0.0,-0.0035786629,0.0006728694,0.004271224,-0.002108097,-0.025619468,0.01873593,0.00091791153,0.0,0.0,0.0,0.0,0.0,0.0
3904000,3824000,0.00046716782,0.0021994445,0.010557521,8.9872294e-05,0.00019146426,488.11008,0.0,0.0,0.0,0.0,0.0,0.0,0.0,-0.019241082,0.0,0.0,nan,0.0,0.0,0.0,0.0,-0.011666179,0.0023947908,0.007020682,-0.0012877584,0.0022659898,0.020831525,0.00034046173,0.0,0.0,0.0,0.0,0.0,0.0
3912000,3832000,0.00046716782,0.0021994445,0.010557521,8.9872294e-05,0.00019146426,488.11008,0.0,0.0,0.0,0.0,0.0,0.0,0.0,-0.019241082,0.0,0.0,nan,0.0,0.0,0.0,0.0,-0.011666179,0.0023947908,0.007020682,-0.0012877584,0.0058848895,0.010692671,6.818771e-05,0.0,0.0,0.0,0.0,0.0,0.0
3920000,3840000,0.00046716782,0.0021994445,0.010557521,8.9872294e-05,0.00019146426,488.11008,0.0,0.0,0.0,0.0,0.0,0.0,0.0,0.027549373,0.0,0.0,nan,0.0,0.0,0.0,0.0,-0.011666179,0.0023947908,0.007020682,-0.0012877584,-0.041892126,0.011459529,0.0011062622,0.0,0.0,0.0,0.0,0.0,0.0
3928000,3848000,0.00046716782,0.0021994445,0.010557521,8.9872294e-05,0.00019146426,488.11008,0.0,0.0,0.0,0.0,0.0,0.0,0.0,0.027549373,0.0,0.0,nan,0.0,0.0,0.0,0.0,-0.011666179,0.0023947908,0.007020682,-0.0012877584,-0.04153157,-0.0070563853,0.00073480606,0.0,0.0,0.0,0.0,0.0,0.0
3936000,3856000,0.00046716782,0.0021994445,0.010557521,8.9872294e-05,0.00019146426,488.11008,0.0,0.0,0.0,0.0,0.0,0.0,0.0,0.027549373,0.0,0.0,nan,0.0,0.0,0.0,0.0,-0.011666179,0.0023947908,0.007020682,-0.0012877584,-0.044786952,-0.01242736,0.0006837845,0.0,0.0,0.0,0.0,0.0,0.0
3944000,3864000,0.00046716782,0.0021994445,0.010557521,8.9872294e-05,0.00019146426,488.11008,0.0,0.0,0.0,0.0,0.0,0.0,0.0,0.027549373,0.0,0.0,nan,0.0,0.0,0.0,0.0,-0.011666179,0.0023947908,0.007020682,-0.0012877584,-0.010461392,0.00092583895,0.0002565384,0.0,0.0,0.0,0.0,0.0,0.0
3952000,3872000,0.00046716782,0.0021994445,0.010557521,8.9872294e-05,0.00019146426,488.11008,0.0,0.0,0.0,0.0,0.0,0.0,0.0,0.027549373,0.0,0.0,nan,0.0,0.0,0.0,0.0,-0.011666179,0.0023947908,0.007020682,-0.0012877584,0.012356076,0.020671844,9.584427e-05,0.0,0.0,0.0,0.0,0.0,0.0
3960000,3880000,0.00046716782,0.0021994445,0.010557521,8.9872294e-05,0.00019146426,488.11008,0.0,0.0,0.0,0.0,0.0,0.0,0.0,0.027549373,0.0,0.0,nan,0.0,0.0,0.0,0.0,-0.011666179,0.0023947908,0.007020682,-0.0012877584,-0.022400651,0.004945144,0.00059461594,0.0,0.0,0.0,0.0,0.0,0.0
3968000,3888000,0.00046716782,0.0021994445,0.010557521,8.9872294e-05,0.00019146426,488.11008,0.0,0.0,0.0,0.0,0.0,0.0,0.0,0.027549373,0.0,0.0,nan,0.0,0.0,0.0,0.0,-0.011666179,0.0023947908,0.007020682,-0.0012877584,-0.0530315,-0.006046742,0.00097608566,0.0,0.0,0.0,0.0,0.0,0.0
3976000,3896000,0.00046716782,0.0021994445,0.010557521,8.9872294e-05,0.00019146426,488.11008,0.0,0.0,0.0,0.0,0.0,0.0,0.0,0.027549373,0.0,0.0,nan,0.0,0.0,0.0,0.0,0.01104176,-0.0023366353,0.0029796958,-0.0016662776,-0.016974268,0.016801178,0.00070524216,0.0,0.0,0.0,0.0,0.0,0.0
3984000,3904000,0.00046716782,0.0021994445,0.010557521,8.9872294e-05,0.00019146426,488.11008,0.0,0.0,0.0,0.0,0.0,0.0,0.0,0.14154893,0.0,0.0,nan,0.0,0.0,0.0,0.0,0.01104176,-0.0023366353,0.0029796958,-0.0016662776,-0.03103098,0.021131799,0.001080513,0.0,0.0,0.0,0.0,0.0,0.0
3992000,3912000,0.00046716782,0.0021994445,0.010557521,8.9872294e-05,0.00019146426,488.11008,0.0,0.0,0.0,0.0,0.0,0.0,0.0,0.14154893,0.0,0.0,nan,0.0,0.0,0.0,0.0,0.01104176,-0.0023366353,0.0029796958,-0.0016662776,-0.022001307,0.010725409,0.00070142746,0.0,0.0,0.0,0.0,0.0,0.0
4000000,3920000,0.00046716782,0.0021994445,0.010557521,8.9872294e-05,0.00019146426,488.11008,0.0,0.0,0.0,0.0,0.0,0.0,0.0,0.14154893,0.0,0.0,nan,0.0,0.0,0.0,0.0,0.01104176,-0.0023366353,0.0029796958,-0.0016662776,-0.015906356,-0.019058809,-3.9577484e-05,0.0,0.0,0.0,0.0,0.0,0.0
4008000,3928000,0.00046716782,0.0021994445,0.010557521,8.9872294e-05,0.00019146426,488.11008,0.0,0.0,0.0,0.0,0.0,0.0,0.0,0.14154893,0.0,0.0,nan,0.0,0.0,0.0,0.0,0.01104176,-0.0023366353,0.0029796958,-0.0016662776,-0.0068781264,-0.03749883,-0.0006637573,0.0,0.0,0.0,0.0,0.0,0.0
4016000,3936000,0.00046716782,0.0021994445,0.010557521,8.9872294e-05,0.00019146426,488.11008,0.0,0.0,0.0,0.0,0.0,0.0,0.0,0.14154893,0.0,0.0,nan,0.0,0.0,0.0,0.0,0.01104176,-0.0023366353,0.0029796958,-0.0016662776,0.0016497131,0.0053046793,6.532669e-05,0.0,0.0,0.0,0.0,0.0,0.0
4024000,3944000,0.00046716782,0.0021994445,0.010557521,8.9872294e-05,0.00019146426,488.11008,0.0,0.0,0.0,0.0,0.0,0.0,0.0,0.14154893,0.0,0.0,nan,0.0,0.0,0.0,0.0,0.01104176,-0.0023366353,0.0029796958,-0.0016662776,-0.022795385,0.022643834,0.00093889236,0.0,0.0,0.0,0.0,0.0,0.0
4032000,3952000,0.00046716782,0.0021994445,0.010557521,8.9872294e-05,0.00019146426,488.11008,0.0,0.0,0.0,0.0,0.0,0.0,0.0,0.14154893,0.0,0.0,nan,0.0,0.0,0.0,0.0,0.01104176,-0.0023366353,0.0029796958,-0.0016662776,-0.004212426,-0.0021681637,5.531311e-05,0.0,0.0,0.0,0.0,0.0,0.0
4040000,3960000,0.00046716782,0.0021994445,0.010557521,8.9872294e-05,0.00019146426,488.11008,0.0,0.0,0.0,0.0,0.0,0.0,0.0,-0.10911587,0.0,0.0,nan,0.0,0.0,0.0,0.0,0.0059872866,-0.001271572,0.0012899488,-0.0015388131,-0.007831788,-0.014231563,-0.000113487244,0.0,0.0,0.0,0.0,0.0,0.0
4048000,3968000,0.00046716782,0.0021994445,0.010557521,8.9872294e-05,0.00019146426,488.11008,0.0,0.0,0.0,0.0,0.0,0.0,0.0,-0.10911587,0.0,0.0,nan,0.0,0.0,0.0,0.0,0.0059872866,-0.001271572,0.0012899488,-0.0015388131,-0.009344216,0.006757438,0.0003490448,0.0,0.0,0.0,0.0,0.0,0.0
4056000,3976000,0.00046716782,0.0021994445,0.010557521,8.9872294e-05,0.00019146426,488.11008,0.0,0.0,0.0,0.0,0.0,0.0,0.0,-0.10911587,0.0,0.0,nan,0.0,0.0,0.0,0.0,0.0059872866,-0.001271572,0.0012899488,-0.0015388131,-0.019645872,-0.001976326,0.00040912628,0.0,0.0,0.0,0.0,0.0,0.0
4064000,3984000,0.00046716782,0.0021994445,0.010557521,8.9872294e-05,0.00019146426,488.11008,0.0,0.0,0.0,0.0,0.0,0.0,0.0,-0.10911587,0.0,0.0,nan,0.0,0.0,0.0,0.0,0.0059872866,-0.001271572,0.0012899488,-0.0015388131,-0.0103778355,0.003451705,0.00030899048,0.0,0.0,0.0,0.0,0.0,0.0
4072000,3992000,0.00046716782,0.0021994445,0.010557521,8.9872294e-05,0.00019146426,488.11008,0.0,0.0,0.0,0.0,0.0,0.0,0.0,-0.10911587,0.0,0.0,nan,0.0,0.0,0.0,0.0,0.0059872866,-0.001271572,0.0012899488,-0.0015388131,-0.015098527,-0.005847797,0.000228405,0.0,0.0,0.0,0.0,0.0,0.0
4080000,4000000,0.00046716782,0.0021994445,0.010557521,8.9872294e-05,0.00019146426,488.11008,0.0,0.0,0.0,0.0,0.0,0.0,0.0,-0.10911587,0.0,0.0,nan,0.0,0.0,0.0,0.0,0.0059872866,-0.001271572,0.0012899488,-0.0015388131,-0.01929269,-0.01034154,0.00021457672,0.0,0.0,0.0,0.0,0.0,0.0
4088000,4008000,0.00046716782,0.0021994445,0.010557521,8.9872294e-05,0.00019146426,488.11008,0.0,0.0,0.0,0.0,0.0,0.0,0.0,-0.10911587,0.0,0.0,nan,0.0,0.0,0.0,0.0,0.0059872866,-0.001271572,0.0012899488,-0.0015388131,-0.004056355,-0.020346597,-0.00033330917,0.0,0.0,0.0,0.0,0.0,0.0
4096000,4016000,0.00046716782,0.0021994445,0.010557521,8.9872294e-05,0.00019146426,488.11008,0.0,0.0,0.0,0.0,0.0,0.0,0.0,-0.10911587,0.0,0.0,nan,0.0,0.0,0.0,0.0,0.0059872866,-0.001271572,0.0012899488,-0.0015388131,-0.003037041,0.020906597,0.00046110153,0.0,0.0,0.0,0.0,0.0,0.0
4104000,4024000,0.00046716782,0.0021994445,0.010557521,8.9872294e-05,0.00019146426,488.11008,0.0,0.0,0.0,0.0,0.0,0.0,0.0,0.05112754,0.0,0.0,nan,0.0,0.0,0.0,0.0,0.0059872866,-0.001271572,0.0012899488,-0.0015388131,0.0028352924,0.0059596896,4.9591064e-05,0.0,0.0,0.0,0.0,0.0,0.0
4112000,4032000,0.00046716782,0.0021994445,0.010557521,8.9872294e-05,0.00019146426,488.11008,0.0,0.0,0.0,0.0,0.0,0.0,0.0,0.05112754,0.0,0.0,nan,0.0,0.0,0.0,0.0,0.0005944967,-0.00016896613,0.0039207637,-0.0010700226,0.0037849732,0.010596827,0.00011587143,0.0,0.0,0.0,0.0,0.0,0.0
4120000,4040000,0.00046716782,0.0021994445,0.010557521,8.9872294e-05,0.00019146426,488.11008,0.0,0.0,0.0,0.0,0.0,0.0,0.0,0.05112754,0.0,0.0,nan,0.0,0.0,0.0,0.0,0.0005944967,-0.00016896613,0.0039207637,-0.0010700226,-0.009721426,-0.0016583204,0.00018453598,0.0,0.0,0.0,0.0,0.0,0.0
4128000,4048000,0.00046716782,0.0021994445,0.010557521,8.9872294e-05,0.00019146426,488.11008,0.0,0.0,0.0,0.0,0.0,0.0,0.0,0.05112754,0.0,0.0,nan,0.0,0.0,0.0,0.0,0.0005944967,-0.00016896613,0.0039207637,-0.0010700226,-0.002037488,-0.018115297,-0.00032949448,0.0,0.0,0.0,0.0,0.0,0.0
4136000,4056000,0.00046716782,0.0021994445,0.010557521,8.9872294e-05,0.00019146426,488.11008,0.0,0.0,0.0,0.0,0.0,0.0,0.0,0.05112754,0.0,0.0,nan,0.0,0.0,0.0,0.0,0.0005944967,-0.00016896613,0.0039207637,-0.0010700226,-0.0035420302,0.019083649,0.0004401207,0.0,0.0,0.0,0.0,0.0,0.0
4144000,4064000,0.00046716782,0.0021994445,0.010557521,8.9872294e-05,0.00019146426,488.11008,0.0,0.0,0.0,0.0,0.0,0.0,0.0,0.05112754,0.0,0.0,nan,0.0,0.0,0.0,0.0,0.0005944967,-0.00016896613,0.0039207637,-0.0010700226,0.0025454853,0.00921303,0.00011873245,0.0,0.0,0.0,0.0,0.0,0.0
4152000,4072000,0.00046716782,0.0021994445,0.010557521,8.9872294e-05,0.00019146426,488.11008,0.0,0.0,0.0,0.0,0.0,0.0,0.0,0.05112754,0.0,0.0,nan,0.0,0.0,0.0,0.0,0.0005944967,-0.00016896613,0.0039207637,-0.0010700226,0.00661481,0.0013588667,-0.00012779236,0.0,0.0,0.0,0.0,0.0,0.0
4160000,4080000,0.00046716782,0.0021994445,0.010557521,8.9872294e-05,0.00019146426,488.11008,0.0,0.0,0.0,0.0,0.0,0.0,0.0,-0.025268294,0.0,0.0,nan,0.0,0.0,0.0,0.0,0.0005944967,-0.00016896613,0.0039207637,-0.0010700226,-0.0017159954,-0.01632975,-0.0002989769,0.0,0.0,0.0,0.0,0.0,0.0
4168000,4088000,0.00046716782,0.0021994445,0.010557521,8.9872294e-05,0.00019146426,488.11008,0.0,0.0,0.0,0.0,0.0,0.0,0.0,-0.025268294,0.0,0.0,nan,0.0,0.0,0.0,0.0,0.0005944967,-0.00016896613,0.0039207637,-0.0010700226,-0.023691675,0.009397492,0.0006990433,0.0,0.0,0.0,0.0,0.0,0.0
4176000,4096000,0.00046716782,0.0021994445,0.010557521,8.9872294e-05,0.00019146426,488.11008,0.0,0.0,0.0,0.0,0.0,0.0,0.0,-0.025268294,0.0,0.0,nan,0.0,0.0,0.0,0.0,0.0005944967,-0.00016896613,0.0039207637,-0.0010700226,-0.003416177,0.019307643,0.00044441223,0.0,0.0,0.0,0.0,0.0,0.0
4184000,4104000,0.00046716782,0.0021994445,0.010557521,8.9872294e-05,0.00019146426,488.11008,0.0,0.0,0.0,0.0,0.0,0.0,0.0,-0.025268294,0.0,0.0,nan,0.0,0.0,0.0,0.0,-0.053246975,0.010802348,0.0013476312,-0.005397171,-0.027367927,0.017176002,0.0009198189,0.0,0.0,0.0,0.0,0.0,0.0
4192000,4112000,0.00046716782,0.0021994445,0.010557521,8.9872294e-05,0.00019146426,488.11008,0.0,0.0,0.0,0.0,0.0,0.0,0.0,-0.025268294,0.0,0.0,nan,0.0,0.0,0.0,0.0,-0.053246975,0.010802348,0.0013476312,-0.005397171,-0.0039012562,0.012751937,0.00033521652,0.0,0.0,0.0,0.0,0.0,0.0
4200000,4120000,0.00046716782,0.0021994445,0.010557521,8.9872294e-05,0.00019146426,488.11008,0.0,0.0,0.0,0.0,0.0,0.0,0.0,-0.025268294,0.0,0.0,nan,0.0,0.0,0.0,0.0,-0.053246975,0.010802348,0.0013476312,-0.005397171,-0.02011259,-0.039814264,-0.00043153763,0.0,0.0,0.0,0.0,0.0,0.0
4208000,4128000,-0.000100842124,-0.007232587,-0.026732417,2.1052838e-05,0.00033973574,-0.00014048815,0.0,0.0,0.0,0.0,0.0,0.0,0.0,-0.025268294,0.0,0.0,nan,0.0,0.0,0.0,0.0,-0.053246975,0.010802348,0.0013476312,-0.005397171,-0.024055725,-0.028633818,-8.678436e-05,0.0,0.0,0.0,0.0,0.0,0.0
4216000,4136000,-0.000100842124,-0.007232587,-0.026732417,2.1052838e-05,0.00033973574,-0.00014048815,0.0,0.0,0.0,0.0,0.0,0.0,0.0,-0.025268294,0.0,0.0,nan,0.0,0.0,0.0,0.0,-0.053246975,0.010802348,0.0013476312,-0.005397171,-0.003523361,-0.016959712,-0.00027227402,0.0,0.0,0.0,0.0,0.0,0.0
4224000,4144000,-0.000100842124,-0.007232587,-0.026732417,2.1052838e-05,0.00033973574,-0.00014048815,0.0,0.0,0.0,0.0,0.0,0.0,0.0,-0.109876655,0.0,0.0,nan,0.0,0.0,0.0,0.0,-0.053246975,0.010802348,0.0013476312,-0.005397171,-0.023611993,-0.0054244846,0.00040864944,0.0,0.0,0.0,0.0,0.0,0.0
4232000,4152000,-0.000100842124,-0.007232587,-0.026732417,2.1052838e-05,0.00033973574,-0.00014048815,0.0,0.0,0.0,0.0,0.0,0.0,0.0,-0.109876655,0.0,0.0,nan,0.0,0.0,0.0,0.0,-0.053246975,0.010802348,0.0013476312,-0.005397171,-0.029388778,0.010345489,0.0008382797,0.0,0.0,0.0,0.0,0.0,0.0
4240000,4160000,-0.000100842124,-0.007232587,-0.026732417,2.1052838e-05,0.00033973574,-0.00014048815,0.0,0.0,0.0,0.0,0.0,0.0,0.0,-0.109876655,0.0,0.0,nan,0.0,0.0,0.0,0.0,-0.053246975,0.010802348,0.0013476312,-0.005397171,-0.028700339,0.005596563,0.00073337555,0.0,0.0,0.0,0.0,0.0,0.0
4248000,4168000,-0.000100842124,-0.007232587,-0.026732417,2.1052838e-05,0.00033973574,-0.00014048815,0.0,0.0,0.0,0.0,0.0,0.0,0.0,-0.109876655,0.0,0.0,nan,0.0,0.0,0.0,0.0,-0.053246975,0.010802348,0.0013476312,-0.005397171,0.014158918,-0.0147098005,-0.000644207,0.0,0.0,0.0,0.0,0.0,0.0
4256000,4176000,-0.000100842124,-0.007232587,-0.026732417,2.1052838e-05,0.00033973574,-0.00014048815,0.0,0.0,0.0,0.0,0.0,0.0,0.0,-0.109876655,0.0,0.0,nan,0.0,0.0,0.0,0.0,0.0012645721,-0.00028647855,0.0051383227,-0.0005041063,0.0031602625,-0.007174,-0.00022029877,0.0,0.0,0.0,0.0,0.0,0.0
4264000,4184000,-0.000100842124,-0.007232587,-0.026732417,2.1052838e-05,0.00033973574,-0.00014048815,0.0,0.0,0.0,0.0,0.0,0.0,0.0,-0.109876655,0.0,0.0,nan,0.0,0.0,0.0,0.0,0.0012645721,-0.00028647855,0.0051383227,-0.0005041063,0.008443078,-0.0054870397,-0.00031232834,0.0,0.0,0.0,0.0,0.0,0.0
4272000,4192000,-0.000100842124,-0.007232587,-0.026732417,2.1052838e-05,0.00033973574,-0.00014048815,0.0,0.0,0.0,0.0,0.0,0.0,0.0,-0.109876655,0.0,0.0,nan,0.0,0.0,0.0,0.0,0.0012645721,-0.00028647855,0.0051383227,-0.0005041063,-0.031822942,-0.022665635,0.00020837784,0.0,0.0,0.0,0.0,0.0,0.0
4280000,4200000,-0.000100842124,-0.007232587,-0.026732417,2.1052838e-05,0.00033973574,-0.00014048815,0.0,0.0,0.0,0.0,0.0,0.0,0.0,-0.020428758,0.0,0.0,nan,0.0,0.0,0.0,0.0,0.0012645721,-0.00028647855,0.0051383227,-0.0005041063,-0.027311942,0.005582869,0.00070762634,0.0,0.0,0.0,0.0,0.0,0.0
4288000,4208000,-0.000100842124,-0.007232587,-0.026732417,2.1052838e-05,0.00033973574,-0.00014048815,0.0,0.0,0.0,0.0,0.0,0.0,0.0,-0.020428758,0.0,0.0,nan,0.0,0.0,0.0,0.0,0.0012645721,-0.00028647855,0.0051383227,-0.0005041063,-0.016932417,0.015474826,0.0006594658,0.0,0.0,0.0,0.0,0.0,0.0
4296000,4216000,-0.000100842124,-0.007232587,-0.026732417,2.1052838e-05,0.00033973574,-0.00014048815,0.0,0.0,0.0,0.0,0.0,0.0,0.0,-0.020428758,0.0,0.0,nan,0.0,0.0,0.0,0.0,0.0012645721,-0.00028647855,0.0051383227,-0.0005041063,-0.0235005,0.006982133,0.00063467026,0.0,0.0,0.0,0.0,0.0,0.0
4304000,4224000,-0.000100842124,-0.007232587,-0.026732417,2.1052838e-05,0.00033973574,-0.00014048815,0.0,0.0,0.0,0.0,0.0,0.0,0.0,-0.020428758,0.0,0.0,nan,0.0,0.0,0.0,0.0,0.0012645721,-0.00028647855,0.0051383227,-0.0005041063,-0.022990867,-0.0090352,0.0003027916,0.0,0.0,0.0,0.0,0.0,0.0
4312000,4232000,-0.000100842124,-0.007232587,-0.026732417,2.1052838e-05,0.00033973574,-0.00014048815,0.0,0.0,0.0,0.0,0.0,0.0,0.0,-0.020428758,0.0,0.0,nan,0.0,0.0,0.0,0.0,0.0012645721,-0.00028647855,0.0051383227,-0.0005041063,-0.02253221,0.0065265596,0.00060749054,0.0,0.0,0.0,0.0,0.0,0.0
4320000,4240000,-0.000100842124,-0.007232587,-0.026732417,2.1052838e-05,0.00033973574,-0.00014048815,0.0,0.0,0.0,0.0,0.0,0.0,0.0,-0.020428758,0.0,0.0,nan,0.0,0.0,0.0,0.0,0.0012645721,-0.00028647855,0.0051383227,-0.0005041063,-0.010324508,0.022371992,0.0006451607,0.0,0.0,0.0,0.0,0.0,0.0
4328000,4248000,-0.000100842124,-0.007232587,-0.026732417,2.1052838e-05,0.00033973574,-0.00014048815,0.0,0.0,0.0,0.0,0.0,0.0,0.0,-0.020428758,0.0,0.0,nan,0.0,0.0,0.0,0.0,-0.00973618,0.0019478155,0.0054276288,-0.0035709739,0.0015449338,0.024714097,0.00042819977,0.0,0.0,0.0,0.0,0.0,0.0
4336000,4256000,-0.000100842124,-0.007232587,-0.026732417,2.1052838e-05,0.00033973574,-0.00014048815,0.0,0.0,0.0,0.0,0.0,0.0,0.0,-0.020428758,0.0,0.0,nan,0.0,0.0,0.0,0.0,-0.00973618,0.0019478155,0.0054276288,-0.0035709739,-0.013559688,0.003269866,0.0003566742,0.0,0.0,0.0,0.0,0.0,0.0
4344000,4264000,-0.000100842124,-0.007232587,-0.026732417,2.1052838e-05,0.00033973574,-0.00014048815,0.0,0.0,0.0,0.0,0.0,0.0,0.0,0.06652558,0.0,0.0,nan,0.0,0.0,0.0,0.0,-0.00973618,0.0019478155,0.0054276288,-0.0035709739,-0.020542728,-0.017101377,7.915497e-05,0.0,0.0,0.0,0.0,0.0,0.0
4352000,4272000,-0.000100842124,-0.007232587,-0.026732417,2.1052838e-05,0.00033973574,-0.00014048815,0.0,0.0,0.0,0.0,0.0,0.0,0.0,0.06652558,0.0,0.0,nan,0.0,0.0,0.0,0.0,-0.00973618,0.0019478155,0.0054276288,-0.0035709739,0.008926285,-0.025681764,-0.0007510185,0.0,0.0,0.0,0.0,0.0,0.0
4360000,4280000,-0.000100842124,-0.007232587,-0.026732417,2.1052838e-05,0.00033973574,-0.00014048815,0.0,0.0,0.0,0.0,0.0,0.0,0.0,0.06652558,0.0,0.0,nan,0.0,0.0,0.0,0.0,-0.00973618,0.0019478155,0.0054276288,-0.0035709739,-0.0049321298,-0.0024033338,5.9604645e-05,0.0,0.0,0.0,0.0,0.0,0.0
4368000,4288000,-0.000100842124,-0.007232587,-0.026732417,2.1052838e-05,0.00033973574,-0.00014048815,0.0,0.0,0.0,0.0,0.0,0.0,0.0,0.06652558,0.0,0.0,nan,0.0,0.0,0.0,0.0,-0.00973618,0.0019478155,0.0054276288,-0.0035709739,-0.009847349,-0.00013305247,0.00021123886,0.0,0.0,0.0,0.0,0.0,0.0
4376000,4296000,-0.000100842124,-0.007232587,-0.026732417,2.1052838e-05,0.00033973574,-0.00014048815,0.0,0.0,0.0,0.0,0.0,0.0,0.0,0.06652558,0.0,0.0,nan,0.0,0.0,0.0,0.0,-0.00973618,0.0019478155,0.0054276288,-0.0035709739,-0.011512261,0.017963246,0.0005912781,0.0,0.0,0.0,0.0,0.0,0.0
4384000,4304000,-0.000100842124,-0.007232587,-0.026732417,2.1052838e-05,0.00033973574,-0.00014048815,0.0,0.0,0.0,0.0,0.0,0.0,0.0,0.06652558,0.0,0.0,nan,0.0,0.0,0.0,0.0,-0.00973618,0.0019478155,0.0054276288,-0.0035709739,0.0049794707,0.0071446896,2.670288e-05,0.0,0.0,0.0,0.0,0.0,0.0
4392000,4312000,-0.000100842124,-0.007232587,-0.026732417,2.1052838e-05,0.00033973574,-0.00014048815,0.0,0.0,0.0,0.0,0.0,0.0,0.0,0.06652558,0.0,0.0,nan,0.0,0.0,0.0,0.0,-0.00973618,0.0019478155,0.0054276288,-0.0035709739,-0.005996039,-0.0076576024,-2.2888184e-05,0.0,0.0,0.0,0.0,0.0,0.0
4400000,4320000,-0.000100842124,-0.007232587,-0.026732417,2.1052838e-05,0.00033973574,-0.00014048815,0.0,0.0,0.0,0.0,0.0,0.0,0.0,0.028477699,0.0,0.0,nan,0.0,0.0,0.0,0.0,0.0038671494,-0.00083017163,0.0026324987,-0.0012533963,0.01897671,-0.008453354,-0.0006146431,0.0,0.0,0.0,0.0,0.0,0.0
4408000,4328000,-0.000100842124,-0.007232587,-0.026732417,2.1052838e-05,0.00033973574,-0.00014048815,0.0,0.0,0.0,0.0,0.0,0.0,0.0,0.028477699,0.0,0.0,nan,0.0,0.0,0.0,0.0,0.0038671494,-0.00083017163,0.0026324987,-0.0012533963,0.029942557,0.021613047,-0.00030994415,0.0,0.0,0.0,0.0,0.0,0.0
4416000,4336000,-0.000100842124,-0.007232587,-0.026732417,2.1052838e-05,0.00033973574,-0.00014048815,0.0,0.0,0.0,0.0,0.0,0.0,0.0,0.028477699,0.0,0.0,nan,0.0,0.0,0.0,0.0,0.0038671494,-0.00083017163,0.0026324987,-0.0012533963,-0.010605438,-0.0035195053,0.00016021729,0.0,0.0,0.0,0.0,0.0,0.0
4424000,4344000,-0.000100842124,-0.007232587,-0.026732417,2.1052838e-05,0.00033973574,-0.00014048815,0.0,0.0,0.0,0.0,0.0,0.0,0.0,0.028477699,0.0,0.0,nan,0.0,0.0,0.0,0.0,0.0038671494,-0.00083017163,0.0026324987,-0.0012533963,-0.0060944017,0.016786933,0.00045251846,0.0,0.0,0.0,0.0,0.0,0.0
4432000,4352000,-0.000100842124,-0.007232587,-0.026732417,2.1052838e-05,0.00033973574,-0.00014048815,0.0,0.0,0.0,0.0,0.0,0.0,0.0,0.028477699,0.0,0.0,nan,0.0,0.0,0.0,0.0,0.0038671494,-0.00083017163,0.0026324987,-0.0012533963,-0.0021811891,0.01670809,0.00036668777,0.0,0.0,0.0,0.0,0.0,0.0
4440000,4360000,-0.000100842124,-0.007232587,-0.026732417,2.1052838e-05,0.00033973574,-0.00014048815,0.0,0.0,0.0,0.0,0.0,0.0,0.0,0.028477699,0.0,0.0,nan,0.0,0.0,0.0,0.0,0.0038671494,-0.00083017163,0.0026324987,-0.0012533963,0.0008125771,0.008841217,0.00015354156,0.0,0.0,0.0,0.0,0.0,0.0
4448000,4368000,-0.000100842124,-0.007232587,-0.026732417,2.1052838e-05,0.00033973574,-0.00014048815,0.0,0.0,0.0,0.0,0.0,0.0,0.0,0.028477699,0.0,0.0,nan,0.0,0.0,0.0,0.0,0.0038671494,-0.00083017163,0.0026324987,-0.0012533963,-0.033799723,-0.00088733435,0.00068330765,0.0,0.0,0.0,0.0,0.0,0.0
4456000,4376000,-0.000100842124,-0.007232587,-0.026732417,2.1052838e-05,0.00033973574,-0.00014048815,0.0,0.0,0.0,0.0,0.0,0.0,0.0,0.028477699,0.0,0.0,nan,0.0,0.0,0.0,0.0,0.0038671494,-0.00083017163,0.0026324987,-0.0012533963,-0.015235674,-0.0011214018,0.0003080368,0.0,0.0,0.0,0.0,0.0,0.0
4464000,4384000,-0.000100842124,-0.007232587,-0.026732417,2.1052838e-05,0.00033973574,-0.00014048815,0.0,0.0,0.0,0.0,0.0,0.0,0.0,-0.0558699,0.0,0.0,nan,0.0,0.0,0.0,0.0,0.0038671494,-0.00083017163,0.0026324987,-0.0012533963,-0.005482992,0.025018066,0.00058603287,0.0,0.0,0.0,0.0,0.0,0.0
4472000,4392000,-0.000100842124,-0.007232587,-0.026732417,2.1052838e-05,0.00033973574,-0.00014048815,0.0,0.0,0.0,0.0,0.0,0.0,0.0,-0.0558699,0.0,0.0,nan,0.0,0.0,0.0,0.0,-0.014508367,0.0029468075,0.0005543381,-0.0008662343,-0.04357721,-0.013707414,0.00059890747,0.0,0.0,0.0,0.0,0.0,0.0
4480000,4400000,-0.000100842124,-0.007232587,-0.026732417,2.1052838e-05,0.00033973574,-0.00014048815,0.0,0.0,0.0,0.0,0.0,0.0,0.0,-0.0558699,0.0,0.0,nan,0.0,0.0,0.0,0.0,-0.014508367,0.0029468075,0.0005543381,-0.0008662343,-0.033797503,0.006013274,0.0008163452,0.0,0.0,0.0,0.0,0.0,0.0
4488000,4408000,-0.000100842124,-0.007232587,-0.026732417,2.1052838e-05,0.00033973574,-0.00014048815,0.0,0.0,0.0,0.0,0.0,0.0,0.0,-0.0558699,0.0,0.0,nan,0.0,0.0,0.0,0.0,-0.014508367,0.0029468075,0.0005543381,-0.0008662343,-0.004793728,0.013091013,0.00036001205,0.0,0.0,0.0,0.0,0.0,0.0
4496000,4416000,-0.000100842124,-0.007232587,-0.026732417,2.1052838e-05,0.00033973574,-0.00014048815,0.0,0.0,0.0,0.0,0.0,0.0,0.0,-0.0558699,0.0,0.0,nan,0.0,0.0,0.0,0.0,-0.014508367,0.0029468075,0.0005543381,-0.0008662343,-0.011115501,-0.010476813,2.2411346e-05,0.0,0.0,0.0,0.0,0.0,0.0
4504000,4424000,-0.000100842124,-0.007232587,-0.026732417,2.1052838e-05,0.00033973574,-0.00014048815,0.0,0.0,0.0,0.0,0.0,0.0,0.0,-0.0558699,0.0,0.0,nan,0.0,0.0,0.0,0.0,-0.014508367,0.0029468075,0.0005543381,-0.0008662343,0.010787748,0.017378211,8.773804e-05,0.0,0.0,0.0,0.0,0.0,0.0
4512000,4432000,-0.000100842124,-0.007232587,-0.026732417,2.1052838e-05,0.00033973574,-0.00014048815,0.0,0.0,0.0,0.0,0.0,0.0,0.0,-0.0558699,0.0,0.0,nan,0.0,0.0,0.0,0.0,-0.014508367,0.0029468075,0.0005543381,-0.0008662343,-0.007014583,0.016454175,0.00046348572,0.0,0.0,0.0,0.0,0.0,0.0
4520000,4440000,-0.000100842124,-0.007232587,-0.026732417,2.1052838e-05,0.00033973574,-0.00014048815,0.0,0.0,0.0,0.0,0.0,0.0,0.0,0.028724574,0.0,0.0,nan,0.0,0.0,0.0,0.0,-0.014508367,0.0029468075,0.0005543381,-0.0008662343,-0.010861019,0.008733541,0.0004005432,0.0,0.0,0.0,0.0,0.0,0.0
4528000,4448000,-0.000100842124,-0.007232587,-0.026732417,2.1052838e-05,0.00033973574,-0.00014048815,0.0,0.0,0.0,0.0,0.0,0.0,0.0,0.028724574,0.0,0.0,nan,0.0,0.0,0.0,0.0,-0.014508367,0.0029468075,0.0005543381,-0.0008662343,-0.0038979398,0.03405164,0.0007019043,0.0,0.0,0.0,0.0,0.0,0.0
4536000,4456000,-0.000100842124,-0.007232587,-0.026732417,2.1052838e-05,0.00033973574,-0.00014048815,0.0,0.0,0.0,0.0,0.0,0.0,0.0,0.028724574,0.0,0.0,nan,0.0,0.0,0.0,0.0,-0.014508367,0.0029468075,0.0005543381,-0.0008662343,-0.0031345757,-0.0112755,-0.0001654625,0.0,0.0,0.0,0.0,0.0,0.0
4544000,4464000,-0.000100842124,-0.007232587,-0.026732417,2.1052838e-05,0.00033973574,-0.00014048815,0.0,0.0,0.0,0.0,0.0,0.0,0.0,0.028724574,0.0,0.0,nan,0.0,0.0,0.0,0.0,0.0027760267,-0.0005602138,0.004970506,0.0009824932,0.012799052,-0.00799042,-0.00044965744,0.0,0.0,0.0,0.0,0.0,0.0
4552000,4472000,-0.000100842124,-0.007232587,-0.026732417,2.1052838e-05,0.00033973574,-0.00014048815,0.0,0.0,0.0,0.0,0.0,0.0,0.0,0.028724574,0.0,0.0,nan,0.0,0.0,0.0,0.0,0.0027760267,-0.0005602138,0.004970506,0.0009824932,0.015742794,0.023726806,8.72612e-05,0.0,0.0,0.0,0.0,0.0,0.0
4560000,4480000,-0.000100842124,-0.007232587,-0.026732417,2.1052838e-05,0.00033973574,-0.00014048815,0.0,0.0,0.0,0.0,0.0,0.0,0.0,0.028724574,0.0,0.0,nan,0.0,0.0,0.0,0.0,0.0027760267,-0.0005602138,0.004970506,0.0009824932,0.020214535,-0.0008469075,-0.00047826767,0.0,0.0,0.0,0.0,0.0,0.0
4568000,4488000,-0.000100842124,-0.007232587,-0.026732417,2.1052838e-05,0.00033973574,-0.00014048815,0.0,0.0,0.0,0.0,0.0,0.0,0.0,0.028724574,0.0,0.0,nan,0.0,0.0,0.0,0.0,0.0027760267,-0.0005602138,0.004970506,0.0009824932,0.019655518,0.0027114004,-0.00039434433,0.0,0.0,0.0,0.0,0.0,0.0
4576000,4496000,-0.000100842124,-0.007232587,-0.026732417,2.1052838e-05,0.00033973574,-0.00014048815,0.0,0.0,0.0,0.0,0.0,0.0,0.0,0.028724574,0.0,0.0,nan,0.0,0.0,0.0,0.0,0.0027760267,-0.0005602138,0.004970506,0.0009824932,0.0031975685,-0.017773166,-0.00044107437,0.0,0.0,0.0,0.0,0.0,0.0
4584000,4504000,-0.000100842124,-0.007232587,-0.026732417,2.1052838e-05,0.00033973574,-0.00014048815,0.0,0.0,0.0,0.0,0.0,0.0,0.0,-0.09651673,0.0,0.0,nan,0.0,0.0,0.0,0.0,0.0027760267,-0.0005602138,0.004970506,0.0009824932,0.0084509505,0.010526538,1.66893e-05,0.0,0.0,0.0,0.0,0.0,0.0
4592000,4512000,-0.000100842124,-0.007232587,-0.026732417,2.1052838e-05,0.00033973574,-0.00014048815,0.0,0.0,0.0,0.0,0.0,0.0,0.0,-0.09651673,0.0,0.0,nan,0.0,0.0,0.0,0.0,0.0027760267,-0.0005602138,0.004970506,0.0009824932,-0.0039425837,0.02835758,0.00060749054,0.0,0.0,0.0,0.0,0.0,0.0
4600000,4520000,-0.000100842124,-0.007232587,-0.026732417,2.1052838e-05,0.00033973574,-0.00014048815,0.0,0.0,0.0,0.0,0.0,0.0,0.0,-0.09651673,0.0,0.0,nan,0.0,0.0,0.0,0.0,0.0027760267,-0.0005602138,0.004970506,0.0009824932,-0.0017640395,0.03757319,0.0007133484,0.0,0.0,0.0,0.0,0.0,0.0
4608000,4528000,-0.018383846,-0.009420268,0.021493353,9.033692e-05,-0.007384815,0.017252326,0.0,0.0,0.0,0.0,0.0,0.0,0.0,-0.09651673,0.0,0.0,nan,0.0,0.0,0.0,0.0,0.0027760267,-0.0005602138,0.004970506,0.0009824932,0.007861356,0.022571772,0.00024795532,0.0,0.0,0.0,0.0,0.0,0.0
4616000,4536000,-0.018383846,-0.009420268,0.021493353,9.033692e-05,-0.007384815,0.017252326,0.0,0.0,0.0,0.0,0.0,0.0,0.0,-0.09651673,0.0,0.0,nan,0.0,0.0,0.0,0.0,0.00834918,-0.001871516,0.008664027,-0.004317999,0.000978061,-0.012403667,-0.0002784729,0.0,0.0,0.0,0.0,0.0,0.0
4624000,4544000,-0.018383846,-0.009420268,0.021493353,9.033692e-05,-0.007384815,0.017252326,0.0,0.0,0.0,0.0,0.0,0.0,0.0,-0.09651673,0.0,0.0,nan,0.0,0.0,0.0,0.0,0.00834918,-0.001871516,0.008664027,-0.004317999,0.007412431,0.006260112,-4.339218e-05,0.0,0.0,0.0,0.0,0.0,0.0
4632000,4552000,-0.018383846,-0.009420268,0.021493353,9.033692e-05,-0.007384815,0.017252326,0.0,0.0,0.0,0.0,0.0,0.0,0.0,-0.09651673,0.0,0.0,nan,0.0,0.0,0.0,0.0,0.00834918,-0.001871516,0.008664027,-0.004317999,-0.0019461242,0.04598598,0.000849247,0.0,0.0,0.0,0.0,0.0,0.0
4640000,4560000,-0.018383846,-0.009420268,0.021493353,9.033692e-05,-0.007384815,0.017252326,0.0,0.0,0.0,0.0,0.0,0.0,0.0,0.01884891,0.0,0.0,nan,0.0,0.0,0.0,0.0,0.00834918,-0.001871516,0.008664027,-0.004317999,-0.0025169263,0.019826606,0.00042772293,0.0,0.0,0.0,0.0,0.0,0.0
4648000,4568000,-0.018383846,-0.009420268,0.021493353,9.033692e-05,-0.007384815,0.017252326,0.0,0.0,0.0,0.0,0.0,0.0,0.0,0.01884891,0.0,0.0,nan,0.0,0.0,0.0,0.0,0.00834918,-0.001871516,0.008664027,-0.004317999,-0.0040152995,0.02969873,0.0006322861,0.0,0.0,0.0,0.0,0.0,0.0
4656000,4576000,-0.018383846,-0.009420268,0.021493353,9.033692e-05,-0.007384815,0.017252326,0.0,0.0,0.0,0.0,0.0,0.0,0.0,0.01884891,0.0,0.0,nan,0.0,0.0,0.0,0.0,0.00834918,-0.001871516,0.008664027,-0.004317999,-0.012136454,-0.006578803,0.0001244545,0.0,0.0,0.0,0.0,0.0,0.0
4664000,4584000,-0.018383846,-0.009420268,0.021493353,9.033692e-05,-0.007384815,0.017252326,0.0,0.0,0.0,0.0,0.0,0.0,0.0,0.01884891,0.0,0.0,nan,0.0,0.0,0.0,0.0,0.00834918,-0.001871516,0.008664027,-0.004317999,-0.040745348,-0.02680932,0.00023078918,0.0,0.0,0.0,0.0,0.0,0.0
4672000,4592000,-0.018383846,-0.009420268,0.021493353,9.033692e-05,-0.007384815,0.017252326,0.0,0.0,0.0,0.0,0.0,0.0,0.0,0.01884891,0.0,0.0,nan,0.0,0.0,0.0,0.0,0.00834918,-0.001871516,0.008664027,-0.004317999,9.158533e-05,0.011135325,0.00021219254,0.0,0.0,0.0,0.0,0.0,0.0
4680000,4600000,-0.018383846,-0.009420268,0.021493353,9.033692e-05,-0.007384815,0.017252326,0.0,0.0,0.0,0.0,0.0,0.0,0.0,0.01884891,0.0,0.0,nan,0.0,0.0,0.0,0.0,0.00834918,-0.001871516,0.008664027,-0.004317999,-0.0033895094,0.024666607,0.00053310394,0.0,0.0,0.0,0.0,0.0,0.0
4688000,4608000,-0.018383846,-0.009420268,0.021493353,9.033692e-05,-0.007384815,0.017252326,0.0,0.0,0.0,0.0,0.0,0.0,0.0,0.01884891,0.0,0.0,nan,0.0,0.0,0.0,0.0,0.010616899,-0.0022733836,0.0032865852,-0.0032938719,-0.002328314,0.017109513,0.00037622452,0.0,0.0,0.0,0.0,0.0,0.0
4696000,4616000,-0.018383846,-0.009420268,0.021493353,9.033692e-05,-0.007384815,0.017252326,0.0,0.0,0.0,0.0,0.0,0.0,0.0,0.01884891,0.0,0.0,nan,0.0,0.0,0.0,0.0,0.010616899,-0.0022733836,0.0032865852,-0.0032938719,0.003945184,0.04101248,0.00064468384,0.0,0.0,0.0,0.0,0.0,0.0
4704000,4624000,-0.018383846,-0.009420268,0.021493353,9.033692e-05,-0.007384815,0.017252326,0.0,0.0,0.0,0.0,0.0,0.0,0.0,-0.03086428,0.0,0.0,nan,0.0,0.0,0.0,0.0,0.010616899,-0.0022733836,0.0032865852,-0.0032938719,-0.0071671885,0.031466216,0.0007185936,0.0,0.0,0.0,0.0,0.0,0.0
4712000,4632000,-0.018383846,-0.009420268,0.021493353,9.033692e-05,-0.007384815,0.017252326,0.0,0.0,0.0,0.0,0.0,0.0,0.0,-0.03086428,0.0,0.0,nan,0.0,0.0,0.0,0.0,0.010616899,-0.0022733836,0.0032865852,-0.0032938719,0.029851202,0.0069634467,-0.00055646896,0.0,0.0,0.0,0.0,0.0,0.0
4720000,4640000,-0.018383846,-0.009420268,0.021493353,9.033692e-05,-0.007384815,0.017252326,0.0,0.0,0.0,0.0,0.0,0.0,0.0,-0.03086428,0.0,0.0,nan,0.0,0.0,0.0,0.0,0.010616899,-0.0022733836,0.0032865852,-0.0032938719,0.0334777,0.00088222325,-0.00076293945,0.0,0.0,0.0,0.0,0.0,0.0
4728000,4648000,-0.018383846,-0.009420268,0.021493353,9.033692e-05,-0.007384815,0.017252326,0.0,0.0,0.0,0.0,0.0,0.0,0.0,-0.03086428,0.0,0.0,nan,0.0,0.0,0.0,0.0,0.010616899,-0.0022733836,0.0032865852,-0.0032938719,0.008651568,0.020559117,0.00018930435,0.0,0.0,0.0,0.0,0.0,0.0
4736000,4656000,-0.018383846,-0.009420268,0.021493353,9.033692e-05,-0.007384815,0.017252326,0.0,0.0,0.0,0.0,0.0,0.0,0.0,-0.03086428,0.0,0.0,nan,0.0,0.0,0.0,0.0,0.010616899,-0.0022733836,0.0032865852,-0.0032938719,0.00569479,0.002484098,-7.724762e-05,0.0,0.0,0.0,0.0,0.0,0.0
4744000,4664000,-0.018383846,-0.009420268,0.021493353,9.033692e-05,-0.007384815,0.017252326,0.0,0.0,0.0,0.0,0.0,0.0,0.0,-0.03086428,0.0,0.0,nan,0.0,0.0,0.0,0.0,0.010616899,-0.0022733836,0.0032865852,-0.0032938719,0.009741455,0.012866691,2.7179718e-05,0.0,0.0,0.0,0.0,0.0,0.0
4752000,4672000,-0.018383846,-0.009420268,0.021493353,9.033692e-05,-0.007384815,0.017252326,0.0,0.0,0.0,0.0,0.0,0.0,0.0,-0.03086428,0.0,0.0,nan,0.0,0.0,0.0,0.0,0.010616899,-0.0022733836,0.0032865852,-0.0032938719,0.0122109335,-0.015289098,-0.000582695,0.0,0.0,0.0,0.0,0.0,0.0
4760000,4680000,-0.018383846,-0.009420268,0.021493353,9.033692e-05,-0.007384815,0.017252326,0.0,0.0,0.0,0.0,0.0,0.0,0.0,0.032580007,0.0,0.0,nan,0.0,0.0,0.0,0.0,-0.0018209219,0.00036461372,-0.0046907216,-0.00016191602,0.009515125,0.018507585,0.00013399124,0.0,0.0,0.0,0.0,0.0,0.0
4768000,4688000,-0.018383846,-0.009420268,0.021493353,9.033692e-05,-0.007384815,0.017252326,0.0,0.0,0.0,0.0,0.0,0.0,0.0,0.032580007,0.0,0.0,nan,0.0,0.0,0.0,0.0,-0.0018209219,0.00036461372,-0.0046907216,-0.00016191602,-0.010902416,0.029071853,0.0007548332,0.0,0.0,0.0,0.0,0.0,0.0
4776000,4696000,-0.018383846,-0.009420268,0.021493353,9.033692e-05,-0.007384815,0.017252326,0.0,0.0,0.0,0.0,0.0,0.0,0.0,0.032580007,0.0,0.0,nan,0.0,0.0,0.0,0.0,-0.0018209219,0.00036461372,-0.0046907216,-0.00016191602,-0.016564451,0.009063378,0.00051546097,0.0,0.0,0.0,0.0,0.0,0.0
4784000,4704000,-0.018383846,-0.009420268,0.021493353,9.033692e-05,-0.007384815,0.017252326,0.0,0.0,0.0,0.0,0.0,0.0,0.0,0.032580007,0.0,0.0,nan,0.0,0.0,0.0,0.0,-0.0018209219,0.00036461372,-0.0046907216,-0.00016191602,-0.0157098,0.0016552657,0.00035715103,0.0,0.0,0.0,0.0,0.0,0.0
4792000,4712000,-0.018383846,-0.009420268,0.021493353,9.033692e-05,-0.007384815,0.017252326,0.0,0.0,0.0,0.0,0.0,0.0,0.0,0.032580007,0.0,0.0,nan,0.0,0.0,0.0,0.0,-0.0018209219,0.00036461372,-0.0046907216,-0.00016191602,0.0015556514,0.035334885,0.0005931854,0.0,0.0,0.0,0.0,0.0,0.0
4800000,4720000,-0.018383846,-0.009420268,0.021493353,9.033692e-05,-0.007384815,0.017252326,0.0,0.0,0.0,0.0,0.0,0.0,0.0,0.032580007,0.0,0.0,nan,0.0,0.0,0.0,0.0,-0.0018209219,0.00036461372,-0.0046907216,-0.00016191602,0.030921038,0.03145942,-0.00015163422,0.0,0.0,0.0,0.0,0.0,0.0
4808000,4728000,-0.018383846,-0.009420268,0.021493353,9.033692e-05,-0.007384815,0.017252326,0.0,0.0,0.0,0.0,0.0,0.0,0.0,0.032580007,0.0,0.0,nan,0.0,0.0,0.0,0.0,-0.0018209219,0.00036461372,-0.0046907216,-0.00016191602,0.005046023,0.008933932,5.9127808e-05,0.0,0.0,0.0,0.0,0.0,0.0
4816000,4736000,-0.018383846,-0.009420268,0.021493353,9.033692e-05,-0.007384815,0.017252326,0.0,0.0,0.0,0.0,0.0,0.0,0.0,0.032580007,0.0,0.0,nan,0.0,0.0,0.0,0.0,-0.0018209219,0.00036461372,-0.0046907216,-0.00016191602,-0.007709627,0.021616787,0.0005617142,0.0,0.0,0.0,0.0,0.0,0.0
4824000,4744000,-0.018383846,-0.009420268,0.021493353,9.033692e-05,-0.007384815,0.017252326,0.0,0.0,0.0,0.0,0.0,0.0,0.0,-0.07875548,0.0,0.0,nan,0.0,0.0,0.0,0.0,-0.0018209219,0.00036461372,-0.0046907216,-0.00016191602,0.024869593,0.02513972,-0.00010728836,0.0,0.0,0.0,0.0,0.0,0.0
4832000,4752000,-0.018383846,-0.009420268,0.021493353,9.033692e-05,-0.007384815,0.017252326,0.0,0.0,0.0,0.0,0.0,0.0,0.0,-0.07875548,0.0,0.0,nan,0.0,0.0,0.0,0.0,0.00015211105,-7.31349e-05,0.003658563,-0.0017849505,0.00034411252,0.0012488365,1.6212463e-05,0.0,0.0,0.0,0.0,0.0,0.0
4840000,4760000,-0.018383846,-0.009420268,0.021493353,9.033692e-05,-0.007384815,0.017252326,0.0,0.0,0.0,0.0,0.0,0.0,0.0,-0.07875548,0.0,0.0,nan,0.0,0.0,0.0,0.0,0.00015211105,-7.31349e-05,0.003658563,-0.0017849505,0.03282494,-0.020791322,-0.0011911392,0.0,0.0,0.0,0.0,0.0,0.0
4848000,4768000,-0.018383846,-0.009420268,0.021493353,9.033692e-05,-0.007384815,0.017252326,0.0,0.0,0.0,0.0,0.0,0.0,0.0,-0.07875548,0.0,0.0,nan,0.0,0.0,0.0,0.0,0.00015211105,-7.31349e-05,0.003658563,-0.0017849505,0.006501262,-0.013966158,-0.00042533875,0.0,0.0,0.0,0.0,0.0,0.0
4856000,4776000,-0.018383846,-0.009420268,0.021493353,9.033692e-05,-0.007384815,0.017252326,0.0,0.0,0.0,0.0,0.0,0.0,0.0,-0.07875548,0.0,0.0,nan,0.0,0.0,0.0,0.0,0.00015211105,-7.31349e-05,0.003658563,-0.0017849505,0.015100024,-0.007572025,-0.0004863739,0.0,0.0,0.0,0.0,0.0,0.0
4864000,4784000,-0.018383846,-0.009420268,0.021493353,9.033692e-05,-0.007384815,0.017252326,0.0,0.0,0.0,0.0,0.0,0.0,0.0,-0.07875548,0.0,0.0,nan,0.0,0.0,0.0,0.0,0.00015211105,-7.31349e-05,0.003658563,-0.0017849505,0.007897972,-0.0059795678,-0.00029182434,0.0,0.0,0.0,0.0,0.0,0.0
4872000,4792000,-0.018383846,-0.009420268,0.021493353,9.033692e-05,-0.007384815,0.017252326,0.0,0.0,0.0,0.0,0.0,0.0,0.0,-0.07875548,0.0,0.0,nan,0.0,0.0,0.0,0.0,0.00015211105,-7.31349e-05,0.003658563,-0.0017849505,-0.034847736,-0.0051324517,0.0005836487,0.0,0.0,0.0,0.0,0.0,0.0
4880000,4800000,-0.018383846,-0.009420268,0.021493353,9.033692e-05,-0.007384815,0.017252326,0.0,0.0,0.0,0.0,0.0,0.0,0.0,0.033313718,0.0,0.0,nan,0.0,0.0,0.0,0.0,0.00015211105,-7.31349e-05,0.003658563,-0.0017849505,-0.011429854,0.02305013,0.0006608963,0.0,0.0,0.0,0.0,0.0,0.0
4888000,4808000,-0.018383846,-0.009420268,0.021493353,9.033692e-05,-0.007384815,0.017252326,0.0,0.0,0.0,0.0,0.0,0.0,0.0,0.033313718,0.0,0.0,nan,0.0,0.0,0.0,0.0,0.00015211105,-7.31349e-05,0.003658563,-0.0017849505,0.026249042,0.004134953,-0.0005197525,0.0,0.0,0.0,0.0,0.0,0.0
4896000,4816000,-0.018383846,-0.009420268,0.021493353,9.033692e-05,-0.007384815,0.017252326,0.0,0.0,0.0,0.0,0.0,0.0,0.0,0.033313718,0.0,0.0,nan,0.0,0.0,0.0,0.0,0.00015211105,-7.31349e-05,0.003658563,-0.0017849505,0.05452644,0.015514091,-0.0010313988,0.0,0.0,0.0,0.0,0.0,0.0
4904000,4824000,-0.018383846,-0.009420268,0.021493353,9.033692e-05,-0.007384815,0.017252326,0.0,0.0,0.0,0.0,0.0,0.0,0.0,0.033313718,0.0,0.0,nan,0.0,0.0,0.0,0.0,-0.01510036,0.0031861118,0.006191805,0.0008201301,0.027642911,-0.031481728,-0.0012989044,0.0,0.0,0.0,0.0,0.0,0.0
4912000,4832000,-0.018383846,-0.009420268,0.021493353,9.033692e-05,-0.007384815,0.017252326,0.0,0.0,0.0,0.0,0.0,0.0,0.0,0.033313718,0.0,0.0,nan,0.0,0.0,0.0,0.0,-0.01510036,0.0031861118,0.006191805,0.0008201301,0.0040307622,-0.011714622,-0.00031805038,0.0,0.0,0.0,0.0,0.0,0.0
4920000,4840000,-0.018383846,-0.009420268,0.021493353,9.033692e-05,-0.007384815,0.017252326,0.0,0.0,0.0,0.0,0.0,0.0,0.0,0.033313718,0.0,0.0,nan,0.0,0.0,0.0,0.0,-0.01510036,0.0031861118,0.006191805,0.0008201301,-0.0040109325,0.018633142,0.0004210472,0.0,0.0,0.0,0.0,0.0,0.0
4928000,4848000,-0.018383846,-0.009420268,0.021493353,9.033692e-05,-0.007384815,0.017252326,0.0,0.0,0.0,0.0,0.0,0.0,0.0,0.033313718,0.0,0.0,nan,0.0,0.0,0.0,0.0,-0.01510036,0.0031861118,0.006191805,0.0008201301,-0.019557728,-0.016644537,7.2956085e-05,0.0,0.0,0.0,0.0,0.0,0.0
4936000,4856000,-0.018383846,-0.009420268,0.021493353,9.033692e-05,-0.007384815,0.017252326,0.0,0.0,0.0,0.0,0.0,0.0,0.0,0.033313718,0.0,0.0,nan,0.0,0.0,0.0,0.0,-0.01510036,0.0031861118,0.006191805,0.0008201301,-0.00879517,-0.009504318,-4.7683716e-07,0.0,0.0,0.0,0.0,0.0,0.0
4944000,4864000,-0.018383846,-0.009420268,0.021493353,9.033692e-05,-0.007384815,0.017252326,0.0,0.0,0.0,0.0,0.0,0.0,0.0,0.036270577,0.0,0.0,nan,0.0,0.0,0.0,0.0,-0.01510036,0.0031861118,0.006191805,0.0008201301,0.0019501261,0.009192884,0.00012636185,0.0,0.0,0.0,0.0,0.0,0.0
4952000,4872000,-0.018383846,-0.009420268,0.021493353,9.033692e-05,-0.007384815,0.017252326,0.0,0.0,0.0,0.0,0.0,0.0,0.0,0.036270577,0.0,0.0,nan,0.0,0.0,0.0,0.0,-0.01510036,0.0031861118,0.006191805,0.0008201301,-0.0061545353,0.01524581,0.00040483475,0.0,0.0,0.0,0.0,0.0,0.0
4960000,4880000,-0.018383846,-0.009420268,0.021493353,9.033692e-05,-0.007384815,0.017252326,0.0,0.0,0.0,0.0,0.0,0.0,0.0,0.036270577,0.0,0.0,nan,0.0,0.0,0.0,0.0,-0.01510036,0.0031861118,0.006191805,0.0008201301,0.01619,0.019656956,-1.0967255e-05,0.0,0.0,0.0,0.0,0.0,0.0
4968000,4888000,-0.018383846,-0.009420268,0.021493353,9.033692e-05,-0.007384815,0.017252326,0.0,0.0,0.0,0.0,0.0,0.0,0.0,0.036270577,0.0,0.0,nan,0.0,0.0,0.0,0.0,-0.01510036,0.0031861118,0.006191805,0.0008201301,-0.008610453,0.010857642,0.00037908554,0.0,0.0,0.0,0.0,0.0,0.0
4976000,4896000,-0.018383846,-0.009420268,0.021493353,9.033692e-05,-0.007384815,0.017252326,0.0,0.0,0.0,0.0,0.0,0.0,0.0,0.036270577,0.0,0.0,nan,0.0,0.0,0.0,0.0,-0.0037093163,0.0007937839,0.0047875494,0.00084120035,0.010074625,-0.008392751,-0.00038290024,0.0,0.0,0.0,0.0,0.0,0.0
4984000,4904000,-0.018383846,-0.009420268,0.021493353,9.033692e-05,-0.007384815,0.017252326,0.0,0.0,0.0,0.0,0.0,0.0,0.0,0.036270577,0.0,0.0,nan,0.0,0.0,0.0,0.0,-0.0037093163,0.0007937839,0.0047875494,0.00084120035,0.008113237,-0.012354612,-0.0004181862,0.0,0.0,0.0,0.0,0.0,0.0
4992000,4912000,-0.018383846,-0.009420268,0.021493353,9.033692e-05,-0.007384815,0.017252326,0.0,0.0,0.0,0.0,0.0,0.0,0.0,0.036270577,0.0,0.0,nan,0.0,0.0,0.0,0.0,-0.0037093163,0.0007937839,0.0047875494,0.00084120035,-0.0018181708,0.0154988915,0.00031852722,0.0,0.0,0.0,0.0,0.0,0.0
5000000,4920000,-0.018383846,-0.009420268,0.021493353,9.033692e-05,-0.007384815,0.017252326,0.0,0.0,0.0,0.0,0.0,0.0,0.0,-0.07937851,0.0,0.0,nan,0.0,0.0,0.0,0.0,-0.0037093163,0.0007937839,0.0047875494,0.00084120035,-0.020315746,-0.016970411,8.1539154e-05,0.0,0.0,0.0,0.0,0.0,0.0
