timestamp,timestamp_sample,xyz[0],xyz[1],xyz[2],xyz_derivative[0],xyz_derivative[1],xyz_derivative[2]
3264000,0,6.3905645e-05,7.5069154e-05,7.4368236e-09,0.0,0.0,0.0
3268000,0,6.390567e-05,7.5069154e-05,7.4241844e-09,0.0,0.0,0.0
3276000,0,6.3905696e-05,7.506914e-05,7.398903e-09,0.0,0.0,0.0
3284000,0,6.3905725e-05,7.506913e-05,7.373621e-09,0.0,0.0,0.0
3296000,0,6.390577e-05,7.506911e-05,7.3357e-09,0.0,0.0,0.0
3304000,0,6.39058e-05,7.50691e-05,7.3104185e-09,0.0,0.0,0.0
3316000,0,6.390585e-05,7.506909e-05,7.272497e-09,0.0,0.0,0.0
3324000,0,6.390588e-05,7.5069074e-05,7.2472157e-09,0.0,0.0,0.0
3336000,0,6.390593e-05,7.506906e-05,7.209294e-09,0.0,0.0,0.0
3344000,0,6.390596e-05,7.5069045e-05,7.184013e-09,0.0,0.0,0.0
3356000,0,6.3906e-05,7.506903e-05,7.1460913e-09,0.0,0.0,0.0
3364000,0,6.390604e-05,7.506902e-05,7.12081e-09,0.0,0.0,0.0
3376000,0,6.390608e-05,7.506901e-05,7.0828885e-09,0.0,0.0,0.0
3384000,0,6.390611e-05,7.5068994e-05,7.0576074e-09,0.0,0.0,0.0
3396000,0,6.390616e-05,7.506898e-05,7.0196857e-09,0.0,0.0,0.0
3404000,0,6.39062e-05,7.506897e-05,6.9944064e-09,0.0,0.0,0.0
3416000,0,6.390624e-05,7.506895e-05,6.956483e-09,0.0,0.0,0.0
3424000,0,6.390628e-05,7.506894e-05,6.9312036e-09,0.0,0.0,0.0
3436000,0,6.3906315e-05,7.506892e-05,6.89328e-09,0.0,0.0,0.0
3444000,0,6.390636e-05,7.5068914e-05,6.868001e-09,0.0,0.0,0.0
3456000,0,6.3906395e-05,7.50689e-05,6.830078e-09,0.0,0.0,0.0
3464000,0,6.390643e-05,7.5068885e-05,6.804798e-09,0.0,0.0,0.0
3476000,0,6.3906475e-05,7.506887e-05,6.766875e-09,0.0,0.0,0.0
3484000,0,6.390651e-05,7.506886e-05,6.7415953e-09,0.0,0.0,0.0
3496000,0,6.3906555e-05,7.506884e-05,6.7036723e-09,0.0,0.0,0.0
3504000,0,6.390659e-05,7.5068834e-05,6.6783925e-09,0.0,0.0,0.0
3516000,0,6.3906635e-05,7.506882e-05,6.640471e-09,0.0,0.0,0.0
3524000,0,6.390667e-05,7.5068805e-05,6.6151897e-09,0.0,0.0,0.0
3536000,0,6.3906715e-05,7.506879e-05,6.577268e-09,0.0,0.0,0.0
3544000,0,6.3906744e-05,7.5068776e-05,6.551987e-09,0.0,0.0,0.0
3556000,0,6.3906795e-05,7.506876e-05,6.5140653e-09,0.0,0.0,0.0
3564000,0,6.3906824e-05,7.5068754e-05,6.488784e-09,0.0,0.0,0.0
3576000,0,6.3906875e-05,7.506874e-05,6.4508625e-09,0.0,0.0,0.0
3584000,0,6.3906904e-05,7.5068725e-05,6.4255814e-09,0.0,0.0,0.0
3596000,0,6.390695e-05,7.506871e-05,6.3876597e-09,0.0,0.0,0.0
3604000,0,6.390698e-05,7.5068696e-05,6.3623777e-09,0.0,0.0,0.0
3616000,0,6.390703e-05,7.506868e-05,6.324457e-09,0.0,0.0,0.0
3624000,0,6.390706e-05,7.506867e-05,6.299175e-09,0.0,0.0,0.0
3636000,0,6.390711e-05,7.506865e-05,6.261254e-09,0.0,0.0,0.0
3644000,0,6.390714e-05,7.5068645e-05,6.235972e-09,0.0,0.0,0.0
3656000,0,6.390719e-05,7.506863e-05,6.1980514e-09,0.0,0.0,0.0
3664000,0,6.390721e-05,7.5068616e-05,6.1727694e-09,0.0,0.0,0.0
3676000,0,6.390726e-05,7.50686e-05,6.1348486e-09,0.0,0.0,0.0
3684000,0,6.390729e-05,7.506859e-05,6.1095666e-09,0.0,0.0,0.0
3696000,0,6.390734e-05,7.506857e-05,6.071646e-09,0.0,0.0,0.0
3704000,0,6.390737e-05,7.5068565e-05,6.046364e-09,0.0,0.0,0.0
3716000,0,6.390741e-05,7.506854e-05,6.008442e-09,0.0,0.0,0.0
3724000,0,6.390744e-05,7.5068536e-05,5.9831606e-09,0.0,0.0,0.0
3736000,0,6.390749e-05,7.506852e-05,5.9452394e-09,0.0,0.0,0.0
3744000,0,6.390752e-05,7.506851e-05,5.919958e-09,0.0,0.0,0.0
3756000,0,6.390757e-05,7.506849e-05,5.8820366e-09,0.0,0.0,0.0
3764000,0,6.39076e-05,7.506848e-05,5.856755e-09,0.0,0.0,0.0
3776000,0,6.390765e-05,7.506846e-05,5.818834e-09,0.0,0.0,0.0
3784000,0,6.3907675e-05,7.5068456e-05,5.7935523e-09,0.0,0.0,0.0
3796000,0,6.3907726e-05,7.5068434e-05,5.755631e-09,0.0,0.0,0.0
3804000,0,6.3907755e-05,7.506843e-05,5.7303495e-09,0.0,0.0,0.0
3816000,0,6.3907806e-05,7.506841e-05,5.692428e-09,0.0,0.0,0.0
3824000,0,6.3907835e-05,7.50684e-05,5.6671468e-09,0.0,0.0,0.0
3836000,0,6.390788e-05,7.506838e-05,5.629225e-09,0.0,0.0,0.0
3844000,0,6.3907915e-05,7.506837e-05,5.603944e-09,0.0,0.0,0.0
3856000,0,6.390796e-05,7.5068354e-05,5.5660223e-09,0.0,0.0,0.0
3864000,0,6.390799e-05,7.506835e-05,5.540741e-09,0.0,0.0,0.0
3876000,0,6.390804e-05,7.5068325e-05,5.5028195e-09,0.0,0.0,0.0
3884000,0,6.390807e-05,7.506832e-05,5.4775384e-09,0.0,0.0,0.0
3896000,0,6.390812e-05,7.50683e-05,5.4396168e-09,0.0,0.0,0.0
3904000,0,6.390815e-05,7.506829e-05,5.4143356e-09,0.0,0.0,0.0
3916000,0,6.390819e-05,7.5068274e-05,5.3764135e-09,0.0,0.0,0.0
3924000,0,6.3908235e-05,7.506827e-05,5.351134e-09,0.0,0.0,0.0
3936000,0,6.390827e-05,7.5068245e-05,5.3132108e-09,0.0,0.0,0.0
3944000,0,6.390831e-05,7.506824e-05,5.287931e-09,0.0,0.0,0.0
3956000,0,6.390835e-05,7.5068216e-05,5.250008e-09,0.0,0.0,0.0
3964000,0,6.390839e-05,7.506821e-05,5.224728e-09,0.0,0.0,0.0
3976000,0,6.390843e-05,7.5068194e-05,5.186805e-09,0.0,0.0,0.0
3984000,0,6.390847e-05,7.506818e-05,5.1615254e-09,0.0,0.0,0.0
3996000,0,6.3908505e-05,7.5068165e-05,5.1236024e-09,0.0,0.0,0.0
4004000,0,6.390855e-05,7.506816e-05,5.0983227e-09,0.0,0.0,0.0
4016000,0,6.390859e-05,7.5068136e-05,5.060401e-09,0.0,0.0,0.0
4024000,0,6.390862e-05,7.506813e-05,5.03512e-09,0.0,0.0,0.0
4036000,0,6.390867e-05,7.5068114e-05,4.997198e-09,0.0,0.0,0.0
4044000,0,6.39087e-05,7.50681e-05,4.971917e-09,0.0,0.0,0.0
4056000,0,6.390875e-05,7.5068085e-05,4.9339954e-09,0.0,0.0,0.0
4064000,0,6.390878e-05,7.506807e-05,4.908714e-09,0.0,0.0,0.0
4076000,0,6.3908825e-05,7.5068056e-05,4.8707927e-09,0.0,0.0,0.0
4084000,0,6.390886e-05,7.506805e-05,4.845511e-09,0.0,0.0,0.0
4096000,0,6.3908905e-05,7.5068034e-05,4.8075894e-09,0.0,0.0,0.0
4104000,0,6.3908934e-05,7.506802e-05,4.782308e-09,0.0,0.0,0.0
4116000,0,6.3908985e-05,7.5068005e-05,4.7443867e-09,0.0,0.0,0.0
4124000,0,6.390901e-05,7.506799e-05,4.7191047e-09,0.0,0.0,0.0
4136000,0,6.390906e-05,7.5067976e-05,4.681184e-09,0.0,0.0,0.0
4144000,0,6.390909e-05,7.506796e-05,4.655902e-09,0.0,0.0,0.0
4156000,0,6.390914e-05,7.506795e-05,4.617981e-09,0.0,0.0,0.0
4164000,0,6.390917e-05,7.506794e-05,4.592699e-09,0.0,0.0,0.0
4176000,0,6.390922e-05,7.5067925e-05,4.5547783e-09,0.0,0.0,0.0
4184000,0,6.390925e-05,7.506791e-05,4.5294963e-09,0.0,0.0,0.0
4196000,0,6.39093e-05,7.5067896e-05,4.491575e-09,0.0,0.0,0.0
4204000,0,6.390932e-05,7.506788e-05,4.4662936e-09,0.0,0.0,0.0
4216000,0,6.390937e-05,7.506787e-05,4.428372e-09,0.0,0.0,0.0
4224000,0,6.39094e-05,7.506785e-05,4.40309e-09,0.0,0.0,0.0
4236000,0,6.390945e-05,7.506784e-05,4.3651687e-09,0.0,0.0,0.0
4244000,0,6.390948e-05,7.506783e-05,4.339887e-09,0.0,0.0,0.0
4256000,0,6.390952e-05,7.506781e-05,4.301966e-09,0.0,0.0,0.0
4264000,0,6.390955e-05,7.50678e-05,4.2766843e-09,0.0,0.0,0.0
4276000,0,6.39096e-05,7.506779e-05,4.238763e-09,0.0,0.0,0.0
4284000,0,6.390963e-05,7.506777e-05,4.213481e-09,0.0,0.0,0.0
4296000,0,6.390968e-05,7.506776e-05,4.1755603e-09,0.0,0.0,0.0
4304000,0,6.390971e-05,7.506774e-05,4.1502783e-09,0.0,0.0,0.0
4316000,0,6.3909756e-05,7.506773e-05,4.1123567e-09,0.0,0.0,0.0
4324000,0,6.3909785e-05,7.506772e-05,4.0870756e-09,0.0,0.0,0.0
4336000,0,6.3909836e-05,7.50677e-05,4.049154e-09,0.0,0.0,0.0
4344000,0,6.3909865e-05,7.506769e-05,4.023873e-09,0.0,0.0,0.0
4356000,0,6.3909916e-05,7.506768e-05,3.985951e-09,0.0,0.0,0.0
4364000,0,6.3909945e-05,7.506766e-05,3.96067e-09,0.0,0.0,0.0
4376000,0,6.390999e-05,7.506765e-05,3.922748e-09,0.0,0.0,0.0
4384000,0,6.3910025e-05,7.506763e-05,3.897467e-09,0.0,0.0,0.0
4396000,0,6.391007e-05,7.506762e-05,3.859545e-09,0.0,0.0,0.0
4404000,0,6.39101e-05,7.506761e-05,3.834264e-09,0.0,0.0,0.0
4416000,0,6.391015e-05,7.506759e-05,3.7963424e-09,0.0,0.0,0.0
4424000,0,6.3910185e-05,7.506758e-05,3.7710626e-09,0.0,0.0,0.0
4436000,0,6.391023e-05,7.506757e-05,3.7331396e-09,0.0,0.0,0.0
4444000,0,6.3910265e-05,7.506755e-05,3.7078596e-09,0.0,0.0,0.0
4456000,0,6.39103e-05,7.506754e-05,3.6699366e-09,0.0,0.0,0.0
4464000,0,6.3910345e-05,7.506753e-05,3.6446566e-09,0.0,0.0,0.0
4476000,0,6.391038e-05,7.506751e-05,3.6067336e-09,0.0,0.0,0.0
4484000,0,6.391042e-05,7.50675e-05,3.5814538e-09,0.0,0.0,0.0
4496000,0,6.391046e-05,7.506748e-05,3.5435306e-09,0.0,0.0,0.0
4504000,0,6.39105e-05,7.506747e-05,3.5182508e-09,0.0,0.0,0.0
4516000,0,6.391054e-05,7.506746e-05,3.4803291e-09,0.0,0.0,0.0
4524000,0,6.391058e-05,7.5067444e-05,3.4550478e-09,0.0,0.0,0.0
4536000,0,6.391062e-05,7.506743e-05,3.4171261e-09,0.0,0.0,0.0
4544000,0,6.391065e-05,7.506742e-05,3.3918448e-09,0.0,0.0,0.0
4556000,0,6.39107e-05,7.50674e-05,3.3539231e-09,0.0,0.0,0.0
4564000,0,6.391073e-05,7.506739e-05,3.328642e-09,0.0,0.0,0.0
4576000,0,6.391078e-05,7.506738e-05,3.2907204e-09,0.0,0.0,0.0
4584000,0,6.391081e-05,7.5067364e-05,3.265439e-09,0.0,0.0,0.0
4596000,0,6.3910855e-05,7.506735e-05,3.2275174e-09,0.0,0.0,0.0
4604000,0,6.391089e-05,7.5067335e-05,3.202236e-09,0.0,0.0,0.0
4616000,0,6.3910935e-05,7.506732e-05,3.1643144e-09,0.0,0.0,0.0
4624000,0,6.3910964e-05,7.506731e-05,3.1390326e-09,0.0,0.0,0.0
4636000,0,6.3911015e-05,7.506729e-05,3.1011114e-09,0.0,0.0,0.0
4644000,0,6.391104e-05,7.5067284e-05,3.0758296e-09,0.0,0.0,0.0
4656000,0,6.391109e-05,7.506727e-05,3.0379086e-09,0.0,0.0,0.0
4664000,0,6.391112e-05,7.5067255e-05,3.0126266e-09,0.0,0.0,0.0
4676000,0,6.391117e-05,7.506724e-05,2.9747056e-09,0.0,0.0,0.0
4684000,0,6.39112e-05,7.5067226e-05,2.9494238e-09,0.0,0.0,0.0
4696000,0,6.391125e-05,7.506721e-05,2.9115026e-09,0.0,0.0,0.0
4704000,0,6.391128e-05,7.5067204e-05,2.8862208e-09,0.0,0.0,0.0
4716000,0,6.391132e-05,7.506718e-05,2.848299e-09,0.0,0.0,0.0
4724000,0,6.391135e-05,7.5067175e-05,2.8230174e-09,0.0,0.0,0.0
4736000,0,6.39114e-05,7.506716e-05,2.7850962e-09,0.0,0.0,0.0
4744000,0,6.391143e-05,7.5067146e-05,2.7598144e-09,0.0,0.0,0.0
4756000,0,6.391148e-05,7.506713e-05,2.7218932e-09,0.0,0.0,0.0
4764000,0,6.39115e-05,7.506712e-05,2.6966114e-09,0.0,0.0,0.0
4776000,0,6.391155e-05,7.50671e-05,2.6586902e-09,0.0,0.0,0.0
4784000,0,6.391158e-05,7.5067095e-05,2.6334084e-09,0.0,0.0,0.0
4796000,0,6.391163e-05,7.506707e-05,2.5954872e-09,0.0,0.0,0.0
4804000,0,6.391166e-05,7.5067066e-05,2.5702054e-09,0.0,0.0,0.0
4816000,0,6.3911706e-05,7.506705e-05,2.5322837e-09,0.0,0.0,0.0
4824000,0,6.391174e-05,7.506704e-05,2.5070026e-09,0.0,0.0,0.0
4836000,0,6.3911786e-05,7.506702e-05,2.4690807e-09,0.0,0.0,0.0
4844000,0,6.3911815e-05,7.506701e-05,2.4437996e-09,0.0,0.0,0.0
4856000,0,6.3911866e-05,7.506699e-05,2.4058777e-09,0.0,0.0,0.0
4864000,0,6.3911895e-05,7.5066986e-05,2.3805966e-09,0.0,0.0,0.0
4876000,0,6.391194e-05,7.5066964e-05,2.3426747e-09,0.0,0.0,0.0
4884000,0,6.3911975e-05,7.506696e-05,2.3173936e-09,0.0,0.0,0.0
4896000,0,6.391202e-05,7.506694e-05,2.279472e-09,0.0,0.0,0.0
4904000,0,6.391205e-05,7.506693e-05,2.2541906e-09,0.0,0.0,0.0
4916000,0,6.39121e-05,7.506691e-05,2.216269e-09,0.0,0.0,0.0
4924000,0,6.3912135e-05,7.50669e-05,2.190989e-09,0.0,0.0,0.0
4936000,0,6.391218e-05,7.5066884e-05,2.153066e-09,0.0,0.0,0.0
4944000,0,6.3912215e-05,7.506688e-05,2.127786e-09,0.0,0.0,0.0
4956000,0,6.391225e-05,7.5066855e-05,2.089863e-09,0.0,0.0,0.0
4964000,0,6.3912295e-05,7.506685e-05,2.064583e-09,0.0,0.0,0.0
4976000,0,6.391233e-05,7.506683e-05,2.02666e-09,0.0,0.0,0.0
4984000,0,6.391237e-05,7.506682e-05,2.00138e-09,0.0,0.0,0.0
4996000,0,6.391241e-05,7.5066804e-05,1.963457e-09,0.0,0.0,0.0
5004000,0,6.391245e-05,7.506679e-05,1.938177e-09,0.0,0.0,0.0
5016000,0,6.391249e-05,7.5066775e-05,1.9002553e-09,0.0,0.0,0.0
5024000,0,6.391253e-05,7.506677e-05,1.874974e-09,0.0,0.0,0.0
5036000,0,6.391257e-05,7.5066746e-05,1.8370523e-09,0.0,0.0,0.0
5044000,0,6.39126e-05,7.506674e-05,1.811771e-09,0.0,0.0,0.0
5056000,0,6.391265e-05,7.5066724e-05,1.7738493e-09,0.0,0.0,0.0
5064000,0,6.391268e-05,7.506671e-05,1.748568e-09,0.0,0.0,0.0
5076000,0,6.391273e-05,7.5066695e-05,1.7106463e-09,0.0,0.0,0.0
5084000,0,6.391276e-05,7.506668e-05,1.685365e-09,0.0,0.0,0.0
5096000,0,6.3912805e-05,7.5066666e-05,1.6474433e-09,0.0,0.0,0.0
5104000,0,6.391284e-05,7.506666e-05,1.622162e-09,0.0,0.0,0.0
5116000,0,6.3912885e-05,7.506664e-05,1.5842403e-09,0.0,0.0,0.0
5124000,0,6.3912914e-05,7.506663e-05,1.5589584e-09,0.0,0.0,0.0
5136000,0,6.3912965e-05,7.5066615e-05,1.5210372e-09,0.0,0.0,0.0
5144000,0,6.391299e-05,7.50666e-05,1.4957554e-09,0.0,0.0,0.0
5156000,0,6.391304e-05,7.5066586e-05,1.4578342e-09,0.0,0.0,0.0
5164000,0,6.391307e-05,7.506657e-05,1.4325523e-09,0.0,0.0,0.0
5176000,0,6.391312e-05,7.506656e-05,1.3946312e-09,0.0,0.0,0.0
5184000,0,6.391315e-05,7.506655e-05,1.3693493e-09,0.0,0.0,0.0
5196000,0,6.39132e-05,7.506653e-05,1.3314282e-09,0.0,0.0,0.0
5204000,0,6.391323e-05,7.506652e-05,1.3061463e-09,0.0,0.0,0.0
5216000,0,6.391327e-05,7.5066506e-05,1.2682245e-09,0.0,0.0,0.0
5224000,0,6.39133e-05,7.506649e-05,1.2429427e-09,0.0,0.0,0.0
5236000,0,6.391335e-05,7.506648e-05,1.2050215e-09,0.0,0.0,0.0
5244000,0,6.391338e-05,7.506646e-05,1.1797398e-09,0.0,0.0,0.0
5256000,0,6.391342e-05,7.506645e-05,1.1418185e-09,0.0,0.0,0.0
5264000,0,6.391345e-05,7.506643e-05,1.1165368e-09,0.0,0.0,0.0
5276000,0,6.39135e-05,7.506642e-05,1.0786154e-09,0.0,0.0,0.0
5284000,0,6.391353e-05,7.506641e-05,1.0533338e-09,0.0,0.0,0.0
5296000,0,6.391358e-05,7.506639e-05,1.0154124e-09,0.0,0.0,0.0
5304000,0,6.391361e-05,7.506638e-05,9.901308e-10,0.0,0.0,0.0
5316000,0,6.3913656e-05,7.506637e-05,9.522094e-10,0.0,0.0,0.0
5324000,0,6.3913685e-05,7.506635e-05,9.269277e-10,0.0,0.0,0.0
5336000,0,6.3913736e-05,7.506634e-05,8.8900587e-10,0.0,0.0,0.0
5344000,0,6.3913765e-05,7.5066324e-05,8.6372465e-10,0.0,0.0,0.0
5356000,0,6.391381e-05,7.506631e-05,8.2580287e-10,0.0,0.0,0.0
5364000,0,6.3913845e-05,7.50663e-05,8.0052165e-10,0.0,0.0,0.0
5376000,0,6.391389e-05,7.506628e-05,7.625998e-10,0.0,0.0,0.0
5384000,0,6.391392e-05,7.506627e-05,7.373186e-10,0.0,0.0,0.0
5396000,0,6.391397e-05,7.506626e-05,6.9939676e-10,0.0,0.0,0.0
5404000,0,6.3914e-05,7.5066244e-05,6.7411554e-10,0.0,0.0,0.0
5416000,0,6.391405e-05,7.506623e-05,6.3619376e-10,0.0,0.0,0.0
5424000,0,6.3914085e-05,7.506622e-05,6.109137e-10,0.0,0.0,0.0
5436000,0,6.391412e-05,7.50662e-05,5.729907e-10,0.0,0.0,0.0
5444000,0,6.3914165e-05,7.506619e-05,5.4771065e-10,0.0,0.0,0.0
5456000,0,6.39142e-05,7.506617e-05,5.0978766e-10,0.0,0.0,0.0
5464000,0,6.391424e-05,7.5066164e-05,4.845076e-10,0.0,0.0,0.0
5476000,0,6.391428e-05,7.506615e-05,4.465846e-10,0.0,0.0,0.0
5484000,0,6.391432e-05,7.5066135e-05,4.2130457e-10,0.0,0.0,0.0
5496000,0,6.3914355e-05,7.506612e-05,3.8338158e-10,0.0,0.0,0.0
5504000,0,6.39144e-05,7.5066106e-05,3.5810152e-10,0.0,0.0,0.0
5516000,0,6.391444e-05,7.506609e-05,3.201797e-10,0.0,0.0,0.0
5524000,0,6.391447e-05,7.5066084e-05,2.948984e-10,0.0,0.0,0.0
5536000,0,6.391452e-05,7.506606e-05,2.5697663e-10,0.0,0.0,0.0
5544000,0,6.391455e-05,7.5066055e-05,2.3169537e-10,0.0,0.0,0.0
5556000,0,6.3914595e-05,7.506604e-05,1.9377358e-10,0.0,0.0,0.0
5564000,0,6.391463e-05,7.5066026e-05,1.684923e-10,0.0,0.0,0.0
5576000,0,6.3914675e-05,7.506601e-05,1.3057053e-10,0.0,0.0,0.0
5584000,0,6.3914704e-05,7.5066e-05,1.0528925e-10,0.0,0.0,0.0
5596000,0,6.3914755e-05,7.506598e-05,6.7367466e-11,0.0,0.0,0.0
5604000,0,6.3914784e-05,7.5065975e-05,4.208619e-11,0.0,0.0,0.0
5616000,0,6.3914835e-05,7.506595e-05,4.164402e-12,0.0,0.0,0.0
5624000,0,6.391486e-05,7.5065946e-05,-2.1117481e-11,0.0,0.0,0.0
5636000,0,6.391491e-05,7.506593e-05,-5.903872e-11,0.0,0.0,0.0
5644000,0,6.391494e-05,7.506592e-05,-8.4320544e-11,0.0,0.0,0.0
5656000,0,6.391499e-05,7.50659e-05,-1.2224179e-10,0.0,0.0,0.0
5664000,0,6.391502e-05,7.506589e-05,-1.4752362e-10,0.0,0.0,0.0
5676000,0,6.391507e-05,7.506587e-05,-1.8544485e-10,0.0,0.0,0.0
5684000,0,6.391509e-05,7.506586e-05,-2.1072669e-10,0.0,0.0,0.0
5696000,0,6.391514e-05,7.5065844e-05,-2.4864794e-10,0.0,0.0,0.0
5704000,0,6.391517e-05,7.506584e-05,-2.7392977e-10,0.0,0.0,0.0
5716000,0,6.391521e-05,7.5065815e-05,-3.118516e-10,0.0,0.0,0.0
5724000,0,6.391524e-05,7.506581e-05,-3.3713335e-10,0.0,0.0,0.0
5736000,0,6.391529e-05,7.506579e-05,-3.7505468e-10,0.0,0.0,0.0
5744000,0,6.391532e-05,7.506578e-05,-4.003364e-10,0.0,0.0,0.0
5756000,0,6.391537e-05,7.5065764e-05,-4.3825776e-10,0.0,0.0,0.0
5764000,0,6.39154e-05,7.506575e-05,-4.6353948e-10,0.0,0.0,0.0
5776000,0,6.391545e-05,7.5065735e-05,-5.014608e-10,0.0,0.0,0.0
5784000,0,6.3915475e-05,7.506573e-05,-5.267426e-10,0.0,0.0,0.0
5796000,0,6.3915526e-05,7.5065705e-05,-5.646639e-10,0.0,0.0,0.0
5804000,0,6.3915555e-05,7.50657e-05,-5.8994565e-10,0.0,0.0,0.0
5816000,0,6.3915606e-05,7.506568e-05,-6.27867e-10,0.0,0.0,0.0
5824000,0,6.3915635e-05,7.506567e-05,-6.5314876e-10,0.0,0.0,0.0
5836000,0,6.391568e-05,7.5065655e-05,-6.910706e-10,0.0,0.0,0.0
5844000,0,6.391571e-05,7.506564e-05,-7.163518e-10,0.0,0.0,0.0
5856000,0,6.391576e-05,7.5065625e-05,-7.542737e-10,0.0,0.0,0.0
5864000,0,6.391579e-05,7.506561e-05,-7.795549e-10,0.0,0.0,0.0
5876000,0,6.391584e-05,7.5065596e-05,-8.1747675e-10,0.0,0.0,0.0
5884000,0,6.391587e-05,7.506559e-05,-8.4275803e-10,0.0,0.0,0.0
5896000,0,6.391591e-05,7.506557e-05,-8.8067986e-10,0.0,0.0,0.0
5904000,0,6.391595e-05,7.506556e-05,-9.059611e-10,0.0,0.0,0.0
5916000,0,6.391599e-05,7.5065545e-05,-9.43883e-10,0.0,0.0,0.0
5924000,0,6.391603e-05,7.506553e-05,-9.691631e-10,0.0,0.0,0.0
5936000,0,6.391607e-05,7.5065516e-05,-1.0070861e-09,0.0,0.0,0.0
5944000,0,6.391611e-05,7.506551e-05,-1.0323662e-09,0.0,0.0,0.0
5956000,0,6.3916144e-05,7.506549e-05,-1.0702892e-09,0.0,0.0,0.0
5964000,0,6.391619e-05,7.506548e-05,-1.0955693e-09,0.0,0.0,0.0
5976000,0,6.3916224e-05,7.506546e-05,-1.1334923e-09,0.0,0.0,0.0
5984000,0,6.391626e-05,7.506545e-05,-1.1587724e-09,0.0,0.0,0.0
5996000,0,6.3916304e-05,7.5065436e-05,-1.1966954e-09,0.0,0.0,0.0
6004000,0,6.391634e-05,7.506542e-05,-1.2219755e-09,0.0,0.0,0.0
6016000,0,6.3916385e-05,7.506541e-05,-1.2598974e-09,0.0,0.0,0.0
6024000,0,6.391642e-05,7.506539e-05,-1.2851786e-09,0.0,0.0,0.0
6036000,0,6.3916465e-05,7.506538e-05,-1.3231005e-09,0.0,0.0,0.0
6044000,0,6.3916494e-05,7.506537e-05,-1.3483817e-09,0.0,0.0,0.0
6056000,0,6.3916545e-05,7.506535e-05,-1.3863036e-09,0.0,0.0,0.0
6064000,0,6.3916574e-05,7.506534e-05,-1.4115848e-09,0.0,0.0,0.0
6076000,0,6.391662e-05,7.506533e-05,-1.4495067e-09,0.0,0.0,0.0
6084000,0,6.3916654e-05,7.506531e-05,-1.474788e-09,0.0,0.0,0.0
6096000,0,6.39167e-05,7.50653e-05,-1.5127098e-09,0.0,0.0,0.0
6104000,0,6.391673e-05,7.506528e-05,-1.5379911e-09,0.0,0.0,0.0
6116000,0,6.391678e-05,7.506527e-05,-1.575913e-09,0.0,0.0,0.0
6124000,0,6.39168e-05,7.5065254e-05,-1.6011948e-09,0.0,0.0,0.0
6136000,0,6.391685e-05,7.506524e-05,-1.6391161e-09,0.0,0.0,0.0
6144000,0,6.391688e-05,7.506523e-05,-1.664398e-09,0.0,0.0,0.0
6156000,0,6.391693e-05,7.506522e-05,-1.7023193e-09,0.0,0.0,0.0
6164000,0,6.391696e-05,7.50652e-05,-1.7276011e-09,0.0,0.0,0.0
6176000,0,6.391701e-05,7.506519e-05,-1.7655224e-09,0.0,0.0,0.0
6184000,0,6.391703e-05,7.5065174e-05,-1.7908042e-09,0.0,0.0,0.0
6196000,0,6.391708e-05,7.506516e-05,-1.8287255e-09,0.0,0.0,0.0
6204000,0,6.391711e-05,7.5065145e-05,-1.8540073e-09,0.0,0.0,0.0
6216000,0,6.391716e-05,7.506513e-05,-1.8919293e-09,0.0,0.0,0.0
6224000,0,6.3917185e-05,7.506512e-05,-1.9172108e-09,0.0,0.0,0.0
6236000,0,6.3917236e-05,7.50651e-05,-1.9551323e-09,0.0,0.0,0.0
6244000,0,6.3917265e-05,7.5065094e-05,-1.980414e-09,0.0,0.0,0.0
6256000,0,6.3917316e-05,7.506508e-05,-2.0183355e-09,0.0,0.0,0.0
6264000,0,6.3917345e-05,7.5065065e-05,-2.0436173e-09,0.0,0.0,0.0
6276000,0,6.3917396e-05,7.506505e-05,-2.0815385e-09,0.0,0.0,0.0
6284000,0,6.391742e-05,7.5065036e-05,-2.1068203e-09,0.0,0.0,0.0
6296000,0,6.391747e-05,7.506502e-05,-2.1447417e-09,0.0,0.0,0.0
6304000,0,6.39175e-05,7.506501e-05,-2.1700235e-09,0.0,0.0,0.0
6316000,0,6.391755e-05,7.506499e-05,-2.207945e-09,0.0,0.0,0.0
6324000,0,6.391758e-05,7.5064985e-05,-2.2332265e-09,0.0,0.0,0.0
6336000,0,6.391762e-05,7.506496e-05,-2.2711484e-09,0.0,0.0,0.0
6344000,0,6.391766e-05,7.5064956e-05,-2.2964297e-09,0.0,0.0,0.0
6356000,0,6.39177e-05,7.506494e-05,-2.3343516e-09,0.0,0.0,0.0
6364000,0,6.391773e-05,7.506493e-05,-2.359633e-09,0.0,0.0,0.0
6376000,0,6.391778e-05,7.506491e-05,-2.3975548e-09,0.0,0.0,0.0
6384000,0,6.391781e-05,7.50649e-05,-2.422836e-09,0.0,0.0,0.0
6396000,0,6.3917854e-05,7.506488e-05,-2.4607578e-09,0.0,0.0,0.0
6404000,0,6.391789e-05,7.506487e-05,-2.4860392e-09,0.0,0.0,0.0
6416000,0,6.3917934e-05,7.5064854e-05,-2.523961e-09,0.0,0.0,0.0
6424000,0,6.391797e-05,7.506485e-05,-2.5492413e-09,0.0,0.0,0.0
6436000,0,6.3918014e-05,7.5064825e-05,-2.5871643e-09,0.0,0.0,0.0
6444000,0,6.391805e-05,7.506482e-05,-2.6124445e-09,0.0,0.0,0.0
6456000,0,6.391809e-05,7.50648e-05,-2.6503673e-09,0.0,0.0,0.0
6464000,0,6.391813e-05,7.506479e-05,-2.6756475e-09,0.0,0.0,0.0
6476000,0,6.391817e-05,7.5064774e-05,-2.7135705e-09,0.0,0.0,0.0
6484000,0,6.39182e-05,7.506477e-05,-2.7388507e-09,0.0,0.0,0.0
6496000,0,6.391825e-05,7.5064745e-05,-2.7767737e-09,0.0,0.0,0.0
6504000,0,6.391828e-05,7.506474e-05,-2.802054e-09,0.0,0.0,0.0
6516000,0,6.391833e-05,7.506472e-05,-2.8399758e-09,0.0,0.0,0.0
6524000,0,6.3918356e-05,7.506471e-05,-2.8652571e-09,0.0,0.0,0.0
6536000,0,6.391841e-05,7.5064694e-05,-2.903179e-09,0.0,0.0,0.0
6544000,0,6.3918436e-05,7.506468e-05,-2.9284604e-09,0.0,0.0,0.0
6556000,0,6.391849e-05,7.5064665e-05,-2.966382e-09,0.0,0.0,0.0
6564000,0,6.391852e-05,7.506465e-05,-2.9916634e-09,0.0,0.0,0.0
6576000,0,6.391856e-05,7.5064636e-05,-3.0295852e-09,0.0,0.0,0.0
6584000,0,6.391859e-05,7.506463e-05,-3.0548666e-09,0.0,0.0,0.0
6596000,0,6.391864e-05,7.506461e-05,-3.0927885e-09,0.0,0.0,0.0
6604000,0,6.391867e-05,7.50646e-05,-3.1180698e-09,0.0,0.0,0.0
6616000,0,6.391872e-05,7.5064585e-05,-3.1559917e-09,0.0,0.0,0.0
6624000,0,6.391874e-05,7.506457e-05,-3.1812735e-09,0.0,0.0,0.0
6636000,0,6.391879e-05,7.5064556e-05,-3.219195e-09,0.0,0.0,0.0
6644000,0,6.391882e-05,7.506454e-05,-3.2444767e-09,0.0,0.0,0.0
6656000,0,6.391887e-05,7.506453e-05,-3.282398e-09,0.0,0.0,0.0
6664000,0,6.39189e-05,7.506451e-05,-3.30768e-09,0.0,0.0,0.0
6676000,0,6.391895e-05,7.50645e-05,-3.3456011e-09,0.0,0.0,0.0
6684000,0,6.3918975e-05,7.506449e-05,-3.370883e-09,0.0,0.0,0.0
6696000,0,6.3919026e-05,7.506447e-05,-3.4088043e-09,0.0,0.0,0.0
6704000,0,6.3919055e-05,7.506446e-05,-3.4340861e-09,0.0,0.0,0.0
6716000,0,6.39191e-05,7.506444e-05,-3.472008e-09,0.0,0.0,0.0
6724000,0,6.391913e-05,7.506443e-05,-3.4972898e-09,0.0,0.0,0.0
6736000,0,6.391918e-05,7.506442e-05,-3.5352112e-09,0.0,0.0,0.0
6744000,0,6.391921e-05,7.50644e-05,-3.560493e-09,0.0,0.0,0.0
6756000,0,6.391926e-05,7.506439e-05,-3.5984145e-09,0.0,0.0,0.0
6764000,0,6.391929e-05,7.5064374e-05,-3.6236962e-09,0.0,0.0,0.0
6776000,0,6.391933e-05,7.506436e-05,-3.6616177e-09,0.0,0.0,0.0
6784000,0,6.391936e-05,7.506435e-05,-3.6868992e-09,0.0,0.0,0.0
6796000,0,6.391941e-05,7.506433e-05,-3.7248207e-09,0.0,0.0,0.0
6804000,0,6.391944e-05,7.506432e-05,-3.7501025e-09,0.0,0.0,0.0
6816000,0,6.391949e-05,7.506431e-05,-3.788024e-09,0.0,0.0,0.0
6824000,0,6.391952e-05,7.5064294e-05,-3.8133057e-09,0.0,0.0,0.0
6836000,0,6.3919564e-05,7.506428e-05,-3.851228e-09,0.0,0.0,0.0
6844000,0,6.391959e-05,7.5064265e-05,-3.876509e-09,0.0,0.0,0.0
6856000,0,6.3919644e-05,7.506425e-05,-3.914431e-09,0.0,0.0,0.0
6864000,0,6.391967e-05,7.5064236e-05,-3.939712e-09,0.0,0.0,0.0
6876000,0,6.391972e-05,7.506422e-05,-3.9776338e-09,0.0,0.0,0.0
6884000,0,6.3919746e-05,7.5064214e-05,-4.0029153e-09,0.0,0.0,0.0
6896000,0,6.39198e-05,7.506419e-05,-4.040837e-09,0.0,0.0,0.0
6904000,0,6.3919826e-05,7.5064185e-05,-4.0661186e-09,0.0,0.0,0.0
6916000,0,6.391988e-05,7.506417e-05,-4.10404e-09,0.0,0.0,0.0
6924000,0,6.391991e-05,7.5064156e-05,-4.1293204e-09,0.0,0.0,0.0
6936000,0,6.391995e-05,7.506414e-05,-4.1672434e-09,0.0,0.0,0.0
6944000,0,6.3919986e-05,7.506413e-05,-4.1925237e-09,0.0,0.0,0.0
6956000,0,6.392003e-05,7.506411e-05,-4.2304467e-09,0.0,0.0,0.0
6964000,0,6.3920066e-05,7.5064105e-05,-4.255727e-09,0.0,0.0,0.0
6976000,0,6.392011e-05,7.506408e-05,-4.29365e-09,0.0,0.0,0.0
6984000,0,6.3920146e-05,7.5064076e-05,-4.31893e-09,0.0,0.0,0.0
6996000,0,6.392018e-05,7.5064054e-05,-4.356853e-09,0.0,0.0,0.0
7004000,0,6.392022e-05,7.506405e-05,-4.3821333e-09,0.0,0.0,0.0
7016000,0,6.392027e-05,7.506403e-05,-4.4200554e-09,0.0,0.0,0.0
7024000,0,6.39203e-05,7.506402e-05,-4.4453365e-09,0.0,0.0,0.0
7036000,0,6.392034e-05,7.5064e-05,-4.4832587e-09,0.0,0.0,0.0
7044000,0,6.392038e-05,7.506399e-05,-4.5085398e-09,0.0,0.0,0.0
7056000,0,6.392042e-05,7.5063974e-05,-4.546462e-09,0.0,0.0,0.0
7064000,0,6.392045e-05,7.506397e-05,-4.571743e-09,0.0,0.0,0.0
7076000,0,6.39205e-05,7.5063945e-05,-4.609665e-09,0.0,0.0,0.0
7084000,0,6.392053e-05,7.506394e-05,-4.634946e-09,0.0,0.0,0.0
7096000,0,6.3920575e-05,7.506392e-05,-4.6728683e-09,0.0,0.0,0.0
7104000,0,6.392061e-05,7.506391e-05,-4.6981494e-09,0.0,0.0,0.0
7116000,0,6.3920656e-05,7.5063894e-05,-4.7360715e-09,0.0,0.0,0.0
7124000,0,6.3920685e-05,7.506388e-05,-4.761353e-09,0.0,0.0,0.0
7136000,0,6.3920736e-05,7.5063865e-05,-4.7992748e-09,0.0,0.0,0.0
7144000,0,6.392076e-05,7.506385e-05,-4.8245563e-09,0.0,0.0,0.0
7156000,0,6.392081e-05,7.5063836e-05,-4.862478e-09,0.0,0.0,0.0
7164000,0,6.392084e-05,7.506383e-05,-4.8877595e-09,0.0,0.0,0.0
7176000,0,6.392089e-05,7.506381e-05,-4.925681e-09,0.0,0.0,0.0
7184000,0,6.392092e-05,7.50638e-05,-4.9509628e-09,0.0,0.0,0.0
7196000,0,6.392097e-05,7.5063785e-05,-4.9888844e-09,0.0,0.0,0.0
7204000,0,6.392099e-05,7.506377e-05,-5.014166e-09,0.0,0.0,0.0
7216000,0,6.392104e-05,7.5063756e-05,-5.052088e-09,0.0,0.0,0.0
7224000,0,6.392107e-05,7.506374e-05,-5.0773696e-09,0.0,0.0,0.0
7236000,0,6.3921114e-05,7.506373e-05,-5.1152913e-09,0.0,0.0,0.0
7244000,0,6.392114e-05,7.506371e-05,-5.140573e-09,0.0,0.0,0.0
7256000,0,6.3921194e-05,7.50637e-05,-5.1784945e-09,0.0,0.0,0.0
7264000,0,6.392122e-05,7.506368e-05,-5.203776e-09,0.0,0.0,0.0
7276000,0,6.3921274e-05,7.506367e-05,-5.2416977e-09,0.0,0.0,0.0
7284000,0,6.39213e-05,7.506366e-05,-5.2669793e-09,0.0,0.0,0.0
7296000,0,6.392135e-05,7.506364e-05,-5.304901e-09,0.0,0.0,0.0
7304000,0,6.3921376e-05,7.506363e-05,-5.3301825e-09,0.0,0.0,0.0
7316000,0,6.392143e-05,7.506362e-05,-5.368104e-09,0.0,0.0,0.0
7324000,0,6.3921456e-05,7.50636e-05,-5.3933857e-09,0.0,0.0,0.0
7336000,0,6.39215e-05,7.506359e-05,-5.431308e-09,0.0,0.0,0.0
7344000,0,6.392153e-05,7.506357e-05,-5.456589e-09,0.0,0.0,0.0
7356000,0,6.392158e-05,7.506356e-05,-5.494511e-09,0.0,0.0,0.0
7364000,0,6.392161e-05,7.5063545e-05,-5.519792e-09,0.0,0.0,0.0
7376000,0,6.392166e-05,7.506353e-05,-5.5577143e-09,0.0,0.0,0.0
7384000,0,6.392169e-05,7.506352e-05,-5.5829954e-09,0.0,0.0,0.0
7396000,0,6.392173e-05,7.50635e-05,-5.6209175e-09,0.0,0.0,0.0
7404000,0,6.392176e-05,7.506349e-05,-5.6461986e-09,0.0,0.0,0.0
7416000,0,6.392181e-05,7.506348e-05,-5.6841207e-09,0.0,0.0,0.0
7424000,0,6.392185e-05,7.5063464e-05,-5.709401e-09,0.0,0.0,0.0
7436000,0,6.3921885e-05,7.506345e-05,-5.747324e-09,0.0,0.0,0.0
7444000,0,6.392193e-05,7.5063435e-05,-5.772604e-09,0.0,0.0,0.0
7456000,0,6.3921965e-05,7.506342e-05,-5.810527e-09,0.0,0.0,0.0
7464000,0,6.3922e-05,7.506341e-05,-5.8358074e-09,0.0,0.0,0.0
7476000,0,6.3922045e-05,7.506339e-05,-5.8737304e-09,0.0,0.0,0.0
7484000,0,6.392208e-05,7.5063384e-05,-5.8990106e-09,0.0,0.0,0.0
7496000,0,6.392212e-05,7.506336e-05,-5.9369336e-09,0.0,0.0,0.0
7504000,0,6.392216e-05,7.5063355e-05,-5.962214e-09,0.0,0.0,0.0
7516000,0,6.3922205e-05,7.506334e-05,-6.000136e-09,0.0,0.0,0.0
7524000,0,6.3922234e-05,7.5063326e-05,-6.0254175e-09,0.0,0.0,0.0
7536000,0,6.3922285e-05,7.506331e-05,-6.063339e-09,0.0,0.0,0.0
7544000,0,6.3922314e-05,7.50633e-05,-6.0886207e-09,0.0,0.0,0.0
7556000,0,6.392236e-05,7.506328e-05,-6.1265424e-09,0.0,0.0,0.0
7564000,0,6.392239e-05,7.5063275e-05,-6.151824e-09,0.0,0.0,0.0
7576000,0,6.392244e-05,7.506325e-05,-6.1897456e-09,0.0,0.0,0.0
7584000,0,6.392247e-05,7.5063246e-05,-6.215027e-09,0.0,0.0,0.0
7596000,0,6.392252e-05,7.506323e-05,-6.252949e-09,0.0,0.0,0.0
7604000,0,6.392255e-05,7.506322e-05,-6.2782304e-09,0.0,0.0,0.0
7616000,0,6.392259e-05,7.50632e-05,-6.316152e-09,0.0,0.0,0.0
7624000,0,6.392262e-05,7.506319e-05,-6.341434e-09,0.0,0.0,0.0
7636000,0,6.392267e-05,7.506317e-05,-6.3793553e-09,0.0,0.0,0.0
7644000,0,6.392269e-05,7.506316e-05,-6.4046373e-09,0.0,0.0,0.0
7656000,0,6.3922744e-05,7.5063144e-05,-6.442559e-09,0.0,0.0,0.0
7664000,0,6.392277e-05,7.506313e-05,-6.4678405e-09,0.0,0.0,0.0
7676000,0,6.3922824e-05,7.5063115e-05,-6.505762e-09,0.0,0.0,0.0
7684000,0,6.392285e-05,7.506311e-05,-6.5310437e-09,0.0,0.0,0.0
7696000,0,6.3922904e-05,7.5063086e-05,-6.5689654e-09,0.0,0.0,0.0
7704000,0,6.3922926e-05,7.506308e-05,-6.594247e-09,0.0,0.0,0.0
7716000,0,6.392298e-05,7.5063064e-05,-6.632169e-09,0.0,0.0,0.0
7724000,0,6.3923006e-05,7.506305e-05,-6.6574506e-09,0.0,0.0,0.0
7736000,0,6.392305e-05,7.5063035e-05,-6.6953723e-09,0.0,0.0,0.0
7744000,0,6.392308e-05,7.506302e-05,-6.720654e-09,0.0,0.0,0.0
7756000,0,6.392313e-05,7.5063006e-05,-6.7585755e-09,0.0,0.0,0.0
7764000,0,6.392316e-05,7.506299e-05,-6.783857e-09,0.0,0.0,0.0
7776000,0,6.392321e-05,7.506298e-05,-6.8217787e-09,0.0,0.0,0.0
7784000,0,6.392324e-05,7.506297e-05,-6.8470603e-09,0.0,0.0,0.0
7796000,0,6.392328e-05,7.506295e-05,-6.884982e-09,0.0,0.0,0.0
7804000,0,6.392331e-05,7.506294e-05,-6.9102635e-09,0.0,0.0,0.0
7816000,0,6.392336e-05,7.5062926e-05,-6.948185e-09,0.0,0.0,0.0
7824000,0,6.392339e-05,7.506291e-05,-6.9734667e-09,0.0,0.0,0.0
7836000,0,6.3923435e-05,7.50629e-05,-7.011389e-09,0.0,0.0,0.0
7844000,0,6.3923464e-05,7.506288e-05,-7.0366704e-09,0.0,0.0,0.0
7856000,0,6.3923515e-05,7.506287e-05,-7.074592e-09,0.0,0.0,0.0
7864000,0,6.3923544e-05,7.506285e-05,-7.0998736e-09,0.0,0.0,0.0
7876000,0,6.392359e-05,7.506284e-05,-7.1377952e-09,0.0,0.0,0.0
7884000,0,6.3923624e-05,7.5062824e-05,-7.163077e-09,0.0,0.0,0.0
7896000,0,6.392367e-05,7.506281e-05,-7.2009985e-09,0.0,0.0,0.0
7904000,0,6.39237e-05,7.50628e-05,-7.22628e-09,0.0,0.0,0.0
7916000,0,6.392375e-05,7.506278e-05,-7.2642017e-09,0.0,0.0,0.0
7924000,0,6.3923784e-05,7.506277e-05,-7.2894824e-09,0.0,0.0,0.0
7936000,0,6.392382e-05,7.506276e-05,-7.3274053e-09,0.0,0.0,0.0
7944000,0,6.3923864e-05,7.5062744e-05,-7.3526856e-09,0.0,0.0,0.0
7956000,0,6.39239e-05,7.506273e-05,-7.3906086e-09,0.0,0.0,0.0
7964000,0,6.392394e-05,7.5062715e-05,-7.415889e-09,0.0,0.0,0.0
7976000,0,6.392398e-05,7.50627e-05,-7.453812e-09,0.0,0.0,0.0
7984000,0,6.392402e-05,7.506269e-05,-7.479092e-09,0.0,0.0,0.0
7996000,0,6.392405e-05,7.506267e-05,-7.517015e-09,0.0,0.0,0.0
8004000,0,6.392409e-05,7.5062664e-05,-7.542296e-09,0.0,0.0,0.0
8016000,0,6.392414e-05,7.506265e-05,-7.580217e-09,0.0,0.0,0.0
8024000,0,6.392417e-05,7.5062635e-05,-7.6054985e-09,0.0,0.0,0.0
8036000,0,6.392421e-05,7.506262e-05,-7.643421e-09,0.0,0.0,0.0
8044000,0,6.392425e-05,7.5062606e-05,-7.668702e-09,0.0,0.0,0.0
8056000,0,6.392429e-05,7.506259e-05,-7.706624e-09,0.0,0.0,0.0
8064000,0,6.392432e-05,7.506258e-05,-7.731905e-09,0.0,0.0,0.0
8076000,0,6.392437e-05,7.506256e-05,-7.7698274e-09,0.0,0.0,0.0
8084000,0,6.39244e-05,7.5062555e-05,-7.795109e-09,0.0,0.0,0.0
8096000,0,6.3924446e-05,7.506253e-05,-7.83303e-09,0.0,0.0,0.0
8104000,0,6.392448e-05,7.5062526e-05,-7.858312e-09,0.0,0.0,0.0
8116000,0,6.3924526e-05,7.5062504e-05,-7.896234e-09,0.0,0.0,0.0
8124000,0,6.3924555e-05,7.50625e-05,-7.921516e-09,0.0,0.0,0.0
8136000,0,6.392461e-05,7.506248e-05,-7.959437e-09,0.0,0.0,0.0
8144000,0,6.392463e-05,7.506247e-05,-7.984719e-09,0.0,0.0,0.0
8156000,0,6.392468e-05,7.506245e-05,-8.02264e-09,0.0,0.0,0.0
8164000,0,6.392471e-05,7.506244e-05,-8.047922e-09,0.0,0.0,0.0
8176000,0,6.392476e-05,7.5062424e-05,-8.085844e-09,0.0,0.0,0.0
8184000,0,6.392478e-05,7.506241e-05,-8.111125e-09,0.0,0.0,0.0
8196000,0,6.392483e-05,7.5062395e-05,-8.149047e-09,0.0,0.0,0.0
8204000,0,6.392486e-05,7.506239e-05,-8.174329e-09,0.0,0.0,0.0
8216000,0,6.3924905e-05,7.5062366e-05,-8.21225e-09,0.0,0.0,0.0
8224000,0,6.3924934e-05,7.506236e-05,-8.237532e-09,0.0,0.0,0.0
8236000,0,6.3924985e-05,7.506234e-05,-8.275454e-09,0.0,0.0,0.0
8244000,0,6.3925014e-05,7.506233e-05,-8.300735e-09,0.0,0.0,0.0
8256000,0,6.3925065e-05,7.5062315e-05,-8.338657e-09,0.0,0.0,0.0
8264000,0,6.3925094e-05,7.50623e-05,-8.363939e-09,0.0,0.0,0.0
8276000,0,6.392514e-05,7.5062286e-05,-8.4018605e-09,0.0,0.0,0.0
8284000,0,6.392517e-05,7.506227e-05,-8.427142e-09,0.0,0.0,0.0
8296000,0,6.392522e-05,7.506226e-05,-8.465063e-09,0.0,0.0,0.0
8304000,0,6.392525e-05,7.506224e-05,-8.490345e-09,0.0,0.0,0.0
8316000,0,6.39253e-05,7.506223e-05,-8.528267e-09,0.0,0.0,0.0
8324000,0,6.392532e-05,7.506222e-05,-8.553549e-09,0.0,0.0,0.0
8336000,0,6.392537e-05,7.50622e-05,-8.591471e-09,0.0,0.0,0.0
8344000,0,6.39254e-05,7.506219e-05,-8.616752e-09,0.0,0.0,0.0
8356000,0,6.392544e-05,7.506217e-05,-8.654674e-09,0.0,0.0,0.0
8364000,0,6.392548e-05,7.506216e-05,-8.679955e-09,0.0,0.0,0.0
8376000,0,6.392552e-05,7.506215e-05,-8.717877e-09,0.0,0.0,0.0
8384000,0,6.392555e-05,7.506213e-05,-8.743158e-09,0.0,0.0,0.0
8396000,0,6.39256e-05,7.506212e-05,-8.781081e-09,0.0,0.0,0.0
8404000,0,6.392563e-05,7.5062104e-05,-8.806362e-09,0.0,0.0,0.0
8416000,0,6.3925676e-05,7.506209e-05,-8.8442835e-09,0.0,0.0,0.0
8424000,0,6.392571e-05,7.506208e-05,-8.869565e-09,0.0,0.0,0.0
8436000,0,6.3925756e-05,7.506206e-05,-8.907487e-09,0.0,0.0,0.0
8444000,0,6.392579e-05,7.506205e-05,-8.932767e-09,0.0,0.0,0.0
8456000,0,6.392583e-05,7.506203e-05,-8.97069e-09,0.0,0.0,0.0
8464000,0,6.392587e-05,7.5062024e-05,-8.995971e-09,0.0,0.0,0.0
8476000,0,6.392591e-05,7.5062e-05,-9.033894e-09,0.0,0.0,0.0
8484000,0,6.3925945e-05,7.5061995e-05,-9.059174e-09,0.0,0.0,0.0
8496000,0,6.392599e-05,7.506198e-05,-9.097097e-09,0.0,0.0,0.0
8504000,0,6.3926025e-05,7.5061966e-05,-9.1223775e-09,0.0,0.0,0.0
8516000,0,6.392607e-05,7.506195e-05,-9.160299e-09,0.0,0.0,0.0
8524000,0,6.39261e-05,7.506194e-05,-9.185581e-09,0.0,0.0,0.0
8536000,0,6.392615e-05,7.506192e-05,-9.223503e-09,0.0,0.0,0.0
8544000,0,6.392618e-05,7.5061915e-05,-9.248784e-09,0.0,0.0,0.0
8556000,0,6.392623e-05,7.506189e-05,-9.286706e-09,0.0,0.0,0.0
8564000,0,6.392626e-05,7.5061886e-05,-9.311988e-09,0.0,0.0,0.0
8576000,0,6.39263e-05,7.506187e-05,-9.349909e-09,0.0,0.0,0.0
8584000,0,6.392633e-05,7.506186e-05,-9.37519e-09,0.0,0.0,0.0
8596000,0,6.392638e-05,7.506184e-05,-9.413113e-09,0.0,0.0,0.0
8604000,0,6.392641e-05,7.506183e-05,-9.438394e-09,0.0,0.0,0.0
8616000,0,6.3926454e-05,7.506181e-05,-9.476316e-09,0.0,0.0,0.0
8624000,0,6.392648e-05,7.50618e-05,-9.501598e-09,0.0,0.0,0.0
8636000,0,6.3926534e-05,7.5061784e-05,-9.539519e-09,0.0,0.0,0.0
8644000,0,6.392656e-05,7.506177e-05,-9.5648005e-09,0.0,0.0,0.0
8656000,0,6.392661e-05,7.5061755e-05,-9.602722e-09,0.0,0.0,0.0
8664000,0,6.3926636e-05,7.506175e-05,-9.628004e-09,0.0,0.0,0.0
8676000,0,6.392669e-05,7.5061726e-05,-9.665926e-09,0.0,0.0,0.0
8684000,0,6.392672e-05,7.506172e-05,-9.691208e-09,0.0,0.0,0.0
8696000,0,6.392677e-05,7.5061704e-05,-9.7291295e-09,0.0,0.0,0.0
8704000,0,6.392679e-05,7.506169e-05,-9.754411e-09,0.0,0.0,0.0
8716000,0,6.392684e-05,7.5061675e-05,-9.792333e-09,0.0,0.0,0.0
8724000,0,6.392687e-05,7.506166e-05,-9.817614e-09,0.0,0.0,0.0
8736000,0,6.392691e-05,7.5061645e-05,-9.855536e-09,0.0,0.0,0.0
8744000,0,6.392694e-05,7.506163e-05,-9.880818e-09,0.0,0.0,0.0
8756000,0,6.392699e-05,7.506162e-05,-9.91874e-09,0.0,0.0,0.0
8764000,0,6.392702e-05,7.50616e-05,-9.944021e-09,0.0,0.0,0.0
8776000,0,6.392707e-05,7.506159e-05,-9.981942e-09,0.0,0.0,0.0
8784000,0,6.3927095e-05,7.506158e-05,-1.0007224e-08,0.0,0.0,0.0
8796000,0,6.3927146e-05,7.506156e-05,-1.0045146e-08,0.0,0.0,0.0
8804000,0,6.3927175e-05,7.506155e-05,-1.0070428e-08,0.0,0.0,0.0
8816000,0,6.3927226e-05,7.506153e-05,-1.0108349e-08,0.0,0.0,0.0
8824000,0,6.3927255e-05,7.506152e-05,-1.0133631e-08,0.0,0.0,0.0
8836000,0,6.39273e-05,7.506151e-05,-1.01715525e-08,0.0,0.0,0.0
8844000,0,6.392733e-05,7.506149e-05,-1.01968345e-08,0.0,0.0,0.0
8856000,0,6.392738e-05,7.506148e-05,-1.0234756e-08,0.0,0.0,0.0
8864000,0,6.392741e-05,7.506146e-05,-1.0260037e-08,0.0,0.0,0.0
8876000,0,6.392745e-05,7.506145e-05,-1.029796e-08,0.0,0.0,0.0
8884000,0,6.392748e-05,7.5061434e-05,-1.0323241e-08,0.0,0.0,0.0
8896000,0,6.392753e-05,7.506142e-05,-1.0361163e-08,0.0,0.0,0.0
8904000,0,6.392756e-05,7.506141e-05,-1.0386444e-08,0.0,0.0,0.0
8916000,0,6.3927604e-05,7.506139e-05,-1.0424366e-08,0.0,0.0,0.0
8924000,0,6.392765e-05,7.506138e-05,-1.04496465e-08,0.0,0.0,0.0
8936000,0,6.3927684e-05,7.506136e-05,-1.0487569e-08,0.0,0.0,0.0
8944000,0,6.392772e-05,7.5061354e-05,-1.051285e-08,0.0,0.0,0.0
8956000,0,6.3927764e-05,7.506134e-05,-1.0550773e-08,0.0,0.0,0.0
8964000,0,6.39278e-05,7.5061325e-05,-1.0576053e-08,0.0,0.0,0.0
8976000,0,6.392784e-05,7.506131e-05,-1.0613976e-08,0.0,0.0,0.0
8984000,0,6.392787e-05,7.5061296e-05,-1.0639257e-08,0.0,0.0,0.0
8996000,0,6.392792e-05,7.506128e-05,-1.0677179e-08,0.0,0.0,0.0
9004000,0,6.392795e-05,7.5061274e-05,-1.070246e-08,0.0,0.0,0.0
9016000,0,6.3928e-05,7.506125e-05,-1.0740382e-08,0.0,0.0,0.0
9024000,0,6.392803e-05,7.5061245e-05,-1.0765663e-08,0.0,0.0,0.0
9036000,0,6.392808e-05,7.506122e-05,-1.0803586e-08,0.0,0.0,0.0
9044000,0,6.3928106e-05,7.5061216e-05,-1.0828867e-08,0.0,0.0,0.0
9056000,0,6.392816e-05,7.50612e-05,-1.0866788e-08,0.0,0.0,0.0
9064000,0,6.3928186e-05,7.506119e-05,-1.08920695e-08,0.0,0.0,0.0
9076000,0,6.392823e-05,7.506117e-05,-1.0929992e-08,0.0,0.0,0.0
9084000,0,6.392826e-05,7.506116e-05,-1.0955273e-08,0.0,0.0,0.0
9096000,0,6.392831e-05,7.506114e-05,-1.0993195e-08,0.0,0.0,0.0
9104000,0,6.392834e-05,7.506113e-05,-1.1018477e-08,0.0,0.0,0.0
9116000,0,6.392838e-05,7.5061114e-05,-1.10563985e-08,0.0,0.0,0.0
9124000,0,6.392841e-05,7.50611e-05,-1.10816805e-08,0.0,0.0,0.0
9136000,0,6.392846e-05,7.5061085e-05,-1.1119602e-08,0.0,0.0,0.0
9144000,0,6.392849e-05,7.506108e-05,-1.1144883e-08,0.0,0.0,0.0
9156000,0,6.3928535e-05,7.5061056e-05,-1.1182805e-08,0.0,0.0,0.0
9164000,0,6.3928564e-05,7.506105e-05,-1.1208087e-08,0.0,0.0,0.0
9176000,0,6.3928615e-05,7.5061034e-05,-1.1246009e-08,0.0,0.0,0.0
9184000,0,6.3928645e-05,7.506102e-05,-1.127129e-08,0.0,0.0,0.0
9196000,0,6.3928695e-05,7.5061005e-05,-1.1309211e-08,0.0,0.0,0.0
9204000,0,6.392872e-05,7.506099e-05,-1.1334493e-08,0.0,0.0,0.0
9216000,0,6.392877e-05,7.5060976e-05,-1.1372415e-08,0.0,0.0,0.0
9224000,0,6.39288e-05,7.506096e-05,-1.1397697e-08,0.0,0.0,0.0
9236000,0,6.392884e-05,7.506095e-05,-1.1435619e-08,0.0,0.0,0.0
9244000,0,6.392887e-05,7.506093e-05,-1.1460901e-08,0.0,0.0,0.0
9256000,0,6.392892e-05,7.506092e-05,-1.1498822e-08,0.0,0.0,0.0
9264000,0,6.392895e-05,7.50609e-05,-1.15241034e-08,0.0,0.0,0.0
9276000,0,6.3928994e-05,7.506089e-05,-1.1562025e-08,0.0,0.0,0.0
9284000,0,6.392902e-05,7.506088e-05,-1.1587307e-08,0.0,0.0,0.0
9296000,0,6.3929074e-05,7.506086e-05,-1.1625229e-08,0.0,0.0,0.0
9304000,0,6.39291e-05,7.506085e-05,-1.165051e-08,0.0,0.0,0.0
9316000,0,6.3929154e-05,7.506084e-05,-1.1688432e-08,0.0,0.0,0.0
9324000,0,6.392918e-05,7.506082e-05,-1.17137136e-08,0.0,0.0,0.0
9336000,0,6.392923e-05,7.506081e-05,-1.1751635e-08,0.0,0.0,0.0
9344000,0,6.3929256e-05,7.5060794e-05,-1.1776917e-08,0.0,0.0,0.0
9356000,0,6.39293e-05,7.506078e-05,-1.1814839e-08,0.0,0.0,0.0
9364000,0,6.3929336e-05,7.5060765e-05,-1.184012e-08,0.0,0.0,0.0
9376000,0,6.392938e-05,7.506075e-05,-1.18780425e-08,0.0,0.0,0.0
9384000,0,6.392941e-05,7.5060736e-05,-1.1903324e-08,0.0,0.0,0.0
9396000,0,6.392946e-05,7.506072e-05,-1.1941245e-08,0.0,0.0,0.0
9404000,0,6.392949e-05,7.5060714e-05,-1.1966526e-08,0.0,0.0,0.0
9416000,0,6.392953e-05,7.506069e-05,-1.2004449e-08,0.0,0.0,0.0
9424000,0,6.392957e-05,7.5060685e-05,-1.2029729e-08,0.0,0.0,0.0
9436000,0,6.392961e-05,7.506066e-05,-1.2067652e-08,0.0,0.0,0.0
9444000,0,6.392965e-05,7.5060656e-05,-1.2092933e-08,0.0,0.0,0.0
9456000,0,6.3929685e-05,7.506064e-05,-1.2130855e-08,0.0,0.0,0.0
9464000,0,6.392973e-05,7.506063e-05,-1.2156136e-08,0.0,0.0,0.0
9476000,0,6.3929765e-05,7.506061e-05,-1.2194059e-08,0.0,0.0,0.0
9484000,0,6.39298e-05,7.50606e-05,-1.2219339e-08,0.0,0.0,0.0
9496000,0,6.3929845e-05,7.506058e-05,-1.2257262e-08,0.0,0.0,0.0
9504000,0,6.392988e-05,7.5060576e-05,-1.2282543e-08,0.0,0.0,0.0
9516000,0,6.3929925e-05,7.5060554e-05,-1.2320465e-08,0.0,0.0,0.0
9524000,0,6.3929954e-05,7.506055e-05,-1.2345746e-08,0.0,0.0,0.0
9536000,0,6.3930005e-05,7.5060525e-05,-1.2383668e-08,0.0,0.0,0.0
9544000,0,6.3930034e-05,7.506052e-05,-1.2408949e-08,0.0,0.0,0.0
9556000,0,6.393008e-05,7.50605e-05,-1.2446871e-08,0.0,0.0,0.0
9564000,0,6.393011e-05,7.506049e-05,-1.2472152e-08,0.0,0.0,0.0
9576000,0,6.393016e-05,7.5060474e-05,-1.2510075e-08,0.0,0.0,0.0
9584000,0,6.393019e-05,7.506046e-05,-1.2535356e-08,0.0,0.0,0.0
9596000,0,6.393023e-05,7.5060445e-05,-1.25732775e-08,0.0,0.0,0.0
9604000,0,6.393027e-05,7.506043e-05,-1.25985595e-08,0.0,0.0,0.0
9616000,0,6.393031e-05,7.5060416e-05,-1.2636481e-08,0.0,0.0,0.0
9624000,0,6.393034e-05,7.50604e-05,-1.2661763e-08,0.0,0.0,0.0
9636000,0,6.393039e-05,7.506039e-05,-1.2699685e-08,0.0,0.0,0.0
9644000,0,6.393041e-05,7.506038e-05,-1.2724966e-08,0.0,0.0,0.0
9656000,0,6.393046e-05,7.506036e-05,-1.2762888e-08,0.0,0.0,0.0
9664000,0,6.393049e-05,7.506035e-05,-1.278817e-08,0.0,0.0,0.0
9676000,0,6.393054e-05,7.506033e-05,-1.2826091e-08,0.0,0.0,0.0
9684000,0,6.3930565e-05,7.506032e-05,-1.2851372e-08,0.0,0.0,0.0
9696000,0,6.3930616e-05,7.506031e-05,-1.2889294e-08,0.0,0.0,0.0
9704000,0,6.3930645e-05,7.506029e-05,-1.2914576e-08,0.0,0.0,0.0
9716000,0,6.393069e-05,7.506028e-05,-1.2952498e-08,0.0,0.0,0.0
9724000,0,6.393072e-05,7.506026e-05,-1.297778e-08,0.0,0.0,0.0
9736000,0,6.393077e-05,7.506025e-05,-1.3015701e-08,0.0,0.0,0.0
9744000,0,6.39308e-05,7.5060234e-05,-1.3040983e-08,0.0,0.0,0.0
9756000,0,6.393084e-05,7.506022e-05,-1.3078905e-08,0.0,0.0,0.0
9764000,0,6.393087e-05,7.5060205e-05,-1.3104186e-08,0.0,0.0,0.0
9776000,0,6.393092e-05,7.506019e-05,-1.3142108e-08,0.0,0.0,0.0
9784000,0,6.393095e-05,7.506018e-05,-1.316739e-08,0.0,0.0,0.0
9796000,0,6.3931e-05,7.506016e-05,-1.32053115e-08,0.0,0.0,0.0
9804000,0,6.3931024e-05,7.5060154e-05,-1.3230593e-08,0.0,0.0,0.0
9816000,0,6.3931075e-05,7.506013e-05,-1.3268514e-08,0.0,0.0,0.0
9824000,0,6.3931104e-05,7.5060125e-05,-1.3293796e-08,0.0,0.0,0.0
9836000,0,6.393115e-05,7.506011e-05,-1.3331718e-08,0.0,0.0,0.0
9844000,0,6.3931184e-05,7.5060096e-05,-1.3357e-08,0.0,0.0,0.0
9856000,0,6.393123e-05,7.506008e-05,-1.3394922e-08,0.0,0.0,0.0
9864000,0,6.393126e-05,7.506007e-05,-1.3420203e-08,0.0,0.0,0.0
9876000,0,6.393131e-05,7.506005e-05,-1.3458125e-08,0.0,0.0,0.0
9884000,0,6.393134e-05,7.506004e-05,-1.3483406e-08,0.0,0.0,0.0
9896000,0,6.393138e-05,7.506002e-05,-1.3521328e-08,0.0,0.0,0.0
9904000,0,6.393141e-05,7.506001e-05,-1.3546609e-08,0.0,0.0,0.0
9916000,0,6.393146e-05,7.5059994e-05,-1.3584532e-08,0.0,0.0,0.0
9924000,0,6.39315e-05,7.505999e-05,-1.3609812e-08,0.0,0.0,0.0
9936000,0,6.393153e-05,7.5059965e-05,-1.36477345e-08,0.0,0.0,0.0
9944000,0,6.393157e-05,7.505996e-05,-1.3673016e-08,0.0,0.0,0.0
9956000,0,6.393161e-05,7.5059936e-05,-1.3710938e-08,0.0,0.0,0.0
9964000,0,6.393165e-05,7.505993e-05,-1.3736219e-08,0.0,0.0,0.0
9976000,0,6.3931686e-05,7.5059914e-05,-1.3774142e-08,0.0,0.0,0.0
9984000,0,6.393173e-05,7.50599e-05,-1.3799422e-08,0.0,0.0,0.0
9996000,0,6.3931766e-05,7.5059885e-05,-1.3837345e-08,0.0,0.0,0.0
10004000,0,6.39318e-05,7.505987e-05,-1.3862626e-08,0.0,0.0,0.0
10016000,0,6.393185e-05,7.5059856e-05,-1.3900547e-08,0.0,0.0,0.0
10024000,0,6.393188e-05,7.505984e-05,-1.39258285e-08,0.0,0.0,0.0
10036000,0,6.3931926e-05,7.505983e-05,-1.3963751e-08,0.0,0.0,0.0
10044000,0,6.3931955e-05,7.505982e-05,-1.3989032e-08,0.0,0.0,0.0
10056000,0,6.3932006e-05,7.50598e-05,-1.4026954e-08,0.0,0.0,0.0
10064000,0,6.3932035e-05,7.505979e-05,-1.4052236e-08,0.0,0.0,0.0
10076000,0,6.393208e-05,7.505977e-05,-1.40901575e-08,0.0,0.0,0.0
10084000,0,6.393211e-05,7.505976e-05,-1.4115439e-08,0.0,0.0,0.0
10096000,0,6.393216e-05,7.505975e-05,-1.4153361e-08,0.0,0.0,0.0
10104000,0,6.393219e-05,7.505973e-05,-1.4178642e-08,0.0,0.0,0.0
10116000,0,6.393223e-05,7.505972e-05,-1.4216564e-08,0.0,0.0,0.0
10124000,0,6.393226e-05,7.50597e-05,-1.4241846e-08,0.0,0.0,0.0
10136000,0,6.393231e-05,7.505969e-05,-1.4279768e-08,0.0,0.0,0.0
10144000,0,6.393234e-05,7.5059674e-05,-1.4305049e-08,0.0,0.0,0.0
10156000,0,6.3932384e-05,7.505966e-05,-1.434297e-08,0.0,0.0,0.0
10164000,0,6.393241e-05,7.5059645e-05,-1.4368252e-08,0.0,0.0,0.0
10176000,0,6.3932464e-05,7.505963e-05,-1.4406174e-08,0.0,0.0,0.0
10184000,0,6.393249e-05,7.505962e-05,-1.4431456e-08,0.0,0.0,0.0
10196000,0,6.3932544e-05,7.50596e-05,-1.4469378e-08,0.0,0.0,0.0
10204000,0,6.3932566e-05,7.5059594e-05,-1.4494659e-08,0.0,0.0,0.0
10216000,0,6.393262e-05,7.505957e-05,-1.4532581e-08,0.0,0.0,0.0
10224000,0,6.393264e-05,7.5059565e-05,-1.45578625e-08,0.0,0.0,0.0
10236000,0,6.393269e-05,7.505954e-05,-1.4595784e-08,0.0,0.0,0.0
10244000,0,6.393272e-05,7.5059535e-05,-1.4621066e-08,0.0,0.0,0.0
10256000,0,6.393277e-05,7.505952e-05,-1.4658988e-08,0.0,0.0,0.0
10264000,0,6.393279e-05,7.5059506e-05,-1.4684269e-08,0.0,0.0,0.0
10276000,0,6.393284e-05,7.505949e-05,-1.4722191e-08,0.0,0.0,0.0
10284000,0,6.393287e-05,7.505948e-05,-1.4747473e-08,0.0,0.0,0.0
10296000,0,6.393292e-05,7.505946e-05,-1.4785394e-08,0.0,0.0,0.0
10304000,0,6.393295e-05,7.505945e-05,-1.4810676e-08,0.0,0.0,0.0
10316000,0,6.3932996e-05,7.505943e-05,-1.4848598e-08,0.0,0.0,0.0
10324000,0,6.3933025e-05,7.505942e-05,-1.4873879e-08,0.0,0.0,0.0
10336000,0,6.3933076e-05,7.5059404e-05,-1.4911802e-08,0.0,0.0,0.0
10344000,0,6.3933105e-05,7.50594e-05,-1.4937083e-08,0.0,0.0,0.0
10356000,0,6.393315e-05,7.5059375e-05,-1.4975004e-08,0.0,0.0,0.0
10364000,0,6.393318e-05,7.505937e-05,-1.5000285e-08,0.0,0.0,0.0
10376000,0,6.393323e-05,7.5059346e-05,-1.5038207e-08,0.0,0.0,0.0
10384000,0,6.393326e-05,7.505934e-05,-1.5063488e-08,0.0,0.0,0.0
10396000,0,6.39333e-05,7.5059324e-05,-1.5101412e-08,0.0,0.0,0.0
10404000,0,6.393333e-05,7.505931e-05,-1.5126693e-08,0.0,0.0,0.0
10416000,0,6.393338e-05,7.5059295e-05,-1.5164614e-08,0.0,0.0,0.0
10424000,0,6.393342e-05,7.505928e-05,-1.5189896e-08,0.0,0.0,0.0
10436000,0,6.3933454e-05,7.5059266e-05,-1.5227817e-08,0.0,0.0,0.0
10444000,0,6.39335e-05,7.505925e-05,-1.5253098e-08,0.0,0.0,0.0
10456000,0,6.3933534e-05,7.505924e-05,-1.5291022e-08,0.0,0.0,0.0
10464000,0,6.393357e-05,7.505923e-05,-1.5316301e-08,0.0,0.0,0.0
10476000,0,6.393361e-05,7.505921e-05,-1.5354225e-08,0.0,0.0,0.0
10484000,0,6.393365e-05,7.50592e-05,-1.5379506e-08,0.0,0.0,0.0
10496000,0,6.393369e-05,7.505918e-05,-1.5417427e-08,0.0,0.0,0.0
10504000,0,6.393372e-05,7.505917e-05,-1.5442708e-08,0.0,0.0,0.0
10516000,0,6.3933774e-05,7.505916e-05,-1.548063e-08,0.0,0.0,0.0
10524000,0,6.39338e-05,7.505914e-05,-1.5505911e-08,0.0,0.0,0.0
10536000,0,6.393385e-05,7.505913e-05,-1.5543833e-08,0.0,0.0,0.0
10544000,0,6.3933876e-05,7.505911e-05,-1.5569116e-08,0.0,0.0,0.0
10556000,0,6.393393e-05,7.50591e-05,-1.5607037e-08,0.0,0.0,0.0
10564000,0,6.3933956e-05,7.5059084e-05,-1.5632319e-08,0.0,0.0,0.0
10576000,0,6.3934e-05,7.505907e-05,-1.567024e-08,0.0,0.0,0.0
10584000,0,6.393403e-05,7.5059055e-05,-1.5695521e-08,0.0,0.0,0.0
10596000,0,6.393408e-05,7.505904e-05,-1.5733443e-08,0.0,0.0,0.0
10604000,0,6.393411e-05,7.505903e-05,-1.5758724e-08,0.0,0.0,0.0
10616000,0,6.393415e-05,7.505901e-05,-1.5796648e-08,0.0,0.0,0.0
10624000,0,6.393418e-05,7.5059004e-05,-1.5821929e-08,0.0,0.0,0.0
10636000,0,6.393423e-05,7.505898e-05,-1.585985e-08,0.0,0.0,0.0
10644000,0,6.3934254e-05,7.5058975e-05,-1.5885131e-08,0.0,0.0,0.0
10656000,0,6.3934305e-05,7.505895e-05,-1.5923053e-08,0.0,0.0,0.0
10664000,0,6.3934334e-05,7.5058946e-05,-1.5948334e-08,0.0,0.0,0.0
10676000,0,6.3934385e-05,7.505893e-05,-1.5986258e-08,0.0,0.0,0.0
10684000,0,6.3934414e-05,7.505892e-05,-1.6011539e-08,0.0,0.0,0.0
10696000,0,6.393446e-05,7.50589e-05,-1.604946e-08,0.0,0.0,0.0
10704000,0,6.393449e-05,7.505889e-05,-1.6074742e-08,0.0,0.0,0.0
10716000,0,6.393453e-05,7.505887e-05,-1.6112663e-08,0.0,0.0,0.0
10724000,0,6.393456e-05,7.505886e-05,-1.6137946e-08,0.0,0.0,0.0
10736000,0,6.393461e-05,7.5058844e-05,-1.6175868e-08,0.0,0.0,0.0
10744000,0,6.393464e-05,7.505883e-05,-1.6201149e-08,0.0,0.0,0.0
10756000,0,6.393468e-05,7.5058815e-05,-1.623907e-08,0.0,0.0,0.0
10764000,0,6.393471e-05,7.50588e-05,-1.6264352e-08,0.0,0.0,0.0
10776000,0,6.393476e-05,7.5058786e-05,-1.6302273e-08,0.0,0.0,0.0
10784000,0,6.393479e-05,7.505877e-05,-1.6327554e-08,0.0,0.0,0.0
10796000,0,6.3934844e-05,7.505876e-05,-1.6365476e-08,0.0,0.0,0.0
10804000,0,6.3934865e-05,7.505875e-05,-1.6390759e-08,0.0,0.0,0.0
10816000,0,6.393492e-05,7.505873e-05,-1.642868e-08,0.0,0.0,0.0
10824000,0,6.3934946e-05,7.505872e-05,-1.6453962e-08,0.0,0.0,0.0
10836000,0,6.393499e-05,7.50587e-05,-1.6491883e-08,0.0,0.0,0.0
10844000,0,6.393502e-05,7.505869e-05,-1.6517165e-08,0.0,0.0,0.0
10856000,0,6.393507e-05,7.505868e-05,-1.6555086e-08,0.0,0.0,0.0
10864000,0,6.39351e-05,7.505866e-05,-1.6580369e-08,0.0,0.0,0.0
10876000,0,6.393514e-05,7.505865e-05,-1.661829e-08,0.0,0.0,0.0
10884000,0,6.393518e-05,7.505863e-05,-1.6643572e-08,0.0,0.0,0.0
10896000,0,6.393522e-05,7.505862e-05,-1.6681494e-08,0.0,0.0,0.0
10904000,0,6.393525e-05,7.5058604e-05,-1.6706775e-08,0.0,0.0,0.0
10916000,0,6.3935295e-05,7.505859e-05,-1.6744696e-08,0.0,0.0,0.0
10924000,0,6.393534e-05,7.505858e-05,-1.6769977e-08,0.0,0.0,0.0
10936000,0,6.3935375e-05,7.505856e-05,-1.68079e-08,0.0,0.0,0.0
10944000,0,6.393541e-05,7.505855e-05,-1.683318e-08,0.0,0.0,0.0
10956000,0,6.3935455e-05,7.505853e-05,-1.6871104e-08,0.0,0.0,0.0
10964000,0,6.393549e-05,7.5058524e-05,-1.6896385e-08,0.0,0.0,0.0
10976000,0,6.393553e-05,7.50585e-05,-1.6934306e-08,0.0,0.0,0.0
10984000,0,6.3935564e-05,7.5058495e-05,-1.6959588e-08,0.0,0.0,0.0
10996000,0,6.393561e-05,7.505847e-05,-1.699751e-08,0.0,0.0,0.0
11004000,0,6.3935644e-05,7.5058466e-05,-1.702279e-08,0.0,0.0,0.0
11016000,0,6.393569e-05,7.505845e-05,-1.7060714e-08,0.0,0.0,0.0
11024000,0,6.393572e-05,7.505844e-05,-1.7085995e-08,0.0,0.0,0.0
11036000,0,6.393577e-05,7.505842e-05,-1.7123917e-08,0.0,0.0,0.0
11044000,0,6.39358e-05,7.505841e-05,-1.7149198e-08,0.0,0.0,0.0
11056000,0,6.393584e-05,7.505839e-05,-1.718712e-08,0.0,0.0,0.0
11064000,0,6.393587e-05,7.505838e-05,-1.72124e-08,0.0,0.0,0.0
11076000,0,6.393592e-05,7.5058364e-05,-1.7250322e-08,0.0,0.0,0.0
11084000,0,6.393595e-05,7.505836e-05,-1.7275605e-08,0.0,0.0,0.0
11096000,0,6.393599e-05,7.5058335e-05,-1.7313527e-08,0.0,0.0,0.0
11104000,0,6.393602e-05,7.505833e-05,-1.7338808e-08,0.0,0.0,0.0
11116000,0,6.393607e-05,7.5058306e-05,-1.737673e-08,0.0,0.0,0.0
11124000,0,6.3936095e-05,7.50583e-05,-1.740201e-08,0.0,0.0,0.0
11136000,0,6.3936146e-05,7.5058284e-05,-1.7439932e-08,0.0,0.0,0.0
11144000,0,6.3936175e-05,7.505827e-05,-1.7465213e-08,0.0,0.0,0.0
11156000,0,6.3936226e-05,7.5058255e-05,-1.7503137e-08,0.0,0.0,0.0
11164000,0,6.3936255e-05,7.505824e-05,-1.7528418e-08,0.0,0.0,0.0
11176000,0,6.39363e-05,7.5058226e-05,-1.756634e-08,0.0,0.0,0.0
11184000,0,6.393633e-05,7.505821e-05,-1.759162e-08,0.0,0.0,0.0
11196000,0,6.393638e-05,7.50582e-05,-1.7629542e-08,0.0,0.0,0.0
11204000,0,6.393641e-05,7.505818e-05,-1.7654823e-08,0.0,0.0,0.0
11216000,0,6.393645e-05,7.505817e-05,-1.7692747e-08,0.0,0.0,0.0
11224000,0,6.393648e-05,7.505815e-05,-1.7718028e-08,0.0,0.0,0.0
11236000,0,6.3936524e-05,7.505814e-05,-1.775595e-08,0.0,0.0,0.0
11244000,0,6.393655e-05,7.5058124e-05,-1.778123e-08,0.0,0.0,0.0
11256000,0,6.3936604e-05,7.505811e-05,-1.7819152e-08,0.0,0.0,0.0
11264000,0,6.393663e-05,7.5058095e-05,-1.7844433e-08,0.0,0.0,0.0
11276000,0,6.393668e-05,7.505808e-05,-1.7882355e-08,0.0,0.0,0.0
11284000,0,6.3936706e-05,7.505807e-05,-1.7907638e-08,0.0,0.0,0.0
11296000,0,6.393676e-05,7.505805e-05,-1.794556e-08,0.0,0.0,0.0
11304000,0,6.3936786e-05,7.5058044e-05,-1.797084e-08,0.0,0.0,0.0
11316000,0,6.393683e-05,7.505802e-05,-1.8008762e-08,0.0,0.0,0.0
11324000,0,6.393686e-05,7.5058015e-05,-1.8034044e-08,0.0,0.0,0.0
11336000,0,6.393691e-05,7.5058e-05,-1.8071965e-08,0.0,0.0,0.0
11344000,0,6.393694e-05,7.5057986e-05,-1.8097246e-08,0.0,0.0,0.0
11356000,0,6.393698e-05,7.505797e-05,-1.813517e-08,0.0,0.0,0.0
11364000,0,6.393701e-05,7.505796e-05,-1.8160451e-08,0.0,0.0,0.0
11376000,0,6.393706e-05,7.505794e-05,-1.8198373e-08,0.0,0.0,0.0
11384000,0,6.393709e-05,7.505793e-05,-1.8223654e-08,0.0,0.0,0.0
11396000,0,6.3937136e-05,7.505791e-05,-1.8261575e-08,0.0,0.0,0.0
11404000,0,6.3937165e-05,7.50579e-05,-1.8286856e-08,0.0,0.0,0.0
11416000,0,6.3937216e-05,7.5057884e-05,-1.8324778e-08,0.0,0.0,0.0
11424000,0,6.393725e-05,7.505788e-05,-1.835006e-08,0.0,0.0,0.0
11436000,0,6.393729e-05,7.5057855e-05,-1.8387983e-08,0.0,0.0,0.0
11444000,0,6.393733e-05,7.505785e-05,-1.8413264e-08,0.0,0.0,0.0
11456000,0,6.393737e-05,7.5057826e-05,-1.8451185e-08,0.0,0.0,0.0
11464000,0,6.3937405e-05,7.505782e-05,-1.8476467e-08,0.0,0.0,0.0
11476000,0,6.393744e-05,7.50578e-05,-1.8514388e-08,0.0,0.0,0.0
11484000,0,6.3937485e-05,7.505779e-05,-1.853967e-08,0.0,0.0,0.0
11496000,0,6.393752e-05,7.505777e-05,-1.8577593e-08,0.0,0.0,0.0
11504000,0,6.393756e-05,7.505776e-05,-1.8602872e-08,0.0,0.0,0.0
11516000,0,6.39376e-05,7.5057746e-05,-1.8640796e-08,0.0,0.0,0.0
11524000,0,6.393764e-05,7.505773e-05,-1.8666077e-08,0.0,0.0,0.0
11536000,0,6.393768e-05,7.505772e-05,-1.8703998e-08,0.0,0.0,0.0
11544000,0,6.393771e-05,7.50577e-05,-1.872928e-08,0.0,0.0,0.0
11556000,0,6.3937754e-05,7.505769e-05,-1.8767201e-08,0.0,0.0,0.0
11564000,0,6.393779e-05,7.505767e-05,-1.8792482e-08,0.0,0.0,0.0
11576000,0,6.3937834e-05,7.505766e-05,-1.8830404e-08,0.0,0.0,0.0
11584000,0,6.393786e-05,7.505765e-05,-1.8855687e-08,0.0,0.0,0.0
11596000,0,6.3937914e-05,7.505763e-05,-1.8893608e-08,0.0,0.0,0.0
11604000,0,6.393794e-05,7.505762e-05,-1.891889e-08,0.0,0.0,0.0
11616000,0,6.393799e-05,7.50576e-05,-1.8956811e-08,0.0,0.0,0.0
11624000,0,6.3938016e-05,7.505759e-05,-1.8982092e-08,0.0,0.0,0.0
11636000,0,6.393806e-05,7.505757e-05,-1.9020014e-08,0.0,0.0,0.0
11644000,0,6.393809e-05,7.5057564e-05,-1.9045297e-08,0.0,0.0,0.0
11656000,0,6.393814e-05,7.505755e-05,-1.9083219e-08,0.0,0.0,0.0
11664000,0,6.393817e-05,7.5057535e-05,-1.91085e-08,0.0,0.0,0.0
11676000,0,6.393822e-05,7.505752e-05,-1.9146421e-08,0.0,0.0,0.0
11684000,0,6.393824e-05,7.5057505e-05,-1.9171702e-08,0.0,0.0,0.0
11696000,0,6.393829e-05,7.505749e-05,-1.9209624e-08,0.0,0.0,0.0
11704000,0,6.393832e-05,7.5057476e-05,-1.9234905e-08,0.0,0.0,0.0
11716000,0,6.3938365e-05,7.505746e-05,-1.9272829e-08,0.0,0.0,0.0
11724000,0,6.3938394e-05,7.505745e-05,-1.929811e-08,0.0,0.0,0.0
11736000,0,6.3938445e-05,7.505743e-05,-1.9336031e-08,0.0,0.0,0.0
11744000,0,6.393847e-05,7.505742e-05,-1.9361313e-08,0.0,0.0,0.0
11756000,0,6.393852e-05,7.50574e-05,-1.9399234e-08,0.0,0.0,0.0
11764000,0,6.393855e-05,7.505739e-05,-1.9424515e-08,0.0,0.0,0.0
11776000,0,6.39386e-05,7.5057374e-05,-1.9462437e-08,0.0,0.0,0.0
11784000,0,6.393862e-05,7.505736e-05,-1.948772e-08,0.0,0.0,0.0
11796000,0,6.393867e-05,7.5057345e-05,-1.9525642e-08,0.0,0.0,0.0
11804000,0,6.39387e-05,7.505734e-05,-1.9550923e-08,0.0,0.0,0.0
11816000,0,6.393874e-05,7.5057316e-05,-1.9588844e-08,0.0,0.0,0.0
11824000,0,6.393877e-05,7.505731e-05,-1.9614125e-08,0.0,0.0,0.0
11836000,0,6.393882e-05,7.505729e-05,-1.9652047e-08,0.0,0.0,0.0
11844000,0,6.393885e-05,7.505728e-05,-1.9677328e-08,0.0,0.0,0.0
11856000,0,6.3938896e-05,7.505726e-05,-1.9715252e-08,0.0,0.0,0.0
11864000,0,6.3938925e-05,7.505725e-05,-1.9740533e-08,0.0,0.0,0.0
11876000,0,6.393898e-05,7.5057236e-05,-1.9778454e-08,0.0,0.0,0.0
11884000,0,6.3939005e-05,7.505722e-05,-1.9803736e-08,0.0,0.0,0.0
11896000,0,6.393905e-05,7.505721e-05,-1.9841657e-08,0.0,0.0,0.0
11904000,0,6.393908e-05,7.505719e-05,-1.9866938e-08,0.0,0.0,0.0
11916000,0,6.393913e-05,7.505718e-05,-1.990486e-08,0.0,0.0,0.0
11924000,0,6.3939166e-05,7.505716e-05,-1.9930141e-08,0.0,0.0,0.0
11936000,0,6.39392e-05,7.505715e-05,-1.9968065e-08,0.0,0.0,0.0
11944000,0,6.3939246e-05,7.505714e-05,-1.9993346e-08,0.0,0.0,0.0
11956000,0,6.393928e-05,7.505712e-05,-2.0031267e-08,0.0,0.0,0.0
11964000,0,6.393932e-05,7.505711e-05,-2.0056548e-08,0.0,0.0,0.0
11976000,0,6.3939355e-05,7.505709e-05,-2.009447e-08,0.0,0.0,0.0
11984000,0,6.39394e-05,7.505708e-05,-2.0119751e-08,0.0,0.0,0.0
11996000,0,6.3939435e-05,7.505706e-05,-2.0157673e-08,0.0,0.0,0.0
12004000,0,6.393947e-05,7.5057054e-05,-2.0182954e-08,0.0,0.0,0.0
12016000,0,6.3939515e-05,7.505704e-05,-2.0220876e-08,0.0,0.0,0.0
12024000,0,6.3939544e-05,7.5057025e-05,-2.0246159e-08,0.0,0.0,0.0
12036000,0,6.3939595e-05,7.505701e-05,-2.028408e-08,0.0,0.0,0.0
12044000,0,6.3939624e-05,7.5056996e-05,-2.0309361e-08,0.0,0.0,0.0
12056000,0,6.393967e-05,7.505698e-05,-2.0347283e-08,0.0,0.0,0.0
12064000,0,6.39397e-05,7.505697e-05,-2.0372564e-08,0.0,0.0,0.0
12076000,0,6.393975e-05,7.505695e-05,-2.0410486e-08,0.0,0.0,0.0
12084000,0,6.393978e-05,7.505694e-05,-2.0435767e-08,0.0,0.0,0.0
12096000,0,6.393982e-05,7.505692e-05,-2.047369e-08,0.0,0.0,0.0
12104000,0,6.393985e-05,7.505691e-05,-2.0498971e-08,0.0,0.0,0.0
12116000,0,6.39399e-05,7.5056894e-05,-2.0536893e-08,0.0,0.0,0.0
12124000,0,6.393992e-05,7.505688e-05,-2.0562174e-08,0.0,0.0,0.0
12136000,0,6.393997e-05,7.5056865e-05,-2.0600096e-08,0.0,0.0,0.0
12144000,0,6.394e-05,7.505685e-05,-2.0625377e-08,0.0,0.0,0.0
12156000,0,6.394005e-05,7.5056836e-05,-2.0663299e-08,0.0,0.0,0.0
12164000,0,6.3940075e-05,7.505683e-05,-2.068858e-08,0.0,0.0,0.0
12176000,0,6.3940126e-05,7.505681e-05,-2.0726503e-08,0.0,0.0,0.0
12184000,0,6.3940155e-05,7.50568e-05,-2.0751784e-08,0.0,0.0,0.0
12196000,0,6.3940206e-05,7.505678e-05,-2.0789706e-08,0.0,0.0,0.0
12204000,0,6.394023e-05,7.505677e-05,-2.0814987e-08,0.0,0.0,0.0
12216000,0,6.394028e-05,7.505675e-05,-2.0852909e-08,0.0,0.0,0.0
12224000,0,6.394031e-05,7.505674e-05,-2.087819e-08,0.0,0.0,0.0
12236000,0,6.394035e-05,7.505673e-05,-2.0916112e-08,0.0,0.0,0.0
12244000,0,6.394038e-05,7.505671e-05,-2.0941394e-08,0.0,0.0,0.0
12256000,0,6.394043e-05,7.50567e-05,-2.0979316e-08,0.0,0.0,0.0
12264000,0,6.394046e-05,7.505668e-05,-2.1004597e-08,0.0,0.0,0.0
12276000,0,6.3940504e-05,7.505667e-05,-2.1042519e-08,0.0,0.0,0.0
12284000,0,6.394053e-05,7.5056654e-05,-2.10678e-08,0.0,0.0,0.0
12296000,0,6.3940584e-05,7.505664e-05,-2.1105722e-08,0.0,0.0,0.0
12304000,0,6.394061e-05,7.5056625e-05,-2.1131003e-08,0.0,0.0,0.0
12316000,0,6.394066e-05,7.505661e-05,-2.1168926e-08,0.0,0.0,0.0
12324000,0,6.3940686e-05,7.5056596e-05,-2.1194207e-08,0.0,0.0,0.0
12336000,0,6.394073e-05,7.505658e-05,-2.1232129e-08,0.0,0.0,0.0
12344000,0,6.3940766e-05,7.505657e-05,-2.125741e-08,0.0,0.0,0.0
12356000,0,6.394081e-05,7.505655e-05,-2.1295332e-08,0.0,0.0,0.0
12364000,0,6.394084e-05,7.505654e-05,-2.1320613e-08,0.0,0.0,0.0
12376000,0,6.394088e-05,7.505652e-05,-2.1358534e-08,0.0,0.0,0.0
12384000,0,6.394092e-05,7.5056516e-05,-2.1383816e-08,0.0,0.0,0.0
12396000,0,6.394096e-05,7.5056494e-05,-2.1421737e-08,0.0,0.0,0.0
12404000,0,6.3941e-05,7.505649e-05,-2.1447018e-08,0.0,0.0,0.0
12416000,0,6.3941035e-05,7.5056465e-05,-2.1484942e-08,0.0,0.0,0.0
12424000,0,6.394108e-05,7.505646e-05,-2.1510223e-08,0.0,0.0,0.0
12436000,0,6.3941116e-05,7.5056436e-05,-2.1548145e-08,0.0,0.0,0.0
12444000,0,6.394115e-05,7.505643e-05,-2.1573426e-08,0.0,0.0,0.0
12456000,0,6.394119e-05,7.5056414e-05,-2.1611347e-08,0.0,0.0,0.0
12464000,0,6.394123e-05,7.50564e-05,-2.1636628e-08,0.0,0.0,0.0
12476000,0,6.394127e-05,7.5056385e-05,-2.167455e-08,0.0,0.0,0.0
12484000,0,6.3941305e-05,7.505637e-05,-2.1699831e-08,0.0,0.0,0.0
12496000,0,6.394134e-05,7.5056356e-05,-2.1737755e-08,0.0,0.0,0.0
12504000,0,6.3941385e-05,7.505634e-05,-2.1763036e-08,0.0,0.0,0.0
12516000,0,6.394143e-05,7.505633e-05,-2.1800957e-08,0.0,0.0,0.0
12524000,0,6.394146e-05,7.505631e-05,-2.1826239e-08,0.0,0.0,0.0
12536000,0,6.39415e-05,7.50563e-05,-2.186416e-08,0.0,0.0,0.0
12544000,0,6.394154e-05,7.505629e-05,-2.1889441e-08,0.0,0.0,0.0
12556000,0,6.394158e-05,7.505627e-05,-2.1927363e-08,0.0,0.0,0.0
12564000,0,6.394161e-05,7.505626e-05,-2.1952644e-08,0.0,0.0,0.0
12576000,0,6.3941654e-05,7.505624e-05,-2.1990568e-08,0.0,0.0,0.0
12584000,0,6.394168e-05,7.505623e-05,-2.2015849e-08,0.0,0.0,0.0
12596000,0,6.3941734e-05,7.505621e-05,-2.205377e-08,0.0,0.0,0.0
12604000,0,6.3941756e-05,7.50562e-05,-2.2079051e-08,0.0,0.0,0.0
12616000,0,6.394181e-05,7.505618e-05,-2.2116973e-08,0.0,0.0,0.0
12624000,0,6.3941836e-05,7.5056174e-05,-2.2142254e-08,0.0,0.0,0.0
12636000,0,6.394189e-05,7.505616e-05,-2.2180176e-08,0.0,0.0,0.0
12644000,0,6.394191e-05,7.5056145e-05,-2.2205457e-08,0.0,0.0,0.0
12656000,0,6.394196e-05,7.505613e-05,-2.2243379e-08,0.0,0.0,0.0
12664000,0,6.394199e-05,7.5056116e-05,-2.2268662e-08,0.0,0.0,0.0
12676000,0,6.394204e-05,7.50561e-05,-2.2306583e-08,0.0,0.0,0.0
12684000,0,6.394206e-05,7.505609e-05,-2.2331864e-08,0.0,0.0,0.0
12696000,0,6.394211e-05,7.505607e-05,-2.2369786e-08,0.0,0.0,0.0
12704000,0,6.394214e-05,7.505606e-05,-2.2395067e-08,0.0,0.0,0.0
12716000,0,6.3942185e-05,7.505604e-05,-2.2432989e-08,0.0,0.0,0.0
12724000,0,6.3942214e-05,7.505603e-05,-2.245827e-08,0.0,0.0,0.0
12736000,0,6.3942265e-05,7.5056014e-05,-2.2496192e-08,0.0,0.0,0.0
