timestamp,timestamp_sample,lat,lon,alt,alt_ellipsoid,delta_alt,eph,epv,terrain_alt,lat_lon_reset_counter,alt_reset_counter,terrain_alt_valid,dead_reckoning
8608000,8608000,47.397750801382976,8.545607397997534,488.10037,488.10303,0.02277365,1.7320508,1.4142135,nan,2,2,0,0
8616000,8616000,47.39775080002346,8.54560739812272,488.1,488.10266,0.02277365,1.7320541,1.4142181,nan,2,2,0,0
8624000,8624000,47.39775079860266,8.545607398248768,488.09946,488.1021,0.02277365,1.7320641,1.3872902,nan,2,2,0,0
8632000,8632000,47.39775079713574,8.545607398377276,488.09888,488.10153,0.02277365,1.7320807,1.3873122,nan,2,2,0,0
8640000,8640000,47.39775079562037,8.545607398510377,488.0983,488.10095,0.02277365,1.7321041,1.3873435,nan,2,2,0,0
8648000,8648000,47.39775079406696,8.545607398658642,488.09772,488.10037,0.02277365,1.732134,1.3873842,nan,2,2,0,0
8656000,8656000,47.397750792477,8.545607398804355,488.09714,488.0998,0.02277365,1.7321706,1.3874341,nan,2,2,0,0
8664000,8664000,47.39775079085411,8.545607398947201,488.09653,488.09918,0.02277365,1.7322139,1.3874935,nan,2,2,0,0
8672000,8672000,47.39775078918524,8.545607399091647,488.09592,488.09857,0.02277365,1.7322638,1.3875622,nan,2,2,0,0
8680000,8680000,47.39775078745948,8.545607399251974,488.0953,488.09796,0.02277365,1.7323204,1.3876402,nan,2,2,0,0
8688000,8688000,47.39775078569585,8.5456073994259,488.0948,488.09744,0.02277365,1.7323836,1.3640912,nan,2,2,0,0
8696000,8696000,47.39775078394668,8.545607399594099,488.09427,488.09692,0.02277365,1.7324536,1.3641831,nan,2,2,0,0
8704000,8704000,47.397750782216875,8.545607399758454,488.09375,488.0964,0.02277365,1.73253,1.3642843,nan,2,2,0,0
8712000,8712000,47.39775078050091,8.545607399920135,488.09326,488.09592,0.02277365,1.7326132,1.3643951,nan,2,2,0,0
8720000,8720000,47.39775077877587,8.54560740009027,488.09274,488.0954,0.02277365,1.7327031,1.3645154,nan,2,2,0,0
8728000,8728000,47.39775077704238,8.545607400267771,488.09225,488.0949,0.02277365,1.7327996,1.3646452,nan,2,2,0,0
8736000,8736000,47.39775077531245,8.545607400457252,488.09174,488.0944,0.02277365,1.7329028,1.3647846,nan,2,2,0,0
8744000,8744000,47.3977507735868,8.545607400643867,488.09128,488.09393,0.02277365,1.7330127,1.3439685,nan,2,2,0,0
8752000,8752000,47.39775077186671,8.54560740081775,488.0908,488.09344,0.02277365,1.7331291,1.344119,nan,2,2,0,0
8760000,8760000,47.39775077015674,8.545607401004476,488.09033,488.093,0.02277365,1.7332523,1.3442792,nan,2,2,0,0
8768000,8768000,47.39775076844471,8.545607401209026,488.08984,488.0925,0.02277365,1.7333821,1.3444489,nan,2,2,0,0
8776000,8776000,47.397750766726986,8.545607401417497,488.0894,488.09204,0.02277365,1.7335185,1.3446283,nan,2,2,0,0
8784000,8784000,47.397750765011,8.5456074016408,488.08893,488.09158,0.02277365,1.7336617,1.3448173,nan,2,2,0,0
8792000,8792000,47.397750763303655,8.545607401893303,488.08844,488.0911,0.02277365,1.7338114,1.3450159,nan,2,2,0,0
8800000,8800000,47.3977507615991,8.54560740216778,488.08798,488.09064,0.02277365,1.7339678,1.3452241,nan,2,2,0,0
8808000,8808000,47.39775075988113,8.545607402444016,488.0873,488.08997,0.02277365,1.7341309,1.3266364,nan,2,2,0,0
8816000,8816000,47.39775075815202,8.545607402728116,488.08667,488.08932,0.02277365,1.7343006,1.326853,nan,2,2,0,0
8824000,8824000,47.39775075641963,8.545607403016216,488.086,488.08865,0.02277365,1.7344769,1.3270795,nan,2,2,0,0
8832000,8832000,47.397750754680395,8.545607403303382,488.08536,488.088,0.02277365,1.7346599,1.3273157,nan,2,2,0,0
8840000,8840000,47.39775075293877,8.545607403590667,488.08472,488.08737,0.02277365,1.7348496,1.3275616,nan,2,2,0,0
8848000,8848000,47.397750751198835,8.545607403874625,488.08408,488.08673,0.02277365,1.7350459,1.3278171,nan,2,2,0,0
8856000,8856000,47.39775074946242,8.545607404144585,488.08347,488.08612,0.02277365,1.7352488,1.3280824,nan,2,2,0,0
8864000,8864000,47.39775074771602,8.54560740441107,488.08295,488.0856,0.02277365,1.7354585,1.311349,nan,2,2,0,0
8872000,8872000,47.39775074595885,8.545607404669799,488.08246,488.0851,0.02277365,1.7356747,1.3116208,nan,2,2,0,0
8880000,8880000,47.39775074419081,8.545607404927424,488.08194,488.0846,0.02277365,1.7358977,1.3119024,nan,2,2,0,0
8888000,8888000,47.3977507424232,8.545607405191904,488.08145,488.0841,0.02277365,1.7361273,1.3121939,nan,2,2,0,0
8896000,8896000,47.39775074066792,8.545607405447004,488.08093,488.0836,0.02277365,1.7363634,1.3124951,nan,2,2,0,0
8904000,8904000,47.39775073892483,8.545607405700634,488.08044,488.0831,0.02277365,1.7366062,1.3128061,nan,2,2,0,0
8912000,8912000,47.3977507371796,8.545607405953161,488.07996,488.0826,0.02277365,1.7368556,1.313127,nan,2,2,0,0
8920000,8920000,47.397750735430755,8.545607406203796,488.07947,488.08212,0.02277365,1.7371118,1.3134577,nan,2,2,0,0
8928000,8928000,47.39775073368977,8.545607406477606,488.07907,488.08173,0.02277365,1.7373745,1.2982512,nan,2,2,0,0
8936000,8936000,47.39775073196223,8.545607406782745,488.07864,488.0813,0.02277365,1.737644,1.298586,nan,2,2,0,0
8944000,8944000,47.39775073022678,8.545607407092573,488.07822,488.08087,0.02277365,1.7379199,1.2989308,nan,2,2,0,0
8952000,8952000,47.39775072847889,8.545607407412463,488.0778,488.08044,0.02277365,1.7382026,1.2992854,nan,2,2,0,0
8960000,8960000,47.39775072673592,8.54560740774444,488.07736,488.08002,0.02277365,1.7384918,1.2996498,nan,2,2,0,0
8968000,8968000,47.39775072499579,8.545607408071788,488.07693,488.0796,0.02277365,1.7387877,1.3000243,nan,2,2,0,0
8976000,8976000,47.39775072325215,8.545607408409781,488.0765,488.07916,0.02277365,1.7390902,1.3004085,nan,2,2,0,0
8984000,8984000,47.39775072149437,8.545607408763361,488.07617,488.07883,0.02277365,1.7393993,1.2865052,nan,2,2,0,0
8992000,8992000,47.39775071973556,8.54560740913324,488.0758,488.07846,0.02277365,1.7397151,1.2868919,nan,2,2,0,0
9000000,9000000,47.3977507179697,8.545607409504179,488.07547,488.07812,0.02277365,1.7400374,1.2872888,nan,2,2,0,0
9008000,9008000,47.39775071620525,8.545607409872781,488.0751,488.07776,0.02277365,1.7403665,1.2876954,nan,2,2,0,0
9016000,9016000,47.397750717040964,8.545607409951092,488.07523,488.079,0.02277365,1.4168667,1.180317,nan,2,2,0,0
9024000,9024000,47.397750717856695,8.545607410029985,488.07538,488.07916,0.02277365,1.4169723,1.1804595,nan,2,2,0,0
9032000,9032000,47.39775071864522,8.54560741010639,488.0755,488.07928,0.02277365,1.4170822,1.1806073,nan,2,2,0,0
9040000,9040000,47.397750719416926,8.54560741017885,488.07565,488.07944,0.02277365,1.417196,1.1807607,nan,2,2,0,0
9048000,9048000,47.397750720174955,8.545607410257333,488.07587,488.07965,0.02277365,1.4173139,1.1756978,nan,2,2,0,0
9056000,9056000,47.39775072091326,8.545607410369621,488.07608,488.07986,0.02277365,1.4174359,1.1758577,nan,2,2,0,0
9064000,9064000,47.397750721634395,8.545607410488008,488.0763,488.08008,0.02277365,1.417562,1.176023,nan,2,2,0,0
9072000,9072000,47.39775072234715,8.545607410591797,488.0765,488.0803,0.02277365,1.417692,1.1761937,nan,2,2,0,0
9080000,9080000,47.39775072303667,8.545607410700857,488.07672,488.0805,0.02277365,1.4178262,1.1763699,nan,2,2,0,0
9088000,9088000,47.39775072369589,8.545607410820457,488.0769,488.0807,0.02277365,1.4179643,1.1765515,nan,2,2,0,0
9096000,9096000,47.39775072432248,8.545607410949325,488.07712,488.0809,0.02277365,1.4181067,1.1767385,nan,2,2,0,0
9104000,9104000,47.39775072492959,8.545607411072575,488.07727,488.08105,0.02277365,1.4182531,1.1719357,nan,2,2,0,0
9112000,9112000,47.39775072552003,8.545607411195208,488.07745,488.08124,0.02277365,1.4184034,1.1721284,nan,2,2,0,0
9120000,9120000,47.397750726094095,8.545607411313746,488.0776,488.0814,0.02277365,1.418558,1.1723267,nan,2,2,0,0
9128000,9128000,47.39775072663876,8.545607411446474,488.07776,488.08154,0.02277365,1.4187164,1.1725304,nan,2,2,0,0
9136000,9136000,47.39775072714594,8.545607411596526,488.07794,488.08173,0.02277365,1.4188792,1.1727395,nan,2,2,0,0
9144000,9144000,47.397750727605505,8.54560741173877,488.0781,488.08188,0.02277365,1.4190458,1.1729542,nan,2,2,0,0
9152000,9152000,47.3977507280268,8.54560741187646,488.07834,488.08212,0.02277365,1.4192165,1.1683873,nan,2,2,0,0
9160000,9160000,47.39775072842292,8.545607412020525,488.07855,488.08234,0.02277365,1.4193914,1.168607,nan,2,2,0,0
9168000,9168000,47.39775072880771,8.545607412168708,488.0788,488.08258,0.02277365,1.4195702,1.1688323,nan,2,2,0,0
9176000,9176000,47.397750729179265,8.54560741233388,488.07904,488.08282,0.02277365,1.4197533,1.169063,nan,2,2,0,0
9184000,9184000,47.39775072952629,8.545607412518947,488.07925,488.08304,0.02277365,1.4199402,1.1692991,nan,2,2,0,0
9192000,9192000,47.39775072984271,8.545607412686952,488.07947,488.08325,0.02277365,1.4201314,1.1695406,nan,2,2,0,0
9200000,9200000,47.39775073014453,8.545607412849847,488.07968,488.08347,0.02277365,1.4203266,1.1697878,nan,2,2,0,0
9208000,9208000,47.397750730433884,8.545607413029572,488.0799,488.08368,0.02277365,1.4205259,1.1700402,nan,2,2,0,0
9216000,9216000,47.39775073071855,8.545607413194904,488.08005,488.08383,0.02277365,1.4207292,1.165668,nan,2,2,0,0
9224000,9224000,47.39775073099617,8.5456074133614,488.0802,488.08398,0.02277365,1.4209367,1.1659248,nan,2,2,0,0
9232000,9232000,47.39775073125242,8.545607413534107,488.08035,488.08414,0.02277365,1.4211481,1.166187,nan,2,2,0,0
9240000,9240000,47.39775073147653,8.545607413687325,488.08047,488.08426,0.02277365,1.4213637,1.1664547,nan,2,2,0,0
9248000,9248000,47.39775073168619,8.545607413831549,488.0806,488.08438,0.02277365,1.4215834,1.1667279,nan,2,2,0,0
9256000,9256000,47.39775073189145,8.54560741400417,488.08075,488.08453,0.02277365,1.421807,1.1670065,nan,2,2,0,0
9264000,9264000,47.39775073207288,8.545607414193237,488.08087,488.08466,0.02277365,1.422035,1.1672904,nan,2,2,0,0
9272000,9272000,47.3977507322304,8.54560741438678,488.081,488.08478,0.02277365,1.4222668,1.1630956,nan,2,2,0,0
9280000,9280000,47.39775073237562,8.545607414596793,488.08112,488.0849,0.02277365,1.4225029,1.1633832,nan,2,2,0,0
9288000,9288000,47.39775073250712,8.545607414821097,488.0812,488.085,0.02277365,1.4227428,1.1636763,nan,2,2,0,0
9296000,9296000,47.397750732603996,8.545607415038768,488.08133,488.0851,0.02277365,1.422987,1.1639749,nan,2,2,0,0
9304000,9304000,47.39775073266459,8.545607415268963,488.08145,488.08524,0.02277365,1.4232352,1.1642787,nan,2,2,0,0
9312000,9312000,47.39775073269176,8.545607415509267,488.08154,488.08533,0.02277365,1.4234875,1.1645882,nan,2,2,0,0
9320000,9320000,47.397750732693375,8.545607415744607,488.08163,488.08542,0.02277365,1.4237438,1.1605599,nan,2,2,0,0
9328000,9328000,47.397750732680386,8.545607415962378,488.0817,488.08548,0.02277365,1.4240043,1.1608725,nan,2,2,0,0
9336000,9336000,47.39775073264205,8.545607416186224,488.08176,488.08554,0.02277365,1.424269,1.1611903,nan,2,2,0,0
9344000,9344000,47.39775073257885,8.545607416399578,488.08182,488.0856,0.02277365,1.4245375,1.1615137,nan,2,2,0,0
9352000,9352000,47.39775073248125,8.545607416603701,488.08188,488.08566,0.02277365,1.4248103,1.1618426,nan,2,2,0,0
9360000,9360000,47.39775073234756,8.54560741681421,488.08194,488.08572,0.02277365,1.4250871,1.1621767,nan,2,2,0,0
9368000,9368000,47.397750732190524,8.545607417030299,488.082,488.0858,0.02277365,1.425368,1.1625165,nan,2,2,0,0
9376000,9376000,47.39775073202284,8.54560741723405,488.08203,488.08582,0.02277365,1.4256531,1.1628616,nan,2,2,0,0
9384000,9384000,47.397750731827614,8.545607417435265,488.08206,488.08585,0.02277365,1.4259421,1.1589572,nan,2,2,0,0
9392000,9392000,47.39775073160098,8.545607417661092,488.0821,488.08588,0.02277365,1.4262353,1.1593046,nan,2,2,0,0
9400000,9400000,47.39775073135087,8.54560741792457,488.08212,488.0859,0.02277365,1.4265327,1.1596574,nan,2,2,0,0
9408000,9408000,47.39775073233542,8.545607416162518,488.0823,488.0867,0.02277365,1.2957462,1.1188513,nan,2,2,0,0
9416000,9416000,47.39775073329725,8.545607414390973,488.08252,488.0869,0.02277365,1.2958941,1.1190404,nan,2,2,0,0
9424000,9424000,47.39775073424117,8.54560741260733,488.0827,488.0871,0.02277365,1.2960451,1.1192333,nan,2,2,0,0
9432000,9432000,47.397750735163534,8.545607410836617,488.08286,488.08725,0.02277365,1.2961988,1.11943,nan,2,2,0,0
9440000,9440000,47.397750736061475,8.54560740908659,488.083,488.0874,0.02277365,1.2963557,1.1173341,nan,2,2,0,0
9448000,9448000,47.39775073691985,8.545607407357227,488.08316,488.08755,0.02277365,1.2965155,1.1175345,nan,2,2,0,0
9456000,9456000,47.39775073773736,8.545607405650882,488.08328,488.08768,0.02277365,1.2966783,1.1177387,nan,2,2,0,0
9464000,9464000,47.3977507385276,8.545607403966137,488.08344,488.08783,0.02277365,1.2968441,1.1179467,nan,2,2,0,0
9472000,9472000,47.3977507392859,8.545607402291786,488.08356,488.08795,0.02277365,1.2970129,1.1181585,nan,2,2,0,0
9480000,9480000,47.397750740021976,8.545607400635198,488.08368,488.08807,0.02277365,1.2971846,1.1183739,nan,2,2,0,0
9488000,9488000,47.397750740735454,8.545607398991187,488.0838,488.0882,0.02277365,1.2973593,1.1185931,nan,2,2,0,0
9496000,9496000,47.397750741432745,8.545607397380461,488.08392,488.08832,0.02277365,1.2975371,1.118816,nan,2,2,0,0
9504000,9504000,47.39775074209687,8.545607395786606,488.08408,488.08847,0.02277365,1.2977179,1.1167691,nan,2,2,0,0
9512000,9512000,47.39775074272054,8.545607394215258,488.0842,488.0886,0.02277365,1.2979016,1.1169953,nan,2,2,0,0
9520000,9520000,47.39775074332004,8.545607392661399,488.08435,488.08875,0.02277365,1.2980884,1.1172254,nan,2,2,0,0
9528000,9528000,47.39775074390245,8.545607391120596,488.08447,488.08887,0.02277365,1.2982781,1.1174592,nan,2,2,0,0
9536000,9536000,47.39775074445871,8.545607389610483,488.0846,488.089,0.02277365,1.298471,1.1176966,nan,2,2,0,0
9544000,9544000,47.39775074497631,8.545607388135974,488.08472,488.0891,0.02277365,1.2986667,1.1179379,nan,2,2,0,0
9552000,9552000,47.39775074547132,8.545607386681047,488.08484,488.08923,0.02277365,1.2988656,1.118183,nan,2,2,0,0
9560000,9560000,47.39775074594668,8.545607385234645,488.08493,488.08932,0.02277365,1.2990674,1.1161813,nan,2,2,0,0
9568000,9568000,47.39775074639066,8.545607383786281,488.08502,488.08942,0.02277365,1.2992722,1.1164293,nan,2,2,0,0
9576000,9576000,47.39775074680742,8.545607382349493,488.08508,488.08948,0.02277365,1.2994801,1.116681,nan,2,2,0,0
9584000,9584000,47.39775074719018,8.545607380925698,488.08517,488.08957,0.02277365,1.299691,1.1169364,nan,2,2,0,0
9592000,9592000,47.39775074753064,8.545607379506338,488.08527,488.08966,0.02277365,1.2999048,1.1171956,nan,2,2,0,0
9600000,9600000,47.397750747839,8.545607378108494,488.08533,488.08972,0.02277365,1.3001218,1.1174586,nan,2,2,0,0
9608000,9608000,47.3977507481237,8.545607376744048,488.08533,488.08972,0.02277365,1.3003417,1.1155015,nan,2,2,0,0
9616000,9616000,47.39775074837237,8.545607375405208,488.08533,488.08972,0.02277365,1.3005646,1.1157671,nan,2,2,0,0
9624000,9624000,47.39775074858239,8.54560737407962,488.08533,488.08972,0.02277365,1.3007908,1.1160364,nan,2,2,0,0
9632000,9632000,47.397750748757446,8.545607372769688,488.0853,488.0897,0.02277365,1.3010198,1.1163094,nan,2,2,0,0
9640000,9640000,47.397750748900854,8.545607371479568,488.0853,488.0897,0.02277365,1.3012519,1.1165863,nan,2,2,0,0
9648000,9648000,47.39775074902004,8.545607370212766,488.0853,488.0897,0.02277365,1.3014871,1.1168667,nan,2,2,0,0
9656000,9656000,47.3977507491086,8.545607368970337,488.0853,488.0897,0.02277365,1.3017253,1.117151,nan,2,2,0,0
9664000,9664000,47.397750749165894,8.545607367766387,488.08527,488.08966,0.02277365,1.3019665,1.117439,nan,2,2,0,0
9672000,9672000,47.397750749201194,8.545607366595254,488.08527,488.08966,0.02277365,1.3022108,1.1155069,nan,2,2,0,0
9680000,9680000,47.397750749218446,8.545607365439748,488.08524,488.08963,0.02277365,1.3024582,1.115797,nan,2,2,0,0
9688000,9688000,47.397750749220215,8.545607364285049,488.0852,488.0896,0.02277365,1.3027086,1.1160909,nan,2,2,0,0
9696000,9696000,47.39775074919218,8.545607363145939,488.08517,488.08957,0.02277365,1.3029621,1.1163886,nan,2,2,0,0
9704000,9704000,47.39775074912819,8.54560736202849,488.08514,488.08954,0.02277365,1.3032187,1.1166898,nan,2,2,0,0
9712000,9712000,47.3977507490437,8.545607360936113,488.0851,488.0895,0.02277365,1.3034784,1.1169949,nan,2,2,0,0
9720000,9720000,47.39775074894239,8.545607359868361,488.08508,488.08948,0.02277365,1.303741,1.1173035,nan,2,2,0,0
9728000,9728000,47.397750748815284,8.545607358822386,488.085,488.0894,0.02277365,1.3040068,1.1153967,nan,2,2,0,0
9736000,9736000,47.39775074867509,8.54560735781142,488.0849,488.0893,0.02277365,1.3042758,1.1157073,nan,2,2,0,0
9744000,9744000,47.39775074852858,8.545607356828983,488.0848,488.0892,0.02277365,1.3045477,1.1160215,nan,2,2,0,0
9752000,9752000,47.397750748363585,8.545607355866105,488.08472,488.0891,0.02277365,1.3048227,1.1163394,nan,2,2,0,0
9760000,9760000,47.39775074819348,8.545607354913692,488.08463,488.08902,0.02277365,1.3051008,1.1166611,nan,2,2,0,0
9768000,9768000,47.39775074800516,8.545607353969146,488.08453,488.08893,0.02277365,1.305382,1.1169864,nan,2,2,0,0
9776000,9776000,47.397750747788805,8.545607353043119,488.08444,488.08884,0.02277365,1.3056663,1.1173155,nan,2,2,0,0
9784000,9784000,47.39775074755693,8.54560735214256,488.08432,488.0887,0.02277365,1.3059537,1.1176482,nan,2,2,0,0
9792000,9792000,47.397750747307256,8.54560735128054,488.0843,488.08868,0.02277365,1.3062443,1.1157519,nan,2,2,0,0
9800000,9800000,47.397750747034145,8.545607350460264,488.08423,488.08862,0.02277365,1.3065379,1.1160859,nan,2,2,0,0
9808000,9808000,47.39775074665299,8.545607351242813,488.0844,488.08893,0.02277365,1.2321162,1.0919116,nan,2,2,0,0
9816000,9816000,47.3977507462518,8.54560735201152,488.08463,488.08914,0.02277365,1.2322909,1.0921245,nan,2,2,0,0
9824000,9824000,47.39775074583696,8.545607352744685,488.0848,488.08932,0.02277365,1.2324679,1.0923401,nan,2,2,0,0
9832000,9832000,47.39775074539979,8.545607353443724,488.085,488.0895,0.02277365,1.2326474,1.0925587,nan,2,2,0,0
9840000,9840000,47.39775074495524,8.545607354113878,488.08517,488.0897,0.02277365,1.2328293,1.0927801,nan,2,2,0,0
9848000,9848000,47.39775074450001,8.545607354757045,488.0853,488.0898,0.02277365,1.2330137,1.0916128,nan,2,2,0,0
9856000,9856000,47.397750744028336,8.545607355390406,488.08545,488.08997,0.02277365,1.2332004,1.0918366,nan,2,2,0,0
9864000,9864000,47.39775074353499,8.545607356004409,488.0856,488.09012,0.02277365,1.2333896,1.0920632,nan,2,2,0,0
9872000,9872000,47.39775074302283,8.545607356616538,488.08572,488.09024,0.02277365,1.2335813,1.0922925,nan,2,2,0,0
9880000,9880000,47.39775074248877,8.545607357236603,488.08588,488.0904,0.02277365,1.2337754,1.0925248,nan,2,2,0,0
9888000,9888000,47.39775074192589,8.545607357836031,488.086,488.0905,0.02277365,1.233972,1.0927598,nan,2,2,0,0
9896000,9896000,47.39775074134312,8.545607358401252,488.08615,488.09067,0.02277365,1.2341709,1.0929977,nan,2,2,0,0
9904000,9904000,47.397750740740285,8.545607358946366,488.08627,488.0908,0.02277365,1.2343724,1.0932382,nan,2,2,0,0
9912000,9912000,47.39775074011453,8.545607359486995,488.08636,488.09088,0.02277365,1.2345763,1.0920762,nan,2,2,0,0
9920000,9920000,47.397750739465344,8.545607360032358,488.08646,488.09097,0.02277365,1.2347827,1.092319,nan,2,2,0,0
9928000,9928000,47.39775073880231,8.545607360587592,488.08655,488.09106,0.02277365,1.2349914,1.0925645,nan,2,2,0,0
9936000,9936000,47.39775073812638,8.545607361131959,488.08664,488.09116,0.02277365,1.2352028,1.0928129,nan,2,2,0,0
9944000,9944000,47.39775073743879,8.545607361669385,488.08673,488.09125,0.02277365,1.2354167,1.0930641,nan,2,2,0,0
9952000,9952000,47.39775073674757,8.545607362204489,488.0868,488.0913,0.02277365,1.2356329,1.0933181,nan,2,2,0,0
9960000,9960000,47.397750736046724,8.545607362736442,488.08688,488.0914,0.02277365,1.2358516,1.0935749,nan,2,2,0,0
9968000,9968000,47.397750735329154,8.545607363250777,488.08698,488.0915,0.02277365,1.2360729,1.0924186,nan,2,2,0,0
9976000,9976000,47.397750734589515,8.545607363757021,488.0871,488.0916,0.02277365,1.2362967,1.0926771,nan,2,2,0,0
9984000,9984000,47.39775073382247,8.54560736425101,488.0872,488.0917,0.02277365,1.236523,1.0929387,nan,2,2,0,0
9992000,9992000,47.39775073303749,8.545607364732463,488.08728,488.0918,0.02277365,1.2367517,1.093203,nan,2,2,0,0
10000000,10000000,47.39775073222538,8.545607365203331,488.08737,488.0919,0.02277365,1.2369831,1.09347,nan,2,2,0,0
10008000,10008000,47.3977507313885,8.545607365680324,488.08746,488.09198,0.02277365,1.2372168,1.0937399,nan,2,2,0,0
10016000,10016000,47.39775073053526,8.545607366155505,488.08755,488.09207,0.02277365,1.2374531,1.0940125,nan,2,2,0,0
10024000,10024000,47.39775072965487,8.54560736661932,488.08765,488.09216,0.02277365,1.237692,1.094288,nan,2,2,0,0
10032000,10032000,47.39775072875862,8.545607367081828,488.08774,488.09225,0.02277365,1.2379334,1.0931283,nan,2,2,0,0
10040000,10040000,47.39775072786296,8.54560736755604,488.08783,488.09235,0.02277365,1.2381774,1.0934054,nan,2,2,0,0
10048000,10048000,47.39775072695508,8.54560736802763,488.08792,488.09244,0.02277365,1.2384238,1.0936852,nan,2,2,0,0
10056000,10056000,47.39775072603305,8.545607368479121,488.088,488.09253,0.02277365,1.2386729,1.0939678,nan,2,2,0,0
10064000,10064000,47.39775072508968,8.545607368940296,488.08807,488.0926,0.02277365,1.2389245,1.0942532,nan,2,2,0,0
10072000,10072000,47.39775072413602,8.545607369410508,488.08817,488.09268,0.02277365,1.2391787,1.0945414,nan,2,2,0,0
10080000,10080000,47.39775072318,8.545607369869064,488.08823,488.09274,0.02277365,1.2394353,1.0948323,nan,2,2,0,0
10088000,10088000,47.39775072221665,8.545607370325778,488.0883,488.0928,0.02277365,1.2396946,1.0936713,nan,2,2,0,0
10096000,10096000,47.39775072124804,8.545607370783172,488.08832,488.09283,0.02277365,1.2399565,1.0939636,nan,2,2,0,0
10104000,10104000,47.39775072028366,8.54560737124706,488.08835,488.09286,0.02277365,1.240221,1.0942587,nan,2,2,0,0
10112000,10112000,47.39775071932064,8.545607371714823,488.08835,488.09286,0.02277365,1.240488,1.0945566,nan,2,2,0,0
10120000,10120000,47.39775071836037,8.545607372171258,488.08838,488.0929,0.02277365,1.2407576,1.0948571,nan,2,2,0,0
10128000,10128000,47.397750717393684,8.545607372601701,488.0884,488.09293,0.02277365,1.2410299,1.0951605,nan,2,2,0,0
10136000,10136000,47.39775071641395,8.545607373006415,488.08844,488.09296,0.02277365,1.2413048,1.0954667,nan,2,2,0,0
10144000,10144000,47.39775071542842,8.545607373401452,488.08844,488.09296,0.02277365,1.2415822,1.0957757,nan,2,2,0,0
10152000,10152000,47.39775071443991,8.54560737380404,488.08847,488.093,0.02277365,1.2418623,1.0946034,nan,2,2,0,0
10160000,10160000,47.39775071345055,8.545607374191462,488.0885,488.09302,0.02277365,1.242145,1.0949134,nan,2,2,0,0
10168000,10168000,47.39775071245937,8.545607374561214,488.0885,488.09302,0.02277365,1.2424303,1.0952262,nan,2,2,0,0
10176000,10176000,47.39775071146078,8.545607374939078,488.08853,488.09305,0.02277365,1.2427183,1.0955416,nan,2,2,0,0
10184000,10184000,47.39775071045608,8.54560737532926,488.08853,488.09305,0.02277365,1.243009,1.0958599,nan,2,2,0,0
10192000,10192000,47.39775070944808,8.545607375720778,488.08853,488.09305,0.02277365,1.2433022,1.0961809,nan,2,2,0,0
10200000,10200000,47.39775070843467,8.54560737610166,488.08856,488.09308,0.02277365,1.2435982,1.0965048,nan,2,2,0,0
10208000,10208000,47.39775071014555,8.545607377970489,488.08862,488.09305,0.02277365,1.1934375,1.0775146,nan,2,2,0,0
10216000,10216000,47.397750711809316,8.54560737979609,488.0887,488.09314,0.02277365,1.1936307,1.0777378,nan,2,2,0,0
10224000,10224000,47.397750713424344,8.545607381578497,488.0888,488.09323,0.02277365,1.193826,1.0779632,nan,2,2,0,0
10232000,10232000,47.39775071500195,8.545607383325386,488.08887,488.0933,0.02277365,1.1940234,1.0781908,nan,2,2,0,0
10240000,10240000,47.397750716536116,8.545607385040414,488.08896,488.09338,0.02277365,1.1942229,1.0784206,nan,2,2,0,0
10248000,10248000,47.397750718029215,8.545607386730211,488.08902,488.09344,0.02277365,1.1944245,1.0786527,nan,2,2,0,0
10256000,10256000,47.39775071948432,8.545607388382551,488.08908,488.0935,0.02277365,1.1946285,1.0788871,nan,2,2,0,0
10264000,10264000,47.39775072089931,8.545607389985333,488.08914,488.09357,0.02277365,1.1948344,1.0791236,nan,2,2,0,0
10272000,10272000,47.39775072227225,8.545607391566048,488.0892,488.09363,0.02277365,1.1950426,1.078348,nan,2,2,0,0
10280000,10280000,47.397750723612596,8.54560739313901,488.08926,488.0937,0.02277365,1.1952529,1.0785861,nan,2,2,0,0
10288000,10288000,47.39775072492243,8.545607394712171,488.08932,488.09375,0.02277365,1.1954654,1.0788264,nan,2,2,0,0
10296000,10296000,47.39775072620165,8.545607396273187,488.0894,488.0938,0.02277365,1.1956801,1.0790689,nan,2,2,0,0
10304000,10304000,47.397750727447075,8.545607397827009,488.08945,488.09387,0.02277365,1.195897,1.0793138,nan,2,2,0,0
10312000,10312000,47.3977507286617,8.54560739938661,488.0895,488.09393,0.02277365,1.1961161,1.0795606,nan,2,2,0,0
10320000,10320000,47.39775072984478,8.545607400926134,488.08957,488.094,0.02277365,1.1963373,1.0798099,nan,2,2,0,0
10328000,10328000,47.39775073099297,8.545607402442618,488.08963,488.09406,0.02277365,1.1965609,1.0790292,nan,2,2,0,0
10336000,10336000,47.397750732104456,8.545607403924265,488.08966,488.0941,0.02277365,1.1967865,1.0792798,nan,2,2,0,0
10344000,10344000,47.39775073317798,8.545607405377911,488.08972,488.09415,0.02277365,1.1970145,1.0795325,nan,2,2,0,0
10352000,10352000,47.39775073422157,8.545607406809596,488.08978,488.0942,0.02277365,1.1972446,1.0797875,nan,2,2,0,0
10360000,10360000,47.39775073523544,8.545607408202898,488.0898,488.09424,0.02277365,1.197477,1.0800447,nan,2,2,0,0
10368000,10368000,47.39775073620944,8.545607409558388,488.08987,488.0943,0.02277365,1.1977117,1.0803041,nan,2,2,0,0
10376000,10376000,47.39775073715107,8.545607410895947,488.0899,488.09433,0.02277365,1.1979486,1.0805658,nan,2,2,0,0
10384000,10384000,47.397750738065284,8.54560741223368,488.08994,488.09436,0.02277365,1.1981877,1.0808297,nan,2,2,0,0
10392000,10392000,47.39775073895407,8.545607413566302,488.09,488.09442,0.02277365,1.1984292,1.0800371,nan,2,2,0,0
10400000,10400000,47.397750739813745,8.545607414871196,488.09003,488.09445,0.02277365,1.198673,1.0803021,nan,2,2,0,0
10408000,10408000,47.39775074063852,8.545607416152853,488.09006,488.09448,0.02277365,1.198919,1.0805694,nan,2,2,0,0
10416000,10416000,47.39775074144221,8.545607417417708,488.0901,488.0945,0.02277365,1.1991673,1.0808389,nan,2,2,0,0
10424000,10424000,47.39775074222023,8.54560741866493,488.09012,488.09454,0.02277365,1.199418,1.0811106,nan,2,2,0,0
10432000,10432000,47.39775074297164,8.545607419872766,488.09015,488.09457,0.02277365,1.1996708,1.0813844,nan,2,2,0,0
10440000,10440000,47.39775074370058,8.545607421040144,488.09015,488.09457,0.02277365,1.199926,1.0816605,nan,2,2,0,0
10448000,10448000,47.397750744389874,8.545607422184073,488.09018,488.0946,0.02277365,1.2001836,1.0808582,nan,2,2,0,0
10456000,10456000,47.3977507450497,8.545607423291823,488.0902,488.09464,0.02277365,1.2004435,1.0811353,nan,2,2,0,0
10464000,10464000,47.39775074568396,8.545607424361561,488.09024,488.09467,0.02277365,1.2007058,1.0814145,nan,2,2,0,0
10472000,10472000,47.39775074627992,8.545607425423094,488.09027,488.0947,0.02277365,1.2009704,1.0816959,nan,2,2,0,0
10480000,10480000,47.39775074684711,8.545607426464871,488.09027,488.0947,0.02277365,1.2012373,1.0819796,nan,2,2,0,0
10488000,10488000,47.39775074738602,8.545607427493454,488.09027,488.0947,0.02277365,1.2015067,1.0822656,nan,2,2,0,0
10496000,10496000,47.39775074790078,8.545607428530948,488.0903,488.09473,0.02277365,1.2017784,1.0825536,nan,2,2,0,0
10504000,10504000,47.39775074839302,8.545607429581992,488.0903,488.09473,0.02277365,1.2020525,1.082844,nan,2,2,0,0
10512000,10512000,47.39775074886178,8.54560743061889,488.0903,488.09473,0.02277365,1.202329,1.0820243,nan,2,2,0,0
10520000,10520000,47.397750749304635,8.545607431644964,488.09033,488.09476,0.02277365,1.2026079,1.0823153,nan,2,2,0,0
10528000,10528000,47.39775074971514,8.545607432660073,488.09033,488.09476,0.02277365,1.2028892,1.0826086,nan,2,2,0,0
10536000,10536000,47.39775075010403,8.545607433649188,488.09033,488.09476,0.02277365,1.2031729,1.082904,nan,2,2,0,0
10544000,10544000,47.39775075048063,8.545607434627117,488.09033,488.09476,0.02277365,1.2034591,1.0832016,nan,2,2,0,0
10552000,10552000,47.39775075084497,8.545607435607124,488.09033,488.09476,0.02277365,1.2037477,1.0835016,nan,2,2,0,0
10560000,10560000,47.397750751195495,8.545607436574844,488.09033,488.09476,0.02277365,1.2040387,1.0838037,nan,2,2,0,0
10568000,10568000,47.39775075152584,8.54560743755052,488.09036,488.0948,0.02277365,1.2043324,1.0829698,nan,2,2,0,0
10576000,10576000,47.39775075182142,8.545607438526728,488.09036,488.0948,0.02277365,1.2046283,1.0832723,nan,2,2,0,0
10584000,10584000,47.39775075208633,8.545607439499731,488.09036,488.0948,0.02277365,1.2049268,1.083577,nan,2,2,0,0
10592000,10592000,47.39775075232174,8.545607440466213,488.09036,488.0948,0.02277365,1.2052279,1.083884,nan,2,2,0,0
10600000,10600000,47.397750752531614,8.545607441423986,488.09036,488.0948,0.02277365,1.2055314,1.0841931,nan,2,2,0,0
10608000,10608000,47.397750753390156,8.545607441717841,488.09033,488.09482,0.02277365,1.1679052,1.0697446,nan,2,2,0,0
10616000,10616000,47.397750754211245,8.545607442010954,488.0903,488.0948,0.02277365,1.1681137,1.0699732,nan,2,2,0,0
10624000,10624000,47.39775075501598,8.545607442313036,488.09027,488.09476,0.02277365,1.1683242,1.0702037,nan,2,2,0,0
10632000,10632000,47.397750755797006,8.545607442644496,488.0902,488.0947,0.02277365,1.1685367,1.0696363,nan,2,2,0,0
10640000,10640000,47.397750756544674,8.545607443002147,488.09015,488.09464,0.02277365,1.1687511,1.0698678,nan,2,2,0,0
10648000,10648000,47.397750757261115,8.545607443370118,488.0901,488.09457,0.02277365,1.1689677,1.0701013,nan,2,2,0,0
10656000,10656000,47.397750757943946,8.545607443757614,488.09003,488.0945,0.02277365,1.1691864,1.0703365,nan,2,2,0,0
10664000,10664000,47.39775075860922,8.545607444145135,488.08997,488.09445,0.02277365,1.169407,1.0705736,nan,2,2,0,0
10672000,10672000,47.397750759271936,8.545607444537085,488.0899,488.0944,0.02277365,1.1696297,1.0708125,nan,2,2,0,0
10680000,10680000,47.39775075992591,8.545607444942178,488.0898,488.0943,0.02277365,1.1698545,1.0710531,nan,2,2,0,0
10688000,10688000,47.3977507605723,8.545607445375788,488.08972,488.0942,0.02277365,1.1700814,1.0704768,nan,2,2,0,0
10696000,10696000,47.39775076120745,8.54560744581414,488.08963,488.09412,0.02277365,1.1703104,1.0707184,nan,2,2,0,0
10704000,10704000,47.39775076181599,8.545607446253937,488.0895,488.094,0.02277365,1.1705414,1.070962,nan,2,2,0,0
10712000,10712000,47.39775076238931,8.545607446714424,488.08942,488.0939,0.02277365,1.1707746,1.0712073,nan,2,2,0,0
10720000,10720000,47.3977507629372,8.54560744717464,488.08932,488.0938,0.02277365,1.1710099,1.0714545,nan,2,2,0,0
10728000,10728000,47.39775076347147,8.545607447628605,488.0892,488.0937,0.02277365,1.1712474,1.0717036,nan,2,2,0,0
10736000,10736000,47.39775076400114,8.54560744810217,488.0891,488.0936,0.02277365,1.1714869,1.0719545,nan,2,2,0,0
10744000,10744000,47.39775076453308,8.545607448582777,488.089,488.09348,0.02277365,1.1717286,1.0722072,nan,2,2,0,0
10752000,10752000,47.397750765051924,8.545607449067715,488.0889,488.09338,0.02277365,1.1719725,1.0716159,nan,2,2,0,0
10760000,10760000,47.39775076554056,8.545607449572781,488.08878,488.09326,0.02277365,1.1722187,1.0718695,nan,2,2,0,0
10768000,10768000,47.3977507660081,8.545607450084482,488.08865,488.09314,0.02277365,1.1724669,1.0721248,nan,2,2,0,0
10776000,10776000,47.397750766448134,8.545607450590465,488.08853,488.09302,0.02277365,1.1727173,1.072382,nan,2,2,0,0
10784000,10784000,47.3977507668665,8.545607451096906,488.08844,488.09293,0.02277365,1.1729699,1.072641,nan,2,2,0,0
10792000,10792000,47.397750767262266,8.54560745160461,488.08832,488.0928,0.02277365,1.1732249,1.072902,nan,2,2,0,0
10800000,10800000,47.397750767632445,8.54560745212052,488.0882,488.09268,0.02277365,1.173482,1.0731647,nan,2,2,0,0
10808000,10808000,47.397750767978856,8.54560745264724,488.08804,488.09253,0.02277365,1.1737413,1.0725608,nan,2,2,0,0
10816000,10816000,47.39775076832143,8.545607453185813,488.0879,488.09238,0.02277365,1.1740029,1.0728241,nan,2,2,0,0
10824000,10824000,47.3977507686498,8.545607453742456,488.08774,488.09222,0.02277365,1.1742668,1.0730892,nan,2,2,0,0
10832000,10832000,47.397750768955,8.545607454302386,488.08762,488.0921,0.02277365,1.1745329,1.0733563,nan,2,2,0,0
10840000,10840000,47.397750769232175,8.54560745484862,488.08746,488.09195,0.02277365,1.1748012,1.0736252,nan,2,2,0,0
10848000,10848000,47.397750769477376,8.545607455388582,488.0873,488.0918,0.02277365,1.175072,1.0738959,nan,2,2,0,0
10856000,10856000,47.39775076970941,8.54560745591451,488.08716,488.09164,0.02277365,1.175345,1.0741684,nan,2,2,0,0
10864000,10864000,47.397750769945745,8.545607456433574,488.087,488.0915,0.02277365,1.1756203,1.0744427,nan,2,2,0,0
10872000,10872000,47.39775077015363,8.54560745695636,488.08688,488.09137,0.02277365,1.175898,1.0738201,nan,2,2,0,0
10880000,10880000,47.397750770333694,8.5456074574787,488.08676,488.09125,0.02277365,1.1761779,1.0740949,nan,2,2,0,0
10888000,10888000,47.397750770503954,8.54560745800645,488.08664,488.09113,0.02277365,1.1764603,1.0743716,nan,2,2,0,0
10896000,10896000,47.397750770674534,8.545607458533295,488.08655,488.09103,0.02277365,1.1767449,1.07465,nan,2,2,0,0
10904000,10904000,47.397750770840766,8.54560745905633,488.08643,488.0909,0.02277365,1.1770321,1.0749303,nan,2,2,0,0
10912000,10912000,47.39775077099971,8.54560745956298,488.0863,488.0908,0.02277365,1.1773216,1.0752126,nan,2,2,0,0
10920000,10920000,47.39775077115343,8.54560746006639,488.08618,488.09067,0.02277365,1.1776134,1.0754966,nan,2,2,0,0
10928000,10928000,47.39775077129156,8.545607460574367,488.08603,488.0905,0.02277365,1.1779077,1.0748578,nan,2,2,0,0
10936000,10936000,47.397750771416504,8.545607461075846,488.0859,488.0904,0.02277365,1.1782044,1.0751421,nan,2,2,0,0
10944000,10944000,47.397750771522425,8.545607461571844,488.0858,488.09027,0.02277365,1.1785035,1.0754282,nan,2,2,0,0
10952000,10952000,47.39775077161943,8.54560746205636,488.08566,488.09015,0.02277365,1.1788051,1.0757163,nan,2,2,0,0
10960000,10960000,47.39775077171705,8.54560746252713,488.08554,488.09003,0.02277365,1.1791092,1.076006,nan,2,2,0,0
10968000,10968000,47.39775077180922,8.545607462996946,488.0854,488.08987,0.02277365,1.1794157,1.0762978,nan,2,2,0,0
10976000,10976000,47.39775077188628,8.545607463465686,488.08527,488.08975,0.02277365,1.1797248,1.0765911,nan,2,2,0,0
10984000,10984000,47.39775077195206,8.545607463924155,488.0851,488.0896,0.02277365,1.1800363,1.0768865,nan,2,2,0,0
10992000,10992000,47.39775077202439,8.545607464379904,488.08502,488.0895,0.02277365,1.1803504,1.0762248,nan,2,2,0,0
11000000,11000000,47.39775077208003,8.54560746485478,488.0849,488.0894,0.02277365,1.180667,1.0765202,nan,2,2,0,0
11008000,11008000,47.39775077319871,8.545607462773768,488.08484,488.08963,0.02277365,1.1501777,1.0641619,nan,2,2,0,0
11016000,11016000,47.397750774290074,8.545607460717527,488.0848,488.0896,0.02277365,1.1504011,1.0643889,nan,2,2,0,0
11024000,11024000,47.39775077536641,8.545607458671121,488.08475,488.08954,0.02277365,1.1506265,1.0646175,nan,2,2,0,0
11032000,11032000,47.39775077642116,8.545607456638711,488.08472,488.0895,0.02277365,1.150854,1.0648477,nan,2,2,0,0
11040000,11040000,47.39775077744775,8.545607454629252,488.08466,488.08945,0.02277365,1.1510834,1.0650796,nan,2,2,0,0
11048000,11048000,47.39775077844728,8.545607452657979,488.0846,488.0894,0.02277365,1.1513149,1.0646253,nan,2,2,0,0
11056000,11056000,47.39775077942858,8.545607450709868,488.0845,488.0893,0.02277365,1.1515485,1.0648577,nan,2,2,0,0
11064000,11064000,47.39775078039002,8.545607448795304,488.08444,488.08923,0.02277365,1.1517841,1.0650917,nan,2,2,0,0
11072000,11072000,47.397750781331624,8.545607446917423,488.08435,488.08914,0.02277365,1.1520219,1.0653274,nan,2,2,0,0
11080000,11080000,47.39775078224746,8.545607445055504,488.0843,488.08908,0.02277365,1.1522617,1.0655645,nan,2,2,0,0
11088000,11088000,47.39775078313884,8.545607443220053,488.0842,488.089,0.02277365,1.1525037,1.0658032,nan,2,2,0,0
11096000,11096000,47.39775078401226,8.545607441420435,488.0841,488.0889,0.02277365,1.1527478,1.0653405,nan,2,2,0,0
11104000,11104000,47.39775078487275,8.545607439687647,488.08405,488.08884,0.02277365,1.152994,1.0655799,nan,2,2,0,0
11112000,11112000,47.39775078569713,8.545607438021426,488.08395,488.08875,0.02277365,1.1532425,1.0658208,nan,2,2,0,0
11120000,11120000,47.397750786488785,8.545607436412714,488.08386,488.08865,0.02277365,1.153493,1.0660633,nan,2,2,0,0
11128000,11128000,47.397750787264044,8.545607434867778,488.08377,488.08856,0.02277365,1.1537458,1.0663073,nan,2,2,0,0
11136000,11136000,47.39775078802084,8.545607433367211,488.08368,488.08847,0.02277365,1.1540006,1.0665529,nan,2,2,0,0
11144000,11144000,47.39775078876312,8.545607431894634,488.08356,488.08835,0.02277365,1.1542579,1.0668,nan,2,2,0,0
11152000,11152000,47.397750789485634,8.545607430429852,488.08347,488.08826,0.02277365,1.1545173,1.0670488,nan,2,2,0,0
11160000,11160000,47.39775079018467,8.54560742896232,488.0834,488.0882,0.02277365,1.1547788,1.0665693,nan,2,2,0,0
11168000,11168000,47.39775079086927,8.54560742750922,488.08334,488.08813,0.02277365,1.1550426,1.0668185,nan,2,2,0,0
11176000,11176000,47.39775079153528,8.545607426075396,488.08325,488.08804,0.02277365,1.1553088,1.0670693,nan,2,2,0,0
11184000,11184000,47.39775079219068,8.545607424653584,488.0832,488.08798,0.02277365,1.1555772,1.0673217,nan,2,2,0,0
11192000,11192000,47.3977507928322,8.545607423229857,488.0831,488.0879,0.02277365,1.1558479,1.0675755,nan,2,2,0,0
11200000,11200000,47.39775079346764,8.545607421812203,488.083,488.0878,0.02277365,1.1561209,1.0678309,nan,2,2,0,0
11208000,11208000,47.397750794089134,8.545607420420376,488.08295,488.08774,0.02277365,1.1563962,1.0680879,nan,2,2,0,0
11216000,11216000,47.39775079468827,8.545607419053972,488.08282,488.08762,0.02277365,1.1566739,1.067594,nan,2,2,0,0
11224000,11224000,47.39775079527175,8.545607417712763,488.0827,488.0875,0.02277365,1.1569538,1.0678514,nan,2,2,0,0
11232000,11232000,47.39775079584566,8.5456074164096,488.08258,488.08737,0.02277365,1.1572362,1.0681105,nan,2,2,0,0
11240000,11240000,47.39775079641821,8.545607415130034,488.08246,488.08725,0.02277365,1.1575209,1.0683709,nan,2,2,0,0
11248000,11248000,47.397750796982585,8.54560741387425,488.08234,488.08713,0.02277365,1.1578081,1.068633,nan,2,2,0,0
11256000,11256000,47.397750797532765,8.545607412627461,488.0822,488.087,0.02277365,1.1580975,1.0688967,nan,2,2,0,0
11264000,11264000,47.39775079806588,8.54560741140334,488.08206,488.08685,0.02277365,1.1583896,1.0691619,nan,2,2,0,0
11272000,11272000,47.39775079859736,8.545607410204054,488.08194,488.08673,0.02277365,1.1586839,1.0694287,nan,2,2,0,0
11280000,11280000,47.397750799121745,8.54560740902987,488.0818,488.08658,0.02277365,1.1589807,1.0689147,nan,2,2,0,0
11288000,11288000,47.39775079963655,8.54560740788082,488.08163,488.08643,0.02277365,1.15928,1.0691817,nan,2,2,0,0
11296000,11296000,47.397750800129955,8.54560740674513,488.0815,488.0863,0.02277365,1.1595817,1.0694503,nan,2,2,0,0
11304000,11304000,47.397750800609124,8.54560740561907,488.08136,488.08615,0.02277365,1.159886,1.0697204,nan,2,2,0,0
11312000,11312000,47.397750801091725,8.545607404517272,488.0812,488.086,0.02277365,1.1601927,1.0699922,nan,2,2,0,0
11320000,11320000,47.39775080157559,8.54560740342682,488.08105,488.08585,0.02277365,1.1605021,1.0702654,nan,2,2,0,0
11328000,11328000,47.39775080205921,8.545607402344102,488.08087,488.08566,0.02277365,1.1608139,1.0705402,nan,2,2,0,0
11336000,11336000,47.397750802543925,8.545607401272525,488.08075,488.08554,0.02277365,1.1611283,1.0700091,nan,2,2,0,0
11344000,11344000,47.39775080302266,8.545607400195543,488.08063,488.08542,0.02277365,1.1614451,1.070284,nan,2,2,0,0
11352000,11352000,47.39775080348889,8.545607399111754,488.08047,488.08527,0.02277365,1.1617647,1.0705606,nan,2,2,0,0
11360000,11360000,47.3977508039565,8.545607398039547,488.08035,488.08514,0.02277365,1.162087,1.0708387,nan,2,2,0,0
11368000,11368000,47.39775080442341,8.545607397006613,488.0802,488.085,0.02277365,1.1624117,1.0711182,nan,2,2,0,0
11376000,11376000,47.39775080486944,8.545607396027112,488.08005,488.08484,0.02277365,1.162739,1.0713995,nan,2,2,0,0
11384000,11384000,47.39775080529871,8.545607395077472,488.0799,488.0847,0.02277365,1.1630691,1.0716822,nan,2,2,0,0
11392000,11392000,47.397750805713855,8.54560739416141,488.07974,488.08453,0.02277365,1.1634018,1.0719665,nan,2,2,0,0
11400000,11400000,47.39775080610472,8.545607393283587,488.07956,488.08435,0.02277365,1.1637373,1.0714121,nan,2,2,0,0
11408000,11408000,47.397750807129185,8.54560739267819,488.07953,488.08545,0.02277365,1.1374865,1.0604142,nan,2,2,0,0
11416000,11416000,47.397750808139556,8.545607392063927,488.07947,488.0854,0.02277365,1.1377257,1.0606376,nan,2,2,0,0
11424000,11424000,47.397750809145556,8.545607391456896,488.0794,488.08533,0.02277365,1.1379672,1.0608622,nan,2,2,0,0
11432000,11432000,47.39775081015087,8.545607390860395,488.07935,488.08527,0.02277365,1.1382108,1.0610882,nan,2,2,0,0
11440000,11440000,47.3977508111381,8.545607390268684,488.07928,488.0852,0.02277365,1.1384563,1.0613157,nan,2,2,0,0
11448000,11448000,47.39775081211215,8.545607389689202,488.0792,488.0851,0.02277365,1.1387043,1.0615444,nan,2,2,0,0
11456000,11456000,47.3977508130784,8.54560738912351,488.0791,488.08502,0.02277365,1.1389544,1.0611594,nan,2,2,0,0
11464000,11464000,47.39775081402475,8.545607388558352,488.079,488.08493,0.02277365,1.1392065,1.0613886,nan,2,2,0,0
11472000,11472000,47.39775081494603,8.545607388013273,488.07892,488.08484,0.02277365,1.139461,1.0616192,nan,2,2,0,0
11480000,11480000,47.39775081584975,8.545607387488824,488.07883,488.08475,0.02277365,1.1397177,1.061851,nan,2,2,0,0
11488000,11488000,47.39775081673792,8.545607386981002,488.07874,488.08466,0.02277365,1.1399766,1.0620843,nan,2,2,0,0
11496000,11496000,47.39775081760364,8.545607386481384,488.0786,488.08453,0.02277365,1.1402378,1.062319,nan,2,2,0,0
11504000,11504000,47.39775081846526,8.545607386006447,488.07852,488.08444,0.02277365,1.1405011,1.062555,nan,2,2,0,0
11512000,11512000,47.39775081932579,8.545607385547289,488.0784,488.08432,0.02277365,1.140767,1.0627923,nan,2,2,0,0
11520000,11520000,47.39775082018146,8.54560738508338,488.07828,488.0842,0.02277365,1.141035,1.0623909,nan,2,2,0,0
11528000,11528000,47.397750821031366,8.545607384615408,488.07816,488.08408,0.02277365,1.1413053,1.0626286,nan,2,2,0,0
11536000,11536000,47.397750821876826,8.54560738414994,488.07803,488.08395,0.02277365,1.141578,1.0628678,nan,2,2,0,0
11544000,11544000,47.39775082272271,8.545607383692113,488.0779,488.08383,0.02277365,1.141853,1.0631082,nan,2,2,0,0
11552000,11552000,47.39775082357006,8.545607383226486,488.0778,488.0837,0.02277365,1.1421304,1.06335,nan,2,2,0,0
11560000,11560000,47.397750824403694,8.545607382766413,488.07767,488.0836,0.02277365,1.14241,1.0635931,nan,2,2,0,0
11568000,11568000,47.39775082522498,8.545607382307542,488.07755,488.08347,0.02277365,1.1426922,1.0638378,nan,2,2,0,0
11576000,11576000,47.39775082604911,8.54560738184187,488.0774,488.0833,0.02277365,1.1429768,1.0634221,nan,2,2,0,0
11584000,11584000,47.39775082687168,8.545607381365421,488.07724,488.08316,0.02277365,1.1432638,1.0636668,nan,2,2,0,0
11592000,11592000,47.39775082768143,8.545607380892903,488.0771,488.083,0.02277365,1.1435533,1.063913,nan,2,2,0,0
11600000,11600000,47.39775082847463,8.545607380428931,488.07697,488.0829,0.02277365,1.1438452,1.0641606,nan,2,2,0,0
11608000,11608000,47.39775082924619,8.545607379952317,488.0768,488.08273,0.02277365,1.1441396,1.0644095,nan,2,2,0,0
11616000,11616000,47.397750830004696,8.545607379456083,488.07666,488.08258,0.02277365,1.1444365,1.0646598,nan,2,2,0,0
11624000,11624000,47.397750830750255,8.545607378961476,488.0765,488.08243,0.02277365,1.1447359,1.0642327,nan,2,2,0,0
11632000,11632000,47.397750831476124,8.545607378474196,488.07635,488.08228,0.02277365,1.1450379,1.0644832,nan,2,2,0,0
11640000,11640000,47.39775083218756,8.545607378001508,488.0762,488.08212,0.02277365,1.1453424,1.064735,nan,2,2,0,0
11648000,11648000,47.39775083288839,8.545607377541678,488.07608,488.082,0.02277365,1.1456494,1.0649883,nan,2,2,0,0
11656000,11656000,47.39775083357882,8.545607377095859,488.07593,488.08185,0.02277365,1.145959,1.0652428,nan,2,2,0,0
11664000,11664000,47.397750834260464,8.545607376647974,488.07578,488.0817,0.02277365,1.1462712,1.0654988,nan,2,2,0,0
11672000,11672000,47.39775083492887,8.545607376183876,488.0756,488.0815,0.02277365,1.1465861,1.0657561,nan,2,2,0,0
11680000,11680000,47.39775083557482,8.54560737570455,488.07544,488.08136,0.02277365,1.1469036,1.0660148,nan,2,2,0,0
11688000,11688000,47.397750836206335,8.54560737520631,488.0753,488.0812,0.02277365,1.1472238,1.0655675,nan,2,2,0,0
11696000,11696000,47.397750836825445,8.545607374713265,488.07513,488.08105,0.02277365,1.1475466,1.0658263,nan,2,2,0,0
11704000,11704000,47.397750837439766,8.545607374220717,488.07498,488.0809,0.02277365,1.1478722,1.0660864,nan,2,2,0,0
11712000,11712000,47.397750838046164,8.54560737372053,488.07483,488.08075,0.02277365,1.1482004,1.066348,nan,2,2,0,0
11720000,11720000,47.39775083865187,8.545607373221767,488.07468,488.0806,0.02277365,1.1485313,1.0666108,nan,2,2,0,0
11728000,11728000,47.397750839257256,8.545607372713055,488.0745,488.0804,0.02277365,1.148865,1.0668751,nan,2,2,0,0
11736000,11736000,47.397750839863924,8.545607372206677,488.07434,488.08026,0.02277365,1.1492015,1.0671408,nan,2,2,0,0
11744000,11744000,47.397750840461235,8.54560737170266,488.07416,488.08008,0.02277365,1.1495408,1.0666763,nan,2,2,0,0
11752000,11752000,47.39775084104733,8.54560737118627,488.074,488.07993,0.02277365,1.1498829,1.0669419,nan,2,2,0,0
11760000,11760000,47.397750841618446,8.545607370664456,488.07382,488.07974,0.02277365,1.1502277,1.0672088,nan,2,2,0,0
11768000,11768000,47.3977508421825,8.545607370162752,488.07367,488.0796,0.02277365,1.1505755,1.0674772,nan,2,2,0,0
11776000,11776000,47.397750842733295,8.545607369684138,488.0735,488.0794,0.02277365,1.150926,1.067747,nan,2,2,0,0
11784000,11784000,47.39775084327975,8.545607369210543,488.0733,488.07922,0.02277365,1.1512794,1.0680181,nan,2,2,0,0
11792000,11792000,47.39775084381789,8.545607368733815,488.07315,488.07907,0.02277365,1.1516359,1.0682906,nan,2,2,0,0
11800000,11800000,47.397750844343356,8.545607368266188,488.07297,488.0789,0.02277365,1.1519952,1.0685645,nan,2,2,0,0
11808000,11808000,47.39775084403528,8.545607368216448,488.07306,488.08023,0.02277365,1.1282471,1.0577667,nan,2,2,0,0
11816000,11816000,47.39775084374044,8.54560736816667,488.07315,488.08032,0.02277365,1.1285038,1.057985,nan,2,2,0,0
11824000,11824000,47.39775084346002,8.545607368110339,488.07324,488.0804,0.02277365,1.1287628,1.0582045,nan,2,2,0,0
11832000,11832000,47.39775084319984,8.545607368023553,488.0733,488.08047,0.02277365,1.1290241,1.0584252,nan,2,2,0,0
11840000,11840000,47.39775084295689,8.545607367905877,488.07336,488.08054,0.02277365,1.1292876,1.0586472,nan,2,2,0,0
11848000,11848000,47.397750842730204,8.545607367762983,488.07343,488.0806,0.02277365,1.1295536,1.0588703,nan,2,2,0,0
11856000,11856000,47.39775084250952,8.545607367625509,488.0735,488.08066,0.02277365,1.1298218,1.0590947,nan,2,2,0,0
11864000,11864000,47.397750842281155,8.545607367476421,488.07355,488.08072,0.02277365,1.1300924,1.0587531,nan,2,2,0,0
11872000,11872000,47.39775084204104,8.54560736731274,488.07358,488.08075,0.02277365,1.1303653,1.0589777,nan,2,2,0,0
11880000,11880000,47.39775084179279,8.545607367149426,488.07364,488.0808,0.02277365,1.1306406,1.0592036,nan,2,2,0,0
11888000,11888000,47.39775084154073,8.545607366973982,488.07367,488.08084,0.02277365,1.1309184,1.0594307,nan,2,2,0,0
11896000,11896000,47.397750841290765,8.545607366781095,488.0737,488.08087,0.02277365,1.1311985,1.059659,nan,2,2,0,0
11904000,11904000,47.39775084103453,8.54560736658512,488.07376,488.08093,0.02277365,1.1314812,1.0598885,nan,2,2,0,0
11912000,11912000,47.397750840779054,8.545607366381734,488.07376,488.08093,0.02277365,1.1317663,1.0601192,nan,2,2,0,0
11920000,11920000,47.39775084052701,8.5456073661768,488.0738,488.08096,0.02277365,1.1320539,1.0603511,nan,2,2,0,0
11928000,11928000,47.39775084027882,8.54560736597575,488.0738,488.08096,0.02277365,1.1323439,1.0599929,nan,2,2,0,0
11936000,11936000,47.39775084004592,8.545607365783042,488.07382,488.081,0.02277365,1.1326364,1.0602251,nan,2,2,0,0
11944000,11944000,47.397750839832085,8.545607365580583,488.07382,488.081,0.02277365,1.1329316,1.0604584,nan,2,2,0,0
11952000,11952000,47.39775083964404,8.545607365354138,488.0738,488.08096,0.02277365,1.1332293,1.0606931,nan,2,2,0,0
11960000,11960000,47.397750839475556,8.545607365110358,488.0738,488.08096,0.02277365,1.1335295,1.060929,nan,2,2,0,0
11968000,11968000,47.3977508393187,8.545607364843075,488.07376,488.08093,0.02277365,1.1338323,1.0611659,nan,2,2,0,0
11976000,11976000,47.397750839168886,8.545607364561471,488.07376,488.08093,0.02277365,1.1341379,1.0614042,nan,2,2,0,0
11984000,11984000,47.397750839023985,8.545607364281326,488.07373,488.0809,0.02277365,1.1344459,1.0610316,nan,2,2,0,0
11992000,11992000,47.39775083888035,8.545607363997009,488.0737,488.08087,0.02277365,1.1347566,1.06127,nan,2,2,0,0
12000000,12000000,47.397750838740144,8.545607363709955,488.07367,488.08084,0.02277365,1.13507,1.0615096,nan,2,2,0,0
12008000,12008000,47.397750838608275,8.54560736344954,488.0736,488.08078,0.02277365,1.135386,1.0617505,nan,2,2,0,0
12016000,12016000,47.39775083848531,8.545607363216938,488.07358,488.08075,0.02277365,1.1357049,1.0619925,nan,2,2,0,0
12024000,12024000,47.39775083836207,8.545607362994298,488.07352,488.0807,0.02277365,1.1360264,1.062236,nan,2,2,0,0
12032000,12032000,47.397750838239126,8.545607362778524,488.07346,488.08063,0.02277365,1.1363506,1.0624804,nan,2,2,0,0
12040000,12040000,47.397750838119855,8.545607362552117,488.0734,488.08057,0.02277365,1.1366776,1.0627263,nan,2,2,0,0
12048000,12048000,47.39775083801021,8.545607362315149,488.07333,488.0805,0.02277365,1.1370075,1.0623345,nan,2,2,0,0
12056000,12056000,47.397750837907935,8.545607362075451,488.07324,488.0804,0.02277365,1.13734,1.0625803,nan,2,2,0,0
12064000,12064000,47.39775083780994,8.545607361823711,488.07315,488.08032,0.02277365,1.1376754,1.0628273,nan,2,2,0,0
12072000,12072000,47.3977508377198,8.545607361556224,488.07306,488.08023,0.02277365,1.1380137,1.0630757,nan,2,2,0,0
12080000,12080000,47.39775083764026,8.545607361279728,488.07297,488.08014,0.02277365,1.1383548,1.0633252,nan,2,2,0,0
12088000,12088000,47.39775083757758,8.545607361002991,488.07288,488.08005,0.02277365,1.1386988,1.063576,nan,2,2,0,0
12096000,12096000,47.39775083753317,8.545607360717861,488.07278,488.07996,0.02277365,1.1390457,1.063828,nan,2,2,0,0
12104000,12104000,47.397750837500126,8.545607360409397,488.07272,488.0799,0.02277365,1.1393955,1.06342,nan,2,2,0,0
12112000,12112000,47.397750837469204,8.545607360082451,488.07263,488.0798,0.02277365,1.1397483,1.063672,nan,2,2,0,0
12120000,12120000,47.39775083744012,8.545607359766949,488.07257,488.07974,0.02277365,1.140104,1.0639251,nan,2,2,0,0
12128000,12128000,47.39775083743744,8.545607359455555,488.07248,488.07965,0.02277365,1.1404628,1.0641795,nan,2,2,0,0
12136000,12136000,47.39775083744777,8.545607359126944,488.0724,488.07956,0.02277365,1.1408246,1.0644352,nan,2,2,0,0
12144000,12144000,47.3977508374643,8.545607358794713,488.0723,488.07947,0.02277365,1.1411893,1.0646921,nan,2,2,0,0
12152000,12152000,47.39775083748673,8.545607358461739,488.07224,488.0794,0.02277365,1.1415572,1.0642711,nan,2,2,0,0
12160000,12160000,47.39775083751516,8.545607358124114,488.07214,488.0793,0.02277365,1.1419281,1.0645279,nan,2,2,0,0
12168000,12168000,47.397750837558846,8.545607357795589,488.07208,488.07925,0.02277365,1.142302,1.0647858,nan,2,2,0,0
12176000,12176000,47.39775083761523,8.545607357468883,488.07202,488.0792,0.02277365,1.1426792,1.0650451,nan,2,2,0,0
12184000,12184000,47.397750837676426,8.545607357147126,488.07193,488.0791,0.02277365,1.1430594,1.0653057,nan,2,2,0,0
12192000,12192000,47.39775083774216,8.54560735681075,488.07184,488.079,0.02277365,1.1434429,1.0655674,nan,2,2,0,0
12200000,12200000,47.397750837821896,8.545607356464995,488.07175,488.07892,0.02277365,1.1438293,1.0658305,nan,2,2,0,0
12208000,12208000,47.397750837916085,8.54560735611791,488.07166,488.07883,0.02277365,1.1442192,1.0660948,nan,2,2,0,0
12216000,12216000,47.39775083771711,8.545607356338206,488.07175,488.0798,0.02277365,1.1217058,1.0559944,nan,2,2,0,0
12224000,12224000,47.39775083751643,8.545607356531638,488.07187,488.07993,0.02277365,1.1219828,1.0562081,nan,2,2,0,0
12232000,12232000,47.39775083732704,8.545607356716996,488.07196,488.08002,0.02277365,1.1222622,1.056423,nan,2,2,0,0
12240000,12240000,47.3977508371502,8.545607356900987,488.07205,488.0801,0.02277365,1.1225442,1.0566388,nan,2,2,0,0
12248000,12248000,47.3977508369793,8.54560735706334,488.0721,488.08017,0.02277365,1.1228286,1.0568559,nan,2,2,0,0
12256000,12256000,47.397750836813586,8.54560735721388,488.07217,488.08023,0.02277365,1.1231155,1.057074,nan,2,2,0,0
12264000,12264000,47.397750836659924,8.545607357356966,488.07227,488.08032,0.02277365,1.123405,1.0567642,nan,2,2,0,0
12272000,12272000,47.39775083650817,8.545607357484196,488.07236,488.0804,0.02277365,1.123697,1.0569826,nan,2,2,0,0
12280000,12280000,47.39775083636789,8.545607357585167,488.07242,488.08047,0.02277365,1.1239916,1.057202,nan,2,2,0,0
12288000,12288000,47.39775083623998,8.54560735768549,488.07248,488.08054,0.02277365,1.1242888,1.0574225,nan,2,2,0,0
12296000,12296000,47.39775083612283,8.545607357782634,488.07254,488.0806,0.02277365,1.1245885,1.0576442,nan,2,2,0,0
12304000,12304000,47.39775083602322,8.545607357876591,488.0726,488.08066,0.02277365,1.1248908,1.057867,nan,2,2,0,0
12312000,12312000,47.39775083594963,8.545607357980991,488.07263,488.0807,0.02277365,1.1251959,1.0580909,nan,2,2,0,0
12320000,12320000,47.39775083589364,8.54560735808124,488.0727,488.08075,0.02277365,1.1255035,1.057768,nan,2,2,0,0
12328000,12328000,47.39775083584433,8.54560735816333,488.07272,488.08078,0.02277365,1.125814,1.057992,nan,2,2,0,0
12336000,12336000,47.39775083580502,8.54560735822307,488.07275,488.0808,0.02277365,1.126127,1.0582172,nan,2,2,0,0
12344000,12344000,47.39775083577209,8.545607358255747,488.07278,488.08084,0.02277365,1.1264428,1.0584434,nan,2,2,0,0
12352000,12352000,47.39775083573801,8.545607358277747,488.07278,488.08084,0.02277365,1.1267613,1.0586709,nan,2,2,0,0
12360000,12360000,47.39775083571122,8.545607358296408,488.07278,488.08084,0.02277365,1.1270826,1.0588993,nan,2,2,0,0
12368000,12368000,47.39775083568932,8.54560735831519,488.0728,488.08087,0.02277365,1.1274066,1.059129,nan,2,2,0,0
12376000,12376000,47.39775083566738,8.545607358317602,488.07285,488.0809,0.02277365,1.1277335,1.0587921,nan,2,2,0,0
12384000,12384000,47.397750835646264,8.545607358311162,488.0729,488.08096,0.02277365,1.1280632,1.0590218,nan,2,2,0,0
12392000,12392000,47.3977508356242,8.545607358299822,488.07294,488.081,0.02277365,1.1283957,1.0592526,nan,2,2,0,0
12400000,12400000,47.39775083560429,8.545607358301318,488.073,488.08105,0.02277365,1.1287311,1.0594846,nan,2,2,0,0
12408000,12408000,47.397750835576616,8.545607358301726,488.073,488.08105,0.02277365,1.1290694,1.0597177,nan,2,2,0,0
12416000,12416000,47.397750835538304,8.545607358281156,488.07303,488.0811,0.02277365,1.1294106,1.0599519,nan,2,2,0,0
12424000,12424000,47.397750835496836,8.545607358245942,488.07303,488.0811,0.02277365,1.1297547,1.0601872,nan,2,2,0,0
12432000,12432000,47.39775083546343,8.54560735819761,488.07303,488.0811,0.02277365,1.1301018,1.0604237,nan,2,2,0,0
12440000,12440000,47.39775083543112,8.545607358163956,488.07303,488.0811,0.02277365,1.1304519,1.0600686,nan,2,2,0,0
12448000,12448000,47.397750835383576,8.545607358147796,488.07303,488.0811,0.02277365,1.1308049,1.0603051,nan,2,2,0,0
12456000,12456000,47.397750835312685,8.545607358132937,488.073,488.08105,0.02277365,1.131161,1.0605427,nan,2,2,0,0
12464000,12464000,47.39775083522701,8.545607358126137,488.07297,488.08102,0.02277365,1.13152,1.0607815,nan,2,2,0,0
12472000,12472000,47.39775083513694,8.545607358117605,488.07294,488.081,0.02277365,1.1318821,1.0610213,nan,2,2,0,0
12480000,12480000,47.39775083504547,8.545607358089617,488.0729,488.08096,0.02277365,1.1322473,1.0612622,nan,2,2,0,0
12488000,12488000,47.39775083495032,8.545607358057564,488.07285,488.0809,0.02277365,1.1326157,1.0615044,nan,2,2,0,0
12496000,12496000,47.39775083484063,8.54560735802767,488.07285,488.0809,0.02277365,1.132987,1.0611337,nan,2,2,0,0
12504000,12504000,47.39775083472638,8.54560735799071,488.0728,488.08087,0.02277365,1.1333616,1.0613759,nan,2,2,0,0
12512000,12512000,47.39775083461442,8.545607357946228,488.07278,488.08084,0.02277365,1.1337394,1.061619,nan,2,2,0,0
12520000,12520000,47.39775083451063,8.545607357897595,488.07275,488.0808,0.02277365,1.1341202,1.0618634,nan,2,2,0,0
12528000,12528000,47.39775083440825,8.545607357867391,488.07272,488.08078,0.02277365,1.1345044,1.0621089,nan,2,2,0,0
12536000,12536000,47.39775083430699,8.545607357845137,488.0727,488.08075,0.02277365,1.1348917,1.0623555,nan,2,2,0,0
12544000,12544000,47.39775083420035,8.545607357800822,488.07263,488.0807,0.02277365,1.1352824,1.0626032,nan,2,2,0,0
12552000,12552000,47.39775083408936,8.545607357724622,488.07263,488.0807,0.02277365,1.1356763,1.0622162,nan,2,2,0,0
12560000,12560000,47.39775083396739,8.545607357628986,488.07257,488.08063,0.02277365,1.1360735,1.0624639,nan,2,2,0,0
12568000,12568000,47.39775083383161,8.545607357534696,488.07254,488.0806,0.02277365,1.136474,1.0627127,nan,2,2,0,0
12576000,12576000,47.39775083368985,8.54560735744679,488.07248,488.08054,0.02277365,1.1368778,1.0629625,nan,2,2,0,0
12584000,12584000,47.397750833540314,8.545607357362936,488.07245,488.0805,0.02277365,1.1372851,1.0632136,nan,2,2,0,0
12592000,12592000,47.3977508333747,8.545607357284272,488.0724,488.08044,0.02277365,1.1376958,1.0634658,nan,2,2,0,0
12600000,12600000,47.397750833200725,8.545607357220593,488.07233,488.08038,0.02277365,1.1381098,1.0637193,nan,2,2,0,0
12608000,12608000,47.3977508321086,8.545607358680481,488.0726,488.08154,0.02277365,1.1164627,1.0542986,nan,2,2,0,0
12616000,12616000,47.39775083103405,8.54560736012838,488.07288,488.08182,0.02277365,1.1167558,1.0545061,nan,2,2,0,0
12624000,12624000,47.397750829971415,8.545607361565825,488.07312,488.08206,0.02277365,1.1170517,1.0547144,nan,2,2,0,0
12632000,12632000,47.39775082891501,8.545607362997478,488.07336,488.0823,0.02277365,1.1173501,1.0549239,nan,2,2,0,0
12640000,12640000,47.39775082787296,8.545607364399812,488.07358,488.08252,0.02277365,1.1176511,1.0551343,nan,2,2,0,0
12648000,12648000,47.39775082685221,8.545607365779398,488.0738,488.08273,0.02277365,1.1179547,1.0553458,nan,2,2,0,0
12656000,12656000,47.397750825844206,8.545607367133401,488.074,488.08295,0.02277365,1.1182611,1.0555583,nan,2,2,0,0
12664000,12664000,47.39775082483988,8.54560736847324,488.07422,488.08316,0.02277365,1.1185701,1.0552707,nan,2,2,0,0
12672000,12672000,47.397750823838216,8.545607369775269,488.07443,488.08337,0.02277365,1.1188818,1.0554833,nan,2,2,0,0
12680000,12680000,47.39775082282955,8.545607371043506,488.07465,488.0836,0.02277365,1.1191962,1.0556971,nan,2,2,0,0
12688000,12688000,47.39775082180727,8.545607372277445,488.07483,488.08377,0.02277365,1.1195134,1.0559118,nan,2,2,0,0
12696000,12696000,47.39775082079259,8.545607373488556,488.075,488.08395,0.02277365,1.1198334,1.0561275,nan,2,2,0,0
12704000,12704000,47.39775081978385,8.545607374677154,488.0752,488.08414,0.02277365,1.1201562,1.0563444,nan,2,2,0,0
12712000,12712000,47.39775081877183,8.545607375830436,488.07535,488.0843,0.02277365,1.1204816,1.0565622,nan,2,2,0,0
12720000,12720000,47.39775081775736,8.545607376956042,488.0755,488.08444,0.02277365,1.12081,1.0562617,nan,2,2,0,0
12728000,12728000,47.39775081673049,8.54560737804463,488.07562,488.08456,0.02277365,1.1211413,1.0564797,nan,2,2,0,0
12736000,12736000,47.397750815708605,8.54560737911089,488.07574,488.0847,0.02277365,1.1214753,1.0566987,nan,2,2,0,0
12744000,12744000,47.39775081471853,8.54560738015819,488.07587,488.0848,0.02277365,1.1218123,1.0569187,nan,2,2,0,0
12752000,12752000,47.39775081375878,8.54560738117108,488.076,488.08493,0.02277365,1.1221522,1.0571398,nan,2,2,0,0
