timestamp,timestamp_sample,time_last_fuse,device_id,observation[0],observation[1],observation_variance[0],observation_variance[1],innovation[0],innovation[1],innovation_variance[0],innovation_variance[1],test_ratio[0],test_ratio[1],estimator_instance,fusion_enabled,innovation_rejected,fused
3160000,3160000,3160000,0,0.0,0.0,0.25,0.25,3.1109433e-08,-4.019123e-09,0.500009,0.500009,2.150621e-16,3.5895685e-18,3,0,0,0
3448000,3368000,3368000,0,0.0,0.0,1e-04,1e-04,0.00037647234,-0.00043354908,100.000175,100.000175,1.5747907e-10,2.0884941e-10,3,1,0,1
3656000,3576000,3576000,0,0.0,0.0,1e-04,1e-04,-1.0852822e-05,5.949626e-06,0.00021544771,0.00021545053,6.074366e-08,1.8255312e-08,3,1,0,1
3864000,3784000,3784000,0,0.0,0.0,1e-04,1e-04,0.00028777454,3.0294077e-05,0.00059110223,0.0005911916,1.5566811e-05,1.7248237e-07,3,1,0,1
4072000,3992000,3992000,0,0.0,0.0,1e-04,1e-04,0.0006661796,-3.831781e-05,0.00093222695,0.00093227485,5.2895466e-05,1.7499066e-07,3,1,0,1
4280000,4200000,4200000,0,0.0,0.0,1e-04,1e-04,0.0005516252,-1.1340605e-05,0.0006811966,0.000681207,4.9633316e-05,2.097736e-08,3,1,0,1
4488000,4408000,4408000,0,0.0,0.0,1e-04,1e-04,0.0007008813,-3.269192e-05,0.0005584046,0.0005584091,9.7745644e-05,2.1266005e-07,3,1,0,1
4696000,4616000,4616000,0,0.0,0.0,1e-04,1e-04,0.0007153875,-0.00034287528,0.0005020856,0.00050208636,0.00011325632,2.6016654e-05,3,1,0,1
4904000,4824000,4824000,0,0.0,0.0,1e-04,1e-04,0.00047964082,-0.0007658438,0.00046191856,0.0004619149,5.5338114e-05,0.0001410834,3,1,0,1
5112000,5032000,5032000,0,0.0,0.0,1e-04,1e-04,0.00030552692,-0.000604868,0.00042529343,0.0004252911,2.438753e-05,9.558559e-05,3,1,0,1
5320000,5240000,5240000,0,0.0,0.0,1e-04,1e-04,0.00042248532,-0.0003725266,0.00039291778,0.0003929156,5.047532e-05,3.9243958e-05,3,1,0,1
5528000,5448000,5448000,0,0.0,0.0,1e-04,1e-04,0.00027771934,0.00031064896,0.00036616524,0.00036616475,2.3404136e-05,2.9283348e-05,3,1,0,1
5736000,5656000,5656000,0,0.0,0.0,1e-04,1e-04,0.00030444434,0.0005106377,0.00034497865,0.0003449786,2.9852526e-05,8.398295e-05,3,1,0,1
5944000,5864000,5864000,0,0.0,0.0,1e-04,1e-04,0.00024741056,0.00028346432,0.00032838597,0.00032838684,2.0711395e-05,2.7187454e-05,3,1,0,1
6152000,6072000,6072000,0,0.0,0.0,1e-04,1e-04,0.0002550453,0.00011477173,0.00031535688,0.00031535813,2.2918692e-05,4.641125e-06,3,1,0,1
6360000,6280000,6280000,0,0.0,0.0,1e-04,1e-04,1.5078091e-05,-3.3625074e-06,0.00030497572,0.000304977,8.282948e-08,4.1192383e-09,3,1,0,1
6568000,6488000,6488000,0,0.0,0.0,1e-04,1e-04,-0.00062848756,6.8928406e-05,0.0002965821,0.00029658398,0.000147981,1.7799439e-06,3,1,0,1
6776000,6696000,6696000,0,0.0,0.0,1e-04,1e-04,-0.00079404993,0.00021508364,0.00028970474,0.00028970538,0.00024182296,1.7742535e-05,3,1,0,1
6984000,6904000,6904000,0,0.0,0.0,1e-04,1e-04,-0.0006521788,0.00066222565,0.000283962,0.00028396051,0.0001664296,0.00017159773,3,1,0,1
7192000,7112000,7112000,0,0.0,0.0,1e-04,1e-04,-0.00035898102,0.0013028993,0.00027913268,0.00027912887,5.1296738e-05,0.000675732,3,1,0,1
7400000,7320000,7320000,0,0.0,0.0,1e-04,1e-04,-3.3256114e-05,0.0017050814,0.00027501653,0.0002750116,4.4682935e-07,0.0011746181,3,1,0,1
7608000,7528000,7528000,0,0.0,0.0,1e-04,1e-04,0.00026644082,0.0015717783,0.0002714613,0.0002714572,2.9057024e-05,0.0010112039,3,1,0,1
7816000,7736000,7736000,0,0.0,0.0,1e-04,1e-04,0.00028329878,0.0011268919,0.0002683758,0.00026837192,3.3227952e-05,0.00052575686,3,1,0,1
8024000,7944000,7944000,0,0.0,0.0,1e-04,1e-04,0.00011357502,0.00082368986,0.00026568613,0.00026568197,5.394538e-06,0.0002837415,3,1,0,1
8232000,8152000,8152000,0,0.0,0.0,1e-04,1e-04,-0.00018365472,0.00042558074,0.0002633138,0.0002633096,1.4232725e-05,7.642839e-05,3,1,0,1
8440000,8360000,8360000,0,0.0,0.0,1e-04,1e-04,-0.00041114484,0.00037679393,0.00026120676,0.00026120408,7.190561e-05,6.0392824e-05,3,1,0,1
8648000,8568000,8568000,0,0.0,0.0,1e-04,1e-04,-0.00030177584,0.0002441769,0.00025929304,0.00025929246,3.902434e-05,2.5549163e-05,3,1,0,1
8856000,8776000,8776000,0,0.0,0.0,1e-04,1e-04,-2.761894e-05,0.0004032417,0.0002575745,0.00025757708,3.2905513e-07,7.014249e-05,3,1,0,1
9064000,8984000,8984000,0,0.0,0.0,1e-04,1e-04,0.00042880888,0.0006786054,0.00025602948,0.00025603574,7.979856e-05,0.00019984419,3,1,0,1
9272000,9192000,9192000,0,0.0,0.0,1e-04,1e-04,0.00082068413,0.00083434774,0.00025463116,0.00025464018,0.00029389895,0.00030375592,3,1,0,1
9480000,9400000,9400000,0,0.0,0.0,1e-04,1e-04,0.0009036055,0.0008646733,0.0002533716,0.00025338074,0.0003580612,0.00032785966,3,1,0,1
9688000,9608000,9608000,0,0.0,0.0,1e-04,1e-04,0.00097077334,0.0007927248,0.00025221604,0.00025222352,0.00041516474,0.00027683232,3,1,0,1
9896000,9816000,9816000,0,0.0,0.0,1e-04,1e-04,0.0010851907,0.0008242272,0.00025115305,0.0002511585,0.00052099215,0.00030054082,3,1,0,1
10104000,10024000,10024000,0,0.0,0.0,1e-04,1e-04,0.0007697876,0.00058457494,0.00025017984,0.0002501826,0.00026317642,0.0001517682,3,1,0,1
10312000,10232000,10232000,0,0.0,0.0,1e-04,1e-04,0.00030883102,0.00030276488,0.00024928316,0.0002492843,4.2511496e-05,4.0857667e-05,3,1,0,1
10520000,10440000,10440000,0,0.0,0.0,1e-04,1e-04,-7.6836586e-05,-0.00016807484,0.00024847485,0.00024847532,2.6400442e-06,1.2632219e-05,3,1,0,1
10728000,10648000,10648000,0,0.0,0.0,1e-04,1e-04,-0.0003563508,-0.0003997349,0.00024771717,0.00024771813,5.6958277e-05,7.167107e-05,3,1,0,1
10936000,10856000,10856000,0,0.0,0.0,1e-04,1e-04,-0.0001597556,-0.0007116085,0.00024701018,0.00024701122,1.14803415e-05,0.00022778391,3,1,0,1
11144000,11064000,11064000,0,0.0,0.0,1e-04,1e-04,-0.00026660404,-0.00090803986,0.0002463494,0.00024635062,3.2058222e-05,0.00037188927,3,1,0,1
11352000,11272000,11272000,0,0.0,0.0,1e-04,1e-04,-0.0004751226,-0.0009809092,0.00024573845,0.0002457406,0.00010206943,0.000435049,3,1,0,1
11560000,11480000,11480000,0,0.0,0.0,1e-04,1e-04,-0.0006632557,-0.0011325583,0.0002451724,0.00024517564,0.00019936451,0.00058130134,3,1,0,1
11768000,11688000,11688000,0,0.0,0.0,1e-04,1e-04,-0.00076426246,-0.0011999271,0.00024464368,0.00024464773,0.00026528246,0.00065392203,3,1,0,1
11976000,11896000,11896000,0,0.0,0.0,1e-04,1e-04,-0.0010249481,-0.0009049899,0.00024416557,0.00024417014,0.00047805384,0.000372694,3,1,0,1
12184000,12104000,12104000,0,0.0,0.0,1e-04,1e-04,-0.0011262543,-0.000406284,0.00024372991,0.00024373434,0.00057825795,7.5248914e-05,3,1,0,1
12392000,12312000,12312000,0,0.0,0.0,1e-04,1e-04,-0.0010307268,-0.0003213904,0.00024331835,0.0002433219,0.00048514304,4.7167414e-05,3,1,0,1
12600000,12520000,12520000,0,0.0,0.0,1e-04,1e-04,-0.0007327351,-0.0001472775,0.0002429249,0.00024292796,0.00024557233,9.92094e-06,3,1,0,1
12808000,12728000,12728000,0,0.0,0.0,1e-04,1e-04,-0.00020091677,0.0006392922,0.00024254786,0.0002425503,1.8492363e-05,0.00018722094,3,1,0,1
13016000,12936000,12936000,0,0.0,0.0,1e-04,1e-04,2.7252629e-05,0.0012101445,0.00024219317,0.00024219311,3.407316e-07,0.0006718466,3,1,0,1
13224000,13144000,13144000,0,0.0,0.0,1e-04,1e-04,6.6403765e-05,0.0012513337,0.00024186334,0.00024186022,2.0256894e-06,0.0007193485,3,1,0,1
13432000,13352000,13352000,0,0.0,0.0,1e-04,1e-04,0.00028418648,0.0012126343,0.00024155062,0.00024154506,3.7149774e-05,0.000676424,3,1,0,1
13640000,13560000,13560000,0,0.0,0.0,1e-04,1e-04,0.0006038678,0.001149888,0.00024126132,0.00024125393,0.00016793975,0.0006089676,3,1,0,1
13848000,13768000,13768000,0,0.0,0.0,1e-04,1e-04,0.00087750796,0.0008165956,0.00024098903,0.00024097963,0.0003550278,0.00030746186,3,1,0,1
14056000,13976000,13976000,0,0.0,0.0,1e-04,1e-04,0.0006048152,0.00036458505,0.00024073129,0.00024071851,0.00016883806,6.13544e-05,3,1,0,1
14264000,14184000,14184000,0,0.0,0.0,1e-04,1e-04,0.0004851592,-9.508243e-05,0.00024047834,0.00024046219,0.0001087552,4.17745e-06,3,1,0,1
14472000,14392000,14392000,0,0.0,0.0,1e-04,1e-04,0.00052821613,-0.00038554583,0.00024024493,0.0002402266,0.00012904067,6.8752495e-05,3,1,0,1
14680000,14600000,14600000,0,0.0,0.0,1e-04,1e-04,0.000577381,-0.00041073613,0.00024002531,0.0002400064,0.00015432113,7.81017e-05,3,1,0,1
14888000,14808000,14808000,0,0.0,0.0,1e-04,1e-04,0.00078980793,-0.00036129734,0.00023982377,0.00023980538,0.00028900692,6.0482274e-05,3,1,0,1
15096000,15016000,15016000,0,0.0,0.0,1e-04,1e-04,0.00068306876,-5.3257158e-05,0.00023962889,0.0002396107,0.00021634516,1.3152468e-06,3,1,0,1
15304000,15224000,15224000,0,0.0,0.0,1e-04,1e-04,0.000463579,9.6408396e-05,0.00023943075,0.00023941183,9.972983e-05,4.313617e-06,3,1,0,1
15512000,15432000,15432000,0,0.0,0.0,1e-04,1e-04,0.00048091987,8.425163e-05,0.00023924446,0.00023922426,0.00010741404,3.296924e-06,3,1,0,1
15720000,15640000,15640000,0,0.0,0.0,1e-04,1e-04,0.00060680805,5.42321e-05,0.00023906704,0.00023904574,0.00017113563,1.3670655e-06,3,1,0,1
15928000,15848000,15848000,0,0.0,0.0,1e-04,1e-04,0.00018664685,-0.00017100635,0.00023890208,0.00023887967,1.6202383e-05,1.3602001e-05,3,1,0,1
16136000,16056000,16056000,0,0.0,0.0,1e-04,1e-04,8.301676e-05,-0.00051763124,0.00023874876,0.00023872615,3.2073617e-06,0.0001247092,3,1,0,1
16344000,16264000,16264000,0,0.0,0.0,1e-04,1e-04,0.00013543582,-0.00061326806,0.00023860036,0.00023857818,8.541881e-06,0.00017515698,3,1,0,1
16552000,16472000,16472000,0,0.0,0.0,1e-04,1e-04,0.00012603814,-0.00095018983,0.00023845796,0.00023843587,7.40201e-06,0.0004207331,3,1,0,1
16760000,16680000,16680000,0,0.0,0.0,100.0,100.0,-6.131783e-05,-0.0010475463,100.000145,100.000145,4.177634e-12,1.2192796e-09,3,1,0,1
16968000,16888000,16888000,0,0.0,0.0,100.0,100.0,-0.00030232148,-0.002029077,100.00051,100.00051,1.0155313e-10,4.574591e-09,3,1,0,1
17176000,17096000,17096000,0,0.0,0.0,100.0,100.0,-0.0005189166,-0.0032810573,100.00196,100.00196,2.9918792e-10,1.19612515e-08,3,1,0,1
17384000,17304000,17304000,0,0.0,0.0,100.0,100.0,-0.0008416844,-0.0049860943,100.00597,100.00597,7.8710044e-10,2.7621835e-08,3,1,0,1
17592000,17512000,17512000,0,0.0,0.0,100.0,100.0,-0.0013928724,-0.0067792074,100.014656,100.014656,2.1553437e-09,5.1056574e-08,3,1,0,1
17800000,17720000,17720000,0,0.0,0.0,100.0,100.0,-0.0021519493,-0.008640424,100.03085,100.03085,5.143842e-09,8.292656e-08,3,1,0,1
18008000,17928000,17928000,0,0.0,0.0,100.0,100.0,-0.0029833743,-0.010611937,100.058014,100.05802,9.883736e-09,1.2505323e-07,3,1,0,1
18216000,18136000,18136000,0,0.0,0.0,100.0,100.0,-0.003602647,-0.013008318,100.100266,100.10027,1.4406738e-08,1.8782981e-07,3,1,0,1
18424000,18344000,18344000,0,0.0,0.0,100.0,100.0,-0.0036777672,-0.016215233,100.16233,100.162346,1.50045e-08,2.9167512e-07,3,1,0,1
18632000,18552000,18552000,0,0.0,0.0,100.0,100.0,-0.0037827198,-0.019746233,100.2495,100.24953,1.5859285e-08,4.321591e-07,3,1,0,1
18840000,18760000,18760000,0,0.0,0.0,100.0,100.0,-0.0036926887,-0.02399664,100.36755,100.3676,1.5095571e-08,6.3747746e-07,3,1,0,1
19048000,18968000,18968000,0,0.0,0.0,100.0,100.0,-0.004135846,-0.028648533,100.52251,100.52259,1.8907013e-08,9.071907e-07,3,1,0,1
19256000,19176000,19176000,0,0.0,0.0,100.0,100.0,-0.0045596245,-0.034013156,100.720665,100.72079,2.2934913e-08,1.2762397e-06,3,1,0,1
19464000,19384000,19384000,0,0.0,0.0,100.0,100.0,-0.005537584,-0.03800308,100.96808,100.96828,3.374536e-08,1.5893155e-06,3,1,0,1
19672000,19592000,19592000,0,0.0,0.0,100.0,100.0,-0.0077399197,-0.03686969,101.27125,101.27154,6.5727065e-08,1.4914513e-06,3,1,0,1
19880000,19800000,19800000,0,0.0,0.0,100.0,100.0,-0.029032148,-0.013414376,101.63474,101.63522,9.2145393e-07,1.9672258e-07,3,1,0,1
20088000,20008000,20008000,0,0.0,0.0,100.0,100.0,-0.06375199,0.023428677,102.06355,102.064224,4.4246026e-06,5.975572e-07,3,1,0,1
20296000,20216000,20216000,0,0.0,0.0,100.0,100.0,-0.097889,0.06036435,102.55791,102.55893,1.03814045e-05,3.947708e-06,3,1,0,1
20504000,20424000,20424000,0,0.0,0.0,100.0,100.0,-0.12552081,0.08990831,103.11496,103.116264,1.6977248e-05,8.710237e-06,3,1,0,1
20712000,20632000,20632000,0,0.0,0.0,100.0,100.0,-0.1460005,0.10979942,103.727325,103.72917,2.2833528e-05,1.2913878e-05,3,1,0,1
20920000,20840000,20840000,0,0.0,0.0,100.0,100.0,-0.1550806,0.115454614,104.38835,104.39055,2.5598847e-05,1.41879245e-05,3,1,0,1
21128000,21048000,21048000,0,0.0,0.0,100.0,100.0,-0.15595682,0.11048961,105.08343,105.08628,2.5717693e-05,1.2907862e-05,3,1,0,1
21336000,21256000,21256000,0,0.0,0.0,100.0,100.0,-0.14589798,0.09278319,105.80045,105.80366,2.2354683e-05,9.040562e-06,3,1,0,1
21544000,21464000,21464000,0,0.0,0.0,100.0,100.0,-0.13177867,0.069433406,106.51951,106.52338,1.8114175e-05,5.028628e-06,3,1,0,1
21752000,21672000,21672000,0,0.0,0.0,100.0,100.0,-0.10910155,0.03672566,107.227356,107.23146,1.2334278e-05,1.397573e-06,3,1,0,1
21960000,21880000,21880000,0,0.0,0.0,100.0,100.0,-0.086388886,0.0032440634,107.903275,107.90788,7.684907e-06,1.0836349e-08,3,1,0,1
22168000,22088000,22088000,0,0.0,0.0,100.0,100.0,-0.060686324,-0.033260815,108.53771,108.54237,3.7701489e-06,1.1324628e-06,3,1,0,1
22376000,22296000,22296000,0,0.0,0.0,100.0,100.0,-0.037784137,-0.06654802,109.11396,109.11884,1.4537717e-06,4.509496e-06,3,1,0,1
22584000,22504000,22504000,0,0.0,0.0,100.0,100.0,-0.013655733,-0.09974741,109.62918,109.63393,1.8899982e-07,1.0083604e-05,3,1,0,1
22792000,22712000,22712000,0,0.0,0.0,100.0,100.0,0.005390098,-0.12624341,110.07271,110.0774,2.9327238e-08,1.6087064e-05,3,1,0,1
23000000,22920000,22920000,0,0.0,0.0,100.0,100.0,0.023525288,-0.14975849,110.44586,110.450264,5.567727e-07,2.2561795e-05,3,1,0,1
23208000,23128000,23128000,0,0.0,0.0,100.0,100.0,0.0342787,-0.16432142,110.74515,110.749306,1.1789122e-06,2.708974e-05,3,1,0,1
23416000,23336000,23336000,0,0.0,0.0,100.0,100.0,0.04192972,-0.17403406,110.98013,110.98398,1.7601766e-06,3.0322548e-05,3,1,0,1
23624000,23544000,23544000,0,0.0,0.0,100.0,100.0,0.05010931,-0.18240948,111.159454,111.16294,2.509851e-06,3.3257707e-05,3,1,0,1
23832000,23752000,23752000,0,0.0,0.0,100.0,100.0,0.05081117,-0.18167529,111.28218,111.28534,2.5778063e-06,3.2954234e-05,3,1,0,1
24040000,23960000,23960000,0,0.0,0.0,100.0,100.0,0.05236131,-0.18086302,111.35906,111.36189,2.735602e-06,3.2637767e-05,3,1,0,1
24248000,24168000,24168000,0,0.0,0.0,100.0,100.0,0.046373915,-0.17260572,111.39171,111.39423,2.1451228e-06,2.9717014e-05,3,1,0,1
24456000,24376000,24376000,0,0.0,0.0,100.0,100.0,0.041182738,-0.16561207,111.389824,111.39207,1.6917743e-06,2.7358179e-05,3,1,0,1
24664000,24584000,24584000,0,0.0,0.0,100.0,100.0,0.03172629,-0.15492459,111.35556,111.35754,1.0043478e-06,2.3948514e-05,3,1,0,1
24872000,24792000,24792000,0,0.0,0.0,100.0,100.0,0.026109887,-0.14820679,111.29684,111.298584,6.805886e-07,2.1928252e-05,3,1,0,1
25080000,25000000,25000000,0,0.0,0.0,100.0,100.0,0.019008443,-0.14010376,111.21583,111.21734,3.609807e-07,1.9610314e-05,3,1,0,1
25288000,25208000,25208000,0,0.0,0.0,100.0,100.0,0.016393973,-0.13610436,111.11859,111.1199,2.6874426e-07,1.8522933e-05,3,1,0,1
25496000,25416000,25416000,0,0.0,0.0,100.0,100.0,0.0129005145,-0.1305473,111.00691,111.00805,1.6657948e-07,1.705842e-05,3,1,0,1
25704000,25624000,25624000,0,0.0,0.0,100.0,100.0,0.013928078,-0.1286613,110.885216,110.88621,1.9438657e-07,1.6587306e-05,3,1,0,1
25912000,25832000,25832000,0,0.0,0.0,100.0,100.0,0.013684453,-0.12493638,110.7548,110.75565,1.878667e-07,1.5659194e-05,3,1,0,1
26120000,26040000,26040000,0,0.0,0.0,100.0,100.0,0.016561024,-0.12415334,110.61885,110.61959,2.7548802e-07,1.5482541e-05,3,1,0,1
26328000,26248000,26248000,0,0.0,0.0,100.0,100.0,0.018309698,-0.12197324,110.47827,110.47892,3.3716535e-07,1.4962604e-05,3,1,0,1
26536000,26456000,26456000,0,0.0,0.0,100.0,100.0,0.0226026,-0.12241891,110.335396,110.33595,5.144692e-07,1.5091676e-05,3,1,0,1
26744000,26664000,26664000,0,0.0,0.0,100.0,100.0,0.025087731,-0.12070301,110.190834,110.19133,6.3465075e-07,1.4690828e-05,3,1,0,1
26952000,26872000,26872000,0,0.0,0.0,100.0,100.0,0.030053804,-0.12027644,110.04623,110.04665,9.119714e-07,1.4606354e-05,3,1,0,1
27160000,27080000,27080000,0,0.0,0.0,100.0,100.0,0.03301947,-0.11768867,109.901985,109.90236,1.1022804e-06,1.4002958e-05,3,1,0,1
27368000,27288000,27288000,0,0.0,0.0,100.0,100.0,0.037173174,-0.11649402,109.75925,109.75957,1.3988645e-06,1.3737964e-05,3,1,0,1
27576000,27496000,27496000,0,0.0,0.0,100.0,100.0,0.03941735,-0.113621995,109.6183,109.61858,1.5748865e-06,1.3085735e-05,3,1,0,1
27784000,27704000,27704000,0,0.0,0.0,100.0,100.0,0.042208213,-0.11179491,109.479866,109.4801,1.808078e-06,1.2684296e-05,3,1,0,1
27992000,27912000,27912000,0,0.0,0.0,100.0,100.0,0.042942815,-0.10887328,109.34412,109.34432,1.8738856e-06,1.2044919e-05,3,1,0,1
28200000,28120000,28120000,0,0.0,0.0,100.0,100.0,0.043930985,-0.10705173,109.21153,109.2117,1.9635e-06,1.1659387e-05,3,1,0,1
28408000,28328000,28328000,0,0.0,0.0,100.0,100.0,0.042539507,-0.103534505,109.08221,109.08235,1.843268e-06,1.0918758e-05,3,1,0,1
28616000,28536000,28536000,0,0.0,0.0,100.0,100.0,0.039903667,-0.099990115,108.956406,108.95652,1.6237917e-06,1.0195731e-05,3,1,0,1
28824000,28744000,28744000,0,0.0,0.0,100.0,100.0,0.03758625,-0.09696771,108.8343,108.83438,1.4422803e-06,9.5994355e-06,3,1,0,1
29032000,28952000,28952000,0,0.0,0.0,100.0,100.0,0.03410056,-0.093274355,108.71593,108.71599,1.1884674e-06,8.891778e-06,3,1,0,1
29240000,29160000,29160000,0,0.0,0.0,100.0,100.0,0.03154661,-0.08982876,108.60147,108.60151,1.0181863e-06,8.255673e-06,3,1,0,1
29448000,29368000,29368000,0,0.0,0.0,100.0,100.0,0.02809341,-0.085815154,108.490944,108.49095,8.083006e-07,7.542094e-06,3,1,0,1
29656000,29576000,29576000,0,0.0,0.0,100.0,100.0,0.025449272,-0.08223397,108.38443,108.38442,6.6395916e-07,6.932553e-06,3,1,0,1
29864000,29784000,29784000,0,0.0,0.0,100.0,100.0,0.0219095,-0.07834834,108.28199,108.28197,4.92568e-07,6.298845e-06,3,1,0,1
30072000,29992000,29992000,0,0.0,0.0,100.0,100.0,0.018358706,-0.075132415,108.18368,108.18363,3.4616238e-07,5.7976317e-06,3,1,0,1
30280000,30200000,30200000,0,0.0,0.0,100.0,100.0,0.014294564,-0.07204399,108.08948,108.08942,2.1004672e-07,5.3354356e-06,3,1,0,1
30488000,30408000,30408000,0,0.0,0.0,100.0,100.0,0.01081337,-0.06990745,107.999405,107.99933,1.2029797e-07,5.027862e-06,3,1,0,1
30696000,30616000,30616000,0,0.0,0.0,100.0,100.0,0.0065630646,-0.06796012,107.91342,107.91333,4.435018e-08,4.75544e-06,3,1,0,1
30904000,30824000,30824000,0,0.0,0.0,100.0,100.0,0.0019363554,-0.06625702,107.831566,107.83145,3.8635073e-09,4.5235133e-06,3,1,0,1
31112000,31032000,31032000,0,0.0,0.0,100.0,100.0,-0.0032425956,-0.06440346,107.75379,107.75366,1.0842028e-08,4.2770453e-06,3,1,0,1
31320000,31240000,31240000,0,0.0,0.0,100.0,100.0,-0.008681045,-0.06312857,107.680115,107.67997,7.776175e-08,4.1122016e-06,3,1,0,1
31528000,31448000,31448000,0,0.0,0.0,100.0,100.0,-0.014946047,-0.062428873,107.61054,107.610374,2.3065101e-07,4.0241516e-06,3,1,0,1
31736000,31656000,31656000,0,0.0,0.0,100.0,100.0,-0.021641178,-0.061961085,107.54505,107.54488,4.8387017e-07,3.9664847e-06,3,1,0,1
31944000,31864000,31864000,0,0.0,0.0,100.0,100.0,-0.02852023,-0.061804675,107.48363,107.483444,8.408552e-07,3.9487404e-06,3,1,0,1
32152000,32072000,32072000,0,0.0,0.0,100.0,100.0,-0.03577096,-0.062015668,107.42625,107.42605,1.3234522e-06,3.9778715e-06,3,1,0,1
32360000,32280000,32280000,0,0.0,0.0,100.0,100.0,-0.043520067,-0.06263992,107.37288,107.37267,1.9599365e-06,4.060375e-06,3,1,0,1
32568000,32488000,32488000,0,0.0,0.0,100.0,100.0,-0.051824693,-0.06414011,107.32352,107.323296,2.7805845e-06,4.25915e-06,3,1,0,1
32776000,32696000,32696000,0,0.0,0.0,100.0,100.0,-0.060245637,-0.06619371,107.27812,107.27789,3.759218e-06,4.538169e-06,3,1,0,1
32984000,32904000,32904000,0,0.0,0.0,100.0,100.0,-0.06890583,-0.06843426,107.236664,107.236435,4.9195583e-06,4.8524635e-06,3,1,0,1
33192000,33112000,33112000,0,0.0,0.0,100.0,100.0,-0.07792976,-0.07125465,107.1991,107.19886,6.2946706e-06,5.2625196e-06,3,1,0,1
33400000,33320000,33320000,0,0.0,0.0,100.0,100.0,-0.08811554,-0.07360744,107.16472,107.164474,8.050274e-06,5.61759e-06,3,1,0,1
33608000,33528000,33528000,0,0.0,0.0,100.0,100.0,-0.09851565,-0.075885266,107.13254,107.132286,1.006576e-05,5.972444e-06,3,1,0,1
33816000,33736000,33736000,0,0.0,0.0,100.0,100.0,-0.1086778,-0.078775086,107.10314,107.1029,1.22528445e-05,6.4377487e-06,3,1,0,1
34024000,33944000,33944000,0,0.0,0.0,100.0,100.0,-0.118095,-0.0834634,107.07791,107.07767,1.4471737e-05,7.228543e-06,3,1,0,1
34232000,34152000,34152000,0,0.0,0.0,100.0,100.0,-0.12700748,-0.08975878,107.05698,107.05673,1.6741762e-05,8.361755e-06,3,1,0,1
34440000,34360000,34360000,0,0.0,0.0,100.0,100.0,-0.13686232,-0.09643806,107.03987,107.039635,1.9443738e-05,9.654055e-06,3,1,0,1
34648000,34568000,34568000,0,0.0,0.0,100.0,100.0,-0.1464512,-0.10352322,107.02644,107.02621,2.2266517e-05,1.1126099e-05,3,1,0,1
34856000,34776000,34776000,0,0.0,0.0,100.0,100.0,-0.15756074,-0.110423,107.01662,107.01639,2.5775213e-05,1.2659783e-05,3,1,0,1
35064000,34984000,34984000,0,0.0,0.0,100.0,100.0,-0.16901602,-0.11716341,107.01031,107.01008,2.9661125e-05,1.4253346e-05,3,1,0,1
35272000,35192000,35192000,0,0.0,0.0,100.0,100.0,-0.18160948,-0.123888,107.00744,107.007225,3.4246845e-05,1.5936865e-05,3,1,0,1
35480000,35400000,35400000,0,0.0,0.0,100.0,100.0,-0.19455393,-0.13086125,107.00792,107.00771,3.9302624e-05,1.7781344e-05,3,1,0,1
35688000,35608000,35608000,0,0.0,0.0,100.0,100.0,-0.20855646,-0.13774517,107.01166,107.01147,4.5162054e-05,1.9700623e-05,3,1,0,1
35896000,35816000,35816000,0,0.0,0.0,100.0,100.0,-0.22265428,-0.14504744,107.018524,107.01834,5.1470764e-05,2.1843358e-05,3,1,0,1
36104000,36024000,36024000,0,0.0,0.0,100.0,100.0,-0.23775484,-0.15281372,107.028404,107.028244,5.8683658e-05,2.4242856e-05,3,1,0,1
36312000,36232000,36232000,0,0.0,0.0,100.0,100.0,-0.2531489,-0.16134581,107.04116,107.041016,6.652101e-05,2.702232e-05,3,1,0,1
36520000,36440000,36440000,0,0.0,0.0,100.0,100.0,-0.27032086,-0.16998218,107.05665,107.05652,7.584081e-05,2.9988254e-05,3,1,0,1
36728000,36648000,36648000,0,0.0,0.0,100.0,100.0,-0.2879527,-0.17878482,107.07467,107.07457,8.6042506e-05,3.3169003e-05,3,1,0,1
36936000,36856000,36856000,0,0.0,0.0,100.0,100.0,-0.30726567,-0.18779851,107.0951,107.09502,9.79526e-05,3.6590853e-05,3,1,0,1
37144000,37064000,37064000,0,0.0,0.0,100.0,100.0,-0.32666746,-0.1971707,107.117744,107.1177,0.000110689856,4.032562e-05,3,1,0,1
37352000,37272000,37272000,0,0.0,0.0,100.0,100.0,-0.34667215,-0.20613185,107.14095,107.14093,0.00012463496,4.4064847e-05,3,1,0,1
37560000,37480000,37480000,0,0.0,0.0,100.0,100.0,-0.36400774,-0.21730839,107.16795,107.16796,0.00013737692,4.896046e-05,3,1,0,1
37768000,37688000,37688000,0,0.0,0.0,100.0,100.0,-0.3832268,-0.22852011,107.196526,107.19657,0.0001522259,5.4128428e-05,3,1,0,1
37976000,37896000,37896000,0,0.0,0.0,100.0,100.0,-0.40051144,-0.23923835,107.225746,107.22583,0.00016622191,5.9308873e-05,3,1,0,1
38184000,38104000,38104000,0,0.0,0.0,100.0,100.0,-0.4202442,-0.25031328,107.25543,107.255554,0.00018295388,6.490909e-05,3,1,0,1
38392000,38312000,38312000,0,0.0,0.0,100.0,100.0,-0.4366761,-0.26047432,107.285385,107.28555,0.00019748577,7.026614e-05,3,1,0,1
38600000,38520000,38520000,0,0.0,0.0,100.0,100.0,-0.4566546,-0.2716084,107.31557,107.31577,0.00021590886,7.638012e-05,3,1,0,1
38808000,38728000,38728000,0,0.0,0.0,100.0,100.0,-0.47317395,-0.28192794,107.345856,107.34612,0.00023174686,8.2271115e-05,3,1,0,1
39016000,38936000,38936000,0,0.0,0.0,100.0,100.0,-0.48869398,-0.29149455,107.3762,107.37652,0.00024712883,8.792432e-05,3,1,0,1
39224000,39144000,39144000,0,0.0,0.0,100.0,100.0,-0.51141393,-0.30301014,107.40662,107.40698,0.00027056495,9.498156e-05,3,1,0,1
39432000,39352000,39352000,0,0.0,0.0,100.0,100.0,-0.52631384,-0.31098488,107.436935,107.43738,0.00028647945,0.00010001857,3,1,0,1
39640000,39560000,39560000,0,0.0,0.0,100.0,100.0,-0.5485379,-0.32105392,107.46722,107.46771,0.00031109626,0.00010657012,3,1,0,1
39848000,39768000,39768000,0,0.0,0.0,100.0,100.0,-0.5607347,-0.3262758,107.49723,107.497795,0.00032499377,0.00011003418,3,1,0,1
40056000,39976000,39976000,0,0.0,0.0,100.0,100.0,-0.56912214,-0.3298717,107.5307,107.53129,0.0003346848,0.00011243792,3,1,0,1
40264000,40184000,40184000,0,0.0,0.0,100.0,100.0,-0.5671193,-0.32904193,107.564026,107.56465,0.00033223035,0.00011183826,3,1,0,1
40472000,40392000,40392000,0,0.0,0.0,100.0,100.0,-0.5735998,-0.3318549,107.596855,107.597496,0.00033976286,0.00011372392,3,1,0,1
40680000,40600000,40600000,0,0.0,0.0,100.0,100.0,-0.5698218,-0.33031818,107.629005,107.62968,0.00033520174,0.00011263942,3,1,0,1
40888000,40808000,40808000,0,0.0,0.0,100.0,100.0,-0.5746533,-0.3323399,107.66038,107.66106,0.00034081086,0.00011398924,3,1,0,1
41096000,41016000,41016000,0,0.0,0.0,100.0,100.0,-0.5700147,-0.32962975,107.69082,107.69152,0.00033523625,0.00011210598,3,1,0,1
41304000,41224000,41224000,0,0.0,0.0,100.0,100.0,-0.5742692,-0.33072534,107.72025,107.72096,0.00034016618,0.000112821595,3,1,0,1
41512000,41432000,41432000,0,0.0,0.0,100.0,100.0,-0.5685132,-0.32660684,107.74853,107.74926,0.00033329384,0.00011000026,3,1,0,1
41720000,41640000,41640000,0,0.0,0.0,100.0,100.0,-0.57160926,-0.32617384,107.77562,107.776344,0.00033684916,0.00010968122,3,1,0,1
41928000,41848000,41848000,0,0.0,0.0,100.0,100.0,-0.564635,-0.3204307,107.80139,107.80214,0.00032860087,0.00010582746,3,1,0,1
42136000,42056000,42056000,0,0.0,0.0,100.0,100.0,-0.56616044,-0.31853718,107.825836,107.82658,0.0003303039,0.00010455671,3,1,0,1
42344000,42264000,42264000,0,0.0,0.0,100.0,100.0,-0.55758643,-0.31166914,107.84885,107.849594,0.00032030695,0.00010007522,3,1,0,1
42552000,42472000,42472000,0,0.0,0.0,100.0,100.0,-0.55732256,-0.3085823,107.87044,107.87117,0.00031993983,9.808309e-05,3,1,0,1
42760000,42680000,42680000,0,0.0,0.0,100.0,100.0,-0.5476474,-0.3007337,107.890526,107.891266,0.0003088704,9.313982e-05,3,1,0,1
42968000,42888000,42888000,0,0.0,0.0,100.0,100.0,-0.5459906,-0.29628634,107.90913,107.90984,0.0003069514,9.038986e-05,3,1,0,1
43176000,43096000,43096000,0,0.0,0.0,100.0,100.0,-0.53581107,-0.28780606,107.92618,107.926895,0.00029556573,8.527617e-05,3,1,0,1
43384000,43304000,43304000,0,0.0,0.0,100.0,100.0,-0.53305656,-0.28266913,107.94172,107.94241,0.0002924925,8.2247396e-05,3,1,0,1
43592000,43512000,43512000,0,0.0,0.0,100.0,100.0,-0.52189296,-0.27409503,107.95571,107.9564,0.00028033336,7.7323486e-05,3,1,0,1
43800000,43720000,43720000,0,0.0,0.0,100.0,100.0,-0.5177478,-0.26847774,107.9682,107.968864,0.000275866,7.417807e-05,3,1,0,1
44008000,43928000,43928000,0,0.0,0.0,100.0,100.0,-0.5059311,-0.2595194,107.97918,107.97983,0.00026339054,6.9303394e-05,3,1,0,1
44216000,44136000,44136000,0,0.0,0.0,100.0,100.0,-0.49397454,-0.2501223,107.98868,107.98932,0.0002510663,6.4369706e-05,3,1,0,1
44424000,44344000,44344000,0,0.0,0.0,100.0,100.0,-0.48961473,-0.24317077,107.99676,107.99736,0.00024663558,6.0836897e-05,3,1,0,1
44632000,44552000,44552000,0,0.0,0.0,100.0,100.0,-0.47804695,-0.23391427,108.0034,108.004,0.00023510461,5.628998e-05,3,1,0,1
44840000,44760000,44760000,0,0.0,0.0,100.0,100.0,-0.47331965,-0.22667481,108.00871,108.00928,0.00023046648,5.2857053e-05,3,1,0,1
45048000,44968000,44968000,0,0.0,0.0,1e-04,1e-04,0.049978327,-0.05380326,2.7953815,2.795363,9.928413e-05,0.00011506321,3,1,0,1
45256000,45176000,45176000,0,0.0,0.0,1e-04,1e-04,-0.0019618701,2.8664486e-05,0.0010116653,0.0010116745,0.00042272813,9.024124e-08,3,1,0,1
45464000,45384000,45384000,0,0.0,0.0,1e-04,1e-04,-0.000226199,0.0003302105,0.000598846,0.00059887354,9.493442e-06,2.0230382e-05,3,1,0,1
45672000,45592000,45592000,0,0.0,0.0,1e-04,1e-04,-9.605217e-05,0.00044374543,0.0005183322,0.00051837607,1.9777149e-06,4.2206597e-05,3,1,0,1
45880000,45800000,45800000,0,0.0,0.0,1e-04,1e-04,-0.00020069638,0.00029416595,0.00048878783,0.0004888233,9.156219e-06,1.9669367e-05,3,1,0,1
46088000,46008000,46008000,0,0.0,0.0,1e-04,1e-04,-1.5454276e-05,-7.990215e-05,0.0004331583,0.00043317684,6.1264394e-08,1.6376052e-06,3,1,0,1
46296000,46216000,46216000,0,0.0,0.0,1e-04,1e-04,2.7350276e-05,-0.0003684239,0.00037647208,0.00037648043,2.2077411e-07,4.0059975e-05,3,1,0,1
46504000,46424000,46424000,0,0.0,0.0,1e-04,1e-04,0.0001208213,-0.00048478704,0.00033278775,0.00033279168,4.873906e-06,7.8467e-05,3,1,0,1
46712000,46632000,46632000,0,0.0,0.0,1e-04,1e-04,3.718278e-05,-0.00076681055,0.00030189427,0.00030189584,5.08846e-07,0.00021640961,3,1,0,1
46920000,46840000,46840000,0,0.0,0.0,1e-04,1e-04,-0.00010025139,-0.0011121527,0.00028060557,0.0002806057,3.9796237e-06,0.0004897674,3,1,0,1
47128000,47048000,47048000,0,0.0,0.0,1e-04,1e-04,-0.0004624197,-0.0010044015,0.00026609254,0.0002660926,8.928889e-05,0.00042124948,3,1,0,1
47336000,47256000,47256000,0,0.0,0.0,1e-04,1e-04,-0.0008480993,-0.0005716061,0.00025627672,0.0002562772,0.00031184714,0.00014165803,3,1,0,1
47544000,47464000,47464000,0,0.0,0.0,1e-04,1e-04,-0.0007778218,-3.5961202e-05,0.0002496764,0.00024967655,0.0002692404,5.755037e-07,3,1,0,1
47752000,47672000,47672000,0,0.0,0.0,1e-04,1e-04,-0.0010333648,0.0005375759,0.00024524698,0.00024524654,0.00048379475,0.00013092851,3,1,0,1
