timestamp,timestamp_sample,position_drift_rate_horizontal_m_s,position_drift_rate_vertical_m_s,filtered_horizontal_speed_m_s,checks_passed,check_fail_gps_fix,check_fail_min_sat_count,check_fail_max_pdop,check_fail_max_horz_err,check_fail_max_vert_err,check_fail_max_spd_err,check_fail_max_horz_drift,check_fail_max_vert_drift,check_fail_max_horz_spd_err,check_fail_max_vert_spd_err
3408000,3289097,0.0,0.0,0.0,0,0,0,0,0,0,0,0,0,0,0
3808000,3689454,0.0,0.0006988526,0.0,0,0,0,0,0,0,0,0,0,0,0
4208000,4089670,0.0007526839,0.00033007818,0.00040000002,1,0,0,0,0,0,0,0,0,0,0
4608000,4489800,3.0107389e-05,0.00021616704,0.0011201143,1,0,0,0,0,0,0,0,0,0,0
5008000,4885879,2.8915136e-05,0.00020760682,0.0010757578,1,0,0,0,0,0,0,0,0,0,0
5408000,5289927,2.7746963e-05,0.0006997078,0.0011748,1,0,0,0,0,0,0,0,0,0,0
5808000,5689956,2.6637084e-05,7.052312e-05,0.0015156284,1,0,0,0,0,0,0,0,0,0,0
6208000,6089974,2.55716e-05,0.00056819053,0.0014550032,1,0,0,0,0,0,0,0,0,0,0
6608000,6489984,2.4548735e-05,0.00055317004,0.00097103376,1,0,0,0,0,0,0,0,0,0,0
7008000,6889991,2.3566785e-05,0.00063175126,0.00072688144,1,0,0,0,0,0,0,0,0,0,0
7408000,7289995,2.2624114e-05,8.336618e-06,0.0005120736,1,0,0,0,0,0,0,0,0,0,0
7808000,7689997,2.1719148e-05,0.00019341288,0.000582697,1,0,0,0,0,0,0,0,0,0,0
8208000,8089998,2.0850382e-05,8.496834e-05,0.0012033434,1,0,0,0,0,0,0,0,0,0,0
8608000,8489999,2.0016367e-05,8.1569604e-05,0.00051999517,1,0,0,0,0,0,0,0,0,0,0
9016000,8894000,1.9207704e-05,0.00022079807,0.0004989873,1,0,0,0,0,0,0,0,0,0,0
9408000,9290000,1.844708e-05,0.0002884338,0.00045150708,1,0,0,0,0,0,0,0,0,0,0
9808000,9690000,1.7709195e-05,0.0011771651,0.00056659366,1,0,0,0,0,0,0,0,0,0,0
10208000,10090000,0.00076968473,0.0012277347,0.00050450524,1,0,0,0,0,0,0,0,0,0,0
10608000,10490000,1.3786601e-05,0.0006811887,0.00048432505,1,0,0,0,0,0,0,0,0,0,0
11008000,10890000,1.3235137e-05,0.0005532331,0.00075214286,1,0,0,0,0,0,0,0,0,0,0
11408000,11290000,1.2705731e-05,0.0010710692,0.0010819267,1,0,0,0,0,0,0,0,0,0,0
11808000,11690000,0.0011120163,0.00072610227,0.0010386497,1,0,0,0,0,0,0,0,0,0,0
12216000,12094000,4.6422505e-05,0.00020350085,0.0009966883,1,0,0,0,0,0,0,0,0,0,0
12608000,12490000,4.4584172e-05,5.9738086e-06,0.000502074,1,0,0,0,0,0,0,0,0,0,0
13008000,12890000,4.2800802e-05,0.00020409912,0.00088061206,1,0,0,0,0,0,0,0,0,0,0
13408000,13290000,4.1088773e-05,0.0005957155,0.00035996246,1,0,0,0,0,0,0,0,0,0,0
13808000,13690000,0.0007437185,0.0006725949,0.00074362644,1,0,0,0,0,0,0,0,0,0,0
14208000,14090000,0.00079318584,0.0008471071,0.00031591687,1,0,0,0,0,0,0,0,0,0,0
14608000,14490000,3.606791e-05,0.00031273445,0.00036801398,1,0,0,0,0,0,0,0,0,0,0
15008000,14890000,3.4625195e-05,0.0004009331,0.0009585105,1,0,0,0,0,0,0,0,0,0,0
15408000,15290000,3.3240187e-05,0.0011844564,0.00085994444,1,0,0,0,0,0,0,0,0,0,0
15808000,15690000,0.0007603649,0.0005627511,0.0008255466,1,0,0,0,0,0,0,0,0,0,0
16208000,16090000,0.0007299504,3.975269e-05,0.0005025692,1,0,0,0,0,0,0,0,0,0,0
16608000,16490000,5.984117e-05,0.0005386509,0.00048246642,1,0,0,0,0,0,0,0,0,0,0
17008000,16890000,nan,nan,nan,1,0,0,0,0,0,0,0,0,0,0
17408000,17290000,nan,nan,nan,1,0,0,0,0,0,0,0,0,0,0
17808000,17690000,nan,nan,nan,1,0,0,0,0,0,0,0,0,0,0
18208000,18090000,nan,nan,nan,1,0,0,0,0,0,0,0,0,0,0
18608000,18490000,nan,nan,nan,1,0,0,0,0,0,0,0,0,0,0
19008000,18890000,nan,nan,nan,1,0,0,0,0,0,0,0,0,0,0
19408000,19290000,nan,nan,nan,1,0,0,0,0,0,0,0,0,0,0
19808000,19690000,nan,nan,nan,1,0,0,0,0,0,0,0,0,0,0
20208000,20090000,nan,nan,nan,1,0,0,0,0,0,0,0,0,0,0
20608000,20490000,nan,nan,nan,1,0,0,0,0,0,0,0,0,0,0
21008000,20890000,nan,nan,nan,1,0,0,0,0,0,0,0,0,0,0
21408000,21290000,nan,nan,nan,1,0,0,0,0,0,0,0,0,0,0
21808000,21686000,nan,nan,nan,1,0,0,0,0,0,0,0,0,0,0
22208000,22090000,nan,nan,nan,1,0,0,0,0,0,0,0,0,0,0
22608000,22490000,nan,nan,nan,1,0,0,0,0,0,0,0,0,0,0
23008000,22890000,nan,nan,nan,1,0,0,0,0,0,0,0,0,0,0
23408000,23290000,nan,nan,nan,1,0,0,0,0,0,0,0,0,0,0
23808000,23690000,nan,nan,nan,1,0,0,0,0,0,0,0,0,0,0
24208000,24090000,nan,nan,nan,1,0,0,0,0,0,0,0,0,0,0
24608000,24490000,nan,nan,nan,1,0,0,0,0,0,0,0,0,0,0
25008000,24890000,nan,nan,nan,1,0,0,0,0,0,0,0,0,0,0
25408000,25290000,nan,nan,nan,1,0,0,0,0,0,0,0,0,0,0
25808000,25694000,nan,nan,nan,1,0,0,0,0,0,0,0,0,0,0
26208000,26090000,nan,nan,nan,1,0,0,0,0,0,0,0,0,0,0
26608000,26490000,nan,nan,nan,1,0,0,0,0,0,0,0,0,0,0
27008000,26890000,nan,nan,nan,1,0,0,0,0,0,0,0,0,0,0
27408000,27290000,nan,nan,nan,1,0,0,0,0,0,0,0,0,0,0
27808000,27690000,nan,nan,nan,1,0,0,0,0,0,0,0,0,0,0
28208000,28090000,nan,nan,nan,1,0,0,0,0,0,0,0,0,0,0
28608000,28490000,nan,nan,nan,1,0,0,0,0,0,0,0,0,0,0
29008000,28890000,nan,nan,nan,1,0,0,0,0,0,0,0,0,0,0
29408000,29290000,nan,nan,nan,1,0,0,0,0,0,0,0,0,0,0
29808000,29690000,nan,nan,nan,1,0,0,0,0,0,0,0,0,0,0
30208000,30090000,nan,nan,nan,1,0,0,0,0,0,0,0,0,0,0
30608000,30490000,nan,nan,nan,1,0,0,0,0,0,0,0,0,0,0
31008000,30890000,nan,nan,nan,1,0,0,0,0,0,0,0,0,0,0
31408000,31290000,nan,nan,nan,1,0,0,0,0,0,0,0,0,0,0
31808000,31690000,nan,nan,nan,1,0,0,0,0,0,0,0,0,0,0
32208000,32090000,nan,nan,nan,1,0,0,0,0,0,0,0,0,0,0
32608000,32490000,nan,nan,nan,1,0,0,0,0,0,0,0,0,0,0
33008000,32890000,nan,nan,nan,1,0,0,0,0,0,0,0,0,0,0
33408000,33290000,nan,nan,nan,1,0,0,0,0,0,0,0,0,0,0
33808000,33690000,nan,nan,nan,1,0,0,0,0,0,0,0,0,0,0
34208000,34090000,nan,nan,nan,1,0,0,0,0,0,0,0,0,0,0
34608000,34490000,nan,nan,nan,1,0,0,0,0,0,0,0,0,0,0
35008000,34890000,nan,nan,nan,1,0,0,0,0,0,0,0,0,0,0
35408000,35290000,nan,nan,nan,1,0,0,0,0,0,0,0,0,0,0
35808000,35690000,nan,nan,nan,1,0,0,0,0,0,0,0,0,0,0
36208000,36090000,nan,nan,nan,1,0,0,0,0,0,0,0,0,0,0
36608000,36490000,nan,nan,nan,1,0,0,0,0,0,0,0,0,0,0
37008000,36890000,nan,nan,nan,1,0,0,0,0,0,0,0,0,0,0
37408000,37290000,nan,nan,nan,1,0,0,0,0,0,0,0,0,0,0
37808000,37690000,nan,nan,nan,1,0,0,0,0,0,0,0,0,0,0
38208000,38090000,nan,nan,nan,1,0,0,0,0,0,0,0,0,0,0
38608000,38490000,nan,nan,nan,1,0,0,0,0,0,0,0,0,0,1
39008000,38890000,nan,nan,nan,1,0,0,0,0,0,0,0,0,0,1
39408000,39290000,nan,nan,nan,1,0,0,0,0,0,0,0,0,0,1
39808000,39690000,nan,nan,nan,1,0,0,0,0,0,0,0,0,0,1
40208000,40090000,nan,nan,nan,1,0,0,0,0,0,0,0,0,0,1
40608000,40490000,nan,nan,nan,1,0,0,0,0,0,0,0,0,0,1
41008000,40886000,nan,nan,nan,1,0,0,0,0,0,0,0,0,0,1
41408000,41290000,nan,nan,nan,1,0,0,0,0,0,0,0,0,0,1
41808000,41690000,nan,nan,nan,1,0,0,0,0,0,0,0,0,0,1
42208000,42090000,nan,nan,nan,1,0,0,0,0,0,0,0,0,0,1
42608000,42490000,nan,nan,nan,1,0,0,0,0,0,0,0,0,0,1
43008000,42890000,nan,nan,nan,1,0,0,0,0,0,0,0,0,0,1
43408000,43290000,nan,nan,nan,1,0,0,0,0,0,0,0,0,0,1
43808000,43690000,nan,nan,nan,1,0,0,0,0,0,0,0,0,0,1
44208000,44090000,nan,nan,nan,1,0,0,0,0,0,0,0,0,0,1
44608000,44490000,nan,nan,nan,1,0,0,0,0,0,0,0,0,0,1
45008000,44890000,0.0011119494,0.00030212404,0.00056568545,1,0,0,0,0,0,0,0,0,0,1
45408000,45290000,0.0010674715,1.2084958e-05,0.00087299035,1,0,0,0,0,0,0,0,0,0,1
45808000,45690000,8.7176915e-05,0.00029052247,0.00075329305,1,0,0,0,0,0,0,0,0,0,1
46208000,46090000,0.0010282596,2.322247e-05,0.0008117129,1,0,0,0,0,0,0,0,0,0,1
46608000,46490000,0.0009871292,0.00051973015,0.00082405336,1,0,0,0,0,0,0,0,0,0,1
47008000,46890000,0.000947644,0.00040132768,0.0006664391,1,0,0,0,0,0,0,0,0,0,1
47408000,47290000,0.00090973824,0.0006157021,0.0015009799,1,0,0,0,0,0,0,0,0,0,1
47808000,47690000,0.0008733487,0.0008901463,0.0018241637,1,0,0,0,0,0,0,0,0,0,1
