timestamp,data_rate,rate_multiplier,tx_rate_avg,tx_error_rate_avg,tx_message_count,tx_buffer_overruns,rx_rate_avg,rx_message_count,rx_message_lost_count,rx_buffer_overruns,rx_parse_errors,rx_packet_drop_count,rx_message_lost_rate,type,mode,flow_control,forwarding,mavlink_v2,ftp,streams,heartbeat_type_antenna_tracker,heartbeat_type_gcs,heartbeat_type_onboard_controller,heartbeat_type_gimbal,heartbeat_type_adsb,heartbeat_type_camera,heartbeat_type_parachute,heartbeat_type_open_drone_id,heartbeat_component_telemetry_radio,heartbeat_component_log,heartbeat_component_osd,heartbeat_component_obstacle_avoidance,heartbeat_component_vio,heartbeat_component_pairing_manager,heartbeat_component_udp_bridge,heartbeat_component_uart_bridge,avoidance_system_healthy,open_drone_id_system_healthy,parachute_system_healthy
4188000,4000000.0,1.0,13425.299,0.0,287,0,0.0,0,0,0,0,0,0.0,0,0,0,1,1,1,52,0,0,0,0,0,0,0,0,0,0,0,0,0,0,0,0,0,0,0
4448000,4000000.0,1.0,13425.299,0.0,367,0,0.0,0,0,0,0,0,0.0,0,0,0,1,1,1,52,0,0,0,0,0,0,0,0,0,0,0,0,0,0,0,0,0,0,0
5704000,4000000.0,1.0,14956.176,0.0,772,0,0.0,0,0,0,0,0,0.0,0,0,0,1,1,1,52,0,0,0,0,0,0,0,0,0,0,0,0,0,0,0,0,0,0,0
6960000,4000000.0,1.0,15061.754,0.0,1168,0,0.0,0,0,0,0,0,0.0,0,0,0,1,1,1,52,0,0,0,0,0,0,0,0,0,0,0,0,0,0,0,0,0,0,0
8212000,4000000.0,1.0,14832.67,0.0,1575,0,0.0,0,0,0,0,0,0.0,0,0,0,1,1,1,52,0,0,0,0,0,0,0,0,0,0,0,0,0,0,0,0,0,0,0
9212000,4000000.0,1.0,16518.924,0.0,1935,0,0.0,0,0,0,0,0,0.0,0,0,0,1,1,1,52,0,0,0,0,0,0,0,0,0,0,0,0,0,0,0,0,0,0,0
9464000,4000000.0,1.0,16518.924,0.0,2023,0,0.0,0,0,0,0,0,0.0,0,0,0,1,1,1,52,0,0,0,0,0,0,0,0,0,0,0,0,0,0,0,0,0,0,0
10716000,4000000.0,1.0,16741.037,0.0,2487,0,0.0,0,0,0,0,0,0.0,0,0,0,1,1,1,52,0,0,0,0,0,0,0,0,0,0,0,0,0,0,0,0,0,0,0
11976000,4000000.0,1.0,17244.025,0.0,2948,0,0.0,0,0,0,0,0,0.0,0,0,0,1,1,1,52,0,0,0,0,0,0,0,0,0,0,0,0,0,0,0,0,0,0,0
13228000,4000000.0,1.0,17134.463,0.0,3420,0,0.0,0,0,0,0,0,0.0,0,0,0,1,1,1,52,0,0,0,0,0,0,0,0,0,0,0,0,0,0,0,0,0,0,0
14228000,4000000.0,1.0,16788.846,0.0,3786,0,0.0,0,0,0,0,0,0.0,0,0,0,1,1,1,52,0,0,0,0,0,0,0,0,0,0,0,0,0,0,0,0,0,0,0
14484000,4000000.0,1.0,16788.846,0.0,3877,0,0.0,0,0,0,0,0,0.0,0,0,0,1,1,1,52,0,0,0,0,0,0,0,0,0,0,0,0,0,0,0,0,0,0,0
15740000,4000000.0,1.0,17150.398,0.0,4343,0,0.0,0,0,0,0,0,0.0,0,0,0,1,1,1,52,0,0,0,0,0,0,0,0,0,0,0,0,0,0,0,0,0,0,0
16996000,4000000.0,1.0,16872.51,0.0,4804,0,0.0,0,0,0,0,0,0.0,0,0,0,1,1,1,52,0,0,0,0,0,0,0,0,0,0,0,0,0,0,0,0,0,0,0
18256000,4000000.0,1.0,16924.303,0.0,5279,0,0.0,0,0,0,0,0,0.0,0,0,0,1,1,1,52,0,0,0,0,0,0,0,0,0,0,0,0,0,0,0,0,0,0,0
19256000,4000000.0,1.0,17138.447,0.0,5650,0,0.0,0,0,0,0,0,0.0,0,0,0,1,1,1,52,0,0,0,0,0,0,0,0,0,0,0,0,0,0,0,0,0,0,0
19512000,4000000.0,1.0,17138.447,0.0,5740,0,0.0,0,0,0,0,0,0.0,0,0,0,1,1,1,52,0,0,0,0,0,0,0,0,0,0,0,0,0,0,0,0,0,0,0
20772000,4000000.0,1.0,16827.69,0.0,6201,0,0.0,0,0,0,0,0,0.0,0,0,0,1,1,1,52,0,0,0,0,0,0,0,0,0,0,0,0,0,0,0,0,0,0,0
22024000,4000000.0,1.0,17152.39,0.0,6660,0,0.0,0,0,0,0,0,0.0,0,0,0,1,1,1,52,0,0,0,0,0,0,0,0,0,0,0,0,0,0,0,0,0,0,0
23024000,4000000.0,1.0,16970.12,0.0,7028,0,0.0,0,0,0,0,0,0.0,0,0,0,1,1,1,52,0,0,0,0,0,0,0,0,0,0,0,0,0,0,0,0,0,0,0
23276000,4000000.0,1.0,17228.088,0.0,7136,0,0.0,0,0,0,0,0,0.0,0,0,0,1,1,1,52,0,0,0,0,0,0,0,0,0,0,0,0,0,0,0,0,0,0,0
24528000,4000000.0,1.0,16888.447,0.0,7591,0,0.0,0,0,0,0,0,0.0,0,0,0,1,1,1,52,0,0,0,0,0,0,0,0,0,0,0,0,0,0,0,0,0,0,0
25788000,4000000.0,1.0,17091.635,0.0,8055,0,0.0,0,0,0,0,0,0.0,0,0,0,1,1,1,52,0,0,0,0,0,0,0,0,0,0,0,0,0,0,0,0,0,0,0
27044000,4000000.0,1.0,16876.494,0.0,8514,0,0.0,0,0,0,0,0,0.0,0,0,0,1,1,1,52,0,0,0,0,0,0,0,0,0,0,0,0,0,0,0,0,0,0,0
28044000,4000000.0,1.0,17247.012,0.0,8885,0,0.0,0,0,0,0,0,0.0,0,0,0,1,1,1,52,0,0,0,0,0,0,0,0,0,0,0,0,0,0,0,0,0,0,0
28300000,4000000.0,1.0,16911.355,0.0,8989,0,0.0,0,0,0,0,0,0.0,0,0,0,1,1,1,52,0,0,0,0,0,0,0,0,0,0,0,0,0,0,0,0,0,0,0
29560000,4000000.0,1.0,17139.443,0.0,9452,0,0.0,0,0,0,0,0,0.0,0,0,0,1,1,1,52,0,0,0,0,0,0,0,0,0,0,0,0,0,0,0,0,0,0,0
30816000,4000000.0,1.0,16840.639,0.0,9913,0,0.0,0,0,0,0,0,0.0,0,0,0,1,1,1,52,0,0,0,0,0,0,0,0,0,0,0,0,0,0,0,0,0,0,0
32072000,4000000.0,1.0,17140.44,0.0,10373,0,0.0,0,0,0,0,0,0.0,0,0,0,1,1,1,52,0,0,0,0,0,0,0,0,0,0,0,0,0,0,0,0,0,0,0
33072000,4000000.0,1.0,16970.12,0.0,10742,0,0.0,0,0,0,0,0,0.0,0,0,0,1,1,1,52,0,0,0,0,0,0,0,0,0,0,0,0,0,0,0,0,0,0,0
33336000,4000000.0,1.0,17265.938,0.0,10854,0,0.0,0,0,0,0,0,0.0,0,0,0,1,1,1,52,0,0,0,0,0,0,0,0,0,0,0,0,0,0,0,0,0,0,0
34592000,4000000.0,1.0,16875.498,0.0,11311,0,0.0,0,0,0,0,0,0.0,0,0,0,1,1,1,52,0,0,0,0,0,0,0,0,0,0,0,0,0,0,0,0,0,0,0
35848000,4000000.0,1.0,17091.635,0.0,11772,0,0.0,0,0,0,0,0,0.0,0,0,0,1,1,1,52,0,0,0,0,0,0,0,0,0,0,0,0,0,0,0,0,0,0,0
37104000,4000000.0,1.0,16889.443,0.0,12232,0,0.0,0,0,0,0,0,0.0,0,0,0,1,1,1,52,0,0,0,0,0,0,0,0,0,0,0,0,0,0,0,0,0,0,0
38104000,4000000.0,1.0,17234.064,0.0,12602,0,0.0,0,0,0,0,0,0.0,0,0,0,1,1,1,52,0,0,0,0,0,0,0,0,0,0,0,0,0,0,0,0,0,0,0
38360000,4000000.0,1.0,16911.355,0.0,12706,0,0.0,0,0,0,0,0,0.0,0,0,0,1,1,1,52,0,0,0,0,0,0,0,0,0,0,0,0,0,0,0,0,0,0,0
39616000,4000000.0,1.0,17152.39,0.0,13169,0,0.0,0,0,0,0,0,0.0,0,0,0,1,1,1,52,0,0,0,0,0,0,0,0,0,0,0,0,0,0,0,0,0,0,0
40876000,4000000.0,1.0,16827.69,0.0,13630,0,0.0,0,0,0,0,0,0.0,0,0,0,1,1,1,52,0,0,0,0,0,0,0,0,0,0,0,0,0,0,0,0,0,0,0
42128000,4000000.0,1.0,17140.44,0.0,14087,0,0.0,0,0,0,0,0,0.0,0,0,0,1,1,1,52,0,0,0,0,0,0,0,0,0,0,0,0,0,0,0,0,0,0,0
43128000,4000000.0,1.0,16983.068,0.0,14456,0,0.0,0,0,0,0,0,0.0,0,0,0,1,1,1,52,0,0,0,0,0,0,0,0,0,0,0,0,0,0,0,0,0,0,0
43388000,4000000.0,1.0,17228.088,0.0,14565,0,0.0,0,0,0,0,0,0.0,0,0,0,1,1,1,52,0,0,0,0,0,0,0,0,0,0,0,0,0,0,0,0,0,0,0
44644000,4000000.0,1.0,16875.498,0.0,15024,0,0.0,0,0,0,0,0,0.0,0,0,0,1,1,1,52,0,0,0,0,0,0,0,0,0,0,0,0,0,0,0,0,0,0,0
45904000,4000000.0,1.0,17125.498,0.0,15489,0,0.0,0,0,0,0,0,0.0,0,0,0,1,1,1,52,0,0,0,0,0,0,0,0,0,0,0,0,0,0,0,0,0,0,0
47164000,4000000.0,1.0,16868.527,0.0,15950,0,0.0,0,0,0,0,0,0.0,0,0,0,1,1,1,52,0,0,0,0,0,0,0,0,0,0,0,0,0,0,0,0,0,0,0
