timestamp,timestamp_sample,gyro_device_id,gyro_bias[0],gyro_bias[1],gyro_bias[2],gyro_bias_limit,gyro_bias_variance[0],gyro_bias_variance[1],gyro_bias_variance[2],accel_device_id,accel_bias[0],accel_bias[1],accel_bias[2],accel_bias_limit,accel_bias_variance[0],accel_bias_variance[1],accel_bias_variance[2],mag_device_id,mag_bias[0],mag_bias[1],mag_bias[2],mag_bias_limit,mag_bias_variance[0],mag_bias_variance[1],mag_bias_variance[2],gyro_bias_valid,gyro_bias_stable,accel_bias_valid,accel_bias_stable,mag_bias_valid,mag_bias_stable
3160000,3160000,1310988,0.0,0.0,0.0,0.15,0.009960121,0.009960121,0.009960038,1310988,0.0,0.0,0.0,0.4,0.039840482,0.039840482,0.039840482,197388,0.0,0.0,0.0,0.5,0.0,0.0,0.0,1,0,1,0,1,0
3480000,3400000,1310988,-0.00037407974,-0.00088344864,-3.0009473e-06,0.15,0.010154969,0.010159492,0.0032502376,1310988,-0.00079379504,0.00051858055,-0.09445134,0.4,0.040911734,0.040916253,0.004508552,197388,0.0,0.0,0.0,0.5,0.0,0.0,0.0,1,0,1,0,1,0
3536000,3456000,1310988,-0.00037844083,-0.000893748,-3.0359329e-06,0.15,0.010393125,0.010397754,0.0033264633,1310988,-0.0008030492,0.00052462623,-0.09555247,0.4,0.04187121,0.041875836,0.0046142936,197388,0.0,0.0,0.0,0.5,0.0025000002,0.0025000002,0.0025000002,1,0,1,0,1,0
3592000,3512000,1310988,-0.0003828807,-0.000903776,-2.7697253e-05,0.15,0.010622728,0.010627458,0.0033992908,1310988,-0.00081096916,0.0005313199,-0.09660214,0.4,0.04279622,0.042800948,0.0047162366,197388,0.0,0.0,0.0,0.5,0.0025000002,0.0025000002,0.0025000002,1,0,1,0,1,0
3656000,3576000,1310988,-0.0004043938,-0.00091766904,-8.15715e-05,0.15,0.010831091,0.010835892,0.0034769077,1310988,-0.00078986783,0.0004233083,-0.09774311,0.4,0.041545253,0.041549455,0.004826118,197388,0.0,0.0,0.0,0.5,0.0025000002,0.0025000002,0.0025000002,1,0,1,0,1,0
3704000,3624000,1310988,-0.0004363499,-0.00095659174,-0.00011506743,0.15,0.010923544,0.010928382,0.0035285088,1310988,-0.00066605187,0.00032138822,-0.09876653,0.4,0.040710893,0.040714815,0.0048712054,197388,0.0,0.0,0.0,0.5,0.0025000002,0.0025000002,0.0025000002,1,0,1,0,1,0
3768000,3688000,1310988,-0.00044245666,-0.0009674723,-0.00023396936,0.15,0.011152542,0.011157484,0.0035924471,1310988,-0.0006691567,0.0003290277,-0.09979639,0.4,0.04156435,0.04156835,0.004973331,197388,0.0,0.0,0.0,0.5,0.0025000002,0.0025000002,0.0025000002,1,0,1,0,1,0
3840000,3760000,1310988,-0.00044790388,-0.0009783579,-0.00028166806,0.15,0.011396725,0.011401776,0.003655682,1310988,-0.0006749817,0.0003342332,-0.10088298,0.4,0.04247439,0.042478476,0.0050822287,197388,0.0,0.0,0.0,0.5,0.0025000002,0.0025000002,0.0025000002,1,0,1,0,1,0
3864000,3784000,1310988,-0.000619212,-0.0013804494,-0.00028433342,0.15,0.010372702,0.010377411,0.0036791621,1310988,0.00050196267,-9.775962e-05,-0.101262555,0.4,0.033496875,0.033497985,0.0051093376,197388,0.0,0.0,0.0,0.5,0.0025000002,0.0025000002,0.0025000002,1,0,1,0,1,0
3896000,3816000,1310988,-0.0006501567,-0.0015896951,-0.00028686278,0.15,0.010070418,0.010074998,0.003711528,1310988,0.0005681362,-8.752522e-05,-0.102334306,0.4,0.033735435,0.033736736,0.005017578,197388,0.0,0.0,0.0,0.5,0.0025000002,0.0025000002,0.0025000002,1,0,1,0,1,0
3976000,3896000,1310988,-0.00065655756,-0.0016062778,-0.00027537977,0.15,0.010281746,0.010286435,0.0037408657,1310988,0.00057388336,-8.86824e-05,-0.10340255,0.4,0.034443405,0.034444705,0.005122885,197388,0.0,0.0,0.0,0.5,0.0025000002,0.0025000002,0.0025000002,1,0,1,0,1,0
4064000,3984000,1310988,-0.00066153397,-0.0016229165,-0.00016588977,0.15,0.010497575,0.010502371,0.0037855192,1310988,0.0005780266,-9.280556e-05,-0.10448193,0.4,0.03516645,0.035167757,0.005230415,197388,0.0,0.0,0.0,0.5,0.0025000002,0.0025000002,0.0025000002,1,0,1,0,1,0
4072000,3992000,1310988,-0.00089404226,-0.0028347312,-0.00017214088,0.15,0.007833288,0.007837149,0.003790174,1310988,0.0009820656,-0.000115741954,-0.10458492,0.4,0.03494067,0.034942634,0.0052395286,197388,0.0,0.0,0.0,0.5,0.0025000002,0.0025000002,0.0025000002,1,0,1,0,1,0
4104000,4024000,1310988,-0.00090917223,-0.0031270534,-0.00017425502,0.15,0.0071374723,0.007141131,0.0038162903,1310988,0.00078188436,-7.361582e-05,-0.1062026,0.4,0.0349036,0.03490522,0.004984765,197388,0.0,0.0,0.0,0.5,0.0025000002,0.0025000002,0.0025000002,1,0,1,0,1,0
4184000,4104000,1310988,-0.0009371354,-0.0031441366,-0.001375131,0.15,0.007255344,0.007259085,0.003787415,1310988,0.0008061149,-4.3653385e-05,-0.10707647,0.4,0.035480127,0.035481736,0.0050670924,197388,0.0,0.0,0.0,0.5,0.0025000002,0.0025000002,0.0025000002,1,0,1,0,1,0
4280000,4200000,1310988,-0.0010014953,-0.004320383,-0.0013629904,0.15,0.0036655643,0.0036681318,0.0037947046,1310988,0.00016065285,2.4823605e-05,-0.10802271,0.4,0.03490441,0.034904413,0.0051567894,197388,0.0,0.0,0.0,0.5,0.0025000002,0.0025000002,0.0025000002,1,0,1,0,1,0
4312000,4232000,1310988,-0.0009719572,-0.0045162183,-0.0013682045,0.15,0.0032366363,0.0032389814,0.0038153569,1310988,-6.681235e-05,3.7264646e-05,-0.11014171,0.4,0.034658752,0.03465859,0.004734194,197388,0.0,0.0,0.0,0.5,0.0025000002,0.0025000002,0.0025000002,1,0,1,0,1,0
4432000,4352000,1310988,-0.000983856,-0.004556689,-0.0015312213,0.15,0.0032981606,0.0033005655,0.0037460276,1310988,-6.43583e-05,4.106391e-05,-0.11117807,0.4,0.035318036,0.035317842,0.004824132,197388,0.0,0.0,0.0,0.5,0.0025000002,0.0025000002,0.0025000002,1,0,1,0,1,0
4520000,4440000,1310988,-0.0010531154,-0.0053021144,-0.0019678397,0.15,0.001189446,0.0011905172,0.003708545,1310988,-0.0008128136,0.00018262796,-0.114045724,0.4,0.03374741,0.033746682,0.004316638,197388,0.0,0.0,0.0,0.5,0.0025000002,0.0025000002,0.0025000002,1,0,1,0,1,0
4664000,4584000,1310988,-0.001055413,-0.005354993,-0.0016363487,0.15,0.0012102788,0.0012113773,0.003587693,1310988,-0.00082794187,0.00017634452,-0.11505144,0.4,0.034340438,0.034339696,0.004392186,197388,0.0,0.0,0.0,0.5,0.0025000002,0.0025000002,0.0025000002,1,0,1,0,1,0
4728000,4648000,1310988,-0.0013915801,-0.0055625136,-0.0012900487,0.15,0.00046954086,0.0004698711,0.003510508,1310988,-0.001107336,0.0006503314,-0.11775683,0.4,0.033439115,0.033439014,0.003812718,197388,0.0,0.0,0.0,0.5,0.0025000002,0.0025000002,0.0025000002,1,0,1,0,1,0
4904000,4824000,1310988,-0.0017951591,-0.0055369833,-0.0018647482,0.15,0.00022488742,0.00022488348,0.0032374694,1310988,-0.0010065096,0.0012235448,-0.11871187,0.4,0.033447582,0.033448037,0.0038740365,197388,0.0,0.0,0.0,0.5,0.0025000002,0.0025000002,0.0025000002,1,0,1,0,1,0
4936000,4856000,1310988,-0.0018150607,-0.0055263033,-0.0018664522,0.15,0.0002147265,0.00021470089,0.0032459039,1310988,-0.0010283364,0.0012940579,-0.12093827,0.4,0.033500236,0.03350094,0.0032962635,197388,0.0,0.0,0.0,0.5,0.0025000002,0.0025000002,0.0025000002,1,0,1,0,1,0
5144000,5064000,1310988,-0.0019672639,-0.005495308,-0.0016208618,0.15,0.0001127192,0.000112563976,0.0029431656,1310988,-0.0009562906,0.0015760314,-0.12372935,0.4,0.033683937,0.03368518,0.0028159698,197388,0.0,0.0,0.0,0.5,0.0025000002,0.0025000002,0.0025000002,1,0,1,0,1,0
5352000,5272000,1310988,-0.0019714357,-0.005549581,-0.0007971799,0.15,6.61455e-05,6.596223e-05,0.002628254,1310988,-0.0010327302,0.0016103437,-0.12601231,0.4,0.03388463,0.03388621,0.00239574,197388,0.0,0.0,0.0,0.5,0.0025000002,0.0025000002,0.0025000002,1,0,1,0,1,0
5560000,5480000,1310988,-0.001828657,-0.005559696,-0.000707003,0.15,4.2299383e-05,4.2128388e-05,0.0023210621,1310988,-0.0010431029,0.0013067332,-0.12798011,0.4,0.03406545,0.034067173,0.0020402356,197388,0.0,0.0,0.0,0.5,0.0025000002,0.0025000002,0.0025000002,1,0,1,0,1,0
5768000,5688000,1310988,-0.001699978,-0.005583056,-0.0006534648,0.15,2.8870534e-05,2.871865e-05,0.0020345342,1310988,-0.0010923084,0.0010001451,-0.12959161,0.4,0.034215577,0.034217384,0.0017454172,197388,0.0,0.0,0.0,0.5,0.0025000002,0.0025000002,0.0025000002,1,0,1,0,1,0
5976000,5896000,1310988,-0.0016613606,-0.0055834707,-0.001386043,0.15,2.0754971e-05,2.0607893e-05,0.0018615562,1310988,-0.0011064445,0.0008732502,-0.13095939,0.4,0.034335393,0.03433728,0.0015033941,197388,0.0,0.0,0.0,0.5,0.0025000002,0.0025000002,0.0025000002,1,0,1,0,1,0
6184000,6104000,1310988,-0.0016243202,-0.00561373,-0.0006004708,0.15,1.5486161e-05,1.5352318e-05,0.0016214055,1310988,-0.0011587023,0.00080116757,-0.13210987,0.4,0.03442855,0.034430515,0.0013049109,197388,0.0,0.0,0.0,0.5,0.0025000002,0.0025000002,0.0025000002,1,0,1,0,1,0
6504000,6424000,1310988,-0.0016092899,-0.0056134034,-4.400511e-05,0.15,1.1878606e-05,1.1767185e-05,0.0012867042,1310988,-0.0011138021,0.00077318895,-0.13311163,0.4,0.03454767,0.03454972,0.0011424356,197388,0.0,0.0,0.0,0.5,0.0025000002,0.0025000002,0.0025000002,1,0,1,0,1,0
6808000,6728000,1310988,-0.0015652322,-0.005482975,0.0005324137,0.15,7.599246e-06,7.492072e-06,0.0010729965,1310988,-0.0006383337,0.0005995486,-0.13419428,0.4,0.034596093,0.03459821,0.00089502346,197388,0.0,0.0,0.0,0.5,0.0025000002,0.0025000002,0.0025000002,1,0,1,0,1,0
7400000,7320000,1310988,-0.0013280517,-0.0054252543,0.0014714871,0.15,4.435421e-06,4.365709e-06,0.0007569014,1310988,-0.0005091784,-0.00034041062,-0.13495602,0.4,0.034661297,0.034663204,0.0007789409,197388,0.0,0.0,0.0,0.5,0.0025000002,0.0025000002,0.0025000002,1,0,1,0,1,0
8400000,8320000,1310988,-0.0011640311,-0.005440732,0.0015196592,0.15,2.4833598e-06,2.444787e-06,0.00043567875,1310988,-0.0008008988,-0.001100152,-0.13547127,0.4,0.034688104,0.034689926,0.00078059616,197388,0.0,0.0,0.0,0.5,0.0025000002,0.0025000002,0.0025000002,1,0,1,0,1,0
9400000,9320000,1310988,-0.0011647252,-0.0054157516,0.0009239894,0.15,2.149923e-06,2.125057e-06,0.00026967094,1310988,-0.0007363694,-0.0012035589,-0.13553466,0.4,0.034698352,0.034700174,0.0007810928,197388,0.0,0.0,0.0,0.5,0.0025000002,0.0025000002,0.0025000002,1,0,1,0,1,0
10400000,10320000,1310988,-0.001159656,-0.0053999964,0.00021803977,0.15,2.0533662e-06,2.0371372e-06,0.00017799609,1310988,-0.00074514875,-0.0013233451,-0.1353892,0.4,0.03470159,0.03470347,0.00078120426,197388,0.0,0.0,0.0,0.5,0.0025000002,0.0025000002,0.0025000002,1,0,1,0,1,0
11400000,11320000,1310988,-0.0011459154,-0.0054229107,6.172326e-05,0.15,1.8921766e-06,1.8810199e-06,0.00012352722,1310988,-0.00092744693,-0.00140751,-0.13540398,0.4,0.034697033,0.034698933,0.0007812385,197388,0.0,0.0,0.0,0.5,0.0025000002,0.0025000002,0.0025000002,1,0,1,0,1,0
12400000,12320000,1310988,-0.001146896,-0.0054118047,-2.1810045e-05,0.15,1.4806118e-06,1.472352e-06,8.728902e-05,1310988,-0.00088829844,-0.0013912887,-0.13499884,0.4,0.03467987,0.03468179,0.0007812475,197388,0.0,0.0,0.0,0.5,0.0025000002,0.0025000002,0.0025000002,1,0,1,0,1,0
13400000,13320000,1310988,-0.0011418107,-0.0053986483,2.2172982e-05,0.15,1.1713896e-06,1.1651217e-06,6.5246575e-05,1310988,-0.0008310545,-0.0013875611,-0.13441601,0.4,0.034665834,0.034667768,0.0007812481,197388,0.0,0.0,0.0,0.5,0.0025000002,0.0025000002,0.0025000002,1,0,1,0,1,0
14208000,14128000,1310988,-0.0011509003,-0.00540595,-7.9991805e-05,0.15,8.0103115e-07,7.9599346e-07,5.2842694e-05,1310988,-0.00096894766,-0.0012651958,-0.13324267,0.4,0.034647394,0.0346494,0.00078124576,197388,0.0,0.0,0.0,0.5,0.0025000002,0.0025000002,0.0025000002,1,0,1,0,1,0
15208000,15128000,1310988,-0.0011141847,-0.005426941,0.00010603646,0.15,6.3529694e-07,6.314893e-07,4.0493367e-05,1310988,-0.001162744,-0.0014526042,-0.13241035,0.4,0.03463791,0.03464005,0.0007812487,197388,0.0,0.0,0.0,0.5,0.0025000002,0.0025000002,0.0025000002,1,0,1,0,1,0
16208000,16128000,1310988,-0.0011239152,-0.0054338966,0.0001839603,0.15,4.7549733e-07,4.7248906e-07,3.223414e-05,1310988,-0.0013342388,-0.0012666688,-0.1310871,0.4,0.03462739,0.034629885,0.00078124576,197388,0.0,0.0,0.0,0.5,0.0025000002,0.0025000002,0.0025000002,1,0,1,0,1,0
17008000,16928000,1310988,-0.0011292828,-0.005439636,0.00026365736,0.15,4.083402e-07,4.0577459e-07,2.7239075e-05,1310988,-0.00148514,-0.0011246062,-0.13004667,0.4,0.034622166,0.03462504,0.00078124576,197388,0.0,0.0,0.0,0.5,0.0025000002,0.0025000002,0.0025000002,1,0,1,0,1,0
17808000,17728000,1310988,-0.0011391637,-0.005447842,0.0004139448,0.15,3.6029257e-07,3.580752e-07,2.3230039e-05,1310988,-0.0017116646,-0.0008841261,-0.12853423,0.4,0.034617625,0.03462097,0.00078124576,197388,0.0,0.0,0.0,0.5,0.0025000002,0.0025000002,0.0025000002,1,0,1,0,1,0
18608000,18528000,1310988,-0.0011473328,-0.0054501207,0.00040762962,0.15,3.2483476e-07,3.2295029e-07,1.9700907e-05,1310988,-0.001877517,-0.0007088302,-0.1274041,0.4,0.034613457,0.034617435,0.00078124576,197388,0.0,0.0,0.0,0.5,0.0025000002,0.0025000002,0.0025000002,1,0,1,0,1,0
19496000,19416000,1310988,-0.0011547441,-0.0054532853,0.00048274346,0.15,2.986879e-07,2.9707493e-07,1.6851678e-05,1310988,-0.002023995,-0.0005362117,-0.12641698,0.4,0.03460841,0.034613136,0.00078124576,197388,0.0,0.0,0.0,0.5,0.0025000002,0.0025000002,0.0025000002,1,0,1,0,1,0
20208000,20128000,1310988,-0.0011694987,-0.005451552,0.00045644285,0.15,2.7693616e-07,2.755732e-07,1.4878728e-05,1310988,-0.002305594,0.0007138634,-0.12524748,0.4,0.034545578,0.034550663,0.00078124576,197388,0.0,0.0,0.0,0.5,0.0025000002,0.0025000002,0.0025000002,1,0,1,0,1,0
20608000,20528000,1310988,-0.0011798507,-0.0054609682,0.00045765174,0.15,2.6793745e-07,2.666684e-07,1.38472815e-05,1310988,-0.003076145,0.0013645196,-0.12434374,0.4,0.034508172,0.034513406,0.00078124576,197388,0.0,0.0,0.0,0.5,0.0025000002,0.0025000002,0.0025000002,1,0,1,0,1,0
21008000,20928000,1310988,-0.001190213,-0.00546292,0.00048369454,0.15,2.5982473e-07,2.586206e-07,1.2908759e-05,1310988,-0.00342627,0.0020836429,-0.123496704,0.4,0.034477208,0.0344825,0.00078124576,197388,0.0,0.0,0.0,0.5,0.0025000002,0.0025000002,0.0025000002,1,0,1,0,1,0
21560000,21480000,1310988,-0.0012032532,-0.005465888,0.00044750638,0.15,2.5364577e-07,2.525227e-07,1.1785831e-05,1310988,-0.0038150705,0.0026854284,-0.12279102,0.4,0.034455538,0.034460932,0.00078124576,197388,0.0,0.0,0.0,0.5,0.0025000002,0.0025000002,0.0025000002,1,0,1,0,1,0
22208000,22128000,1310988,-0.0012167064,-0.0054708216,0.0004506331,0.15,2.4019343e-07,2.391602e-07,1.0669323e-05,1310988,-0.0042804875,0.003192138,-0.12161499,0.4,0.03443791,0.03444433,0.00078124576,197388,0.0,0.0,0.0,0.5,0.0025000002,0.0025000002,0.0025000002,1,0,1,0,1,0
22608000,22528000,1310988,-0.0012181055,-0.0054671247,0.00044779648,0.15,2.3727313e-07,2.3623089e-07,1.0668694e-05,1310988,-0.0059776288,0.0025876227,-0.12144393,0.4,0.033231907,0.03323844,0.00078124576,197388,0.0,0.0,0.0,0.5,0.0025000002,0.0025000002,0.0025000002,1,0,1,0,1,0
23008000,22928000,1310988,-0.0012157055,-0.005464969,0.00044675122,0.15,2.3745959e-07,2.3640656e-07,1.0668852e-05,1310988,-0.008569202,0.0060913824,-0.12009397,0.4,0.029534647,0.029540015,0.00078124576,197388,0.0,0.0,0.0,0.5,0.0025000002,0.0025000002,0.0025000002,1,0,1,0,1,0
23408000,23328000,1310988,-0.0012164182,-0.0054647187,0.0004461474,0.15,2.3967812e-07,2.386201e-07,1.0668219e-05,1310988,-0.009933972,0.005305967,-0.11950686,0.4,0.025416639,0.025420744,0.00078124576,197388,0.0,0.0,0.0,0.5,0.0025000002,0.0025000002,0.0025000002,1,0,1,0,1,0
23808000,23728000,1310988,-0.0012169771,-0.005465011,0.00044250194,0.15,2.4242746e-07,2.4136932e-07,1.0666273e-05,1310988,-0.010948612,0.0050609135,-0.118547276,0.4,0.022469843,0.022473296,0.00078124576,197388,0.0,0.0,0.0,0.5,0.0025000002,0.0025000002,0.0025000002,1,0,1,0,1,0
24208000,24128000,1310988,-0.001216298,-0.005464832,0.00044084335,0.15,2.4513906e-07,2.4408325e-07,1.0659946e-05,1310988,-0.007718464,0.00057721464,-0.11736695,0.4,0.020659193,0.02066236,0.00078124576,197388,0.0,0.0,0.0,0.5,0.0025000002,0.0025000002,0.0025000002,1,0,1,0,1,0
24608000,24528000,1310988,-0.0012157703,-0.005464588,0.00045086595,0.15,2.4778015e-07,2.4672698e-07,1.0651872e-05,1310988,-0.005888022,-0.00039131983,-0.11676516,0.4,0.019572204,0.019575287,0.00078124576,197388,0.0,0.0,0.0,0.5,0.0025000002,0.0025000002,0.0025000002,1,0,1,0,1,0
25008000,24928000,1310988,-0.0012157923,-0.0054639876,0.0004480858,0.15,2.5042232e-07,2.4937185e-07,1.0637164e-05,1310988,-0.00469441,-0.00048477008,-0.116395764,0.4,0.018906763,0.018909834,0.00078124576,197388,0.0,0.0,0.0,0.5,0.0025000002,0.0025000002,0.0025000002,1,0,1,0,1,0
25808000,25728000,1310988,-0.0012156039,-0.0054639573,0.00044821022,0.15,2.5592584e-07,2.5487972e-07,1.0596046e-05,1310988,-0.0041651963,-0.0012782619,-0.114673994,0.4,0.018214906,0.018218296,0.00078124576,197388,0.0,0.0,0.0,0.5,0.0025000002,0.0025000002,0.0025000002,1,0,1,0,1,0
26208000,26128000,1310988,-0.0012168301,-0.0054635946,0.0004409648,0.15,2.588299e-07,2.5778604e-07,1.0570506e-05,1310988,-0.0037350166,-0.00039282988,-0.11348295,0.4,0.018031124,0.018034594,0.00078124576,197388,0.0,0.0,0.0,0.5,0.0025000002,0.0025000002,0.0025000002,1,0,1,0,1,0
26608000,26528000,1310988,-0.0012169179,-0.005464178,0.00044087638,0.15,2.6183014e-07,2.6079e-07,1.0532804e-05,1310988,-0.004263997,-0.0005670974,-0.11235687,0.4,0.01790428,0.017907806,0.00078124576,197388,0.0,0.0,0.0,0.5,0.0025000002,0.0025000002,0.0025000002,1,0,1,0,1,0
27408000,27328000,1310988,-0.0012174598,-0.0054639997,0.00043160224,0.15,2.6804355e-07,2.6701176e-07,1.0444048e-05,1310988,-0.0042980597,-0.0002119932,-0.11086864,0.4,0.017752698,0.01775615,0.00078124576,197388,0.0,0.0,0.0,0.5,0.0025000002,0.0025000002,0.0025000002,1,0,1,0,1,0
27808000,27728000,1310988,-0.0012174073,-0.0054638195,0.00042593863,0.15,2.7118529e-07,2.7015886e-07,1.0383666e-05,1310988,-0.004753363,0.0002186194,-0.1099405,0.4,0.017708523,0.017711874,0.00078124576,197388,0.0,0.0,0.0,0.5,0.0025000002,0.0025000002,0.0025000002,1,0,1,0,1,0
28208000,28128000,1310988,-0.0012174048,-0.0054641743,0.00042477628,0.15,2.7429294e-07,2.732721e-07,1.0327117e-05,1310988,-0.004524747,0.00018211077,-0.10851433,0.4,0.017677277,0.01768053,0.00078124576,197388,0.0,0.0,0.0,0.5,0.0025000002,0.0025000002,0.0025000002,1,0,1,0,1,0
28608000,28528000,1310988,-0.0012161429,-0.0054638674,0.00043403383,0.15,2.7730138e-07,2.762884e-07,1.0250732e-05,1310988,-0.0046788687,0.0005054593,-0.10706653,0.4,0.017655008,0.017658152,0.00078124576,197388,0.0,0.0,0.0,0.5,0.0025000002,0.0025000002,0.0025000002,1,0,1,0,1,0
29008000,28928000,1310988,-0.0012151201,-0.0054636346,0.00043705406,0.15,2.8014895e-07,2.7914635e-07,1.0165711e-05,1310988,-0.004708646,0.00060211436,-0.10523911,0.4,0.017638994,0.01764204,0.00078124576,197388,0.0,0.0,0.0,0.5,0.0025000002,0.0025000002,0.0025000002,1,0,1,0,1,0
29808000,29728000,1310988,-0.0012138468,-0.00546148,0.0004278168,0.15,2.8507043e-07,2.840983e-07,9.987876e-06,1310988,-0.0049124174,0.00065460586,-0.10352856,0.4,0.017620135,0.017623048,0.00078124576,197388,0.0,0.0,0.0,0.5,0.0025000002,0.0025000002,0.0025000002,1,0,1,0,1,0
30208000,30128000,1310988,-0.0012125082,-0.005456755,0.00041453607,0.15,2.8698054e-07,2.860281e-07,9.878056e-06,1310988,-0.0051103635,0.0006740528,-0.102187164,0.4,0.017615363,0.017618239,0.00078124576,197388,0.0,0.0,0.0,0.5,0.0025000002,0.0025000002,0.0025000002,1,0,1,0,1,0
30608000,30528000,1310988,-0.0012124659,-0.005455539,0.00041853855,0.15,2.884259e-07,2.8749488e-07,9.759893e-06,1310988,-0.0051057953,0.0006157331,-0.10071332,0.4,0.01761233,0.017615182,0.00078124576,197388,0.0,0.0,0.0,0.5,0.0025000002,0.0025000002,0.0025000002,1,0,1,0,1,0
31408000,31328000,1310988,-0.0012106466,-0.0054476582,0.000426814,0.15,2.8966767e-07,2.8877614e-07,9.521154e-06,1310988,-0.0051584486,0.0005931393,-0.09862384,0.4,0.017609255,0.017612072,0.00078124576,197388,0.0,0.0,0.0,0.5,0.0025000002,0.0025000002,0.0025000002,1,0,1,0,1,0
31808000,31728000,1310988,-0.0012102453,-0.0054403762,0.00045124348,0.15,2.893567e-07,2.8848905e-07,9.403289e-06,1310988,-0.0051075574,0.0005527781,-0.09735465,0.4,0.017608358,0.017611194,0.00078124576,197388,0.0,0.0,0.0,0.5,0.0025000002,0.0025000002,0.0025000002,1,0,1,0,1,0
32208000,32128000,1310988,-0.0012102771,-0.0054361853,0.00047420745,0.15,2.8837755e-07,2.875369e-07,9.2538485e-06,1310988,-0.0050235633,0.0005170591,-0.09593657,0.4,0.017607484,0.01761036,0.00078124576,197388,0.0,0.0,0.0,0.5,0.0025000002,0.0025000002,0.0025000002,1,0,1,0,1,0
32608000,32528000,1310988,-0.001209989,-0.005428396,0.00046976455,0.15,2.8674606e-07,2.8592774e-07,9.123952e-06,1310988,-0.0048990976,0.00049027364,-0.094454154,0.4,0.017606476,0.017609393,0.00078124576,197388,0.0,0.0,0.0,0.5,0.0025000002,0.0025000002,0.0025000002,1,0,1,0,1,0
33008000,32928000,1310988,-0.001217015,-0.0054197726,0.00047442855,0.15,2.8446044e-07,2.8367083e-07,8.960903e-06,1310988,-0.004731823,0.0005668152,-0.09246104,0.4,0.017605219,0.017608177,0.00078124576,197388,0.0,0.0,0.0,0.5,0.0025000002,0.0025000002,0.0025000002,1,0,1,0,1,0
33408000,33328000,1310988,-0.0012200542,-0.005409933,0.0004905858,0.15,2.8186048e-07,2.8109486e-07,8.820424e-06,1310988,-0.004751142,0.0005299383,-0.09044404,0.4,0.017604211,0.017607259,0.00078124576,197388,0.0,0.0,0.0,0.5,0.0025000002,0.0025000002,0.0025000002,1,0,1,0,1,0
33808000,33728000,1310988,-0.0012204979,-0.005402716,0.000453367,0.15,2.7901197e-07,2.7827417e-07,8.6457385e-06,1310988,-0.0049577313,0.0005578644,-0.0892757,0.4,0.017595483,0.01759867,0.00078124576,197388,0.0,0.0,0.0,0.5,0.0025000002,0.0025000002,0.0025000002,1,0,1,0,1,0
34208000,34128000,1310988,-0.0012236608,-0.005388696,0.00044064852,0.15,2.7540707e-07,2.746957e-07,8.465683e-06,1310988,-0.0051018773,0.00054477534,-0.08789916,0.4,0.017593745,0.017597063,0.00078124576,197388,0.0,0.0,0.0,0.5,0.0025000002,0.0025000002,0.0025000002,1,0,1,0,1,0
34608000,34528000,1310988,-0.0012280146,-0.0053797853,0.0004210057,0.15,2.7132535e-07,2.7063524e-07,8.312524e-06,1310988,-0.005110121,0.000540204,-0.08660804,0.4,0.017593041,0.01759649,0.00078124576,197388,0.0,0.0,0.0,0.5,0.0025000002,0.0025000002,0.0025000002,1,0,1,0,1,0
35408000,35328000,1310988,-0.0012383399,-0.0053537106,0.00040158513,0.15,2.6207468e-07,2.6142288e-07,7.965457e-06,1310988,-0.004994812,0.0006254572,-0.08485442,0.4,0.017592011,0.017595755,0.00078124576,197388,0.0,0.0,0.0,0.5,0.0025000002,0.0025000002,0.0025000002,1,0,1,0,1,0
36208000,36128000,1310988,-0.0012506222,-0.00531566,0.0003529847,0.15,2.5201592e-07,2.5138087e-07,7.6091105e-06,1310988,-0.0044136466,0.00083751866,-0.0832994,0.4,0.01758785,0.01759192,0.00078124576,197388,0.0,0.0,0.0,0.5,0.0025000002,0.0025000002,0.0025000002,1,0,1,0,1,0
37008000,36928000,1310988,-0.0012647129,-0.0052892687,0.00036546812,0.15,2.418892e-07,2.412509e-07,7.2478406e-06,1310988,-0.0038080197,0.0011712074,-0.08235206,0.4,0.017578902,0.017583305,0.00078124576,197388,0.0,0.0,0.0,0.5,0.0025000002,0.0025000002,0.0025000002,1,0,1,0,1,0
37808000,37728000,1310988,-0.0012825485,-0.0052634417,0.00031717977,0.15,2.3146723e-07,2.3084532e-07,6.8525223e-06,1310988,-0.0056894035,-0.00041506957,-0.080594845,0.4,0.01717272,0.017176978,0.00078124576,197388,0.0,0.0,0.0,0.5,0.0025000002,0.0025000002,0.0025000002,1,0,1,0,1,0
38208000,38128000,1310988,-0.0012861992,-0.0052520745,0.000321944,0.15,2.2877552e-07,2.281704e-07,6.6892644e-06,1310988,-0.009312434,-0.003021084,-0.07726044,0.4,0.016079014,0.016082935,0.00078124576,197388,0.0,0.0,0.0,0.5,0.0025000002,0.0025000002,0.0025000002,1,0,1,0,1,0
38608000,38528000,1310988,-0.0012853782,-0.0052467138,0.00033309127,0.15,2.2868583e-07,2.281088e-07,6.494075e-06,1310988,-0.011168425,-0.0041193934,-0.072647676,0.4,0.014687994,0.014691641,0.00078124576,197388,0.0,0.0,0.0,0.5,0.0025000002,0.0025000002,0.0025000002,1,0,1,0,1,0
39008000,38928000,1310988,-0.0012855064,-0.0052452427,0.0003219585,0.15,2.3033319e-07,2.2978053e-07,6.333425e-06,1310988,-0.009623754,-0.0063400236,-0.06628334,0.4,0.0134135885,0.013417136,0.00078124576,197388,0.0,0.0,0.0,0.5,0.0025000002,0.0025000002,0.0025000002,1,0,1,0,1,0
39408000,39328000,1310988,-0.0012841809,-0.0052418294,0.00031057652,0.15,2.327966e-07,2.3227418e-07,6.142177e-06,1310988,-0.01102008,-0.007303121,-0.05929947,0.4,0.012408995,0.012412571,0.00078124576,197388,0.0,0.0,0.0,0.5,0.0025000002,0.0025000002,0.0025000002,1,0,1,0,1,0
39808000,39728000,1310988,-0.0012827124,-0.0052412516,0.00034072186,0.15,2.356089e-07,2.3511423e-07,5.985398e-06,1310988,-0.009151399,-0.009866969,-0.051381472,0.4,0.011663226,0.011666899,0.00078124576,197388,0.0,0.0,0.0,0.5,0.0025000002,0.0025000002,0.0025000002,1,0,1,0,1,0
40608000,40528000,1310988,-0.0012815848,-0.005241859,0.00027672778,0.15,2.409864e-07,2.4056794e-07,5.6473455e-06,1310988,-0.008050314,-0.00979618,-0.05037305,0.4,0.011521838,0.011525422,0.00078124576,197388,0.0,0.0,0.0,0.5,0.0025000002,0.0025000002,0.0025000002,1,0,1,0,1,0
41008000,40928000,1310988,-0.0012814568,-0.005242535,0.00022959386,0.15,2.4352903e-07,2.431483e-07,5.4678712e-06,1310988,-0.0055824,-0.010287607,-0.048376247,0.4,0.011077651,0.011080989,0.00078124576,197388,0.0,0.0,0.0,0.5,0.0025000002,0.0025000002,0.0025000002,1,0,1,0,1,0
41408000,41328000,1310988,-0.0012796825,-0.0052444246,0.00022252378,0.15,2.4602176e-07,2.4567478e-07,5.2923633e-06,1310988,-0.0020413196,-0.009972884,-0.045647774,0.4,0.010399252,0.01040228,0.00078124576,197388,0.0,0.0,0.0,0.5,0.0025000002,0.0025000002,0.0025000002,1,0,1,0,1,0
41808000,41728000,1310988,-0.001278706,-0.0052448427,0.0002007643,0.15,2.4851968e-07,2.4819886e-07,5.149801e-06,1310988,0.0005021068,-0.01042729,-0.04204006,0.4,0.009637284,0.00964003,0.00078124576,197388,0.0,0.0,0.0,0.5,0.0025000002,0.0025000002,0.0025000002,1,0,1,0,1,0
42208000,42128000,1310988,-0.0012762464,-0.005246438,0.00021292361,0.15,2.510221e-07,2.5072802e-07,4.9820233e-06,1310988,0.0038491387,-0.010101559,-0.037767723,0.4,0.008911391,0.00891392,0.00078124576,197388,0.0,0.0,0.0,0.5,0.0025000002,0.0025000002,0.0025000002,1,0,1,0,1,0
42608000,42528000,1310988,-0.0012750999,-0.005246385,0.00019860736,0.15,2.5355138e-07,2.532775e-07,4.8461047e-06,1310988,0.0059050843,-0.0107277185,-0.03300166,0.4,0.008279964,0.00828234,0.00078124576,197388,0.0,0.0,0.0,0.5,0.0025000002,0.0025000002,0.0025000002,1,0,1,0,1,0
43008000,42928000,1310988,-0.0012734375,-0.005246417,0.00019941754,0.15,2.560719e-07,2.558192e-07,4.6864834e-06,1310988,0.0077748885,-0.011275223,-0.027838439,0.4,0.0077566253,0.0077588954,0.00078124576,197388,0.0,0.0,0.0,0.5,0.0025000002,0.0025000002,0.0025000002,1,0,1,0,1,0
43408000,43328000,1310988,-0.0012709728,-0.0052459426,0.00017255852,0.15,2.5858358e-07,2.583468e-07,4.5574843e-06,1310988,0.009562909,-0.0107718315,-0.022273097,0.4,0.0073331813,0.007335386,0.00078124576,197388,0.0,0.0,0.0,0.5,0.0025000002,0.0025000002,0.0025000002,1,0,1,0,1,0
43808000,43728000,1310988,-0.0012696285,-0.005246432,0.0001580438,0.15,2.610405e-07,2.6082128e-07,4.406269e-06,1310988,0.011644844,-0.011203907,-0.017143393,0.4,0.0069943746,0.006996546,0.00078124576,197388,0.0,0.0,0.0,0.5,0.0025000002,0.0025000002,0.0025000002,1,0,1,0,1,0
44208000,44128000,1310988,-0.001267843,-0.0052458164,0.00015239115,0.15,2.6343605e-07,2.632301e-07,4.284325e-06,1310988,0.012761513,-0.011485791,-0.01206784,0.4,0.006724342,0.0067265057,0.00078124576,197388,0.0,0.0,0.0,0.5,0.0025000002,0.0025000002,0.0025000002,1,0,1,0,1,0
44608000,44528000,1310988,-0.0012653949,-0.005244976,0.00014240935,0.15,2.6572076e-07,2.655291e-07,4.1415965e-06,1310988,0.013645014,-0.011359738,-0.007364042,0.4,0.006509542,0.006511725,0.00078124576,197388,0.0,0.0,0.0,0.5,0.0025000002,0.0025000002,0.0025000002,1,0,1,0,1,0
45008000,44928000,1310988,-0.0012637206,-0.0052443882,0.00011318383,0.15,2.6787203e-07,2.6769266e-07,4.003482e-06,1310988,0.014683649,-0.011453408,-0.0028542175,0.4,0.0063387863,0.0063410243,0.00078124576,197388,0.0,0.0,0.0,0.5,0.0025000002,0.0025000002,0.0025000002,1,0,1,0,1,0
45408000,45328000,1310988,-0.0012625471,-0.0052424236,6.867222e-05,0.15,2.69864e-07,2.6969315e-07,3.8924204e-06,1310988,0.0150844045,-0.011522451,0.0008155245,0.4,0.0062031643,0.006205483,0.00078124576,197388,0.0,0.0,0.0,0.5,0.0025000002,0.0025000002,0.0025000002,1,0,1,0,1,0
45808000,45728000,1310988,-0.0012617464,-0.005239592,7.250015e-05,0.15,2.7164182e-07,2.714798e-07,3.7626637e-06,1310988,0.014972521,-0.011957321,0.004110618,0.4,0.0060958946,0.0060983207,0.00078124576,197388,0.0,0.0,0.0,0.5,0.0025000002,0.0025000002,0.0025000002,1,0,1,0,1,0
46208000,46128000,1310988,-0.0012615257,-0.0052393847,8.469723e-05,0.15,2.7318345e-07,2.7302573e-07,3.658485e-06,1310988,0.015318619,-0.012372301,0.0062714443,0.4,0.0060114735,0.0060140323,0.00078124576,197388,0.0,0.0,0.0,0.5,0.0025000002,0.0025000002,0.0025000002,1,0,1,0,1,0
46608000,46528000,1310988,-0.0012614174,-0.005234992,0.00010438091,0.15,2.7443463e-07,2.7428183e-07,3.5368755e-06,1310988,0.0148291765,-0.012769576,0.008244125,0.4,0.0059454646,0.0059481785,0.00078124576,197388,0.0,0.0,0.0,0.5,0.0025000002,0.0025000002,0.0025000002,1,0,1,0,1,0
47008000,46928000,1310988,-0.0012631137,-0.005234054,8.233304e-05,0.15,2.7536984e-07,2.75217e-07,3.4393704e-06,1310988,0.014972486,-0.013175191,0.009458288,0.4,0.0058946153,0.0058974973,0.00078124576,197388,0.0,0.0,0.0,0.5,0.0025000002,0.0025000002,0.0025000002,1,1,1,0,1,0
47808000,47728000,1310988,-0.0012630322,-0.0052329055,8.294626e-05,0.15,2.7611958e-07,2.7596553e-07,3.2345297e-06,1310988,0.014971394,-0.01335275,0.010468818,0.4,0.0058272392,0.0058304877,0.00078124576,197388,0.0,0.0,0.0,0.5,0.0025000002,0.0025000002,0.0025000002,1,1,1,0,1,0
