timestamp,timestamp_sample,yaw_composite,yaw_variance,yaw[0],yaw[1],yaw[2],yaw[3],yaw[4],innov_vn[0],innov_vn[1],innov_vn[2],innov_vn[3],innov_vn[4],innov_ve[0],innov_ve[1],innov_ve[2],innov_ve[3],innov_ve[4],weight[0],weight[1],weight[2],weight[3],weight[4],yaw_composite_valid
17008000,16928000,2.6779451,3.5801747,-2.5132742,-1.2566371,0.0,1.2566371,2.5132742,0.0,0.0,0.0,0.0,0.0,0.0,0.0,0.0,0.0,0.0,0.2,0.2,0.2,0.2,0.2,0
17016000,16936000,2.4980917,3.5532894,-2.5132642,-1.256627,1.0094839e-05,1.2566472,2.5132842,0.0,0.0,0.0,0.0,0.0,0.0,0.0,0.0,0.0,0.0,0.2,0.2,0.2,0.2,0.2,0
17024000,16944000,2.896614,3.7000003,-2.5132635,-1.2566264,1.0731217e-05,1.2566478,2.513285,0.0,0.0,0.0,0.0,0.0,0.0,0.0,0.0,0.0,0.0,0.2,0.2,0.2,0.2,0.2,0
17032000,16952000,-2.2455373,3.6247404,-2.5132697,-1.2566326,4.5245906e-06,1.2566416,2.5132787,0.0,0.0,0.0,0.0,0.0,0.0,0.0,0.0,0.0,0.0,0.2,0.2,0.2,0.2,0.2,0
17040000,16960000,2.4980917,3.5532906,-2.5132759,-1.2566388,-1.6406511e-06,1.2566354,2.5132725,0.0,0.0,0.0,0.0,0.0,0.0,0.0,0.0,0.0,0.0,0.2,0.2,0.2,0.2,0.2,0
17048000,16968000,3.1415927,3.9478407,-2.5132706,-1.2566335,3.5822518e-06,1.2566407,2.5132778,0.0,0.0,0.0,0.0,0.0,0.0,0.0,0.0,0.0,0.0,0.2,0.2,0.2,0.2,0.2,0
17056000,16976000,3.1415927,3.9478245,-2.5132914,-1.256654,-1.6914208e-05,1.2566202,2.5132575,0.0,0.0,0.0,0.0,0.0,0.0,0.0,0.0,0.0,0.0,0.2,0.2,0.2,0.2,0.2,0
17064000,16984000,-2.55359,3.5546856,-2.5132992,-1.2566621,-2.5007603e-05,1.2566121,2.5132494,0.0,0.0,0.0,0.0,0.0,0.0,0.0,0.0,0.0,0.0,0.2,0.2,0.2,0.2,0.2,0
17072000,16992000,2.3561945,3.5777318,-2.5132902,-1.2566531,-1.5943668e-05,1.2566211,2.5132582,0.0,0.0,0.0,0.0,0.0,0.0,0.0,0.0,0.0,0.0,0.2,0.2,0.2,0.2,0.2,0
17080000,17000000,2.158799,3.678699,-2.5132983,-1.2566609,-2.3914883e-05,1.2566131,2.5132504,0.0,0.0,0.0,0.0,0.0,0.0,0.0,0.0,0.0,0.0,0.2,0.2,0.2,0.2,0.2,0
17088000,17008000,-2.896614,3.699994,-2.5132992,-1.2566621,-2.4965242e-05,1.2566122,2.5132494,0.0,0.0,0.0,0.0,0.0,0.0,0.0,0.0,0.0,0.0,0.2,0.2,0.2,0.2,0.2,0
17096000,17016000,3.041924,3.8325498,-2.5132883,-1.256651,-1.3895386e-05,1.2566233,2.5132604,0.0,0.0,0.0,0.0,0.0,0.0,0.0,0.0,0.0,0.0,0.2,0.2,0.2,0.2,0.2,0
17104000,17024000,3.1415927,3.9478483,-2.5132754,-1.2566383,-1.1878376e-06,1.2566359,2.513273,0.0,0.0,0.0,0.0,0.0,0.0,0.0,0.0,0.0,0.0,0.2,0.2,0.2,0.2,0.2,0
17112000,17032000,3.0172377,3.8070521,-2.5132813,-1.2566441,-6.988974e-06,1.2566302,2.5132673,0.0,0.0,0.0,0.0,0.0,0.0,0.0,0.0,0.0,0.0,0.2,0.2,0.2,0.2,0.2,0
17120000,17040000,2.819842,3.6470644,-2.5132973,-1.2566601,-2.2988223e-05,1.2566142,2.5132513,0.0,0.0,0.0,0.0,0.0,0.0,0.0,0.0,0.0,0.0,0.2,0.2,0.2,0.2,0.2,0
17128000,17048000,-2.782822,3.6257095,-2.513299,-1.2566618,-2.4694125e-05,1.2566124,2.5132496,0.0,0.0,0.0,0.0,0.0,0.0,0.0,0.0,0.0,0.0,0.2,0.2,0.2,0.2,0.2,0
17136000,17056000,-2.9441972,3.7387514,-2.513287,-1.25665,-1.280471e-05,1.2566243,2.5132616,0.0,0.0,0.0,0.0,0.0,0.0,0.0,0.0,0.0,0.0,0.2,0.2,0.2,0.2,0.2,0
17144000,17064000,2.896614,3.7000256,-2.5132844,-1.2566471,-1.0049305e-05,1.2566271,2.5132642,0.0,0.0,0.0,0.0,0.0,0.0,0.0,0.0,0.0,0.0,0.2,0.2,0.2,0.2,0.2,0
17152000,17072000,2.3561945,3.577742,-2.5132782,-1.2566409,-3.77582e-06,1.2566334,2.5132704,0.0,0.0,0.0,0.0,0.0,0.0,0.0,0.0,0.0,0.0,0.2,0.2,0.2,0.2,0.2,0
17160000,17080000,-3.0584514,3.8502793,-2.5132818,-1.2566447,-7.5357266e-06,1.2566296,2.5132668,0.0,0.0,0.0,0.0,0.0,0.0,0.0,0.0,0.0,0.0,0.2,0.2,0.2,0.2,0.2,0
17168000,17088000,2.2974386,3.5996618,-2.513259,-1.2566216,1.548281e-05,1.2566526,2.5132897,0.0,0.0,0.0,0.0,0.0,0.0,0.0,0.0,0.0,0.0,0.2,0.2,0.2,0.2,0.2,0
17176000,17096000,3.1415927,3.947828,-2.5132527,-1.2566154,2.1708172e-05,1.2566588,2.5132961,0.0,0.0,0.0,0.0,0.0,0.0,0.0,0.0,0.0,0.0,0.2,0.2,0.2,0.2,0.2,0
17184000,17104000,2.4980917,3.553303,-2.5132422,-1.2566051,3.1987474e-05,1.2566692,2.5133061,0.0,0.0,0.0,0.0,0.0,0.0,0.0,0.0,0.0,0.0,0.2,0.2,0.2,0.2,0.2,0
17192000,17112000,2.5829935,3.5579302,-2.5132556,-1.2566185,1.863887e-05,1.2566558,2.5132928,0.0,0.0,0.0,0.0,0.0,0.0,0.0,0.0,0.0,0.0,0.2,0.2,0.2,0.2,0.2,0
17200000,17120000,-3.041924,3.8325686,-2.5132504,-1.2566133,2.3916606e-05,1.256661,2.5132983,0.0,0.0,0.0,0.0,0.0,0.0,0.0,0.0,0.0,0.0,0.2,0.2,0.2,0.2,0.2,0
17208000,17128000,2.976444,3.767584,-2.5132575,-1.2566202,1.686138e-05,1.256654,2.5132911,0.0,0.0,0.0,0.0,0.0,0.0,0.0,0.0,0.0,0.0,0.2,0.2,0.2,0.2,0.2,0
17216000,17136000,-3.0172377,3.8070698,-2.5132582,-1.2566209,1.6166174e-05,1.2566533,2.5132904,0.0,0.0,0.0,0.0,0.0,0.0,0.0,0.0,0.0,0.0,0.2,0.2,0.2,0.2,0.2,0
17224000,17144000,2.782822,3.625725,-2.513264,-1.2566266,1.0431577e-05,1.2566476,2.5132847,0.0,0.0,0.0,0.0,0.0,0.0,0.0,0.0,0.0,0.0,0.2,0.2,0.2,0.2,0.2,0
17232000,17152000,2.896614,3.7000155,-2.513262,-1.2566247,1.2430843e-05,1.2566495,2.5132866,0.0,0.0,0.0,0.0,0.0,0.0,0.0,0.0,0.0,0.0,0.2,0.2,0.2,0.2,0.2,0
17240000,17160000,-3.0172377,3.807061,-2.5132685,-1.2566313,5.787373e-06,1.2566429,2.5132802,0.0,0.0,0.0,0.0,0.0,0.0,0.0,0.0,0.0,0.0,0.2,0.2,0.2,0.2,0.2,0
17248000,17168000,2.9304993,3.7271645,-2.5132878,-1.2566504,-1.3312957e-05,1.2566239,2.513261,0.0,0.0,0.0,0.0,0.0,0.0,0.0,0.0,0.0,0.0,0.2,0.2,0.2,0.2,0.2,0
17256000,17176000,2.55359,3.5547047,-2.5133033,-1.256666,-2.8938193e-05,1.2566082,2.5132453,0.0,0.0,0.0,0.0,0.0,0.0,0.0,0.0,0.0,0.0,0.2,0.2,0.2,0.2,0.2,0
17264000,17184000,3.0584514,3.8503337,-2.513309,-1.2566718,-3.4681456e-05,1.2566025,2.5132396,0.0,0.0,0.0,0.0,0.0,0.0,0.0,0.0,0.0,0.0,0.2,0.2,0.2,0.2,0.2,0
17272000,17192000,2.4227626,3.5612671,-2.5132942,-1.2566569,-1.9773524e-05,1.2566173,2.5132544,0.0,0.0,0.0,0.0,0.0,0.0,0.0,0.0,0.0,0.0,0.2,0.2,0.2,0.2,0.2,0
17280000,17200000,2.896614,3.7000344,-2.5132823,-1.256645,-7.857318e-06,1.2566292,2.5132663,0.0,0.0,0.0,0.0,0.0,0.0,0.0,0.0,0.0,0.0,0.2,0.2,0.2,0.2,0.2,0
17288000,17208000,-2.976444,3.7675908,-2.513291,-1.2566535,-1.6472355e-05,1.2566206,2.5132577,0.0,0.0,0.0,0.0,0.0,0.0,0.0,0.0,0.0,0.0,0.2,0.2,0.2,0.2,0.2,0
17296000,17216000,2.1112158,3.7147114,-2.5132992,-1.2566619,-2.4768902e-05,1.2566123,2.5132494,0.0,0.0,0.0,0.0,0.0,0.0,0.0,0.0,0.0,0.0,0.2,0.2,0.2,0.2,0.2,0
17304000,17224000,2.6135182,3.563135,-2.5133002,-1.256663,-2.579372e-05,1.2566113,2.5132484,0.0,0.0,0.0,0.0,0.0,0.0,0.0,0.0,0.0,0.0,0.2,0.2,0.2,0.2,0.2,0
17312000,17232000,2.6011732,3.560811,-2.5132933,-1.2566559,-1.8845947e-05,1.2566183,2.5132554,0.0,0.0,0.0,0.0,0.0,0.0,0.0,0.0,0.0,0.0,0.2,0.2,0.2,0.2,0.2,0
17320000,17240000,2.6779451,3.5802042,-2.5132923,-1.2566551,-1.792683e-05,1.2566192,2.5132563,0.0,0.0,0.0,0.0,0.0,0.0,0.0,0.0,0.0,0.0,0.2,0.2,0.2,0.2,0.2,0
17328000,17248000,2.5308666,3.5533938,-2.5133097,-1.2566725,-3.538982e-05,1.2566018,2.513239,0.0,0.0,0.0,0.0,0.0,0.0,0.0,0.0,0.0,0.0,0.2,0.2,0.2,0.2,0.2,0
17336000,17256000,2.819842,3.647109,-2.5133424,-1.256705,-6.788011e-05,1.2565693,2.5132062,0.0,0.0,0.0,0.0,0.0,0.0,0.0,0.0,0.0,0.0,0.2,0.2,0.2,0.2,0.2,0
17344000,17264000,2.819842,3.6471128,-2.5133471,-1.2567098,-7.264817e-05,1.2565645,2.5132015,0.0,0.0,0.0,0.0,0.0,0.0,0.0,0.0,0.0,0.0,0.2,0.2,0.2,0.2,0.2,0
17352000,17272000,-2.9996955,3.7896197,-2.5133464,-1.2567093,-7.2133975e-05,1.2565651,2.5132022,0.0,0.0,0.0,0.0,0.0,0.0,0.0,0.0,0.0,0.0,0.2,0.2,0.2,0.2,0.2,0
17360000,17280000,2.5308666,3.5533972,-2.5133402,-1.2567029,-6.5709675e-05,1.2565714,2.5132084,0.0,0.0,0.0,0.0,0.0,0.0,0.0,0.0,0.0,0.0,0.2,0.2,0.2,0.2,0.2,0
17368000,17288000,2.7468016,3.6076467,-2.5133293,-1.2566919,-5.478843e-05,1.2565824,2.5132194,0.0,0.0,0.0,0.0,0.0,0.0,0.0,0.0,0.0,0.0,0.2,0.2,0.2,0.2,0.2,0
17376000,17296000,2.4980917,3.5533154,-2.5133216,-1.2566843,-4.7221547e-05,1.2565899,2.513227,0.0,0.0,0.0,0.0,0.0,0.0,0.0,0.0,0.0,0.0,0.2,0.2,0.2,0.2,0.2,0
17384000,17304000,2.896614,3.700071,-2.5133195,-1.2566823,-4.5170887e-05,1.256592,2.5132291,0.0,0.0,0.0,0.0,0.0,0.0,0.0,0.0,0.0,0.0,0.2,0.2,0.2,0.2,0.2,0
17392000,17312000,2.5702553,3.5563412,-2.513332,-1.2566946,-5.740017e-05,1.2565798,2.5132167,0.0,0.0,0.0,0.0,0.0,0.0,0.0,0.0,0.0,0.0,0.2,0.2,0.2,0.2,0.2,0
17400000,17320000,2.819842,3.6471112,-2.5133379,-1.2567006,-6.3440806e-05,1.2565737,2.5132108,0.0,0.0,0.0,0.0,0.0,0.0,0.0,0.0,0.0,0.0,0.2,0.2,0.2,0.2,0.2,0
17408000,17328000,3.070285,3.8578246,-2.5133362,-1.2566991,-6.187062e-05,1.2565753,2.5132124,-0.07777763,0.0055937394,0.08123476,0.044612125,-0.053663004,-0.03115311,-0.08359779,-0.02051318,0.070919946,0.0643441,0.2,0.2,0.2,0.2,0.2,0
17416000,17336000,2.7291822,3.5941374,-2.5133357,-1.2566983,-6.113421e-05,1.2565761,2.5132132,-0.07777763,0.0055937394,0.08123476,0.044612125,-0.053663004,-0.03115311,-0.08359779,-0.02051318,0.070919946,0.0643441,0.2,0.2,0.2,0.2,0.2,0
17424000,17344000,2.6779451,3.5746286,-2.513324,-1.2566867,-4.9512593e-05,1.2565876,2.5132246,-0.07777763,0.0055937394,0.08123476,0.044612125,-0.053663004,-0.03115311,-0.08359779,-0.02051318,0.070919946,0.0643441,0.2,0.2,0.2,0.2,0.2,0
17432000,17352000,2.6779451,3.5746317,-2.513332,-1.2566946,-5.744909e-05,1.2565796,2.5132167,-0.07777763,0.0055937394,0.08123476,0.044612125,-0.053663004,-0.03115311,-0.08359779,-0.02051318,0.070919946,0.0643441,0.2,0.2,0.2,0.2,0.2,0
17440000,17360000,2.4227626,3.5556755,-2.5133524,-1.256715,-7.796417e-05,1.2565591,2.5131962,-0.07777763,0.0055937394,0.08123476,0.044612125,-0.053663004,-0.03115311,-0.08359779,-0.02051318,0.070919946,0.0643441,0.2,0.2,0.2,0.2,0.2,0
17448000,17368000,2.9996955,3.7841742,-2.513347,-1.2567096,-7.237394e-05,1.2565647,2.513202,-0.07777763,0.0055937394,0.08123476,0.044612125,-0.053663004,-0.03115311,-0.08359779,-0.02051318,0.070919946,0.0643441,0.2,0.2,0.2,0.2,0.2,0
17456000,17376000,2.9304993,3.7216337,-2.513345,-1.2567078,-7.061063e-05,1.2565665,2.5132036,-0.07777763,0.0055937394,0.08123476,0.044612125,-0.053663004,-0.03115311,-0.08359779,-0.02051318,0.070919946,0.0643441,0.2,0.2,0.2,0.2,0.2,0
17464000,17384000,2.3561945,3.5721557,-2.5133283,-1.256691,-5.3862153e-05,1.2565832,2.5132203,-0.07777763,0.0055937394,0.08123476,0.044612125,-0.053663004,-0.03115311,-0.08359779,-0.02051318,0.070919946,0.0643441,0.2,0.2,0.2,0.2,0.2,0
17472000,17392000,2.7985687,3.6289206,-2.5133243,-1.2566868,-4.9615734e-05,1.2565875,2.5132246,-0.07777763,0.0055937394,0.08123476,0.044612125,-0.053663004,-0.03115311,-0.08359779,-0.02051318,0.070919946,0.0643441,0.2,0.2,0.2,0.2,0.2,0
17480000,17400000,2.9304993,3.7216268,-2.5133343,-1.2566969,-5.9763006e-05,1.2565774,2.5132146,-0.07777763,0.0055937394,0.08123476,0.044612125,-0.053663004,-0.03115311,-0.08359779,-0.02051318,0.070919946,0.0643441,0.2,0.2,0.2,0.2,0.2,0
17488000,17408000,2.7291822,3.5941482,-2.5133479,-1.2567105,-7.330193e-05,1.2565638,2.513201,-0.07777763,0.0055937394,0.08123476,0.044612125,-0.053663004,-0.03115311,-0.08359779,-0.02051318,0.070919946,0.0643441,0.2,0.2,0.2,0.2,0.2,0
17496000,17416000,2.7985687,3.6289444,-2.5133622,-1.2567248,-8.766972e-05,1.2565495,2.5131867,-0.07777763,0.0055937394,0.08123476,0.044612125,-0.053663004,-0.03115311,-0.08359779,-0.02051318,0.070919946,0.0643441,0.2,0.2,0.2,0.2,0.2,0
17504000,17424000,-2.9441972,3.7331188,-2.5133643,-1.256727,-8.98542e-05,1.2565472,2.5131845,-0.07777763,0.0055937394,0.08123476,0.044612125,-0.053663004,-0.03115311,-0.08359779,-0.02051318,0.070919946,0.0643441,0.2,0.2,0.2,0.2,0.2,0
17512000,17432000,2.7291822,3.5941591,-2.5133681,-1.2567308,-9.358192e-05,1.2565435,2.5131807,-0.07777763,0.0055937394,0.08123476,0.044612125,-0.053663004,-0.03115311,-0.08359779,-0.02051318,0.070919946,0.0643441,0.2,0.2,0.2,0.2,0.2,0
17520000,17440000,2.7291822,3.594168,-2.5133882,-1.2567508,-0.000113558155,1.2565236,2.5131607,-0.07777763,0.0055937394,0.08123476,0.044612125,-0.053663004,-0.03115311,-0.08359779,-0.02051318,0.070919946,0.0643441,0.2,0.2,0.2,0.2,0.2,0
17528000,17448000,2.8501358,3.6610603,-2.513395,-1.2567579,-0.00012064393,1.2565165,2.5131536,-0.07777763,0.0055937394,0.08123476,0.044612125,-0.053663004,-0.03115311,-0.08359779,-0.02051318,0.070919946,0.0643441,0.2,0.2,0.2,0.2,0.2,0
17536000,17456000,2.819842,3.641565,-2.5134008,-1.2567635,-0.00012622733,1.256511,2.513148,-0.07777763,0.0055937394,0.08123476,0.044612125,-0.053663004,-0.03115311,-0.08359779,-0.02051318,0.070919946,0.0643441,0.2,0.2,0.2,0.2,0.2,0
17544000,17464000,2.9441972,3.7333026,-2.5133939,-1.2567568,-0.00011955203,1.2565175,2.5131547,-0.07777763,0.0055937394,0.08123476,0.044612125,-0.053663004,-0.03115311,-0.08359779,-0.02051318,0.070919946,0.0643441,0.2,0.2,0.2,0.2,0.2,0
17552000,17472000,2.7985687,3.6289692,-2.5133984,-1.2567611,-0.00012387706,1.2565132,2.5131505,-0.07777763,0.0055937394,0.08123476,0.044612125,-0.053663004,-0.03115311,-0.08359779,-0.02051318,0.070919946,0.0643441,0.2,0.2,0.2,0.2,0.2,0
17560000,17480000,2.2142975,3.6368208,-2.513396,-1.2567587,-0.000121543235,1.2565155,2.5131526,-0.07777763,0.0055937394,0.08123476,0.044612125,-0.053663004,-0.03115311,-0.08359779,-0.02051318,0.070919946,0.0643441,0.2,0.2,0.2,0.2,0.2,0
17568000,17488000,2.782822,3.6202288,-2.5133967,-1.2567594,-0.00012223698,1.2565149,2.5131521,-0.07777763,0.0055937394,0.08123476,0.044612125,-0.053663004,-0.03115311,-0.08359779,-0.02051318,0.070919946,0.0643441,0.2,0.2,0.2,0.2,0.2,0
17576000,17496000,2.976444,3.7621422,-2.5133915,-1.2567543,-0.00011702308,1.25652,2.5131574,-0.07777763,0.0055937394,0.08123476,0.044612125,-0.053663004,-0.03115311,-0.08359779,-0.02051318,0.070919946,0.0643441,0.2,0.2,0.2,0.2,0.2,0
17584000,17504000,3.041924,3.8271043,-2.5133936,-1.2567563,-0.000119187716,1.2565179,2.5131552,-0.07777763,0.0055937394,0.08123476,0.044612125,-0.053663004,-0.03115311,-0.08359779,-0.02051318,0.070919946,0.0643441,0.2,0.2,0.2,0.2,0.2,0
17592000,17512000,2.9304993,3.721701,-2.513413,-1.2567759,-0.00013860106,1.2564986,2.5131357,-0.07777763,0.0055937394,0.08123476,0.044612125,-0.053663004,-0.03115311,-0.08359779,-0.02051318,0.070919946,0.0643441,0.2,0.2,0.2,0.2,0.2,0
17600000,17520000,3.0584514,3.844895,-2.513428,-1.2567909,-0.00015358809,1.2564836,2.5131207,-0.07777763,0.0055937394,0.08123476,0.044612125,-0.053663004,-0.03115311,-0.08359779,-0.02051318,0.070919946,0.0643441,0.2,0.2,0.2,0.2,0.2,0
17608000,17528000,2.7985687,3.6289937,-2.5134342,-1.2567968,-0.00015965308,1.2564775,2.5131147,-0.07777763,0.0055937394,0.08123476,0.044612125,-0.053663004,-0.03115311,-0.08359779,-0.02051318,0.070919946,0.0643441,0.2,0.2,0.2,0.2,0.2,0
17616000,17536000,2.4668517,3.5496502,-2.5134418,-1.2568045,-0.0001673063,1.2564698,2.5131068,-0.07777763,0.0055937394,0.08123476,0.044612125,-0.053663004,-0.03115311,-0.08359779,-0.02051318,0.070919946,0.0643441,0.2,0.2,0.2,0.2,0.2,0
17624000,17544000,2.9996955,3.7842913,-2.513454,-1.2568169,-0.00017960787,1.2564576,2.5130947,-0.07777763,0.0055937394,0.08123476,0.044612125,-0.053663004,-0.03115311,-0.08359779,-0.02051318,0.070919946,0.0643441,0.2,0.2,0.2,0.2,0.2,0
17632000,17552000,3.1415927,3.9420567,-2.513465,-1.2568278,-0.00019065106,1.2564465,2.5130837,-0.07777763,0.0055937394,0.08123476,0.044612125,-0.053663004,-0.03115311,-0.08359779,-0.02051318,0.070919946,0.0643441,0.2,0.2,0.2,0.2,0.2,0
17640000,17560000,2.4980917,3.5477357,-2.513501,-1.2568637,-0.00022643492,1.2564107,2.5130477,-0.07777763,0.0055937394,0.08123476,0.044612125,-0.053663004,-0.03115311,-0.08359779,-0.02051318,0.070919946,0.0643441,0.2,0.2,0.2,0.2,0.2,0
17648000,17568000,3.0172377,3.8017447,-2.513525,-1.2568879,-0.00025056367,1.2563865,2.5130236,-0.07777763,0.0055937394,0.08123476,0.044612125,-0.053663004,-0.03115311,-0.08359779,-0.02051318,0.070919946,0.0643441,0.2,0.2,0.2,0.2,0.2,0
17656000,17576000,2.9562447,3.7439604,-2.5135272,-1.25689,-0.00025277806,1.2563844,2.5130215,-0.07777763,0.0055937394,0.08123476,0.044612125,-0.053663004,-0.03115311,-0.08359779,-0.02051318,0.070919946,0.0643441,0.2,0.2,0.2,0.2,0.2,0
17664000,17584000,2.9304993,3.721791,-2.5135138,-1.2568767,-0.00023937174,1.2563977,2.5130348,-0.07777763,0.0055937394,0.08123476,0.044612125,-0.053663004,-0.03115311,-0.08359779,-0.02051318,0.070919946,0.0643441,0.2,0.2,0.2,0.2,0.2,0
17672000,17592000,2.863293,3.670197,-2.5135155,-1.2568784,-0.00024114364,1.256396,2.5130332,-0.07777763,0.0055937394,0.08123476,0.044612125,-0.053663004,-0.03115311,-0.08359779,-0.02051318,0.070919946,0.0643441,0.2,0.2,0.2,0.2,0.2,0
17680000,17600000,3.070285,3.8580544,-2.513524,-1.256887,-0.00024967646,1.2563875,2.5130246,-0.07777763,0.0055937394,0.08123476,0.044612125,-0.053663004,-0.03115311,-0.08359779,-0.02051318,0.070919946,0.0643441,0.2,0.2,0.2,0.2,0.2,0
17688000,17608000,2.9304993,3.7217987,-2.5135212,-1.2568841,-0.0002467681,1.2563903,2.5130274,-0.07777763,0.0055937394,0.08123476,0.044612125,-0.053663004,-0.03115311,-0.08359779,-0.02051318,0.070919946,0.0643441,0.2,0.2,0.2,0.2,0.2,0
17696000,17616000,2.6224465,3.559491,-2.5135298,-1.2568926,-0.0002553057,1.2563819,2.5130188,-0.07777763,0.0055937394,0.08123476,0.044612125,-0.053663004,-0.03115311,-0.08359779,-0.02051318,0.070919946,0.0643441,0.2,0.2,0.2,0.2,0.2,0
17704000,17624000,-2.9304993,3.721396,-2.513512,-1.2568748,-0.00023757192,1.2563996,2.5130367,-0.07777763,0.0055937394,0.08123476,0.044612125,-0.053663004,-0.03115311,-0.08359779,-0.02051318,0.070919946,0.0643441,0.2,0.2,0.2,0.2,0.2,0
17712000,17632000,2.9562447,3.7439651,-2.5135272,-1.25689,-0.00025276936,1.2563844,2.5130215,-0.07777763,0.0055937394,0.08123476,0.044612125,-0.053663004,-0.03115311,-0.08359779,-0.02051318,0.070919946,0.0643441,0.2,0.2,0.2,0.2,0.2,0
17720000,17640000,3.0309355,3.8157642,-2.5135372,-1.2569002,-0.00026287226,1.2563744,2.5130115,-0.07777763,0.0055937394,0.08123476,0.044612125,-0.053663004,-0.03115311,-0.08359779,-0.02051318,0.070919946,0.0643441,0.2,0.2,0.2,0.2,0.2,0
17728000,17648000,2.9996955,3.7843866,-2.5135431,-1.256906,-0.000268794,1.2563684,2.5130055,-0.07777763,0.0055937394,0.08123476,0.044612125,-0.053663004,-0.03115311,-0.08359779,-0.02051318,0.070919946,0.0643441,0.2,0.2,0.2,0.2,0.2,0
17736000,17656000,2.9996955,3.7843778,-2.5135336,-1.2568965,-0.00025927435,1.2563779,2.513015,-0.07777763,0.0055937394,0.08123476,0.044612125,-0.053663004,-0.03115311,-0.08359779,-0.02051318,0.070919946,0.0643441,0.2,0.2,0.2,0.2,0.2,0
17744000,17664000,-3.0791738,3.86747,-2.513533,-1.2568959,-0.00025861894,1.2563785,2.5130157,-0.07777763,0.0055937394,0.08123476,0.044612125,-0.053663004,-0.03115311,-0.08359779,-0.02051318,0.070919946,0.0643441,0.2,0.2,0.2,0.2,0.2,0
17752000,17672000,2.6292033,3.5610242,-2.5135484,-1.2569112,-0.00027389874,1.2563633,2.5130002,-0.07777763,0.0055937394,0.08123476,0.044612125,-0.053663004,-0.03115311,-0.08359779,-0.02051318,0.070919946,0.0643441,0.2,0.2,0.2,0.2,0.2,0
17760000,17680000,2.9996955,3.7843955,-2.51355,-1.256913,-0.00027571977,1.2563615,2.5129986,-0.07777763,0.0055937394,0.08123476,0.044612125,-0.053663004,-0.03115311,-0.08359779,-0.02051318,0.070919946,0.0643441,0.2,0.2,0.2,0.2,0.2,0
17768000,17688000,2.6779451,3.5747318,-2.5135558,-1.2569185,-0.00028126742,1.256356,2.5129929,-0.07777763,0.0055937394,0.08123476,0.044612125,-0.053663004,-0.03115311,-0.08359779,-0.02051318,0.070919946,0.0643441,0.2,0.2,0.2,0.2,0.2,0
17776000,17696000,2.7367008,3.597573,-2.5135655,-1.2569283,-0.00029107495,1.2563461,2.512983,-0.07777763,0.0055937394,0.08123476,0.044612125,-0.053663004,-0.03115311,-0.08359779,-0.02051318,0.070919946,0.0643441,0.2,0.2,0.2,0.2,0.2,0
17784000,17704000,2.6779451,3.5747335,-2.513557,-1.2569196,-0.00028243993,1.2563548,2.512992,-0.07777763,0.0055937394,0.08123476,0.044612125,-0.053663004,-0.03115311,-0.08359779,-0.02051318,0.070919946,0.0643441,0.2,0.2,0.2,0.2,0.2,0
17792000,17712000,2.6779451,3.574736,-2.5135639,-1.2569267,-0.00028939778,1.2563478,2.5129848,-0.07777763,0.0055937394,0.08123476,0.044612125,-0.053663004,-0.03115311,-0.08359779,-0.02051318,0.070919946,0.0643441,0.2,0.2,0.2,0.2,0.2,0
17800000,17720000,2.6224465,3.5595098,-2.5135763,-1.256939,-0.00030179365,1.2563354,2.5129724,-0.07777763,0.0055937394,0.08123476,0.044612125,-0.053663004,-0.03115311,-0.08359779,-0.02051318,0.070919946,0.0643441,0.2,0.2,0.2,0.2,0.2,0
17808000,17728000,-2.1387281,3.6448681,-2.512073,-1.2601,-0.0037550686,1.2573658,2.5170662,-0.09653565,0.02118105,0.12344586,0.06893241,-0.06702373,-0.036372006,-0.1056511,-0.015104372,0.110135786,0.09699162,0.20203076,0.20138492,0.19882675,0.19789344,0.1998641,0
17816000,17736000,-2.1387167,3.6448715,-2.5120654,-1.2600925,-0.003747501,1.2573733,2.5170736,-0.09653565,0.02118105,0.12344586,0.06893241,-0.06702373,-0.036372006,-0.1056511,-0.015104372,0.110135786,0.09699162,0.20203076,0.20138492,0.19882675,0.19789344,0.1998641,0
17824000,17744000,-2.1387079,3.6448693,-2.512054,-1.260081,-0.0037360203,1.2573849,2.517085,-0.09653565,0.02118105,0.12344586,0.06893241,-0.06702373,-0.036372006,-0.1056511,-0.015104372,0.110135786,0.09699162,0.20203076,0.20138492,0.19882675,0.19789344,0.1998641,0
17832000,17752000,-2.138699,3.6448681,-2.512042,-1.260069,-0.0037240062,1.2573969,2.5170972,-0.09653565,0.02118105,0.12344586,0.06893241,-0.06702373,-0.036372006,-0.1056511,-0.015104372,0.110135786,0.09699162,0.20203076,0.20138492,0.19882675,0.19789344,0.1998641,0
17840000,17760000,-2.1386857,3.6448717,-2.5120327,-1.2600598,-0.0037148471,1.257406,2.5171063,-0.09653565,0.02118105,0.12344586,0.06893241,-0.06702373,-0.036372006,-0.1056511,-0.015104372,0.110135786,0.09699162,0.20203076,0.20138492,0.19882675,0.19789344,0.1998641,0
17848000,17768000,-2.1386957,3.644869,-2.5120385,-1.2600654,-0.003720483,1.2574005,2.5171008,-0.09653565,0.02118105,0.12344586,0.06893241,-0.06702373,-0.036372006,-0.1056511,-0.015104372,0.110135786,0.09699162,0.20203076,0.20138492,0.19882675,0.19789344,0.1998641,0
17856000,17776000,-2.1387105,3.6448703,-2.5120535,-1.2600806,-0.0037355875,1.2573854,2.5170856,-0.09653565,0.02118105,0.12344586,0.06893241,-0.06702373,-0.036372006,-0.1056511,-0.015104372,0.110135786,0.09699162,0.20203076,0.20138492,0.19882675,0.19789344,0.1998641,0
17864000,17784000,-2.1387105,3.6448736,-2.5120573,-1.2600844,-0.003739397,1.2573814,2.5170817,-0.09653565,0.02118105,0.12344586,0.06893241,-0.06702373,-0.036372006,-0.1056511,-0.015104372,0.110135786,0.09699162,0.20203076,0.20138492,0.19882675,0.19789344,0.1998641,0
17872000,17792000,-2.13871,3.6448703,-2.5120516,-1.2600787,-0.003733699,1.2573873,2.5170875,-0.09653565,0.02118105,0.12344586,0.06893241,-0.06702373,-0.036372006,-0.1056511,-0.015104372,0.110135786,0.09699162,0.20203076,0.20138492,0.19882675,0.19789344,0.1998641,0
17880000,17800000,-2.1386652,3.644877,-2.512015,-1.2600422,-0.0036972081,1.2574236,2.517124,-0.09653565,0.02118105,0.12344586,0.06893241,-0.06702373,-0.036372006,-0.1056511,-0.015104372,0.110135786,0.09699162,0.20203076,0.20138492,0.19882675,0.19789344,0.1998641,0
17888000,17808000,-2.138659,3.644875,-2.5120056,-1.2600327,-0.0036877156,1.2574332,2.5171337,-0.09653565,0.02118105,0.12344586,0.06893241,-0.06702373,-0.036372006,-0.1056511,-0.015104372,0.110135786,0.09699162,0.20203076,0.20138492,0.19882675,0.19789344,0.1998641,0
17896000,17816000,-2.13866,3.6448708,-2.5120006,-1.2600275,-0.0036825584,1.2574384,2.5171387,-0.09653565,0.02118105,0.12344586,0.06893241,-0.06702373,-0.036372006,-0.1056511,-0.015104372,0.110135786,0.09699162,0.20203076,0.20138492,0.19882675,0.19789344,0.1998641,0
17904000,17824000,-2.1386616,3.6448753,-2.5120068,-1.2600338,-0.003688776,1.2574321,2.5171325,-0.09653565,0.02118105,0.12344586,0.06893241,-0.06702373,-0.036372006,-0.1056511,-0.015104372,0.110135786,0.09699162,0.20203076,0.20138492,0.19882675,0.19789344,0.1998641,0
17912000,17832000,-2.138662,3.6448731,-2.512004,-1.2600309,-0.0036858972,1.2574351,2.5171354,-0.09653565,0.02118105,0.12344586,0.06893241,-0.06702373,-0.036372006,-0.1056511,-0.015104372,0.110135786,0.09699162,0.20203076,0.20138492,0.19882675,0.19789344,0.1998641,0
17920000,17840000,-2.1386604,3.6448765,-2.5120053,-1.2600325,-0.0036875026,1.2574334,2.5171337,-0.09653565,0.02118105,0.12344586,0.06893241,-0.06702373,-0.036372006,-0.1056511,-0.015104372,0.110135786,0.09699162,0.20203076,0.20138492,0.19882675,0.19789344,0.1998641,0
17928000,17848000,-2.1386666,3.644874,-2.512008,-1.2600349,-0.0036899517,1.257431,2.5171313,-0.09653565,0.02118105,0.12344586,0.06893241,-0.06702373,-0.036372006,-0.1056511,-0.015104372,0.110135786,0.09699162,0.20203076,0.20138492,0.19882675,0.19789344,0.1998641,0
17936000,17856000,-2.138661,3.64488,-2.5120094,-1.2600365,-0.0036914868,1.2574294,2.51713,-0.09653565,0.02118105,0.12344586,0.06893241,-0.06702373,-0.036372006,-0.1056511,-0.015104372,0.110135786,0.09699162,0.20203076,0.20138492,0.19882675,0.19789344,0.1998641,0
17944000,17864000,-2.138661,3.6448739,-2.512,-1.260027,-0.0036820748,1.2574389,2.5171392,-0.09653565,0.02118105,0.12344586,0.06893241,-0.06702373,-0.036372006,-0.1056511,-0.015104372,0.110135786,0.09699162,0.20203076,0.20138492,0.19882675,0.19789344,0.1998641,0
17952000,17872000,-2.13865,3.6448753,-2.5119905,-1.2600175,-0.0036725143,1.2574484,2.5171487,-0.09653565,0.02118105,0.12344586,0.06893241,-0.06702373,-0.036372006,-0.1056511,-0.015104372,0.110135786,0.09699162,0.20203076,0.20138492,0.19882675,0.19789344,0.1998641,0
17960000,17880000,-2.1386561,3.6448803,-2.5120025,-1.2600297,-0.0036846616,1.2574363,2.5171366,-0.09653565,0.02118105,0.12344586,0.06893241,-0.06702373,-0.036372006,-0.1056511,-0.015104372,0.110135786,0.09699162,0.20203076,0.20138492,0.19882675,0.19789344,0.1998641,0
17968000,17888000,-2.138662,3.6448793,-2.5120058,-1.2600329,-0.0036879338,1.257433,2.5171332,-0.09653565,0.02118105,0.12344586,0.06893241,-0.06702373,-0.036372006,-0.1056511,-0.015104372,0.110135786,0.09699162,0.20203076,0.20138492,0.19882675,0.19789344,0.1998641,0
17976000,17896000,-2.1386697,3.6448777,-2.512011,-1.260038,-0.003693075,1.2574279,2.5171282,-0.09653565,0.02118105,0.12344586,0.06893241,-0.06702373,-0.036372006,-0.1056511,-0.015104372,0.110135786,0.09699162,0.20203076,0.20138492,0.19882675,0.19789344,0.1998641,0
17984000,17904000,-2.1386714,3.6448808,-2.5120156,-1.2600427,-0.0036976973,1.2574233,2.5171237,-0.09653565,0.02118105,0.12344586,0.06893241,-0.06702373,-0.036372006,-0.1056511,-0.015104372,0.110135786,0.09699162,0.20203076,0.20138492,0.19882675,0.19789344,0.1998641,0
17992000,17912000,-2.1386523,3.6448817,-2.5119967,-1.260024,-0.0036789314,1.257442,2.5171423,-0.09653565,0.02118105,0.12344586,0.06893241,-0.06702373,-0.036372006,-0.1056511,-0.015104372,0.110135786,0.09699162,0.20203076,0.20138492,0.19882675,0.19789344,0.1998641,0
18000000,17920000,-2.13865,3.6448777,-2.5119882,-1.2600151,-0.0036701583,1.2574508,2.517151,-0.09653565,0.02118105,0.12344586,0.06893241,-0.06702373,-0.036372006,-0.1056511,-0.015104372,0.110135786,0.09699162,0.20203076,0.20138492,0.19882675,0.19789344,0.1998641,0
18008000,17928000,-2.1386704,3.64488,-2.512012,-1.260039,-0.003693989,1.257427,2.5171273,-0.09653565,0.02118105,0.12344586,0.06893241,-0.06702373,-0.036372006,-0.1056511,-0.015104372,0.110135786,0.09699162,0.20203076,0.20138492,0.19882675,0.19789344,0.1998641,0
18016000,17936000,-2.1386967,3.6448839,-2.512041,-1.2600682,-0.003723217,1.2573978,2.517098,-0.09653565,0.02118105,0.12344586,0.06893241,-0.06702373,-0.036372006,-0.1056511,-0.015104372,0.110135786,0.09699162,0.20203076,0.20138492,0.19882675,0.19789344,0.1998641,0
18024000,17944000,-2.1387033,3.644881,-2.5120435,-1.2600704,-0.003725388,1.2573955,2.5170958,-0.09653565,0.02118105,0.12344586,0.06893241,-0.06702373,-0.036372006,-0.1056511,-0.015104372,0.110135786,0.09699162,0.20203076,0.20138492,0.19882675,0.19789344,0.1998641,0
18032000,17952000,-2.1386824,3.6448882,-2.5120316,-1.2600588,-0.003713753,1.2574072,2.5171075,-0.09653565,0.02118105,0.12344586,0.06893241,-0.06702373,-0.036372006,-0.1056511,-0.015104372,0.110135786,0.09699162,0.20203076,0.20138492,0.19882675,0.19789344,0.1998641,0
18040000,17960000,-2.1386738,3.6448905,-2.5120249,-1.260052,-0.003707036,1.2574139,2.5171142,-0.09653565,0.02118105,0.12344586,0.06893241,-0.06702373,-0.036372006,-0.1056511,-0.015104372,0.110135786,0.09699162,0.20203076,0.20138492,0.19882675,0.19789344,0.1998641,0
18048000,17968000,-2.138701,3.6448872,-2.5120468,-1.2600739,-0.0037289218,1.257392,2.5170925,-0.09653565,0.02118105,0.12344586,0.06893241,-0.06702373,-0.036372006,-0.1056511,-0.015104372,0.110135786,0.09699162,0.20203076,0.20138492,0.19882675,0.19789344,0.1998641,0
18056000,17976000,-2.1387167,3.6448824,-2.512056,-1.2600832,-0.0037381395,1.2573829,2.5170832,-0.09653565,0.02118105,0.12344586,0.06893241,-0.06702373,-0.036372006,-0.1056511,-0.015104372,0.110135786,0.09699162,0.20203076,0.20138492,0.19882675,0.19789344,0.1998641,0
18064000,17984000,-2.1387155,3.644882,-2.5120528,-1.2600797,-0.0037347644,1.2573862,2.5170865,-0.09653565,0.02118105,0.12344586,0.06893241,-0.06702373,-0.036372006,-0.1056511,-0.015104372,0.110135786,0.09699162,0.20203076,0.20138492,0.19882675,0.19789344,0.1998641,0
18072000,17992000,-2.1387148,3.6448812,-2.5120504,-1.2600774,-0.0037323418,1.2573887,2.517089,-0.09653565,0.02118105,0.12344586,0.06893241,-0.06702373,-0.036372006,-0.1056511,-0.015104372,0.110135786,0.09699162,0.20203076,0.20138492,0.19882675,0.19789344,0.1998641,0
18080000,18000000,-2.1387143,3.6448855,-2.5120547,-1.2600816,-0.0037366021,1.2573844,2.5170846,-0.09653565,0.02118105,0.12344586,0.06893241,-0.06702373,-0.036372006,-0.1056511,-0.015104372,0.110135786,0.09699162,0.20203076,0.20138492,0.19882675,0.19789344,0.1998641,0
18088000,18008000,-2.1387239,3.6448872,-2.512066,-1.260093,-0.0037480604,1.257373,2.5170732,-0.09653565,0.02118105,0.12344586,0.06893241,-0.06702373,-0.036372006,-0.1056511,-0.015104372,0.110135786,0.09699162,0.20203076,0.20138492,0.19882675,0.19789344,0.1998641,0
18096000,18016000,-2.138726,3.6448863,-2.5120654,-1.2600923,-0.0037473277,1.2573737,2.5170739,-0.09653565,0.02118105,0.12344586,0.06893241,-0.06702373,-0.036372006,-0.1056511,-0.015104372,0.110135786,0.09699162,0.20203076,0.20138492,0.19882675,0.19789344,0.1998641,0
18104000,18024000,-2.1387205,3.6448922,-2.5120673,-1.2600944,-0.003749458,1.2573715,2.5170717,-0.09653565,0.02118105,0.12344586,0.06893241,-0.06702373,-0.036372006,-0.1056511,-0.015104372,0.110135786,0.09699162,0.20203076,0.20138492,0.19882675,0.19789344,0.1998641,0
18112000,18032000,-2.1387196,3.6448896,-2.5120628,-1.2600899,-0.0037449412,1.2573761,2.5170765,-0.09653565,0.02118105,0.12344586,0.06893241,-0.06702373,-0.036372006,-0.1056511,-0.015104372,0.110135786,0.09699162,0.20203076,0.20138492,0.19882675,0.19789344,0.1998641,0
18120000,18040000,-2.13871,3.644889,-2.512051,-1.2600782,-0.0037331553,1.2573879,2.5170882,-0.09653565,0.02118105,0.12344586,0.06893241,-0.06702373,-0.036372006,-0.1056511,-0.015104372,0.110135786,0.09699162,0.20203076,0.20138492,0.19882675,0.19789344,0.1998641,0
18128000,18048000,-2.1387222,3.6448913,-2.5120652,-1.2600921,-0.0037472197,1.2573738,2.517074,-0.09653565,0.02118105,0.12344586,0.06893241,-0.06702373,-0.036372006,-0.1056511,-0.015104372,0.110135786,0.09699162,0.20203076,0.20138492,0.19882675,0.19789344,0.1998641,0
18136000,18056000,-2.1387265,3.6448898,-2.5120668,-1.2600937,-0.0037487994,1.2573723,2.5170724,-0.09653565,0.02118105,0.12344586,0.06893241,-0.06702373,-0.036372006,-0.1056511,-0.015104372,0.110135786,0.09699162,0.20203076,0.20138492,0.19882675,0.19789344,0.1998641,0
18144000,18064000,-2.138716,3.6448903,-2.5120564,-1.2600833,-0.003738336,1.2573826,2.517083,-0.09653565,0.02118105,0.12344586,0.06893241,-0.06702373,-0.036372006,-0.1056511,-0.015104372,0.110135786,0.09699162,0.20203076,0.20138492,0.19882675,0.19789344,0.1998641,0
18152000,18072000,-2.138715,3.6448908,-2.5120554,-1.2600824,-0.0037373824,1.2573837,2.517084,-0.09653565,0.02118105,0.12344586,0.06893241,-0.06702373,-0.036372006,-0.1056511,-0.015104372,0.110135786,0.09699162,0.20203076,0.20138492,0.19882675,0.19789344,0.1998641,0
18160000,18080000,-2.1387305,3.6448936,-2.5120735,-1.2601006,-0.0037556323,1.2573655,2.5170655,-0.09653565,0.02118105,0.12344586,0.06893241,-0.06702373,-0.036372006,-0.1056511,-0.015104372,0.110135786,0.09699162,0.20203076,0.20138492,0.19882675,0.19789344,0.1998641,0
18168000,18088000,-2.1387343,3.6448884,-2.5120697,-1.2600967,-0.0037516665,1.2573694,2.5170696,-0.09653565,0.02118105,0.12344586,0.06893241,-0.06702373,-0.036372006,-0.1056511,-0.015104372,0.110135786,0.09699162,0.20203076,0.20138492,0.19882675,0.19789344,0.1998641,0
18176000,18096000,-2.1387289,3.6448927,-2.5120695,-1.2600965,-0.0037515522,1.2573695,2.5170698,-0.09653565,0.02118105,0.12344586,0.06893241,-0.06702373,-0.036372006,-0.1056511,-0.015104372,0.110135786,0.09699162,0.20203076,0.20138492,0.19882675,0.19789344,0.1998641,0
18184000,18104000,-2.138741,3.6448941,-2.5120819,-1.2601088,-0.0037638522,1.2573572,2.5170574,-0.09653565,0.02118105,0.12344586,0.06893241,-0.06702373,-0.036372006,-0.1056511,-0.015104372,0.110135786,0.09699162,0.20203076,0.20138492,0.19882675,0.19789344,0.1998641,0
18192000,18112000,-2.1387591,3.6448896,-2.5120938,-1.2601207,-0.0037757528,1.2573454,2.5170455,-0.09653565,0.02118105,0.12344586,0.06893241,-0.06702373,-0.036372006,-0.1056511,-0.015104372,0.110135786,0.09699162,0.20203076,0.20138492,0.19882675,0.19789344,0.1998641,0
18200000,18120000,-2.1387591,3.644892,-2.5120962,-1.260123,-0.003778108,1.257343,2.517043,-0.09653565,0.02118105,0.12344586,0.06893241,-0.06702373,-0.036372006,-0.1056511,-0.015104372,0.110135786,0.09699162,0.20203076,0.20138492,0.19882675,0.19789344,0.1998641,0
18208000,18128000,-2.1559074,3.6283798,-2.5129418,-1.2584248,-0.0018800236,1.2568108,2.5148163,-0.13842179,0.0074236062,0.13769065,0.07158716,-0.09950759,-0.06045431,-0.14933503,-0.03807983,0.120572716,0.10609926,0.20092307,0.2006127,0.19945595,0.19905172,0.19995654,0
18216000,18136000,-2.1558928,3.628385,-2.5129333,-1.2584162,-0.0018715009,1.2568194,2.5148249,-0.13842179,0.0074236062,0.13769065,0.07158716,-0.09950759,-0.06045431,-0.14933503,-0.03807983,0.120572716,0.10609926,0.20092307,0.2006127,0.19945595,0.19905172,0.19995654,0
18224000,18144000,-2.1558697,3.6283836,-2.5129073,-1.2583902,-0.0018454908,1.2568454,2.5148509,-0.13842179,0.0074236062,0.13769065,0.07158716,-0.09950759,-0.06045431,-0.14933503,-0.03807983,0.120572716,0.10609926,0.20092307,0.2006127,0.19945595,0.19905172,0.19995654,0
18232000,18152000,-2.1558504,3.6283967,-2.5129054,-1.2583884,-0.0018437539,1.2568471,2.5148525,-0.13842179,0.0074236062,0.13769065,0.07158716,-0.09950759,-0.06045431,-0.14933503,-0.03807983,0.120572716,0.10609926,0.20092307,0.2006127,0.19945595,0.19905172,0.19995654,0
18240000,18160000,-2.1558783,3.6283898,-2.5129225,-1.2584056,-0.0018608756,1.25683,2.5148354,-0.13842179,0.0074236062,0.13769065,0.07158716,-0.09950759,-0.06045431,-0.14933503,-0.03807983,0.120572716,0.10609926,0.20092307,0.2006127,0.19945595,0.19905172,0.19995654,0
18248000,18168000,-2.1558857,3.6283846,-2.512923,-1.2584059,-0.0018612868,1.2568296,2.5148351,-0.13842179,0.0074236062,0.13769065,0.07158716,-0.09950759,-0.06045431,-0.14933503,-0.03807983,0.120572716,0.10609926,0.20092307,0.2006127,0.19945595,0.19905172,0.19995654,0
18256000,18176000,-2.155882,3.6283906,-2.5129263,-1.2584093,-0.00186464,1.2568263,2.5148318,-0.13842179,0.0074236062,0.13769065,0.07158716,-0.09950759,-0.06045431,-0.14933503,-0.03807983,0.120572716,0.10609926,0.20092307,0.2006127,0.19945595,0.19905172,0.19995654,0
18264000,18184000,-2.155877,3.6283922,-2.5129228,-1.2584057,-0.0018610437,1.2568299,2.5148354,-0.13842179,0.0074236062,0.13769065,0.07158716,-0.09950759,-0.06045431,-0.14933503,-0.03807983,0.120572716,0.10609926,0.20092307,0.2006127,0.19945595,0.19905172,0.19995654,0
18272000,18192000,-2.155882,3.6283884,-2.5129213,-1.2584045,-0.0018597215,1.2568312,2.5148368,-0.13842179,0.0074236062,0.13769065,0.07158716,-0.09950759,-0.06045431,-0.14933503,-0.03807983,0.120572716,0.10609926,0.20092307,0.2006127,0.19945595,0.19905172,0.19995654,0
18280000,18200000,-2.1558723,3.6283896,-2.5129123,-1.2583953,-0.0018505865,1.2568402,2.5148458,-0.13842179,0.0074236062,0.13769065,0.07158716,-0.09950759,-0.06045431,-0.14933503,-0.03807983,0.120572716,0.10609926,0.20092307,0.2006127,0.19945595,0.19905172,0.19995654,0
18288000,18208000,-2.155876,3.6283827,-2.5129054,-1.2583883,-0.0018435469,1.2568474,2.514853,-0.13842179,0.0074236062,0.13769065,0.07158716,-0.09950759,-0.06045431,-0.14933503,-0.03807983,0.120572716,0.10609926,0.20092307,0.2006127,0.19945595,0.19905172,0.19995654,0
18296000,18216000,-2.15586,3.6283932,-2.5129032,-1.2583863,-0.001841509,1.2568494,2.514855,-0.13842179,0.0074236062,0.13769065,0.07158716,-0.09950759,-0.06045431,-0.14933503,-0.03807983,0.120572716,0.10609926,0.20092307,0.2006127,0.19945595,0.19905172,0.19995654,0
18304000,18224000,-2.1558747,3.6283848,-2.5129058,-1.2583888,-0.0018440543,1.2568469,2.5148525,-0.13842179,0.0074236062,0.13769065,0.07158716,-0.09950759,-0.06045431,-0.14933503,-0.03807983,0.120572716,0.10609926,0.20092307,0.2006127,0.19945595,0.19905172,0.19995654,0
18312000,18232000,-2.1558697,3.6283896,-2.5129063,-1.2583892,-0.0018446038,1.2568463,2.514852,-0.13842179,0.0074236062,0.13769065,0.07158716,-0.09950759,-0.06045431,-0.14933503,-0.03807983,0.120572716,0.10609926,0.20092307,0.2006127,0.19945595,0.19905172,0.19995654,0
18320000,18240000,-2.1558747,3.6283898,-2.5129116,-1.2583945,-0.0018498433,1.2568411,2.5148468,-0.13842179,0.0074236062,0.13769065,0.07158716,-0.09950759,-0.06045431,-0.14933503,-0.03807983,0.120572716,0.10609926,0.20092307,0.2006127,0.19945595,0.19905172,0.19995654,0
18328000,18248000,-2.155894,3.6283908,-2.5129302,-1.2584131,-0.0018684348,1.2568225,2.514828,-0.13842179,0.0074236062,0.13769065,0.07158716,-0.09950759,-0.06045431,-0.14933503,-0.03807983,0.120572716,0.10609926,0.20092307,0.2006127,0.19945595,0.19905172,0.19995654,0
18336000,18256000,-2.1559062,3.6283908,-2.5129418,-1.2584249,-0.0018801747,1.2568108,2.5148163,-0.13842179,0.0074236062,0.13769065,0.07158716,-0.09950759,-0.06045431,-0.14933503,-0.03807983,0.120572716,0.10609926,0.20092307,0.2006127,0.19945595,0.19905172,0.19995654,0
18344000,18264000,-2.1559148,3.628386,-2.5129435,-1.2584264,-0.0018817671,1.2568092,2.5148149,-0.13842179,0.0074236062,0.13769065,0.07158716,-0.09950759,-0.06045431,-0.14933503,-0.03807983,0.120572716,0.10609926,0.20092307,0.2006127,0.19945595,0.19905172,0.19995654,0
18352000,18272000,-2.1559074,3.6283956,-2.512948,-1.2584308,-0.0018861968,1.2568047,2.5148103,-0.13842179,0.0074236062,0.13769065,0.07158716,-0.09950759,-0.06045431,-0.14933503,-0.03807983,0.120572716,0.10609926,0.20092307,0.2006127,0.19945595,0.19905172,0.19995654,0
18360000,18280000,-2.155905,3.6284025,-2.5129542,-1.2584373,-0.0018926149,1.2567983,2.514804,-0.13842179,0.0074236062,0.13769065,0.07158716,-0.09950759,-0.06045431,-0.14933503,-0.03807983,0.120572716,0.10609926,0.20092307,0.2006127,0.19945595,0.19905172,0.19995654,0
18368000,18288000,-2.1559258,3.6283946,-2.512964,-1.258447,-0.0019023353,1.2567886,2.5147943,-0.13842179,0.0074236062,0.13769065,0.07158716,-0.09950759,-0.06045431,-0.14933503,-0.03807983,0.120572716,0.10609926,0.20092307,0.2006127,0.19945595,0.19905172,0.19995654,0
18376000,18296000,-2.1559367,3.6284025,-2.5129845,-1.2584676,-0.0019228837,1.256768,2.5147736,-0.13842179,0.0074236062,0.13769065,0.07158716,-0.09950759,-0.06045431,-0.14933503,-0.03807983,0.120572716,0.10609926,0.20092307,0.2006127,0.19945595,0.19905172,0.19995654,0
18384000,18304000,-2.1559563,3.6283903,-2.5129862,-1.258469,-0.0019243372,1.2567666,2.5147722,-0.13842179,0.0074236062,0.13769065,0.07158716,-0.09950759,-0.06045431,-0.14933503,-0.03807983,0.120572716,0.10609926,0.20092307,0.2006127,0.19945595,0.19905172,0.19995654,0
18392000,18312000,-2.1559649,3.628393,-2.5129976,-1.2584805,-0.0019358004,1.2567551,2.5147607,-0.13842179,0.0074236062,0.13769065,0.07158716,-0.09950759,-0.06045431,-0.14933503,-0.03807983,0.120572716,0.10609926,0.20092307,0.2006127,0.19945595,0.19905172,0.19995654,0
18400000,18320000,-2.1559806,3.6283884,-2.513006,-1.2584889,-0.0019441759,1.2567468,2.5147524,-0.13842179,0.0074236062,0.13769065,0.07158716,-0.09950759,-0.06045431,-0.14933503,-0.03807983,0.120572716,0.10609926,0.20092307,0.2006127,0.19945595,0.19905172,0.19995654,0
18408000,18328000,-2.1559744,3.628397,-2.5130105,-1.2584937,-0.0019488967,1.256742,2.5147476,-0.13842179,0.0074236062,0.13769065,0.07158716,-0.09950759,-0.06045431,-0.14933503,-0.03807983,0.120572716,0.10609926,0.20092307,0.2006127,0.19945595,0.19905172,0.19995654,0
18416000,18336000,-2.1559744,3.6283917,-2.5130026,-1.2584856,-0.0019408407,1.2567501,2.5147557,-0.13842179,0.0074236062,0.13769065,0.07158716,-0.09950759,-0.06045431,-0.14933503,-0.03807983,0.120572716,0.10609926,0.20092307,0.2006127,0.19945595,0.19905172,0.19995654,0
18424000,18344000,-2.1559587,3.6283934,-2.5129886,-1.2584715,-0.0019267887,1.2567642,2.5147698,-0.13842179,0.0074236062,0.13769065,0.07158716,-0.09950759,-0.06045431,-0.14933503,-0.03807983,0.120572716,0.10609926,0.20092307,0.2006127,0.19945595,0.19905172,0.19995654,0
18432000,18352000,-2.155944,3.6284006,-2.512983,-1.258466,-0.0019213635,1.2567695,2.5147753,-0.13842179,0.0074236062,0.13769065,0.07158716,-0.09950759,-0.06045431,-0.14933503,-0.03807983,0.120572716,0.10609926,0.20092307,0.2006127,0.19945595,0.19905172,0.19995654,0
18440000,18360000,-2.15595,3.6283984,-2.512985,-1.258468,-0.0019233183,1.2567676,2.5147731,-0.13842179,0.0074236062,0.13769065,0.07158716,-0.09950759,-0.06045431,-0.14933503,-0.03807983,0.120572716,0.10609926,0.20092307,0.2006127,0.19945595,0.19905172,0.19995654,0
18448000,18368000,-2.1559758,3.628393,-2.5130024,-1.2584853,-0.0019406466,1.2567503,2.514756,-0.13842179,0.0074236062,0.13769065,0.07158716,-0.09950759,-0.06045431,-0.14933503,-0.03807983,0.120572716,0.10609926,0.20092307,0.2006127,0.19945595,0.19905172,0.19995654,0
18456000,18376000,-2.1559477,3.6284077,-2.5129938,-1.258477,-0.0019322085,1.2567587,2.5147643,-0.13842179,0.0074236062,0.13769065,0.07158716,-0.09950759,-0.06045431,-0.14933503,-0.03807983,0.120572716,0.10609926,0.20092307,0.2006127,0.19945595,0.19905172,0.19995654,0
18464000,18384000,-2.1559563,3.6283958,-2.5129848,-1.2584677,-0.0019229136,1.256768,2.5147736,-0.13842179,0.0074236062,0.13769065,0.07158716,-0.09950759,-0.06045431,-0.14933503,-0.03807983,0.120572716,0.10609926,0.20092307,0.2006127,0.19945595,0.19905172,0.19995654,0
18472000,18392000,-2.1559634,3.6284046,-2.5130033,-1.2584864,-0.0019416636,1.2567493,2.5147548,-0.13842179,0.0074236062,0.13769065,0.07158716,-0.09950759,-0.06045431,-0.14933503,-0.03807983,0.120572716,0.10609926,0.20092307,0.2006127,0.19945595,0.19905172,0.19995654,0
18480000,18400000,-2.1560025,3.6283925,-2.5130253,-1.2585082,-0.0019635018,1.2567275,2.514733,-0.13842179,0.0074236062,0.13769065,0.07158716,-0.09950759,-0.06045431,-0.14933503,-0.03807983,0.120572716,0.10609926,0.20092307,0.2006127,0.19945595,0.19905172,0.19995654,0
18488000,18408000,-2.156005,3.6283984,-2.5130353,-1.2585182,-0.0019734523,1.2567174,2.5147233,-0.13842179,0.0074236062,0.13769065,0.07158716,-0.09950759,-0.06045431,-0.14933503,-0.03807983,0.120572716,0.10609926,0.20092307,0.2006127,0.19945595,0.19905172,0.19995654,0
18496000,18416000,-2.156005,3.6283991,-2.5130348,-1.2585177,-0.001973072,1.2567179,2.5147235,-0.13842179,0.0074236062,0.13769065,0.07158716,-0.09950759,-0.06045431,-0.14933503,-0.03807983,0.120572716,0.10609926,0.20092307,0.2006127,0.19945595,0.19905172,0.19995654,0
18504000,18424000,-2.1560037,3.628398,-2.5130315,-1.2585144,-0.0019697093,1.2567213,2.5147269,-0.13842179,0.0074236062,0.13769065,0.07158716,-0.09950759,-0.06045431,-0.14933503,-0.03807983,0.120572716,0.10609926,0.20092307,0.2006127,0.19945595,0.19905172,0.19995654,0
18512000,18432000,-2.1559927,3.628411,-2.5130372,-1.2585204,-0.0019756157,1.2567153,2.5147212,-0.13842179,0.0074236062,0.13769065,0.07158716,-0.09950759,-0.06045431,-0.14933503,-0.03807983,0.120572716,0.10609926,0.20092307,0.2006127,0.19945595,0.19905172,0.19995654,0
18520000,18440000,-2.1559842,3.6284058,-2.513021,-1.2585042,-0.001959335,1.2567316,2.5147374,-0.13842179,0.0074236062,0.13769065,0.07158716,-0.09950759,-0.06045431,-0.14933503,-0.03807983,0.120572716,0.10609926,0.20092307,0.2006127,0.19945595,0.19905172,0.19995654,0
18528000,18448000,-2.1559672,3.6284108,-2.51301,-1.2584931,-0.0019483805,1.2567425,2.5147483,-0.13842179,0.0074236062,0.13769065,0.07158716,-0.09950759,-0.06045431,-0.14933503,-0.03807983,0.120572716,0.10609926,0.20092307,0.2006127,0.19945595,0.19905172,0.19995654,0
18536000,18456000,-2.1559634,3.628406,-2.5129988,-1.2584817,-0.0019370954,1.2567538,2.5147595,-0.13842179,0.0074236062,0.13769065,0.07158716,-0.09950759,-0.06045431,-0.14933503,-0.03807983,0.120572716,0.10609926,0.20092307,0.2006127,0.19945595,0.19905172,0.19995654,0
18544000,18464000,-2.1559477,3.6284096,-2.5129871,-1.2584703,-0.0019255461,1.2567654,2.5147712,-0.13842179,0.0074236062,0.13769065,0.07158716,-0.09950759,-0.06045431,-0.14933503,-0.03807983,0.120572716,0.10609926,0.20092307,0.2006127,0.19945595,0.19905172,0.19995654,0
18552000,18472000,-2.1559489,3.628409,-2.5129871,-1.2584702,-0.0019254513,1.2567655,2.5147712,-0.13842179,0.0074236062,0.13769065,0.07158716,-0.09950759,-0.06045431,-0.14933503,-0.03807983,0.120572716,0.10609926,0.20092307,0.2006127,0.19945595,0.19905172,0.19995654,0
18560000,18480000,-2.1559587,3.6283991,-2.5129821,-1.258465,-0.0019203452,1.2567706,2.5147765,-0.13842179,0.0074236062,0.13769065,0.07158716,-0.09950759,-0.06045431,-0.14933503,-0.03807983,0.120572716,0.10609926,0.20092307,0.2006127,0.19945595,0.19905172,0.19995654,0
18568000,18488000,-2.155955,3.6284096,-2.5129912,-1.2584742,-0.0019294837,1.2567614,2.5147672,-0.13842179,0.0074236062,0.13769065,0.07158716,-0.09950759,-0.06045431,-0.14933503,-0.03807983,0.120572716,0.10609926,0.20092307,0.2006127,0.19945595,0.19905172,0.19995654,0
18576000,18496000,-2.1559732,3.628403,-2.513,-1.2584829,-0.001938274,1.2567527,2.5147583,-0.13842179,0.0074236062,0.13769065,0.07158716,-0.09950759,-0.06045431,-0.14933503,-0.03807983,0.120572716,0.10609926,0.20092307,0.2006127,0.19945595,0.19905172,0.19995654,0
18584000,18504000,-2.1559587,3.6284046,-2.5129867,-1.2584696,-0.0019248431,1.2567661,2.514772,-0.13842179,0.0074236062,0.13769065,0.07158716,-0.09950759,-0.06045431,-0.14933503,-0.03807983,0.120572716,0.10609926,0.20092307,0.2006127,0.19945595,0.19905172,0.19995654,0
18592000,18512000,-2.1559634,3.628408,-2.5129948,-1.2584779,-0.0019331293,1.2567579,2.5147636,-0.13842179,0.0074236062,0.13769065,0.07158716,-0.09950759,-0.06045431,-0.14933503,-0.03807983,0.120572716,0.10609926,0.20092307,0.2006127,0.19945595,0.19905172,0.19995654,0
18600000,18520000,-2.1559465,3.628417,-2.51299,-1.2584732,-0.0019283938,1.2567625,2.5147684,-0.13842179,0.0074236062,0.13769065,0.07158716,-0.09950759,-0.06045431,-0.14933503,-0.03807983,0.120572716,0.10609926,0.20092307,0.2006127,0.19945595,0.19905172,0.19995654,0
18608000,18528000,-2.5028944,3.4887598,-2.5135698,-1.2573525,-0.0006443447,1.2564409,2.5132954,-0.1552696,0.0077292803,0.1565662,0.085158944,-0.107796624,-0.06344676,-0.16661994,-0.043473743,0.13632801,0.1236533,0.2000949,0.20001818,0.1999163,0.1999302,0.20004046,0
18616000,18536000,-2.5029635,3.4887598,-2.5135853,-1.2573678,-0.0006597734,1.2564255,2.51328,-0.1552696,0.0077292803,0.1565662,0.085158944,-0.107796624,-0.06344676,-0.16661994,-0.043473743,0.13632801,0.1236533,0.2000949,0.20001818,0.1999163,0.1999302,0.20004046,0
18624000,18544000,-2.5031512,3.488756,-2.5135906,-1.257373,-0.00066493364,1.2564204,2.5132747,-0.1552696,0.0077292803,0.1565662,0.085158944,-0.107796624,-0.06344676,-0.16661994,-0.043473743,0.13632801,0.1236533,0.2000949,0.20001818,0.1999163,0.1999302,0.20004046,0
18632000,18552000,-2.5030336,3.4887588,-2.5135818,-1.2573642,-0.0006561464,1.2564291,2.5132835,-0.1552696,0.0077292803,0.1565662,0.085158944,-0.107796624,-0.06344676,-0.16661994,-0.043473743,0.13632801,0.1236533,0.2000949,0.20001818,0.1999163,0.1999302,0.20004046,0
18640000,18560000,-2.503075,3.4887588,-2.5135784,-1.2573609,-0.0006527868,1.2564324,2.5132868,-0.1552696,0.0077292803,0.1565662,0.085158944,-0.107796624,-0.06344676,-0.16661994,-0.043473743,0.13632801,0.1236533,0.2000949,0.20001818,0.1999163,0.1999302,0.20004046,0
18648000,18568000,-2.502998,3.4887605,-2.5135777,-1.2573601,-0.0006520702,1.2564331,2.5132878,-0.1552696,0.0077292803,0.1565662,0.085158944,-0.107796624,-0.06344676,-0.16661994,-0.043473743,0.13632801,0.1236533,0.2000949,0.20001818,0.1999163,0.1999302,0.20004046,0
18656000,18576000,-2.5030122,3.488761,-2.5135808,-1.2573633,-0.0006551653,1.25643,2.5132847,-0.1552696,0.0077292803,0.1565662,0.085158944,-0.107796624,-0.06344676,-0.16661994,-0.043473743,0.13632801,0.1236533,0.2000949,0.20001818,0.1999163,0.1999302,0.20004046,0
18664000,18584000,-2.5030951,3.48876,-2.513585,-1.2573675,-0.0006593964,1.2564259,2.5132804,-0.1552696,0.0077292803,0.1565662,0.085158944,-0.107796624,-0.06344676,-0.16661994,-0.043473743,0.13632801,0.1236533,0.2000949,0.20001818,0.1999163,0.1999302,0.20004046,0
18672000,18592000,-2.5030122,3.4887626,-2.5135734,-1.2573558,-0.0006477636,1.2564374,2.513292,-0.1552696,0.0077292803,0.1565662,0.085158944,-0.107796624,-0.06344676,-0.16661994,-0.043473743,0.13632801,0.1236533,0.2000949,0.20001818,0.1999163,0.1999302,0.20004046,0
18680000,18600000,-2.503026,3.4887626,-2.5135765,-1.2573589,-0.0006508659,1.2564344,2.513289,-0.1552696,0.0077292803,0.1565662,0.085158944,-0.107796624,-0.06344676,-0.16661994,-0.043473743,0.13632801,0.1236533,0.2000949,0.20001818,0.1999163,0.1999302,0.20004046,0
18688000,18608000,-2.5029848,3.4887648,-2.5135856,-1.2573681,-0.0006600484,1.2564251,2.5132797,-0.1552696,0.0077292803,0.1565662,0.085158944,-0.107796624,-0.06344676,-0.16661994,-0.043473743,0.13632801,0.1236533,0.2000949,0.20001818,0.1999163,0.1999302,0.20004046,0
18696000,18616000,-2.503061,3.4887636,-2.5135808,-1.2573633,-0.0006552513,1.25643,2.5132844,-0.1552696,0.0077292803,0.1565662,0.085158944,-0.107796624,-0.06344676,-0.16661994,-0.043473743,0.13632801,0.1236533,0.2000949,0.20001818,0.1999163,0.1999302,0.20004046,0
18704000,18624000,-2.5029364,3.4887662,-2.5135622,-1.2573445,-0.0006365429,1.2564487,2.5133033,-0.1552696,0.0077292803,0.1565662,0.085158944,-0.107796624,-0.06344676,-0.16661994,-0.043473743,0.13632801,0.1236533,0.2000949,0.20001818,0.1999163,0.1999302,0.20004046,0
18712000,18632000,-2.503075,3.4887633,-2.5135546,-1.2573369,-0.0006288608,1.2564564,2.513311,-0.1552696,0.0077292803,0.1565662,0.085158944,-0.107796624,-0.06344676,-0.16661994,-0.043473743,0.13632801,0.1236533,0.2000949,0.20001818,0.1999163,0.1999302,0.20004046,0
18720000,18640000,-2.502943,3.4887667,-2.513541,-1.2573233,-0.0006153728,1.25647,2.5133245,-0.1552696,0.0077292803,0.1565662,0.085158944,-0.107796624,-0.06344676,-0.16661994,-0.043473743,0.13632801,0.1236533,0.2000949,0.20001818,0.1999163,0.1999302,0.20004046,0
18728000,18648000,-2.5030332,3.488765,-2.5135293,-1.2573116,-0.0006035657,1.2564816,2.5133362,-0.1552696,0.0077292803,0.1565662,0.085158944,-0.107796624,-0.06344676,-0.16661994,-0.043473743,0.13632801,0.1236533,0.2000949,0.20001818,0.1999163,0.1999302,0.20004046,0
18736000,18656000,-2.5029016,3.488769,-2.513532,-1.2573144,-0.00060639525,1.2564788,2.5133333,-0.1552696,0.0077292803,0.1565662,0.085158944,-0.107796624,-0.06344676,-0.16661994,-0.043473743,0.13632801,0.1236533,0.2000949,0.20001818,0.1999163,0.1999302,0.20004046,0
18744000,18664000,-2.5029294,3.488769,-2.5135381,-1.2573205,-0.00061252294,1.2564727,2.5133271,-0.1552696,0.0077292803,0.1565662,0.085158944,-0.107796624,-0.06344676,-0.16661994,-0.043473743,0.13632801,0.1236533,0.2000949,0.20001818,0.1999163,0.1999302,0.20004046,0
18752000,18672000,-2.5029151,3.4887695,-2.51353,-1.2573125,-0.0006044665,1.2564808,2.5133352,-0.1552696,0.0077292803,0.1565662,0.085158944,-0.107796624,-0.06344676,-0.16661994,-0.043473743,0.13632801,0.1236533,0.2000949,0.20001818,0.1999163,0.1999302,0.20004046,0
18760000,18680000,-2.5029843,3.4887688,-2.5135274,-1.2573098,-0.0006017706,1.2564836,2.513338,-0.1552696,0.0077292803,0.1565662,0.085158944,-0.107796624,-0.06344676,-0.16661994,-0.043473743,0.13632801,0.1236533,0.2000949,0.20001818,0.1999163,0.1999302,0.20004046,0
18768000,18688000,-2.5028868,3.4887712,-2.5135121,-1.2572947,-0.0005865692,1.2564987,2.5133533,-0.1552696,0.0077292803,0.1565662,0.085158944,-0.107796624,-0.06344676,-0.16661994,-0.043473743,0.13632801,0.1236533,0.2000949,0.20001818,0.1999163,0.1999302,0.20004046,0
18776000,18696000,-2.5029223,3.4887712,-2.513514,-1.2572963,-0.00058833946,1.2564969,2.5133514,-0.1552696,0.0077292803,0.1565662,0.085158944,-0.107796624,-0.06344676,-0.16661994,-0.043473743,0.13632801,0.1236533,0.2000949,0.20001818,0.1999163,0.1999302,0.20004046,0
18784000,18704000,-2.5029848,3.4887707,-2.5135334,-1.2573156,-0.00060766004,1.2564776,2.5133321,-0.1552696,0.0077292803,0.1565662,0.085158944,-0.107796624,-0.06344676,-0.16661994,-0.043473743,0.13632801,0.1236533,0.2000949,0.20001818,0.1999163,0.1999302,0.20004046,0
18792000,18712000,-2.5029082,3.4887733,-2.5135427,-1.257325,-0.0006170712,1.2564682,2.5133228,-0.1552696,0.0077292803,0.1565662,0.085158944,-0.107796624,-0.06344676,-0.16661994,-0.043473743,0.13632801,0.1236533,0.2000949,0.20001818,0.1999163,0.1999302,0.20004046,0
18800000,18720000,-2.5029569,3.4887724,-2.5135345,-1.2573168,-0.0006088893,1.2564764,2.513331,-0.1552696,0.0077292803,0.1565662,0.085158944,-0.107796624,-0.06344676,-0.16661994,-0.043473743,0.13632801,0.1236533,0.2000949,0.20001818,0.1999163,0.1999302,0.20004046,0
18808000,18728000,-2.5030475,3.4887714,-2.5135283,-1.2573105,-0.0006025518,1.2564827,2.5133371,-0.1552696,0.0077292803,0.1565662,0.085158944,-0.107796624,-0.06344676,-0.16661994,-0.043473743,0.13632801,0.1236533,0.2000949,0.20001818,0.1999163,0.1999302,0.20004046,0
18816000,18736000,-2.5030327,3.4887724,-2.5135405,-1.2573228,-0.0006147046,1.2564706,2.5133252,-0.1552696,0.0077292803,0.1565662,0.085158944,-0.107796624,-0.06344676,-0.16661994,-0.043473743,0.13632801,0.1236533,0.2000949,0.20001818,0.1999163,0.1999302,0.20004046,0
18824000,18744000,-2.5029364,3.488775,-2.5135365,-1.2573187,-0.00061071606,1.2564745,2.513329,-0.1552696,0.0077292803,0.1565662,0.085158944,-0.107796624,-0.06344676,-0.16661994,-0.043473743,0.13632801,0.1236533,0.2000949,0.20001818,0.1999163,0.1999302,0.20004046,0
18832000,18752000,-2.5029426,3.4887755,-2.5135276,-1.2573102,-0.00060201244,1.2564832,2.5133379,-0.1552696,0.0077292803,0.1565662,0.085158944,-0.107796624,-0.06344676,-0.16661994,-0.043473743,0.13632801,0.1236533,0.2000949,0.20001818,0.1999163,0.1999302,0.20004046,0
18840000,18760000,-2.5029776,3.488775,-2.5135243,-1.2573068,-0.0005987,1.2564865,2.5133412,-0.1552696,0.0077292803,0.1565662,0.085158944,-0.107796624,-0.06344676,-0.16661994,-0.043473743,0.13632801,0.1236533,0.2000949,0.20001818,0.1999163,0.1999302,0.20004046,0
18848000,18768000,-2.5029497,3.4887757,-2.5134907,-1.2572731,-0.0005649963,1.2565203,2.5133748,-0.1552696,0.0077292803,0.1565662,0.085158944,-0.107796624,-0.06344676,-0.16661994,-0.043473743,0.13632801,0.1236533,0.2000949,0.20001818,0.1999163,0.1999302,0.20004046,0
18856000,18776000,-2.5028872,3.4887774,-2.5134957,-1.2572781,-0.0005700343,1.2565153,2.5133698,-0.1552696,0.0077292803,0.1565662,0.085158944,-0.107796624,-0.06344676,-0.16661994,-0.043473743,0.13632801,0.1236533,0.2000949,0.20001818,0.1999163,0.1999302,0.20004046,0
18864000,18784000,-2.503005,3.4887757,-2.5134945,-1.2572768,-0.000568683,1.2565166,2.5133712,-0.1552696,0.0077292803,0.1565662,0.085158944,-0.107796624,-0.06344676,-0.16661994,-0.043473743,0.13632801,0.1236533,0.2000949,0.20001818,0.1999163,0.1999302,0.20004046,0
18872000,18792000,-2.5029364,3.4887784,-2.513517,-1.2572992,-0.00059115235,1.256494,2.5133486,-0.1552696,0.0077292803,0.1565662,0.085158944,-0.107796624,-0.06344676,-0.16661994,-0.043473743,0.13632801,0.1236533,0.2000949,0.20001818,0.1999163,0.1999302,0.20004046,0
18880000,18800000,-2.5029771,3.488778,-2.513526,-1.2573085,-0.00060031767,1.256485,2.5133395,-0.1552696,0.0077292803,0.1565662,0.085158944,-0.107796624,-0.06344676,-0.16661994,-0.043473743,0.13632801,0.1236533,0.2000949,0.20001818,0.1999163,0.1999302,0.20004046,0
18888000,18808000,-2.503026,3.488778,-2.5135415,-1.2573239,-0.00061573845,1.2564695,2.513324,-0.1552696,0.0077292803,0.1565662,0.085158944,-0.107796624,-0.06344676,-0.16661994,-0.043473743,0.13632801,0.1236533,0.2000949,0.20001818,0.1999163,0.1999302,0.20004046,0
18896000,18816000,-2.5030122,3.4887788,-2.5135443,-1.2573267,-0.00061861746,1.2564666,2.5133212,-0.1552696,0.0077292803,0.1565662,0.085158944,-0.107796624,-0.06344676,-0.16661994,-0.043473743,0.13632801,0.1236533,0.2000949,0.20001818,0.1999163,0.1999302,0.20004046,0
18904000,18824000,-2.5029843,3.4887805,-2.5135531,-1.2573355,-0.00062741863,1.2564578,2.5133123,-0.1552696,0.0077292803,0.1565662,0.085158944,-0.107796624,-0.06344676,-0.16661994,-0.043473743,0.13632801,0.1236533,0.2000949,0.20001818,0.1999163,0.1999302,0.20004046,0
18912000,18832000,-2.5031161,3.4887786,-2.5135663,-1.2573484,-0.00064034667,1.2564449,2.5132995,-0.1552696,0.0077292803,0.1565662,0.085158944,-0.107796624,-0.06344676,-0.16661994,-0.043473743,0.13632801,0.1236533,0.2000949,0.20001818,0.1999163,0.1999302,0.20004046,0
18920000,18840000,-2.5030885,3.4887798,-2.5135622,-1.2573444,-0.00063630485,1.256449,2.5133035,-0.1552696,0.0077292803,0.1565662,0.085158944,-0.107796624,-0.06344676,-0.16661994,-0.043473743,0.13632801,0.1236533,0.2000949,0.20001818,0.1999163,0.1999302,0.20004046,0
18928000,18848000,-2.5029843,3.4887826,-2.5135553,-1.2573376,-0.000629506,1.2564557,2.5133104,-0.1552696,0.0077292803,0.1565662,0.085158944,-0.107796624,-0.06344676,-0.16661994,-0.043473743,0.13632801,0.1236533,0.2000949,0.20001818,0.1999163,0.1999302,0.20004046,0
18936000,18856000,-2.503047,3.4887817,-2.5135503,-1.2573326,-0.0006245041,1.2564607,2.5133152,-0.1552696,0.0077292803,0.1565662,0.085158944,-0.107796624,-0.06344676,-0.16661994,-0.043473743,0.13632801,0.1236533,0.2000949,0.20001818,0.1999163,0.1999302,0.20004046,0
18944000,18864000,-2.5031028,3.4887812,-2.5135546,-1.2573366,-0.0006286257,1.2564566,2.5133111,-0.1552696,0.0077292803,0.1565662,0.085158944,-0.107796624,-0.06344676,-0.16661994,-0.043473743,0.13632801,0.1236533,0.2000949,0.20001818,0.1999163,0.1999302,0.20004046,0
18952000,18872000,-2.502992,3.4887843,-2.5135527,-1.257335,-0.00062689424,1.2564583,2.5133128,-0.1552696,0.0077292803,0.1565662,0.085158944,-0.107796624,-0.06344676,-0.16661994,-0.043473743,0.13632801,0.1236533,0.2000949,0.20001818,0.1999163,0.1999302,0.20004046,0
18960000,18880000,-2.5031507,3.488782,-2.5135732,-1.2573552,-0.00064716017,1.256438,2.5132926,-0.1552696,0.0077292803,0.1565662,0.085158944,-0.107796624,-0.06344676,-0.16661994,-0.043473743,0.13632801,0.1236533,0.2000949,0.20001818,0.1999163,0.1999302,0.20004046,0
18968000,18888000,-2.503123,3.488783,-2.5135868,-1.2573689,-0.0006608372,1.2564244,2.513279,-0.1552696,0.0077292803,0.1565662,0.085158944,-0.107796624,-0.06344676,-0.16661994,-0.043473743,0.13632801,0.1236533,0.2000949,0.20001818,0.1999163,0.1999302,0.20004046,0
18976000,18896000,-2.503109,3.4887848,-2.5136168,-1.2573991,-0.00069098914,1.2563943,2.513249,-0.1552696,0.0077292803,0.1565662,0.085158944,-0.107796624,-0.06344676,-0.16661994,-0.043473743,0.13632801,0.1236533,0.2000949,0.20001818,0.1999163,0.1999302,0.20004046,0
18984000,18904000,-2.5031023,3.4887865,-2.513651,-1.257433,-0.0007250716,1.2563602,2.5132148,-0.1552696,0.0077292803,0.1565662,0.085158944,-0.107796624,-0.06344676,-0.16661994,-0.043473743,0.13632801,0.1236533,0.2000949,0.20001818,0.1999163,0.1999302,0.20004046,0
18992000,18912000,-2.503158,3.488786,-2.51365,-1.2574322,-0.000724146,1.256361,2.5132155,-0.1552696,0.0077292803,0.1565662,0.085158944,-0.107796624,-0.06344676,-0.16661994,-0.043473743,0.13632801,0.1236533,0.2000949,0.20001818,0.1999163,0.1999302,0.20004046,0
19000000,18920000,-2.5031781,3.4887857,-2.5136483,-1.2574306,-0.00072245556,1.2563628,2.5132174,-0.1552696,0.0077292803,0.1565662,0.085158944,-0.107796624,-0.06344676,-0.16661994,-0.043473743,0.13632801,0.1236533,0.2000949,0.20001818,0.1999163,0.1999302,0.20004046,0
19008000,18928000,-3.044056,3.716822,-2.5154521,-1.2607856,-0.0010190501,1.2595149,2.515432,-0.15329018,0.015567753,0.17434843,0.10351744,-0.0990127,-0.06199891,-0.17400599,-0.048010096,0.14196499,0.1332405,0.20194946,0.1994693,0.1977306,0.19911881,0.20173183,0
