timestamp,timestamp_sample,ref_timestamp,ref_lat,ref_lon,x,y,z,delta_xy[0],delta_xy[1],delta_z,vx,vy,vz,z_deriv,delta_vxy[0],delta_vxy[1],delta_vz,ax,ay,az,heading,delta_heading,ref_alt,dist_bottom,eph,epv,evh,evv,vxy_max,vz_max,hagl_min,hagl_max,xy_valid,z_valid,v_xy_valid,v_z_valid,xy_reset_counter,z_reset_counter,vxy_reset_counter,vz_reset_counter,heading_reset_counter,heading_good_for_control,xy_global,z_global,dist_bottom_valid,dist_bottom_sensor_bitfield,dead_reckoning
3704000,3704000,0,nan,nan,0.001885239,0.001221986,-0.0066358596,-3.1109433e-08,4.019123e-09,0.0,0.0059150322,0.005915844,-0.022762781,-0.01819455,-5.1849056e-06,6.6985376e-07,0.0017844737,0.012010175,-0.007197668,-0.043572854,1.6196117,-0.0046821875,nan,0.10656346,0.013124921,5.7735023,0.10414286,0.025052454,inf,inf,inf,inf,0,0,0,0,1,1,1,1,1,0,0,0,0,0,1
4200000,4200000,0,nan,nan,0.00057263195,0.0023861448,-0.048996903,-3.1109433e-08,4.019123e-09,0.0,-6.4146196e-05,0.007949932,-0.018625481,-0.048286844,-5.1849056e-06,6.6985376e-07,0.0017844737,0.012059943,0.021515107,0.012235715,1.6219263,-0.0046821875,nan,0.1,0.026123557,1.6517783,0.1595845,0.06171825,inf,inf,inf,inf,0,1,0,1,1,1,1,1,1,0,0,0,0,0,1
4704000,4704000,4204000,47.3977508,8.5456073,0.00020929173,0.0015724915,-0.06021846,-3.1109433e-08,4.019123e-09,0.0,0.0032445348,0.0027045591,-0.020799132,-0.040157788,-5.1849056e-06,6.6985376e-07,0.0017844737,0.0054494007,0.015520112,-0.020275822,1.6266551,-0.0046821875,488.03537,0.10976299,0.013649395,0.95334256,0.08146435,0.088156715,inf,inf,inf,inf,0,1,0,1,1,1,1,1,1,0,1,1,0,0,1
5200000,5200000,4204000,47.3977508,8.5456073,0.0006408173,-0.0005676042,-0.057872027,-3.1109433e-08,4.019123e-09,0.0,0.0010032781,-0.0013774135,-0.01824942,-0.02017133,-5.1849056e-06,6.6985376e-07,0.0017844737,-0.00198053,-0.02782524,0.030786728,1.62741,-0.0046821875,488.03537,0.11210154,0.017218353,0.7563428,0.07351414,0.09111029,inf,inf,inf,inf,0,1,0,1,1,1,1,1,1,0,1,1,0,0,1
5704000,5704000,4204000,47.3977508,8.5456073,-0.0016302417,-0.0010216065,-0.052688472,-3.1109433e-08,4.019123e-09,0.0,-0.004528763,-0.0017958197,-0.015067896,-0.005927706,-5.1849056e-06,6.6985376e-07,0.0017844737,0.016513323,-0.016343037,-0.01923274,1.6257223,-0.0046821875,488.03537,0.10881847,0.021027258,0.6476212,0.07159987,0.095334664,inf,inf,inf,inf,0,1,0,1,1,1,1,1,1,0,1,1,0,0,1
6200000,6200000,4204000,47.3977508,8.5456073,-0.0012716684,-0.00081376114,-0.050049722,-3.1109433e-08,4.019123e-09,0.0,-0.0013201537,-0.0020160826,-0.01199832,0.00025776654,-5.1849056e-06,6.6985376e-07,0.0017844737,-0.021539161,-0.02604519,-0.012686475,1.6260785,-0.0046821875,488.03537,0.10556198,0.013355887,0.56846404,0.04808749,0.08645752,inf,inf,inf,inf,0,1,0,1,1,1,1,1,1,0,1,1,0,0,1
6704000,6704000,4204000,47.3977508,8.5456073,-0.00069912925,-0.0021837305,-0.04670259,-3.1109433e-08,4.019123e-09,0.0,-0.00299739,-0.006260315,-0.0075835576,0.0053707706,-5.1849056e-06,6.6985376e-07,0.0017844737,-0.03226532,-0.02707548,-0.00041071323,1.6235727,-0.0046821875,488.03537,0.10134378,0.016454462,0.5200827,0.051968955,0.08643045,inf,inf,inf,inf,0,1,0,1,1,1,1,1,1,0,1,1,0,0,1
7200000,7200000,4204000,47.3977508,8.5456073,-0.0024552378,-0.0018054956,-0.043142576,-3.1109433e-08,4.019123e-09,0.0,-0.009171206,-0.0022474965,-0.0027000594,0.009338061,-5.1849056e-06,6.6985376e-07,0.0017844737,-0.030959925,0.024818115,-0.011467374,1.62238,-0.0046821875,488.03537,0.101629406,0.01160271,0.4836414,0.04005501,0.08560097,inf,inf,inf,inf,0,1,0,1,1,1,1,1,1,0,1,1,0,0,1
7704000,7704000,4204000,47.3977508,8.5456073,-0.002974814,-9.363731e-05,-0.03844692,-3.1109433e-08,4.019123e-09,0.0,-0.0056731245,9.899285e-05,0.0007655558,0.011511705,-5.1849056e-06,6.6985376e-07,0.0017844737,-0.012236035,-0.01032713,0.0052228565,1.6178745,-0.0046821875,488.03537,0.1,0.014145885,0.45003477,0.04408638,0.0784247,inf,inf,inf,inf,0,1,0,1,1,1,1,1,1,0,1,1,0,0,1
8200000,8200000,4204000,47.3977508,8.5456073,-0.0010804838,-0.00016920517,-0.040083677,-3.1109433e-08,4.019123e-09,0.0,-0.002312135,-0.00269533,-0.0021023196,0.00311616,-5.1849056e-06,6.6985376e-07,0.0017844737,-0.014169795,0.010037852,-0.00014342366,1.6172701,-0.0046821875,488.03537,0.1,0.016895805,0.4277855,0.047824472,0.07831824,inf,inf,inf,inf,0,1,0,1,1,1,1,1,1,0,1,1,0,0,1
8704000,8704000,4204000,47.3977508,8.5456073,-0.0019773934,0.007508658,-0.0583945,0.00013157337,0.007882905,-0.02277365,-0.020161854,0.00026603928,0.05215537,0.054712012,-0.019127581,0.00087618234,0.051253423,0.020151025,-0.0011340306,0.019660218,1.6169538,-0.0046821875,488.03537,0.1,1.4148004,0.9280473,0.42452127,0.45008993,inf,inf,inf,inf,1,1,1,1,2,2,2,2,1,0,1,1,0,0,0
9200000,9200000,4204000,47.3977508,8.5456073,-0.0077675735,0.008494026,-0.044321053,0.00013157337,0.007882905,-0.02277365,-0.017735632,0.0034479352,0.034603797,0.024057634,-0.019127581,0.00087618234,0.051253423,0.008646893,0.035447344,-0.010864808,1.6179959,-0.0046821875,488.03537,0.1,1.0086266,0.6069623,0.30135074,0.3170478,inf,inf,inf,inf,1,1,1,1,2,2,2,2,1,0,1,1,0,0,0
9704000,9704000,4204000,47.3977508,8.5456073,-0.0056566866,0.0046687843,-0.04977952,0.00013157337,0.007882905,-0.02277365,-0.0129629895,0.00041843788,0.01835838,0.0016893034,-0.019127581,0.00087618234,0.051253423,-0.0072722463,0.01089269,0.024341045,1.6188486,-0.0046821875,488.03537,0.1,0.83569074,0.49698704,0.25036573,0.25724438,inf,inf,inf,inf,1,1,1,1,2,2,2,2,1,0,1,1,0,0,0
10200000,10200000,4204000,47.3977508,8.5456073,-0.010181599,0.005728049,-0.053183254,0.00013157337,0.007882905,-0.02277365,-0.013598923,0.00096201716,0.009088113,-0.006091159,-0.019127581,0.00087618234,0.051253423,-0.021391198,0.0026286433,0.0046994532,1.6207381,-0.0046821875,488.03537,0.1,0.7392811,0.4498029,0.22582357,0.22128116,inf,inf,inf,inf,1,1,1,1,2,2,2,2,1,0,1,1,0,0,0
10704000,10704000,4204000,47.3977508,8.5456073,-0.0042458675,0.011008298,-0.05415139,0.00013157337,0.007882905,-0.02277365,-0.0055375006,0.0048996536,0.009183278,-0.0017157351,-0.019127581,0.00087618234,0.051253423,-0.030642068,0.02383026,-0.0021541489,1.620203,-0.0046821875,488.03537,0.10241927,0.60841364,0.38335297,0.193109,0.17724372,inf,inf,inf,inf,1,1,1,1,2,2,2,2,1,0,1,1,0,0,0
11200000,11200000,4204000,47.3977508,8.5456073,-0.00072636537,0.009168608,-0.04765234,0.00013157337,0.007882905,-0.02277365,-0.00047433237,0.0009862678,0.017195828,0.010363056,-0.019127581,0.00087618234,0.051253423,0.015974335,-0.011342766,0.029067507,1.6207726,-0.0046821875,488.03537,0.1,0.5801858,0.3745169,0.1966094,0.16334656,inf,inf,inf,inf,1,1,1,1,2,2,2,2,1,0,1,1,0,0,0
11704000,11704000,4204000,47.3977508,8.5456073,0.004163113,0.0055864737,-0.039617136,0.00013157337,0.007882905,-0.02277365,0.0050445017,-0.0029404606,0.025235828,0.018678602,-0.019127581,0.00087618234,0.051253423,0.003081499,-0.018746417,0.0155456355,1.6211114,-0.0046821875,488.03537,0.1,0.56356937,0.36951363,0.20692979,0.15261137,inf,inf,inf,inf,1,1,1,1,2,2,2,2,1,0,1,1,0,0,0
12200000,12200000,4204000,47.3977508,8.5456073,0.004205604,0.004250029,-0.036377862,0.00013157337,0.007882905,-0.02277365,0.0059275273,-0.004709907,0.025354167,0.0139884325,-0.019127581,0.00087618234,0.051253423,0.02636964,-0.007278082,0.0076945866,1.6212459,-0.0046821875,488.03537,0.1,0.55528885,0.3687744,0.22034226,0.1448104,inf,inf,inf,inf,1,1,1,1,2,2,2,2,1,0,1,1,0,0,0
12704000,12704000,4204000,47.3977508,8.5456073,0.0021998647,0.005620829,-0.039818235,0.00013157337,0.007882905,-0.02277365,-0.0007788978,-0.0016149748,0.025348019,0.005517856,-0.019127581,0.00087618234,0.051253423,-0.04106815,-0.026456952,0.04029646,1.6209031,-0.0046821875,488.03537,0.1,0.50472736,0.3403871,0.20533806,0.12983939,inf,inf,inf,inf,1,1,1,1,2,2,2,2,1,0,1,1,0,0,0
13200000,13200000,4204000,47.3977508,8.5456073,-0.00016992114,0.008535329,-0.042395603,0.00013157337,0.007882905,-0.02277365,-0.0024548408,0.0008258755,0.025411814,0.0024110614,-0.019127581,0.00087618234,0.051253423,-0.026282592,-0.0029223736,0.007358379,1.6207457,-0.0046821875,488.03537,0.1,0.50676554,0.34152254,0.21644706,0.12669839,inf,inf,inf,inf,1,1,1,1,2,2,2,2,1,0,1,1,0,0,0
13704000,13704000,4204000,47.3977508,8.5456073,-0.0079059545,0.009920625,-0.04185025,0.00013157337,0.007882905,-0.02277365,-0.009049802,0.004342737,0.024433926,0.0012679662,-0.019127581,0.00087618234,0.051253423,0.014150514,-0.022832055,-0.0059651206,1.6220962,-0.0046821875,488.03537,0.1,0.5138179,0.34556335,0.22695258,0.12529406,inf,inf,inf,inf,1,1,1,1,2,2,2,2,1,0,1,1,0,0,0
14200000,14200000,4204000,47.3977508,8.5456073,-0.0148639,0.010920288,-0.042164978,0.00013157337,0.007882905,-0.02277365,-0.010485902,0.0044638123,0.02470556,0.0018068838,-0.019127581,0.00087618234,0.051253423,0.0237583,0.015188502,0.012592412,1.6220875,-0.0046821875,488.03537,0.10023193,0.5232529,0.3494109,0.2351742,0.124827735,inf,inf,inf,inf,1,1,1,1,2,2,2,2,1,0,1,1,0,0,0
14704000,14704000,4204000,47.3977508,8.5456073,-0.008626134,0.00904768,-0.03950234,0.00013157337,0.007882905,-0.02277365,-0.005681454,0.005472752,0.023693664,0.0029117442,-0.019127581,0.00087618234,0.051253423,-0.007168724,-0.032352805,0.02256315,1.6210555,-0.0046821875,488.03537,0.1,0.48254994,0.32801622,0.20899615,0.11773038,inf,inf,inf,inf,1,1,1,1,2,2,2,2,1,0,1,1,0,0,0
15200000,15200000,4204000,47.3977508,8.5456073,0.0005812029,0.006135856,-0.039484937,0.00013157337,0.007882905,-0.02277365,0.00029293325,0.0028305303,0.023590304,0.0016670534,-0.019127581,0.00087618234,0.051253423,0.032766573,0.00023098254,-0.0113910055,1.6199993,-0.0046821875,488.03537,0.1,0.49249956,0.3327073,0.21406382,0.11890015,inf,inf,inf,inf,1,1,1,1,2,2,2,2,1,0,1,1,0,0,0
15704000,15704000,4204000,47.3977508,8.5456073,0.0030385812,0.0032288744,-0.03935639,0.00013157337,0.007882905,-0.02277365,0.0018111134,0.0012659255,0.026107987,0.003504511,-0.019127581,0.00087618234,0.051253423,0.015876692,-0.03060688,0.015066936,1.6195369,-0.0046821875,488.03537,0.10035037,0.50495213,0.33698082,0.21889839,0.1203669,inf,inf,inf,inf,1,1,1,1,2,2,2,2,1,0,1,1,0,0,0
16200000,16200000,4204000,47.3977508,8.5456073,0.0027725715,0.0019552803,-0.036303423,0.00013157337,0.007882905,-0.02277365,0.0037024105,0.0022425225,0.027599735,0.006483228,-0.019127581,0.00087618234,0.051253423,0.026578737,-0.011116644,0.022370366,1.6193146,-0.0046821875,488.03537,0.10022303,0.51750445,0.34262,0.22254118,0.122188576,inf,inf,inf,inf,1,1,1,1,2,2,2,2,1,0,1,1,0,0,0
16704000,16704000,4204000,47.3977508,8.5456073,0.0030797138,0.00549779,-0.03502449,0.00013157337,0.007882905,-0.02277365,0.0067292317,0.0030759848,0.031303715,0.008219675,-0.019127581,0.00087618234,0.051253423,-0.017099183,-0.011022274,-0.010470859,1.6188446,-0.0046821875,488.03537,0.1,0.47807756,0.32520416,0.1971294,0.11703593,inf,inf,inf,inf,1,1,1,1,2,2,2,2,1,0,1,1,0,0,0
17200000,17200000,4204000,47.3977508,8.5456073,0.0034068015,0.006253385,-0.03163046,0.00013157337,0.007882905,-0.02277365,0.009707526,0.0035570667,0.033802457,0.009885439,-0.019127581,0.00087618234,0.051253423,0.012133153,0.034107823,0.022650694,1.6181704,-0.0046821875,488.03537,0.1,0.4893679,0.3298236,0.20035604,0.11879033,inf,inf,inf,inf,1,1,1,1,2,2,2,2,1,0,1,1,0,0,0
17704000,17704000,4204000,47.3977508,8.5456073,0.0033921176,0.006274287,-0.026503792,0.00013157337,0.007882905,-0.02277365,0.007881253,0.0007506973,0.03295226,0.009458171,-0.019127581,0.00087618234,0.051253423,-0.017671423,0.01160019,-0.0097425645,1.6167219,-0.0046821875,488.03537,0.1,0.5023388,0.33687416,0.20392138,0.12096281,inf,inf,inf,inf,1,1,1,1,2,2,2,2,1,0,1,1,0,0,0
18200000,18200000,4204000,47.3977508,8.5456073,0.0002684086,0.0035998728,-0.02765566,0.00013157337,0.007882905,-0.02277365,0.009807795,0.0030877052,0.034062866,0.006571084,-0.019127581,0.00087618234,0.051253423,0.018850477,-0.01571991,0.015676951,1.6167822,-0.0046821875,488.03537,0.10346841,0.5148243,0.3435405,0.20688818,0.12290364,inf,inf,inf,inf,1,1,1,1,2,2,2,2,1,0,1,1,0,0,0
18704000,18704000,4204000,47.3977508,8.5456073,0.00045573612,0.003978224,-0.026027767,0.00013157337,0.007882905,-0.02277365,0.013920942,0.00471967,0.03541114,0.007277959,-0.019127581,0.00087618234,0.051253423,0.025339248,-0.029716596,0.008497386,1.6162826,-0.0046821875,488.03537,0.10184052,0.47673422,0.32502833,0.18552873,0.11718238,inf,inf,inf,inf,1,1,1,1,2,2,2,2,1,0,1,1,0,0,0
19200000,19200000,4204000,47.3977508,8.5456073,-0.00027946327,0.004033526,-0.023502884,0.00013157337,0.007882905,-0.02277365,0.014304674,0.0026118034,0.032447364,0.0037728655,-0.019127581,0.00087618234,0.051253423,-0.01363689,-0.0008553324,-0.14779343,1.6154859,-0.0046821875,488.03537,0.100153044,0.48785233,0.3301963,0.18874198,0.11876392,inf,inf,inf,inf,1,1,1,1,2,2,2,2,1,0,1,1,0,0,0
19704000,19704000,4204000,47.3977508,8.5456073,-0.01621904,-0.0056900196,-0.06561842,0.00013157337,0.007882905,-0.02277365,-0.1232068,-0.10532177,-0.18891624,-0.21492349,-0.019127581,0.00087618234,0.051253423,-0.5072406,-0.60367066,-0.77596766,1.6240839,-0.0046821875,488.03537,0.14470863,0.50044405,0.3376803,0.19336113,0.12075816,inf,inf,inf,inf,1,1,1,1,2,2,2,2,1,0,1,1,0,0,0
20200000,20200000,4204000,47.3977508,8.5456073,-0.094641216,-0.08210948,-0.28045034,0.00013157337,0.007882905,-0.02277365,-0.16787268,-0.15479985,-0.5835693,-0.6088835,-0.019127581,0.00087618234,0.051253423,0.12479393,0.10936555,-0.13458449,1.6226522,-0.0046821875,488.03537,0.35954055,0.5126509,0.34463534,0.19922632,0.12253058,inf,inf,inf,inf,1,1,1,1,2,2,2,2,1,0,1,1,0,0,0
20704000,20704000,4204000,47.3977508,8.5456073,-0.18547678,-0.14739312,-0.5929194,0.00013157337,0.007882905,-0.02277365,-0.076842606,-0.07550234,-0.61617404,-0.64488083,-0.019127581,0.00087618234,0.051253423,0.26655692,0.18342765,-0.11872872,1.6210455,-0.0046821875,488.03537,0.67200965,0.47570527,0.3259252,0.17973307,0.11659801,inf,inf,inf,inf,1,1,1,1,2,2,2,2,1,0,1,1,0,0,0
21200000,21200000,4204000,47.3977508,8.5456073,-0.21617177,-0.1700958,-0.92804396,0.00013157337,0.007882905,-0.02277365,0.028661957,0.015741985,-0.6519227,-0.6838693,-0.019127581,0.00087618234,0.051253423,0.19676787,0.16033931,-0.017240642,1.6192749,-0.0046821875,488.03537,1.0071342,0.48655847,0.3325324,0.18303195,0.11833813,inf,inf,inf,inf,1,1,1,1,2,2,2,2,1,0,1,1,0,0,0
21704000,21704000,4204000,47.3977508,8.5456073,-0.2022266,-0.15145518,-1.2721286,0.00013157337,0.007882905,-0.02277365,0.09511864,0.07253778,-0.6365888,-0.6689368,-0.019127581,0.00087618234,0.051253423,0.068434745,0.08800784,0.11580716,1.6187375,-0.0046821875,488.03537,1.3512188,0.49875247,0.3383924,0.18659821,0.11994513,inf,inf,inf,inf,1,1,1,1,2,2,2,2,1,0,1,1,0,0,0
22200000,22200000,4204000,47.3977508,8.5456073,-0.16177657,-0.116053626,-1.5908495,0.00013157337,0.007882905,-0.02277365,0.1187813,0.086014934,-0.58237803,-0.6131674,-0.019127581,0.00087618234,0.051253423,0.011874624,0.006307542,0.1523001,1.6178617,-0.0046821875,488.03537,1.6699398,0.51034117,0.3451212,0.18967335,0.12164458,inf,inf,inf,inf,1,1,1,1,2,2,2,2,1,0,1,1,0,0,0
22704000,22704000,4204000,47.3977508,8.5456073,-0.112120405,-0.07438791,-1.8769735,0.00013157337,0.007882905,-0.02277365,0.110553056,0.080921076,-0.4460505,-0.4757722,-0.019127581,0.00087618234,0.051253423,-0.029791974,-0.043529868,0.84287107,1.6201233,-0.0013045075,488.03537,1.9560637,0.47471204,0.3261412,0.2110303,0.115749635,inf,inf,inf,inf,1,1,1,1,2,2,2,2,2,0,1,1,0,0,0
23200000,23200000,4204000,47.3977508,8.5456073,-0.06101247,-0.030889519,-2.0079377,0.00013157337,0.007882905,-0.02277365,0.088448994,0.06546981,-0.13634986,-0.1702503,-0.019127581,0.00087618234,0.051253423,-0.07796676,-0.06294032,-0.14456081,1.6207685,-0.0013045075,488.03537,2.0870278,0.48450968,0.33253193,0.28869772,0.11752771,inf,inf,inf,inf,1,1,1,1,2,2,2,2,2,0,1,1,0,0,0
23704000,23704000,4204000,47.3977508,8.5456073,-0.022172173,0.002681211,-2.1149106,0.00013157337,0.007882905,-0.02277365,0.052401364,0.04320458,-0.17120022,-0.20749743,-0.019127581,0.00087618234,0.051253423,-0.07030082,-0.03823359,0.069426365,1.6206905,-0.0013045075,488.03537,2.1940007,0.49908164,0.33971283,0.33662605,0.11951151,inf,inf,inf,inf,1,1,1,1,2,2,2,2,2,1,1,1,0,0,0
24200000,24200000,4204000,47.3977508,8.5456073,-0.0046977666,0.020713022,-2.2112362,0.00013157337,0.007882905,-0.02277365,0.024712812,0.017367687,-0.13651593,-0.17275712,-0.019127581,0.00087618234,0.051253423,-0.07664972,-0.037871357,0.098169774,1.6211854,-0.0013045075,488.03537,2.2903264,0.5163294,0.34460983,0.34782335,0.120989375,inf,inf,inf,inf,1,1,1,1,2,2,2,2,2,1,1,1,0,0,0
24704000,24704000,4204000,47.3977508,8.5456073,-0.01768881,0.0045211795,-2.3008106,0.00013157337,0.007882905,-0.02277365,-0.00072312716,-0.008655991,-0.097068064,-0.14149426,-0.019127581,0.00087618234,0.051253423,0.021996353,-0.018523844,0.0925986,1.6195024,-0.0013045075,488.03537,2.3799007,0.4748339,0.32696494,0.26947582,0.11553019,inf,inf,inf,inf,1,1,1,1,2,2,2,2,2,1,1,1,0,0,0
25200000,25200000,4204000,47.3977508,8.5456073,-0.023386402,-0.015127038,-2.3585176,0.00013157337,0.007882905,-0.02277365,0.0027324136,-0.0077306055,-0.06983051,-0.109514795,-0.019127581,0.00087618234,0.051253423,0.0118817985,0.01011329,0.010340474,1.6209426,-0.0013045075,488.03537,2.4376078,0.48794487,0.33181617,0.26709548,0.117138356,inf,inf,inf,inf,1,1,1,1,2,2,2,2,2,1,1,1,0,0,0
25704000,25704000,4204000,47.3977508,8.5456073,-0.023602461,-0.020491188,-2.4047358,0.00013157337,0.007882905,-0.02277365,0.005546134,0.0070989775,-0.050977375,-0.08698256,-0.019127581,0.00087618234,0.051253423,0.020450547,-0.0116591975,0.046529803,1.6208448,-0.0013045075,488.03537,2.483826,0.5032466,0.33896342,0.26333284,0.11923172,inf,inf,inf,inf,1,1,1,1,2,2,2,2,2,1,1,1,0,0,0
26200000,26200000,4204000,47.3977508,8.5456073,-0.024755962,-0.023631569,-2.4478395,0.00013157337,0.007882905,-0.02277365,0.0037569525,0.011261607,-0.026791792,-0.06649038,-0.019127581,0.00087618234,0.051253423,-0.000767337,0.030939568,0.06964988,1.6210634,-0.0013045075,488.03537,2.5269296,0.5178856,0.3439154,0.25782508,0.12082136,inf,inf,inf,inf,1,1,1,1,2,2,2,2,2,1,1,1,0,0,0
26704000,26704000,4204000,47.3977508,8.5456073,-0.012845611,-0.021742979,-2.487912,0.00013157337,0.007882905,-0.02277365,0.0072087706,0.017173111,-0.0061826683,-0.054567993,-0.019127581,0.00087618234,0.051253423,-0.033110566,-0.024820313,0.07589254,1.6208112,-0.0013045075,488.03537,2.567002,0.47693372,0.3264628,0.21511008,0.11548253,inf,inf,inf,inf,1,1,1,1,2,2,2,2,2,1,1,1,0,0,0
27200000,27200000,4204000,47.3977508,8.5456073,-0.01040385,-0.011695304,-2.5104244,0.00013157337,0.007882905,-0.02277365,-0.0004647253,0.016944991,0.010488859,-0.03694982,-0.019127581,0.00087618234,0.051253423,-0.02015165,0.0063314214,0.03932975,1.621039,-0.0013045075,488.03537,2.5895145,0.4890782,0.3328135,0.21283592,0.1174139,inf,inf,inf,inf,1,1,1,1,2,2,2,2,2,1,1,1,0,0,0
27704000,27704000,4204000,47.3977508,8.5456073,-0.007901139,-0.0009374037,-2.5245183,0.00013157337,0.007882905,-0.02277365,-0.004951688,0.012538741,0.018363224,-0.026450638,-0.019127581,0.00087618234,0.051253423,-0.017897371,-0.012052303,0.030873341,1.6211323,-0.0013045075,488.03537,2.6036084,0.5025344,0.3384173,0.21108477,0.119217984,inf,inf,inf,inf,1,1,1,1,2,2,2,2,2,1,1,1,0,0,0
28200000,28200000,4204000,47.3977508,8.5456073,-0.0002417985,0.013927744,-2.536627,0.00013157337,0.007882905,-0.02277365,-0.005766078,0.00787849,0.025035294,-0.018626444,-0.019127581,0.00087618234,0.051253423,-0.013292766,-0.02029573,-0.019888392,1.6208353,-0.0013045075,488.03537,2.6157172,0.5150392,0.34500176,0.20913516,0.12112837,inf,inf,inf,inf,1,1,1,1,2,2,2,2,2,1,1,1,0,0,0
28704000,28704000,4204000,47.3977508,8.5456073,0.0025692459,0.012347974,-2.5611145,0.00013157337,0.007882905,-0.02277365,-0.009773771,-0.0064918925,0.034730513,-0.021545678,-0.019127581,0.00087618234,0.051253423,0.01564587,-0.044727243,0.056875866,1.6204274,-0.0013045075,488.03537,2.6402047,0.47684878,0.32598987,0.18373837,0.115469165,inf,inf,inf,inf,1,1,1,1,2,2,2,2,2,1,1,1,0,0,0
29200000,29200000,4204000,47.3977508,8.5456073,0.007881235,0.012855822,-2.5796719,0.00013157337,0.007882905,-0.02277365,-0.011645338,-0.008504649,0.046737086,-0.01849225,-0.019127581,0.00087618234,0.051253423,0.009047129,-0.034937926,0.08995737,1.6206313,-0.0013045075,488.03537,2.658762,0.487704,0.33236268,0.18392317,0.117394306,inf,inf,inf,inf,1,1,1,1,2,2,2,2,2,1,1,1,0,0,0
29704000,29704000,4204000,47.3977508,8.5456073,0.0054621757,0.014861262,-2.581018,0.00013157337,0.007882905,-0.02277365,-0.0137746725,-0.009512234,0.05758618,-0.002518445,-0.019127581,0.00087618234,0.051253423,0.0042522587,-0.019765617,0.02966076,1.6208367,-0.0013045075,488.03537,2.660108,0.4996517,0.33811253,0.1849759,0.119227506,inf,inf,inf,inf,1,1,1,1,2,2,2,2,2,1,1,1,0,0,0
30200000,30200000,4204000,47.3977508,8.5456073,0.0037018785,0.01368796,-2.580163,0.00013157337,0.007882905,-0.02277365,-0.011450759,-0.013022873,0.053039953,-0.002560264,-0.019127581,0.00087618234,0.051253423,0.024682797,0.011902927,0.011249444,1.6212287,-0.0013045075,488.03537,2.6592531,0.51076645,0.34477967,0.18634854,0.12114021,inf,inf,inf,inf,1,1,1,1,2,2,2,2,2,1,1,1,0,0,0
30704000,30704000,4204000,47.3977508,8.5456073,0.0033225329,0.02348945,-2.5919056,0.00013157337,0.007882905,-0.02277365,-0.008951773,-0.013464267,0.054513738,-0.008984029,-0.019127581,0.00087618234,0.051253423,-0.016138116,-0.021220548,0.029244458,1.6205882,-0.0013045075,488.03537,2.6709957,0.4750334,0.32587698,0.16940345,0.11548154,inf,inf,inf,inf,1,1,1,1,2,2,2,2,2,1,1,1,0,0,0
31200000,31200000,4204000,47.3977508,8.5456073,0.0013627941,0.027484166,-2.5971224,0.00013157337,0.007882905,-0.02277365,-0.008705156,-0.016518788,0.06263895,-0.0024510475,-0.019127581,0.00087618234,0.051253423,0.000627464,-0.021229744,0.05116127,1.6204762,-0.0013045075,488.03537,2.6762125,0.48499525,0.33235687,0.17233154,0.11741906,inf,inf,inf,inf,1,1,1,1,2,2,2,2,2,1,1,1,0,0,0
31704000,31704000,4204000,47.3977508,8.5456073,-9.393111e-05,0.02860498,-2.5971258,0.00013157337,0.007882905,-0.02277365,-0.0063924105,-0.021443171,0.062804356,-0.000428173,-0.019127581,0.00087618234,0.051253423,-0.010701842,-0.020571196,0.024671664,1.620574,-0.0013045075,488.03537,2.676216,0.4961516,0.33814842,0.17624927,0.11924258,inf,inf,inf,inf,1,1,1,1,2,2,2,2,2,1,1,1,0,0,0
32200000,32200000,4204000,47.3977508,8.5456073,-0.0036718866,0.032364205,-2.5986013,0.00013157337,0.007882905,-0.02277365,-0.0044306014,-0.023548393,0.06592669,0.002952664,-0.019127581,0.00087618234,0.051253423,0.0086154025,0.017656652,0.02788007,1.6204116,-0.0013045075,488.03537,2.6776915,0.5067717,0.34487677,0.18036748,0.121156625,inf,inf,inf,inf,1,1,1,1,2,2,2,2,2,1,1,1,0,0,0
32704000,32704000,4204000,47.3977508,8.5456073,-0.0054659294,0.034068305,-2.609755,0.00013157337,0.007882905,-0.02277365,0.0010022476,-0.025597401,0.067428656,-0.004854555,-0.019127581,0.00087618234,0.051253423,0.0076598073,-0.009354014,0.053313557,1.6208485,-0.0013045075,488.03537,2.6888452,0.47275233,0.32599396,0.16711149,0.115490004,inf,inf,inf,inf,1,1,1,1,2,2,2,2,2,1,1,1,0,0,0
33200000,33200000,4204000,47.3977508,8.5456073,-0.011321329,0.03736633,-2.6116168,0.00013157337,0.007882905,-0.02277365,-0.0008178908,-0.029691195,0.20362748,0.12354964,-0.019127581,0.00087618234,0.051253423,-0.03587453,-0.054255575,1.4024404,1.6207701,-0.0013045075,488.03537,2.690707,0.4825261,0.3324878,0.1717023,0.11742078,inf,inf,inf,inf,1,1,1,1,2,2,2,2,2,1,1,1,0,0,0
33704000,33704000,4204000,47.3977508,8.5456073,-0.022772396,0.039288487,-2.3452394,0.00013157337,0.007882905,-0.02277365,-0.00031196873,-0.027956048,0.879471,0.7958198,-0.019127581,0.00087618234,0.051253423,0.06873977,0.055225518,-0.03222655,1.6209031,-0.0013045075,488.03537,2.4243295,0.49356383,0.3382089,0.17452134,0.11921419,inf,inf,inf,inf,1,1,1,1,2,2,2,2,2,1,1,1,0,0,0
34200000,34200000,4204000,47.3977508,8.5456073,-0.022167725,0.04094601,-1.9947321,0.00013157337,0.007882905,-0.02277365,0.014872008,-0.024076665,0.7280005,0.6522919,-0.019127581,0.00087618234,0.051253423,0.015482437,-0.0068720253,0.015573575,1.62123,-0.0013045075,488.03537,2.0738223,0.5043298,0.3448064,0.18081716,0.12108445,inf,inf,inf,inf,1,1,1,1,2,2,2,2,2,1,1,1,0,0,0
34704000,34704000,4204000,47.3977508,8.5456073,-0.022199824,0.05389625,-1.6644354,0.00013157337,0.007882905,-0.02277365,0.016057424,-0.024216114,0.74681395,0.6700316,-0.019127581,0.00087618234,0.051253423,0.017920174,-0.025181098,0.05122553,1.620948,-0.0013045075,488.03537,1.7435256,0.47121063,0.32718086,0.16855796,0.115644924,inf,inf,inf,inf,1,1,1,1,2,2,2,2,2,1,1,1,0,0,0
35200000,35200000,4204000,47.3977508,8.5456073,-0.024034489,0.060980577,-1.321733,0.00013157337,0.007882905,-0.02277365,0.015366398,-0.028814927,0.75906074,0.6877785,-0.019127581,0.00087618234,0.051253423,-0.012822565,-0.036110662,0.06969086,1.6209885,-0.0013045075,488.03537,1.4008232,0.48122838,0.3321244,0.17404976,0.117279395,inf,inf,inf,inf,1,1,1,1,2,2,2,2,2,1,1,1,0,0,0
35704000,35704000,4204000,47.3977508,8.5456073,-0.02851162,0.06660529,-0.9639553,0.00013157337,0.007882905,-0.02277365,0.015038673,-0.033958115,0.759535,0.6970779,-0.019127581,0.00087618234,0.051253423,0.025247935,-0.017391022,0.028001143,1.62116,-0.0013045075,488.03537,1.0430455,0.49279416,0.3393632,0.18003102,0.11938061,inf,inf,inf,inf,1,1,1,1,2,2,2,2,2,1,1,1,0,0,0
36200000,36200000,4204000,47.3977508,8.5456073,-0.033806365,0.0758697,-0.6076218,0.00013157337,0.007882905,-0.02277365,0.020577718,-0.03760281,0.75290185,0.70087165,-0.019127581,0.00087618234,0.051253423,0.019698257,-0.008906383,-0.006961636,1.6210649,-0.0013045075,488.03537,0.686712,0.50415415,0.34438172,0.18562105,0.120959625,inf,inf,inf,inf,1,1,1,1,2,2,2,2,2,1,1,1,0,0,0
36704000,36704000,4204000,47.3977508,8.5456073,-0.039971676,0.08890924,-0.25729868,0.00013157337,0.007882905,-0.02277365,0.020720458,-0.04379323,0.7487894,0.6959296,-0.019127581,0.00087618234,0.051253423,0.019266168,-0.043706164,0.02440065,1.620629,-0.0013045075,488.03537,0.3363889,0.47098356,0.32687432,0.17194329,0.115568615,inf,inf,inf,inf,1,1,1,1,2,2,2,2,2,1,1,1,0,0,0
37200000,37200000,4204000,47.3977508,8.5456073,-0.04681321,0.08885379,0.14040075,0.00013157337,0.007882905,-0.02277365,0.019657692,-0.048903048,1.0301867,0.98344606,-0.019127581,0.00087618234,0.051253423,0.107828945,0.039878793,-4.0940685,1.6209568,-0.0013045075,488.03537,0.1,0.48139504,0.33180177,0.17443104,0.116893016,inf,inf,inf,inf,1,1,1,1,2,2,2,2,2,1,1,1,0,0,0
37704000,37704000,4204000,47.3977508,8.5456073,-0.050571192,0.0882847,0.33369887,0.00013157337,0.007882905,-0.02277365,0.026959877,-0.04976264,0.73739964,0.56973386,-0.019127581,0.00087618234,0.051253423,0.017964935,-0.08702024,0.74394137,1.6210114,-0.0013045075,488.03537,0.1,0.49348164,0.3379876,0.2139642,0.11009728,inf,inf,inf,inf,1,1,1,1,2,2,2,2,2,1,1,1,0,0,0
38200000,38200000,4204000,47.3977508,8.5456073,-0.049324274,0.0831253,0.46742603,0.00013157337,0.007882905,-0.02277365,0.027374443,-0.052060105,0.99628276,0.67570895,-0.019127581,0.00087618234,0.051253423,0.033841044,-0.026781168,0.5180882,1.6206974,-0.0013045075,488.03537,0.1,0.5073258,0.34046745,0.27556136,0.105617985,inf,inf,inf,inf,1,1,1,1,2,2,2,2,2,1,1,1,0,0,0
38704000,38704000,4204000,47.3977508,8.5456073,-0.046342034,0.08717262,0.6160309,0.00013157337,0.007882905,-0.02277365,0.029189296,-0.044592924,1.1827054,0.6878458,-0.019127581,0.00087618234,0.051253423,0.015683165,-0.016455669,0.57835686,1.6205689,-0.0013045075,488.03537,0.1,0.4719392,0.3219565,0.26157817,0.09883151,inf,inf,inf,inf,1,1,1,1,2,2,2,2,2,1,1,1,0,0,0
39200000,39200000,4204000,47.3977508,8.5456073,-0.034065872,0.07882376,0.86729866,0.00013157337,0.007882905,-0.02277365,0.02943933,-0.046863653,1.3261665,0.7377957,-0.019127581,0.00087618234,0.051253423,-0.019504659,-0.008943039,0.6555197,1.6209185,-0.0013045075,488.03537,0.1,0.4846928,0.32359222,0.27802226,0.09955594,inf,inf,inf,inf,1,1,1,1,2,2,2,2,2,1,1,1,0,0,0
39704000,39704000,4204000,47.3977508,8.5456073,-0.01860498,0.07041276,1.1988268,0.00013157337,0.007882905,-0.02277365,0.023108266,-0.034084458,1.4122133,0.7906748,-0.019127581,0.00087618234,0.051253423,-0.012093921,-0.01612956,0.3000423,1.6204487,-0.0013045075,488.03537,0.1,0.5005897,0.32712653,0.28445953,0.10224327,inf,inf,inf,inf,1,1,1,1,2,2,2,2,2,1,1,1,0,0,0
40200000,40200000,4204000,47.3977508,8.5456073,-0.019749226,0.08693288,1.3002683,0.00013157337,0.007882905,-0.02277365,-0.008553666,0.040441424,0.7459263,0.1293163,-0.019127581,0.00087618234,0.051253423,-0.01358916,0.028560126,0.002639368,1.62096,-0.0013045075,488.03537,0.1,0.51635563,0.32886508,0.27295315,0.100145645,inf,inf,inf,inf,1,1,1,1,2,2,2,2,2,1,1,1,0,0,0
40704000,40704000,4204000,47.3977508,8.5456073,-0.025771022,0.08703891,1.2777436,0.00013157337,0.007882905,-0.02277365,-0.013724408,0.040601183,0.65209067,0.0046713315,-0.019127581,0.00087618234,0.051253423,-0.0029051297,-0.018006146,-0.006239861,1.6215558,-0.0013045075,488.03537,0.12537873,0.47575465,0.3126739,0.23157504,0.09292962,inf,inf,inf,inf,1,1,1,1,2,2,2,2,2,1,1,1,0,0,0
41200000,41200000,4204000,47.3977508,8.5456073,-0.028960573,0.08433108,1.2663809,0.00013157337,0.007882905,-0.02277365,-0.01547308,0.033192728,0.5776634,-0.056698762,-0.019127581,0.00087618234,0.051253423,-0.0069066877,0.037495468,0.016884876,1.6219522,-0.0013045075,488.03537,0.14689076,0.48808447,0.3155761,0.2503063,0.09267189,inf,inf,inf,inf,1,1,1,1,2,2,2,2,2,1,1,1,0,0,0
41704000,41704000,4204000,47.3977508,8.5456073,-0.03132938,0.07624581,1.2596556,0.00013157337,0.007882905,-0.02277365,-0.01885353,0.02381836,0.5125914,-0.082544796,-0.019127581,0.00087618234,0.051253423,-0.046937462,0.019800354,0.015497207,1.6224394,-0.0013045075,488.03537,0.15361607,0.5023592,0.31769916,0.26975238,0.09438062,inf,inf,inf,inf,1,1,1,1,2,2,2,2,2,1,1,1,0,0,0
42200000,42200000,4204000,47.3977508,8.5456073,-0.03510169,0.07113038,1.2485859,0.00013157337,0.007882905,-0.02277365,-0.02102006,0.021396188,0.45479408,-0.09194572,-0.019127581,0.00087618234,0.051253423,0.015109719,0.047125343,0.022902152,1.622212,-0.0013045075,488.03537,0.16468573,0.51681805,0.31963366,0.28224075,0.09756984,inf,inf,inf,inf,1,1,1,1,2,2,2,2,2,1,1,1,0,0,0
42704000,42704000,4204000,47.3977508,8.5456073,-0.034072053,0.06279461,1.1763004,0.00013157337,0.007882905,-0.02277365,-0.01847601,0.01206858,0.38125908,-0.16238546,-0.019127581,0.00087618234,0.051253423,-0.015431781,0.008320726,0.015219673,1.6225989,-0.0013045075,488.03537,0.23697126,0.4766992,0.30584058,0.23928106,0.09790267,inf,inf,inf,inf,1,1,1,1,2,2,2,2,2,1,1,1,0,0,0
43200000,43200000,4204000,47.3977508,8.5456073,-0.036109537,0.059781406,1.1156175,0.00013157337,0.007882905,-0.02277365,-0.017815728,0.0074170763,0.31986412,-0.19420098,-0.019127581,0.00087618234,0.051253423,0.008819654,-8.130154e-05,0.012569129,1.6226803,-0.0013045075,488.03537,0.29765415,0.48865864,0.3093437,0.24269971,0.10267876,inf,inf,inf,inf,1,1,1,1,2,2,2,2,2,1,1,1,0,0,0
43704000,43704000,4204000,47.3977508,8.5456073,-0.031518903,0.059290595,1.0538448,0.00013157337,0.007882905,-0.02277365,-0.012838595,0.007327648,0.25998634,-0.21121868,-0.019127581,0.00087618234,0.051253423,0.01021476,-0.006124435,-0.011213123,1.622927,-0.0013045075,488.03537,0.35942686,0.5025979,0.31565458,0.24453864,0.10800039,inf,inf,inf,inf,1,1,1,1,2,2,2,2,2,1,1,1,0,0,0
44200000,44200000,4204000,47.3977508,8.5456073,-0.029267967,0.05497888,0.9949664,0.00013157337,0.007882905,-0.02277365,-0.013787231,6.033179e-05,0.20782669,-0.20921014,-0.019127581,0.00087618234,0.051253423,-0.00787797,0.023170039,0.017546115,1.6233546,-0.0013045075,488.03537,0.41830528,0.5161196,0.3226178,0.24420485,0.113070905,inf,inf,inf,inf,1,1,1,1,2,2,2,2,2,1,1,1,0,0,0
44704000,44704000,4204000,47.3977508,8.5456073,-0.025384678,0.053048145,0.8898613,0.00013157337,0.007882905,-0.02277365,-0.009649424,-0.0041025984,0.14325684,-0.25685382,-0.019127581,0.00087618234,0.051253423,0.024375068,0.02057878,-0.031067988,1.6236961,-0.0013045075,488.03537,0.5234104,0.4768597,0.30957112,0.20935681,0.111782774,inf,inf,inf,inf,1,1,1,1,2,2,2,2,2,1,1,1,0,0,0
45200000,45200000,4204000,47.3977508,8.5456073,-0.01854653,0.050496526,0.7947211,0.00013157337,0.007882905,-0.02277365,-0.0041534896,-0.008024084,0.08812767,-0.27661943,-0.019127581,0.00087618234,0.051253423,0.038507365,0.0013180833,-0.03802776,1.6244876,-0.0013045075,488.03537,0.13804847,0.488352,0.31738412,0.20966461,0.115785405,inf,inf,inf,inf,1,1,1,1,2,2,2,2,2,0,1,1,0,0,0
45704000,45704000,4204000,47.3977508,8.5456073,-0.013148228,0.048436366,0.7061909,0.00013157337,0.007882905,-0.02277365,-2.7319751e-05,-0.012380853,0.03833611,-0.2772155,-0.019127581,0.00087618234,0.051253423,0.009599054,-0.026045889,-0.010341405,1.6250564,-0.0013045075,488.03537,0.1630525,0.5012993,0.32509118,0.21026558,0.11928095,inf,inf,inf,inf,1,1,1,1,2,2,2,2,2,0,1,1,0,0,0
46200000,46200000,4204000,47.3977508,8.5456073,-0.010360301,0.05164654,0.62314284,0.00013157337,0.007882905,-0.02277365,0.0047817365,-0.012568135,-0.0033339995,-0.2654964,-0.019127581,0.00087618234,0.051253423,0.003547131,0.009002891,-0.03552157,1.6249238,-0.0013045075,488.03537,0.17815357,0.5135475,0.33385885,0.21043678,0.122357115,inf,inf,inf,inf,1,1,1,1,2,2,2,2,2,0,1,1,0,0,0
46704000,46704000,4204000,47.3977508,8.5456073,-0.010520733,0.05255601,0.52206314,0.00013157337,0.007882905,-0.02277365,0.010353227,-0.013828098,-0.04077541,-0.2707788,-0.019127581,0.00087618234,0.051253423,0.008506467,0.03155648,-0.029690562,1.6245947,-0.0013045075,488.03537,0.1365844,0.4761683,0.32002398,0.18639447,0.117791675,inf,inf,inf,inf,1,1,1,1,2,2,2,2,2,0,1,1,0,0,0
47200000,47200000,4204000,47.3977508,8.5456073,-0.010847756,0.055058863,0.43548808,0.00013157337,0.007882905,-0.02277365,0.01149258,-0.016451705,-0.076648645,-0.26504266,-0.019127581,0.00087618234,0.051253423,-0.011367155,0.0026902414,-0.012374482,1.6251876,-0.0013045075,488.03537,0.15857759,0.4868938,0.32812175,0.18791354,0.12000128,inf,inf,inf,inf,1,1,1,1,2,2,2,2,2,0,1,1,0,0,0
47704000,47704000,4204000,47.3977508,8.5456073,-0.0069461768,0.055012062,0.36270955,0.00013157337,0.007882905,-0.02277365,0.010961974,-0.020969436,-0.097024,-0.23756096,-0.019127581,0.00087618234,0.051253423,-0.036900178,-0.014349483,-0.026550142,1.6250186,-0.0013045075,488.03537,0.16785488,0.49888867,0.3354051,0.19013716,0.121858776,inf,inf,inf,inf,1,1,1,1,2,2,2,2,2,0,1,1,0,0,0
