timestamp,timestamp_sample,time_last_fuse,device_id,observation[0],observation[1],observation[2],observation_variance[0],observation_variance[1],observation_variance[2],innovation[0],innovation[1],innovation[2],innovation_variance[0],innovation_variance[1],innovation_variance[2],test_ratio[0],test_ratio[1],test_ratio[2],estimator_instance,fusion_enabled,innovation_rejected,fused
3408000,3289097,0,0,0.0,0.0,0.02,0.09,0.09,0.20250002,0.003691886,-0.0050980616,-0.037832286,0.110578135,0.110580035,0.20386405,4.9304585e-06,9.401419e-06,0.00028083066,3,1,0,0
3808000,3689454,0,0,0.0,0.0,-0.02,0.09,0.09,0.20250002,0.0019386476,0.0002605619,0.01055311,0.100639395,0.10064162,0.20363148,1.4937906e-06,2.6983868e-08,2.1876409e-05,3,1,0,0
4208000,4089670,0,0,0.0,0.01,0.01,0.09,0.09,0.20250002,0.002694598,-0.010020971,-0.026734905,0.09669334,0.09669349,0.20638606,3.0036645e-06,4.1541516e-05,0.0001385278,3,1,0,0
4608000,4489800,0,0,0.02,0.01,-0.04,0.09,0.09,0.20250002,-0.017230572,-0.011912482,0.021492042,0.09394309,0.09394308,0.20915326,0.00012641383,6.042264e-05,8.833863e-05,3,1,0,0
5008000,4885879,0,0,0.0,0.0,-0.01,0.09,0.09,0.20250002,0.00094165595,-0.0023285141,-0.006742632,0.09267161,0.09267157,0.21063042,3.8273467e-07,2.3402984e-06,8.633717e-06,3,1,0,0
5408000,5289927,0,0,-0.01,0.01,0.03,0.09,0.09,0.20250002,0.011166957,-0.008191418,-0.044048265,0.09183453,0.09183452,0.2109056,5.4315493e-05,2.9226187e-05,0.00036798447,3,1,0,0
5808000,5689956,0,0,0.0,0.01,-0.02,0.09,0.09,0.20250002,0.0007151669,-0.009204858,0.0072281845,0.09137536,0.09137537,0.21056826,2.2389568e-07,3.70907e-05,9.924886e-06,3,1,0,0
6208000,6089974,0,0,0.0,0.0,0.0,0.09,0.09,0.20250002,0.00043795403,-0.00015928657,-0.010773286,0.0911124,0.09111241,0.2100249,8.420533e-08,1.1138861e-08,2.210475e-05,3,1,0,0
6608000,6489984,0,0,-0.01,-0.01,-0.01,0.09,0.09,0.20250002,0.0072930986,0.010435374,0.0021743197,0.090945445,0.09094545,0.20946272,2.3393932e-05,4.789554e-05,9.028177e-07,3,1,0,0
7008000,6889991,0,0,-0.01,-0.01,-0.01,0.09,0.09,0.20250002,0.008828275,0.013995869,0.0035439897,0.09084781,0.090847775,0.21018966,3.4316043e-05,8.624728e-05,2.3901964e-06,3,1,0,0
7408000,7289995,0,0,0.01,0.0,0.049999997,0.09,0.09,0.20250002,-0.008855035,0.004658025,-0.053560495,0.09075888,0.090758845,0.20956442,3.455822e-05,9.562571e-06,0.0005475599,3,1,0,0
7808000,7689997,0,0,0.01,0.0,0.02,0.09,0.09,0.20250002,-0.00948006,0.0027764048,-0.021484237,0.09125103,0.09125097,0.20905147,3.9395298e-05,3.3789993e-06,8.831747e-05,3,1,0,0
8208000,8089998,0,0,0.02,0.0,0.0,0.09,0.09,0.20250002,-0.021809475,0.0013345286,-0.0029567555,0.091140434,0.09114039,0.20865402,0.00020875619,7.816366e-07,1.6759616e-06,3,1,0,0
8608000,8489999,0,0,-0.02,0.0,0.049999997,0.09,0.09,0.20250002,0.019394511,0.0010914351,-0.051254757,0.09105035,0.091050364,0.20834385,0.00016524794,5.233282e-07,0.00050436816,3,1,0,0
9016000,8894000,0,0,0.0,0.0,-0.01,0.09,0.09,0.20250002,0.0025956642,0.0026484816,0.009699764,0.09099503,0.09099514,0.20816131,2.9616883e-06,3.0834417e-06,1.8079327e-05,3,1,0,0
9408000,9290000,0,0,0.0,-0.02,0.0,0.09,0.09,0.20250002,0.0029525515,0.022650424,2.0600855e-05,0.09091203,0.09091212,0.20796666,3.8356025e-06,0.00022573084,8.162756e-11,3,1,0,0
9808000,9690000,0,0,-0.02,0.01,-0.03,0.09,0.09,0.20250002,0.023514198,-0.0071732327,0.03225281,0.090856396,0.09085643,0.20783122,0.0002434248,2.2653438e-05,0.00020020935,3,1,0,0
10208000,10090000,0,0,0.02,0.01,0.0,0.09,0.09,0.20250002,-0.020020729,-0.009730052,0.0048840716,0.09080706,0.090807065,0.20771936,0.00017656319,4.1703326e-05,4.5935353e-06,3,1,0,0
10608000,10490000,0,0,0.0,0.0,0.02,0.09,0.09,0.20250002,-0.0016824239,-0.0014275606,-0.014601041,0.090762876,0.09076289,0.20762268,1.2474485e-06,8.981332e-07,4.107266e-05,3,1,0,0
11008000,10890000,0,0,0.01,-0.02,0.01,0.09,0.09,0.20250002,-0.010543705,0.01714286,-0.0014987979,0.09072228,0.09072229,0.20753749,4.9015398e-05,0.0001295724,4.329618e-07,3,1,0,0
11408000,11290000,0,0,0.01,0.0,0.02,0.09,0.09,0.20250002,-0.012254764,-0.0033375614,-0.008764204,0.09068494,0.09068497,0.20746082,6.6242195e-05,4.913412e-06,1.4809787e-05,3,1,0,0
11808000,11690000,0,0,0.0,0.0,0.0,0.09,0.09,0.20250002,-0.0032018614,-0.0022011711,0.01412601,0.09065018,0.09065021,0.20739277,4.523727e-06,2.1379562e-06,3.8486236e-05,3,1,0,0
12216000,12094000,0,0,0.0,0.0,0.0,0.09,0.09,0.20250002,-0.002767622,-0.00045971049,0.014035635,0.09064156,0.09064158,0.20802233,3.3802296e-06,9.326127e-08,3.7880363e-05,3,1,0,0
12608000,12490000,0,0,-0.01,0.01,-0.03,0.09,0.09,0.20250002,0.010138332,-0.00828869,0.044000156,0.090596646,0.09059666,0.20792495,4.5381712e-05,3.0333294e-05,0.00037244475,3,1,0,0
13008000,12890000,0,0,0.01,0.0,0.01,0.09,0.09,0.20250002,-0.009668047,0.0050991867,0.0039581712,0.090931185,0.09093115,0.20785944,4.1117302e-05,1.14379745e-05,3.014945e-06,3,1,0,0
13408000,13290000,0,0,-0.03,0.0,-0.02,0.09,0.09,0.20250002,0.031524025,0.0038613966,0.03354897,0.090892866,0.09089278,0.20779693,0.00043733427,6.5617464e-06,0.00021666025,3,1,0,0
13808000,13690000,0,0,-0.01,0.0,-0.01,0.09,0.09,0.20250002,0.013000498,0.0015406845,0.02099567,0.09085674,0.090856604,0.20773654,7.440854e-05,1.0450352e-06,8.4880245e-05,3,1,0,0
14208000,14090000,0,0,0.01,0.0,-0.01,0.09,0.09,0.20250002,-0.008581032,-0.0016524968,0.020716945,0.090822086,0.090821885,0.2076821,3.2430045e-05,1.2026817e-06,8.2663224e-05,3,1,0,0
14608000,14490000,0,0,0.01,-0.01,0.0,0.09,0.09,0.20250002,-0.0077587827,0.008886388,0.009624898,0.09078905,0.09078886,0.20762543,2.6522453e-05,3.4791883e-05,1.784727e-05,3,1,0,0
15008000,14890000,0,0,0.02,0.0,-0.02,0.09,0.09,0.20250002,-0.018165505,0.0004460801,0.02710117,0.09075742,0.09075725,0.20757028,0.0001454363,8.770096e-08,0.0001415373,3,1,0,0
15408000,15290000,0,0,-0.01,-0.01,0.0,0.09,0.09,0.20250002,0.011390847,0.010288164,0.0076463893,0.09072666,0.09072648,0.20752071,5.720541e-05,4.666612e-05,1.1269674e-05,3,1,0,0
15808000,15690000,0,0,0.0,0.0,-0.01,0.09,0.09,0.20250002,-0.0007404911,-0.00063230615,0.018536048,0.09069703,0.09069684,0.20746823,2.41828e-07,1.7632856e-07,6.624341e-05,3,1,0,0
16208000,16090000,0,0,0.0,0.01,-0.01,0.09,0.09,0.20250002,0.000262614,-0.0117679825,0.018774489,0.09066844,0.090668276,0.20741728,3.042563e-08,6.1095416e-05,6.797533e-05,3,1,0,0
16608000,16490000,0,0,0.0,0.0,-0.01,0.09,0.09,0.20250002,-0.00034012922,-0.0030440958,0.021313557,0.09064056,0.0906404,0.20736714,5.1053473e-08,4.089355e-06,8.762579e-05,3,1,0,0
17008000,16890000,0,0,0.0,0.0,0.0,0.09,0.09,0.20250002,-0.0009605196,-0.005485064,0.015604556,0.10023118,0.100231744,0.20869367,3.6818798e-07,1.2006546e-05,4.667169e-05,3,1,0,0
17408000,17290000,0,0,0.0,0.0,0.01,0.09,0.09,0.20250002,-0.0026644124,-0.008976072,0.009106273,0.12885942,0.12886302,0.2101976,2.2036709e-06,2.5009464e-05,1.5780239e-05,3,1,0,0
17808000,17690000,0,0,-0.01,-0.01,-0.049999997,0.09,0.09,0.20250002,0.0058320113,0.0011066422,0.06900134,0.17660627,0.17661612,0.21183714,7.703544e-06,2.7736016e-07,0.00089902745,3,1,0,0
18208000,18090000,0,0,0.0,0.0,0.0,0.09,0.09,0.20250002,-0.0013967659,-0.013092795,0.023880746,0.24337871,0.24339718,0.21358082,3.2064514e-07,2.817145e-05,0.00010680548,3,1,0,0
18608000,18490000,0,0,0.0,0.0,-0.01,0.09,0.09,0.20250002,7.368025e-05,-0.018838556,0.03801445,0.3287931,0.32882392,0.21530668,6.604492e-10,4.317097e-05,0.00026847253,3,1,0,0
19008000,18890000,0,0,-0.01,0.0,0.0,0.09,0.09,0.20250002,0.008614942,-0.025757916,0.031626284,0.43170932,0.43175873,0.21694598,6.876593e-06,6.146676e-05,0.0001844186,3,1,0,0
19408000,19290000,0,0,0.01,0.0,-0.02,0.09,0.09,0.20250002,-0.010761162,-0.021940349,0.013732877,0.5509063,0.5509933,0.21840188,8.408153e-06,3.494626e-05,3.4540346e-05,3,1,0,0
19808000,19690000,0,0,-0.11,-0.11,-0.25,0.09,0.09,0.20250002,-0.006924875,0.23539603,0.03949344,0.68665695,0.68686914,0.21946532,2.7934702e-06,0.0032268907,0.00028427853,3,1,0,0
20208000,20090000,0,0,-0.24,-0.17,-0.59,0.09,0.09,0.20250002,0.07877523,0.3421637,0.028009653,0.83187103,0.8321798,0.22043544,0.00029838935,0.005627438,0.00014236198,3,1,0,0
20608000,20490000,0,0,-0.14999999,-0.14,-0.65,0.09,0.09,0.20250002,0.042153195,0.24131832,0.061267376,0.95518875,0.955572,0.22110598,7.4410076e-05,0.0024376826,0.00067907554,3,1,0,0
21008000,20890000,0,0,-0.06,-0.04,-0.7,0.09,0.09,0.20250002,0.03374773,0.032466713,0.06457901,1.0573096,1.0577434,0.22153239,4.3087064e-05,3.986174e-05,0.0007530183,3,1,0,0
21408000,21290000,0,0,0.01,0.02,-0.69,0.09,0.09,0.20250002,0.035198703,-0.12008242,0.043094516,1.1247232,1.1251847,0.22170185,4.4062348e-05,0.00051261944,0.00033506934,3,1,0,0
21808000,21686000,0,0,0.07,0.06,-0.68,0.09,0.09,0.20250002,0.02036883,-0.22151835,0.050442398,1.1518507,1.1523048,0.22165751,1.4407742e-05,0.001703382,0.0004591652,3,1,0,0
22208000,22090000,0,0,0.099999994,0.08,-0.62,0.09,0.09,0.20250002,0.007277414,-0.27019325,0.034256756,1.1400172,1.1404245,0.22161995,1.8582442e-06,0.0025606041,0.00021180861,3,1,0,0
22608000,22490000,0,0,0.11,0.099999994,-0.52,0.09,0.09,0.20250002,-0.0020422414,-0.29039025,-0.0051854253,1.0965276,1.0968722,0.22134443,1.5214391e-07,0.0030751622,4.8591482e-06,3,1,0,0
23008000,22890000,0,0,0.12,0.089999996,-0.28,0.09,0.09,0.20250002,-0.027192406,-0.2587731,0.082773656,1.0238156,1.0240866,0.22104336,2.888907e-05,0.0026155408,0.0012398433,3,1,0,0
23408000,23290000,0,0,0.08,0.07,-0.19,0.09,0.09,0.20250002,-0.0077289715,-0.2118465,0.03047353,1.0432605,1.0435181,0.22094281,2.2903967e-06,0.0017202938,0.00016812244,3,1,0,0
23808000,23690000,0,0,0.049999997,0.049999997,-0.22999999,0.09,0.09,0.20250002,-0.0055839606,-0.1500347,0.06517106,0.96002936,0.96021616,0.2207012,1.2991525e-06,0.0009377226,0.00076977693,3,1,0,0
24208000,24090000,0,0,-0.01,-0.01,-0.24,0.09,0.09,0.20250002,0.023648525,-0.057371043,0.1050158,0.8757452,0.87586963,0.22051793,2.5544086e-05,0.00015031628,0.002000439,3,1,0,0
24608000,24490000,0,0,-0.01,-0.03,-0.14,0.09,0.09,0.20250002,0.0017167181,-0.018300908,0.040947787,0.7956625,0.79573834,0.220397,1.4815934e-07,1.6835846e-05,0.00030430927,3,1,0,0
25008000,24890000,0,0,0.0,-0.03,-0.089999996,0.09,0.09,0.20250002,-0.0065727495,-0.019218886,0.019487843,0.7224902,0.7225313,0.22048846,2.3917853e-06,2.044842e-05,6.889722e-05,3,1,0,0
25408000,25290000,0,0,0.0,0.0,-0.089999996,0.09,0.09,0.20250002,0.005964113,-0.053637136,0.03585489,0.6572143,0.65723443,0.22047347,2.1649344e-06,0.00017509382,0.00023323864,3,1,0,0
25808000,25694000,0,0,0.0,-0.01,-0.12,0.09,0.09,0.20250002,0.018328685,-0.046238594,0.079311825,0.59975386,0.5997608,0.22049749,2.2405238e-05,0.0001425907,0.0011411223,3,1,0,0
26208000,26090000,0,0,0.03,0.0,-0.11,0.09,0.09,0.20250002,-0.0041866805,-0.05614149,0.09181855,0.5496274,0.5496254,0.22055136,1.2756492e-06,0.00022938289,0.0015290127,3,1,0,0
26608000,26490000,0,0,0.01,0.03,-0.08,0.09,0.09,0.20250002,0.02273924,-0.08867487,0.08270364,0.5063667,0.50635815,0.22076915,4.0845738e-05,0.0006211598,0.001239284,3,1,0,0
27008000,26890000,0,0,0.01,0.01,0.0,0.09,0.09,0.20250002,0.026357813,-0.05950041,0.021073367,0.46927854,0.46926743,0.2208465,5.9217222e-05,0.0003017724,8.043357e-05,3,1,0,0
27408000,27290000,0,0,0.01,0.03,-0.049999997,0.09,0.09,0.20250002,0.023392906,-0.072660714,0.07894992,0.437747,0.4377324,0.22092414,5.000405e-05,0.00048244811,0.0011285484,3,1,0,0
27808000,27690000,0,0,0.02,0.04,-0.03,0.09,0.09,0.20250002,0.008526148,-0.07841951,0.065676756,0.4110341,0.41101596,0.22099763,7.0743727e-06,0.0005984798,0.0007807208,3,1,0,0
28208000,28090000,0,0,0.0,0.0,-0.07,0.09,0.09,0.20250002,0.020565933,-0.033439606,0.11260316,0.38856414,0.38854253,0.22122052,4.3540567e-05,0.000115118135,0.002292639,3,1,0,0
28608000,28490000,0,0,0.02,0.01,-0.06,0.09,0.09,0.20250002,-0.012801394,-0.038105465,0.11237073,0.39214575,0.3921198,0.22128406,1.6715792e-05,0.00014812071,0.0022825287,3,1,0,0
29008000,28890000,0,0,0.01,0.0,-0.08,0.09,0.09,0.20250002,-0.007581948,-0.023703326,0.14896248,0.37442866,0.37440068,0.22133464,6.1411893e-06,6.002635e-05,0.004010185,3,1,0,0
29408000,29290000,0,0,-0.01,0.01,0.04,0.09,0.09,0.20250002,0.00910418,-0.028670916,0.04283408,0.36000967,0.35998008,0.22137469,9.209318e-06,9.134077e-05,0.00033152092,3,1,0,0
29808000,29690000,0,0,0.0,0.0,0.0,0.09,0.09,0.20250002,-0.0051426273,-0.014725733,0.085894465,0.34856924,0.34853795,0.22156054,3.0348765e-06,2.4886496e-05,0.0013319808,3,1,0,0
30208000,30090000,0,0,0.0,0.03,-0.02,0.09,0.09,0.20250002,-0.0104965875,-0.0446437,0.1009177,0.33975372,0.33972144,0.22157541,1.29715545e-05,0.00023466989,0.00183854,3,1,0,0
30608000,30490000,0,0,-0.01,0.0,-0.03,0.09,0.09,0.20250002,-0.005557078,-0.017100887,0.11544961,0.33318853,0.33315587,0.22157897,3.707344e-06,3.5111538e-05,0.002406115,3,1,0,0
31008000,30890000,0,0,0.0,0.02,0.04,0.09,0.09,0.20250002,-0.0233497,-0.03521994,0.049997568,0.32869163,0.3286584,0.22157368,6.634894e-05,0.00015097063,0.00045127326,3,1,0,0
31408000,31290000,0,0,-0.01,0.0,0.0,0.09,0.09,0.20250002,-0.022196023,-0.01860073,0.091910034,0.32607567,0.32604286,0.22156149,6.0435472e-05,4.244683e-05,0.0015250763,3,1,0,0
31808000,31690000,0,0,-0.01,0.02,0.0,0.09,0.09,0.20250002,-0.030330168,-0.039245203,0.09121686,0.3251503,0.32511815,0.22154096,0.00011316848,0.00018949246,0.0015022984,3,1,0,0
32208000,32090000,0,0,-0.01,0.0,0.0,0.09,0.09,0.20250002,-0.038911,-0.021835476,0.09331857,0.3257075,0.32567668,0.22167075,0.00018594178,5.8559675e-05,0.0015714036,3,1,0,0
32608000,32490000,0,0,0.0,0.01,-0.01,0.09,0.09,0.20250002,-0.05705518,-0.039730318,0.107178785,0.32760447,0.32757568,0.22163993,0.0003974663,0.00019274912,0.0020731448,3,1,0,0
33008000,32890000,0,0,-0.03,0.01,-0.049999997,0.09,0.09,0.20250002,-0.034510367,-0.044399984,0.1521338,0.330692,0.33066538,0.22160767,0.00014405737,0.00023847172,0.0041775974,3,1,0,0
33408000,33290000,0,0,-0.02,0.01,0.29,0.09,0.09,0.20250002,-0.05737326,-0.043784603,0.16142094,0.3324912,0.33246833,0.22156698,0.0003960034,0.00023064952,0.00470408,3,1,0,0
33808000,33690000,0,0,0.0,0.0,0.82,0.09,0.09,0.20250002,-0.0821823,-0.042174697,0.09253329,0.34586862,0.34584665,0.2216773,0.00078109786,0.00020572182,0.0015450225,3,1,0,0
34208000,34090000,0,0,0.0,0.03,0.65999997,0.09,0.09,0.20250002,-0.08509243,-0.08846559,0.10488284,0.35290402,0.35288334,0.22162557,0.0008207016,0.00088711013,0.0019854046,3,1,0,0
34608000,34490000,0,0,0.0,0.01,0.68,0.09,0.09,0.20250002,-0.094209336,-0.07465193,0.10080004,0.35950235,0.35948527,0.22157139,0.0009875206,0.00062009884,0.0018342887,3,1,0,0
35008000,34890000,0,0,0.0,0.02,0.71999997,0.09,0.09,0.20250002,-0.10931561,-0.08674091,0.075295985,0.36672634,0.3667161,0.2215172,0.0013034137,0.00082068786,0.0010237553,3,1,0,0
35408000,35290000,0,0,-0.01,0.01,0.74,0.09,0.09,0.20250002,-0.113844685,-0.0828134,0.05897504,0.37450248,0.37449947,0.22163787,0.0013843019,0.00073250395,0.00062770053,3,1,0,0
35808000,35690000,0,0,-0.01,0.03,0.76,0.09,0.09,0.20250002,-0.12711859,-0.10864493,0.033197165,0.38266575,0.38267043,0.22159837,0.0016891123,0.0012338263,0.00019892775,3,1,0,0
36208000,36090000,0,0,0.0,0.03,0.71,0.09,0.09,0.20250002,-0.15150489,-0.11942924,0.07451135,0.39101726,0.39103007,0.221561,0.0023481043,0.0014590533,0.0010023318,3,1,0,0
36608000,36490000,0,0,-0.01,0.0,0.74,0.09,0.09,0.20250002,-0.16194119,-0.0958043,0.039439917,0.39934593,0.399374,0.22152372,0.0026267902,0.000919285,0.00028087414,3,1,0,0
37008000,36890000,0,0,0.0,0.0,0.76,0.09,0.09,0.20250002,-0.19147332,-0.10384258,0.01659733,0.4075148,0.40755916,0.2216411,0.0035985962,0.001058328,4.9714858e-05,3,1,0,0
37408000,37290000,0,0,-0.01,0.0,-0.52,0.09,0.09,0.20250002,-0.18893677,-0.1185852,1.2532133,0.41580293,0.41584903,0.22035998,0.0034340406,0.0013526494,0.2850869,3,1,0,0
37808000,37690000,0,0,0.01,-0.01,-0.48999998,0.09,0.09,0.20250002,-0.22799464,-0.11511295,1.3047123,0.4223243,0.42238906,0.2184263,0.004923378,0.0012548612,0.3117343,3,1,0,0
38208000,38090000,0,0,0.01,0.0,-0.21,0.09,0.09,0.20250002,-0.24219504,-0.13216811,1.2786223,0.42652526,0.42660514,0.2170228,0.0055010514,0.0016378995,0.30132776,3,1,0,0
38608000,38490000,0,0,0.03,-0.01,0.08,0.09,0.09,0.20250002,-0.27782393,-0.13165735,1.206305,0.4303508,0.43044725,0.21610765,0.007174252,0.0016107579,0.26934204,3,1,0,0
39008000,38890000,0,0,0.03,-0.04,0.19999999,0.09,0.09,0.20250002,-0.30451748,-0.11382947,1.2556891,0.45043314,0.45056105,0.21562546,0.00823482,0.0011503123,0.29249892,3,1,0,0
39408000,39290000,0,0,0.04,-0.01,0.44,0.09,0.09,0.20250002,-0.3292883,-0.14669941,1.1281707,0.4542839,0.45443705,0.21559952,0.009547403,0.0018942748,0.23613581,3,1,0,0
39808000,39690000,0,0,0.02,-0.03,0.56,0.09,0.09,0.20250002,-0.31429473,-0.12260437,1.07303,0.45779082,0.45795903,0.21578613,0.008631119,0.0013129412,0.21343233,3,1,0,0
40208000,40090000,0,0,-0.01,0.0,0.0,0.09,0.09,0.20250002,-0.22385229,-0.12975775,0.98531544,0.46752933,0.4676229,0.21492836,0.0042872047,0.0014402266,0.18068282,3,1,0,0
40608000,40490000,0,0,0.0,0.01,0.0,0.09,0.09,0.20250002,-0.22856392,-0.1384124,0.93083614,0.47047538,0.470563,0.2141697,0.0044415896,0.0016285167,0.16182606,3,1,0,0
41008000,40886000,0,0,-0.01,0.0,-0.03,0.09,0.09,0.20250002,-0.21609882,-0.12395297,0.9043889,0.47251663,0.47260407,0.21366991,0.0039531896,0.0013003984,0.1531183,3,1,0,0
41408000,41290000,0,0,0.0,-0.01,0.02,0.09,0.09,0.20250002,-0.2214219,-0.10795324,0.8024844,0.4736607,0.4737451,0.21349235,0.004140319,0.0009839808,0.12065654,3,1,0,0
41808000,41690000,0,0,-0.01,0.0,0.0,0.09,0.09,0.20250002,-0.20453045,-0.10920379,0.7711936,0.47397974,0.4740595,0.21361005,0.0035303368,0.0010062424,0.111369215,3,1,0,0
42208000,42090000,0,0,0.0,-0.01,0.0,0.09,0.09,0.20250002,-0.20472966,-0.09067625,0.7209742,0.4735063,0.4735769,0.21398616,0.003540754,0.00069447496,0.097165875,3,1,0,0
42608000,42490000,0,0,-0.01,0.0,0.0,0.09,0.09,0.20250002,-0.18566,-0.092337705,0.6721376,0.47232118,0.4723831,0.21464083,0.0029191694,0.0007219777,0.08419069,3,1,0,0
43008000,42890000,0,0,-0.01,0.0,-0.01,0.09,0.09,0.20250002,-0.17633112,-0.08311077,0.63259244,0.47045723,0.47051108,0.21540779,0.0026436122,0.00058722525,0.07430988,3,1,0,0
43408000,43290000,0,0,0.01,0.0,-0.03,0.09,0.09,0.20250002,-0.18630995,-0.075930424,0.6035115,0.4679861,0.46803033,0.21630049,0.0029668743,0.0004927398,0.06735558,3,1,0,0
43808000,43690000,0,0,0.0,-0.01,0.01,0.09,0.09,0.20250002,-0.16438803,-0.05848988,0.5127736,0.46501017,0.46504378,0.21726534,0.002324545,0.00029425757,0.04840841,3,1,0,0
44208000,44090000,0,0,0.0,0.0,0.0,0.09,0.09,0.20250002,-0.16333008,-0.060769122,0.47407627,0.48228863,0.48232046,0.2183418,0.0022125104,0.00030625996,0.04117367,3,1,0,0
44608000,44490000,0,0,0.01,0.0,0.0,0.09,0.09,0.20250002,-0.16564383,-0.05297989,0.41852412,0.47842416,0.47844923,0.21931282,0.002294021,0.0002346639,0.031947505,3,1,0,0
45008000,44890000,0,0,0.01,-0.01,-0.02,0.09,0.09,0.20250002,-0.024729252,0.0066583995,0.27075893,0.12748538,0.1274856,0.21492968,0.0001918764,1.3910366e-05,0.013643607,3,1,0,0
45408000,45290000,0,0,0.01,0.0,0.0,0.09,0.09,0.20250002,-0.009926785,0.0023853304,0.12822233,0.09734322,0.09734419,0.21090758,4.049221e-05,2.3380137e-06,0.003118137,3,1,0,0
45808000,45690000,0,0,0.0,0.01,-0.02,0.09,0.09,0.20250002,-0.00127527,-0.0088731935,0.086031795,0.09473538,0.09473599,0.20920475,6.866764e-07,3.3243363e-05,0.0014151628,3,1,0,0
46208000,46090000,0,0,0.0,-0.01,0.01,0.09,0.09,0.20250002,-0.00023034538,0.008194175,0.018829374,0.092235416,0.0922355,0.20833804,2.3010248e-08,2.911872e-05,6.807117e-05,3,1,0,0
46608000,46490000,0,0,0.0,0.02,-0.01,0.09,0.09,0.20250002,0.00013795723,-0.022714965,0.017340431,0.09122503,0.091225035,0.2078661,8.345165e-09,0.00022624037,5.786236e-05,3,1,0,0
47008000,46890000,0,0,0.0,-0.01,0.0,0.09,0.09,0.20250002,-0.0020155439,0.0069696037,-0.012176745,0.09086812,0.09086812,0.20758894,1.7882695e-06,2.1382803e-05,2.8570523e-05,3,1,0,0
47408000,47290000,0,0,0.02,0.01,0.01,0.09,0.09,0.20250002,-0.0220135,-0.0092942845,-0.03718301,0.090739526,0.090739526,0.20811987,0.00021361989,3.8079866e-05,0.0002657269,3,1,0,0
47808000,47690000,0,0,0.0,-0.04,-0.03,0.09,0.09,0.20250002,-0.004610277,0.044002835,-0.0034349654,0.09066845,0.09066844,0.20800062,9.376869e-06,0.000854211,2.2690292e-06,3,1,0,0
