timestamp,timestamp_sample,time_utc_usec,device_id,lat,lon,alt,alt_ellipsoid,s_variance_m_s,c_variance_rad,eph,epv,hdop,vdop,noise_per_ms,jamming_indicator,vel_m_s,vel_n_m_s,vel_e_m_s,vel_d_m_s,cog_rad,timestamp_time_relative,heading,heading_offset,heading_accuracy,rtcm_injection_rate,automatic_gain_control,fix_type,jamming_state,vel_ned_valid,satellites_used,selected_rtcm_instance
3804000,0,1698220972685048,0,473977508,85456074,488111,488111,0.25,0.5,1.0,1.0,0.0,0.0,0,0,0.0,0.0,0.0,-0.02,0.84648466,0,nan,nan,0.0,0.0,0,3,0,1,10,0
4604000,0,1698220973485048,0,473977508,85456074,488102,488102,0.25,0.5,1.0,1.0,0.0,0.0,0,0,0.0,0.02,0.01,-0.04,0.5337217,0,nan,nan,0.0,0.0,0,3,0,1,10,0
5804000,0,1698220974685048,0,473977508,85456074,488103,488103,0.25,0.5,1.0,1.0,0.0,0.0,0,0,0.0,0.0,0.01,-0.02,2.0909042,0,nan,nan,0.0,0.0,0,3,0,1,10,0
6604000,0,1698220975485048,0,473977508,85456074,488109,488109,0.25,0.5,1.0,1.0,0.0,0.0,0,0,0.0,-0.01,-0.01,-0.01,3.7323864,0,nan,nan,0.0,0.0,0,3,0,1,10,0
7804000,0,1698220976685048,0,473977508,85456074,488102,488102,0.25,0.5,1.0,1.0,0.0,0.0,0,0,0.0,0.01,0.0,0.02,6.1915555,0,nan,nan,0.0,0.0,0,3,0,1,10,0
8604000,0,1698220977485048,0,473977508,85456074,488103,488103,0.25,0.5,1.0,1.0,0.0,0.0,0,0,0.0,-0.02,0.0,0.049999997,3.0592132,0,nan,nan,0.0,0.0,0,3,0,1,10,0
9804000,0,1698220978685048,0,473977508,85456074,488092,488092,0.25,0.5,1.0,1.0,0.0,0.0,0,0,0.0,-0.02,0.01,-0.03,2.5197318,0,nan,nan,0.0,0.0,0,3,0,1,10,0
10604000,0,1698220979485048,0,473977508,85456074,488096,488096,0.25,0.5,1.0,1.0,0.0,0.0,0,0,0.0,0.0,0.0,0.02,2.4808109,0,nan,nan,0.0,0.0,0,3,0,1,10,0
11804000,0,1698220980685048,0,473977507,85456074,488110,488110,0.25,0.5,1.0,1.0,0.0,0.0,0,0,0.0,0.0,0.0,0.0,2.5560346,0,nan,nan,0.0,0.0,0,3,0,1,10,0
12604000,0,1698220981485048,0,473977508,85456074,488103,488103,0.25,0.5,1.0,1.0,0.0,0.0,0,0,0.0,-0.01,0.01,-0.03,2.3366466,0,nan,nan,0.0,0.0,0,3,0,1,10,0
13804000,0,1698220982685048,0,473977508,85456075,488110,488110,0.25,0.5,1.0,1.0,0.0,0.0,0,0,0.0,-0.01,0.0,-0.01,2.7277749,0,nan,nan,0.0,0.0,0,3,0,1,10,0
14604000,0,1698220983485048,0,473977508,85456074,488107,488107,0.25,0.5,1.0,1.0,0.0,0.0,0,0,0.0,0.01,-0.01,0.0,5.3831186,0,nan,nan,0.0,0.0,0,3,0,1,10,0
15804000,0,1698220984685048,0,473977508,85456073,488099,488099,0.25,0.5,1.0,1.0,0.0,0.0,0,0,0.0,0.0,0.0,-0.01,0.9063495,0,nan,nan,0.0,0.0,0,3,0,1,10,0
16604000,0,1698220985489048,0,473977508,85456074,488099,488099,0.25,0.5,1.0,1.0,0.0,0.0,0,0,0.0,0.0,0.0,-0.01,5.1708865,0,nan,nan,0.0,0.0,0,3,0,1,10,0
17804000,0,1698220986685048,0,473977508,85456074,488105,488105,0.25,0.5,1.0,1.0,0.0,0.0,0,0,0.0,-0.01,-0.01,-0.049999997,3.8280306,0,nan,nan,0.0,0.0,0,3,0,1,10,0
18604000,0,1698220987489048,0,473977508,85456073,488097,488097,0.25,0.5,1.0,1.0,0.0,0.0,0,0,0.0,0.0,0.0,-0.01,5.9852576,0,nan,nan,0.0,0.0,0,3,0,1,10,0
19804000,0,1698220988685048,0,473977506,85456073,488144,488144,0.25,0.5,1.0,1.0,0.0,0.0,0,0,0.17,-0.11,-0.11,-0.25,3.894353,0,nan,nan,0.0,0.0,0,3,0,1,10,0
20604000,0,1698220989489048,0,473977491,85456056,488553,488553,0.25,0.5,1.0,1.0,0.0,0.0,0,0,0.19999999,-0.14999999,-0.14,-0.65,3.8967965,0,nan,nan,0.0,0.0,0,3,0,1,10,0
21800000,0,1698220990685048,0,473977489,85456054,489361,489361,0.25,0.5,1.0,1.0,0.0,0.0,0,0,0.099999994,0.07,0.06,-0.68,0.68992865,0,nan,nan,0.0,0.0,0,3,0,1,10,0
22604000,0,1698220991489048,0,473977497,85456062,489866,489866,0.25,0.5,1.0,1.0,0.0,0.0,0,0,0.14,0.11,0.099999994,-0.52,0.78225654,0,nan,nan,0.0,0.0,0,3,0,1,10,0
23804000,0,1698220992685048,0,473977505,85456072,490230,490230,0.25,0.5,1.0,1.0,0.0,0.0,0,0,0.04,0.049999997,0.049999997,-0.22999999,0.7524114,0,nan,nan,0.0,0.0,0,3,0,1,10,0
24604000,0,1698220993489048,0,473977506,85456071,490379,490379,0.25,0.5,1.0,1.0,0.0,0.0,0,0,0.03,-0.01,-0.03,-0.14,4.3343506,0,nan,nan,0.0,0.0,0,3,0,1,10,0
25808000,0,1698220994685048,0,473977505,85456068,490532,490532,0.25,0.5,1.0,1.0,0.0,0.0,0,0,0.0,0.0,-0.01,-0.12,4.6635194,0,nan,nan,0.0,0.0,0,3,0,1,10,0
26604000,0,1698220995489048,0,473977506,85456069,490599,490599,0.25,0.5,1.0,1.0,0.0,0.0,0,0,0.02,0.01,0.03,-0.08,1.1974704,0,nan,nan,0.0,0.0,0,3,0,1,10,0
27804000,0,1698220996685048,0,473977508,85456072,490648,490648,0.25,0.5,1.0,1.0,0.0,0.0,0,0,0.02,0.02,0.04,-0.03,1.129228,0,nan,nan,0.0,0.0,0,3,0,1,10,0
28604000,0,1698220997489048,0,473977508,85456074,490694,490694,0.25,0.5,1.0,1.0,0.0,0.0,0,0,0.01,0.02,0.01,-0.06,0.4628613,0,nan,nan,0.0,0.0,0,3,0,1,10,0
29804000,0,1698220998685048,0,473977509,85456075,490735,490735,0.25,0.5,1.0,1.0,0.0,0.0,0,0,0.0,0.0,0.0,0.0,1.0311404,0,nan,nan,0.0,0.0,0,3,0,1,10,0
30604000,0,1698220999489048,0,473977509,85456077,490754,490754,0.25,0.5,1.0,1.0,0.0,0.0,0,0,0.01,-0.01,0.0,-0.03,3.0021408,0,nan,nan,0.0,0.0,0,3,0,1,10,0
31804000,0,1698221000685048,0,473977508,85456078,490788,490788,0.25,0.5,1.0,1.0,0.0,0.0,0,0,0.01,-0.01,0.02,0.0,2.1012018,0,nan,nan,0.0,0.0,0,3,0,1,10,0
32604000,0,1698221001485048,0,473977507,85456079,490805,490805,0.25,0.5,1.0,1.0,0.0,0.0,0,0,0.01,0.0,0.01,-0.01,1.9294614,0,nan,nan,0.0,0.0,0,3,0,1,10,0
33804000,0,1698221002689048,0,473977505,85456080,490520,490520,0.25,0.5,1.0,1.0,0.0,0.0,0,0,0.02,0.0,0.0,0.82,0.8127998,0,nan,nan,0.0,0.0,0,3,0,1,10,0
34604000,0,1698221003485048,0,473977504,85456083,489978,489978,0.25,0.5,1.0,1.0,0.0,0.0,0,0,0.03,0.0,0.01,0.68,1.2877039,0,nan,nan,0.0,0.0,0,3,0,1,10,0
35804000,0,1698221004689048,0,473977502,85456087,489116,489116,0.25,0.5,1.0,1.0,0.0,0.0,0,0,0.02,-0.01,0.03,0.76,1.9603539,0,nan,nan,0.0,0.0,0,3,0,1,10,0
36604000,0,1698221005485048,0,473977501,85456089,488544,488544,0.25,0.5,1.0,1.0,0.0,0.0,0,0,0.01,-0.01,0.0,0.74,2.9962068,0,nan,nan,0.0,0.0,0,3,0,1,10,0
37804000,0,1698221006689048,0,473977501,85456089,488382,488382,0.25,0.5,1.0,1.0,0.0,0.0,0,0,0.01,0.01,-0.01,-0.48999998,5.6185637,0,nan,nan,0.0,0.0,0,3,0,1,10,0
38604000,0,1698221007485048,0,473977502,85456087,488561,488561,0.25,0.5,1.0,1.0,0.0,0.0,0,0,0.03,0.03,-0.01,0.08,5.9765306,0,nan,nan,0.0,0.0,0,3,0,1,10,0
39804000,0,1698221008689048,0,473977506,85456081,488154,488154,0.25,0.5,1.0,1.0,0.0,0.0,0,0,0.049999997,0.02,-0.03,0.56,5.2614694,0,nan,nan,0.0,0.0,0,3,0,1,10,0
40604000,0,1698221009485048,0,473977506,85456081,488102,488102,0.25,0.5,1.0,1.0,0.0,0.0,0,0,0.0,0.0,0.01,0.0,1.1185814,0,nan,nan,0.0,0.0,0,3,0,1,10,0
41804000,0,1698221010689048,0,473977506,85456081,488112,488112,0.25,0.5,1.0,1.0,0.0,0.0,0,0,0.0,-0.01,0.0,0.0,2.5548127,0,nan,nan,0.0,0.0,0,3,0,1,10,0
42604000,0,1698221011485048,0,473977506,85456081,488096,488096,0.25,0.5,1.0,1.0,0.0,0.0,0,0,0.0,-0.01,0.0,0.0,3.401821,0,nan,nan,0.0,0.0,0,3,0,1,10,0
43804000,0,1698221012689048,0,473977506,85456081,488098,488098,0.25,0.5,1.0,1.0,0.0,0.0,0,0,0.0,0.0,-0.01,0.01,4.7577677,0,nan,nan,0.0,0.0,0,3,0,1,10,0
44604000,0,1698221013485048,0,473977507,85456081,488100,488100,0.25,0.5,1.0,1.0,0.0,0.0,0,0,0.0,0.01,0.0,0.0,0.14329153,0,nan,nan,0.0,0.0,0,3,0,1,10,0
45804000,0,1698221014689048,0,473977507,85456081,488097,488097,0.25,0.5,1.0,1.0,0.0,0.0,0,0,0.0,0.0,0.01,-0.02,0.9171705,0,nan,nan,0.0,0.0,0,3,0,1,10,0
46604000,0,1698221015485048,0,473977506,85456081,488105,488105,0.25,0.5,1.0,1.0,0.0,0.0,0,0,0.0,0.0,0.02,-0.01,1.4325663,0,nan,nan,0.0,0.0,0,3,0,1,10,0
