timestamp,timestamp_sample,xyz[0],xyz[1],xyz[2],xyz_derivative[0],xyz_derivative[1],xyz_derivative[2]
3264000,3264000,-0.003089103,-0.0043380666,0.00034848892,-0.097982734,-0.038834184,0.0727298
3268000,3268000,-0.0033339416,-0.005206329,0.0009623227,-0.082175136,-0.1154503,0.10743254
3276000,3276000,-0.0014833334,-0.004748809,-0.00090123963,0.1355546,0.039287914,-0.1395123
3284000,3284000,0.0009656857,-0.0029575943,-0.0024709636,0.21932638,0.14410202,-0.1658279
3296000,3296000,-0.0031697014,-0.007909161,0.0011301172,-0.13260704,-0.3069852,0.21318717
3304000,3304000,0.0012231588,-0.0052044624,9.4813906e-05,0.3173545,0.12935524,-0.01591591
3316000,3316000,-0.0004096898,-0.008982309,0.0007729441,-0.15523471,-0.20196196,0.07357777
3324000,3324000,-0.0013313056,-0.002814936,-0.000108188186,-0.080316395,0.44675398,-0.07302087
3336000,3336000,0.00021751873,-0.0062902747,0.0008838692,-0.0010056198,-0.10671027,0.03763371
3344000,3344000,-0.0027311204,-0.0030397256,0.0011060303,-0.20817752,0.22535437,0.017414777
3356000,3356000,-0.000536734,-0.00630744,0.00038157857,0.03251262,-0.17112768,0.054987762
3364000,3364000,-0.0010266264,-0.0045532985,-0.0011351997,-0.008188508,0.11533423,-0.14124037
3376000,3376000,-0.00027991907,-0.006979629,-0.00039324648,-0.0097633,-0.2943462,-0.0048879622
3384000,3384000,-0.002975041,-0.006779325,-0.0004146092,-0.19198343,-0.043092445,0.03463895
3396000,3396000,0.0008304892,-0.0035441667,-0.0005547579,0.18572856,0.24478923,-0.06482789
3404000,3404000,4.7864305e-05,-0.0056855096,-0.0009337237,-0.024406873,-0.14905986,-0.045481175
3416000,3416000,-0.00079771393,-0.0031341477,-0.0012935755,-0.064953335,0.27468288,-0.086895674
3424000,3424000,-0.0019023155,-0.0052228346,-0.00119286,-0.10645589,-0.13240238,0.016754499
3436000,3436000,-0.0012607842,-0.005427116,0.0007949631,0.052453674,0.095855586,0.12390292
3444000,3444000,-0.0010084744,-0.0018596273,0.0011582498,0.023961667,0.29021192,0.043807376
3456000,3456000,-0.0006352719,-0.0038461906,0.00045786847,0.03461436,-0.059911143,0.04220382
3464000,3464000,-0.0016890777,-0.006574493,0.0016768284,-0.09994584,-0.29065895,0.095762804
3472000,3472000,-0.003891855,-0.0090573765,0.00023182467,-0.20983478,-0.24700043,-0.10244495
3484000,3484000,-0.0015648571,-0.00529888,-0.00095401664,0.099459246,0.15269312,-0.086634226
3496000,3496000,-0.0023675477,-0.004402371,0.0006014393,0.002255192,0.14749686,0.036914025
3500000,3500000,-0.002095964,-0.0036357485,-0.00079214526,0.030472096,0.16647938,-0.12871881
3512000,3512000,-0.0008435095,-0.0027065522,0.0018228637,0.04634338,0.17336918,0.22035101
3520000,3520000,-0.0027248065,-0.0050797705,0.0029665886,-0.11544703,-0.16873854,0.16020432
3536000,3536000,0.0010895252,-0.0025507882,-0.0021650258,0.20878151,0.23603797,-0.17240804
3544000,3544000,-0.0001360043,-0.0027537933,-0.0005424892,-0.08252982,0.025549239,0.07207371
3556000,3556000,-0.0021077183,-0.0022014454,0.0021511775,-0.09031473,0.10772248,0.1379672
3564000,3564000,-0.0005502249,-0.0028366228,0.0012773261,0.09831822,-0.057489343,-0.010924456
3576000,3576000,-0.0012726351,-0.0034695356,0.00015751163,-0.086197145,0.014431448,-0.0555787
3584000,3584000,-0.0012494476,-0.0074038976,0.0001766881,0.0069786087,-0.35632774,-0.03416492
3596000,3596000,-0.00029775422,-0.007042747,-0.0015565421,0.017783355,0.06000696,-0.09209463
3604000,3604000,-0.0032105285,-0.0039574485,-0.0006520789,-0.25000355,0.28615627,0.047081713
3616000,3616000,-0.0016196237,-0.003211571,-0.00016713914,0.082012974,0.11369333,-0.017167328
3624000,3624000,0.0005200443,-0.0052321106,-0.0013087955,0.23206705,-0.15349098,-0.073849894
3636000,3636000,0.00033351904,-0.005694191,-0.0005478827,0.01707362,-0.031240968,0.051237464
3640000,3640000,0.0010159522,-0.006017573,6.5473396e-05,0.0830734,-0.052564435,0.09512775
3652000,3652000,-0.0011887469,-0.007145281,2.1151227e-06,-0.040181674,-0.033362933,0.018523207
3664000,3664000,0.0024991345,-0.0057679485,0.00040278852,0.2866401,0.053597167,-0.029265227
3672000,3672000,0.0014032609,-0.00747875,-0.00054381037,-0.032982826,-0.13280654,-0.08024296
3684000,3684000,0.0005638727,-0.004779842,-0.0024026048,-0.017722573,0.19622359,-0.08429866
3696000,3696000,0.00013934085,-0.004932188,0.00010180526,-0.07811274,0.04493425,0.049794108
3704000,3704000,-0.0010312252,-0.005364508,-0.00170195,-0.1132822,-0.013113221,-0.11823615
3716000,3716000,-0.00051095034,-0.0068940367,0.0015264585,0.07294451,-0.12825884,0.21072957
3720000,3720000,-0.00016813545,-0.0073020565,0.0016125563,0.0784293,-0.11697312,0.12939619
3732000,3732000,-0.0010448328,-0.0024914527,0.0006927685,-0.03373014,0.36540774,-0.009167448
3744000,3744000,0.00023035027,-0.00332258,-0.0006017202,0.0925202,-0.098326534,-0.09328656
3756000,3756000,-0.0023913747,-0.0039251563,-0.0007639767,-0.21921676,-0.016451204,-0.030540425
3764000,3764000,-0.0009992991,-0.0039024786,-0.0020071275,0.06369896,-0.0009475844,-0.10802408
3776000,3776000,-0.0004945082,-0.0026583918,0.00013455324,0.038153734,0.10774574,0.14949669
3784000,3784000,-0.00284179,-0.0037877304,-0.00034103694,-0.17931013,-0.05533056,-0.040400267
3792000,3792000,-0.0006561538,-0.0063306964,-0.0008838472,0.13624726,-0.25629175,-0.021743268
3800000,3800000,-0.0032451497,-0.0068421806,0.002154044,-0.1929225,-0.07743951,0.24025926
3812000,3812000,0.0010196492,-0.0059533454,-0.0023368897,0.30513486,-0.08338922,-0.25786728
3820000,3820000,-0.002369487,-0.005967816,-0.00290738,-0.23599324,0.046803534,-0.09888953
3836000,3836000,0.0013768746,-0.005051853,0.0011472728,0.24938908,-0.22737965,0.19285432
3844000,3844000,-0.0021233982,-0.0053518983,-5.736074e-07,-0.19830784,-0.047527425,-0.04135281
3856000,3856000,-0.0010619997,-0.003955406,0.0020914925,-0.025157358,0.08092327,0.22214644
3864000,3864000,-0.001678507,-0.0032573289,0.001750487,-0.035509847,0.069528885,-0.0027317393
3876000,3876000,0.00038006855,-0.007038015,-0.00020075412,0.12195292,-0.31391603,-0.06422911
3880000,3880000,0.0009960991,-0.007729104,0.0003097617,0.13573223,-0.2532427,0.018244691
3896000,3896000,-0.002026997,-0.0031642828,0.0012544642,-0.16042289,0.07770235,-0.10990155
3900000,3900000,-0.0011964145,-0.003311351,0.00044979306,-0.0055272505,0.00600849,-0.14940588
3916000,3916000,0.0011413754,-0.0047873463,-0.00044756528,0.11927627,-0.19030008,-0.0019666883
3920000,3920000,0.0013254131,-0.0050414884,0.0009785687,0.08778114,-0.13580796,0.15214138
3936000,3936000,0.0020200028,-0.005989945,0.0013854022,0.13361157,-0.020969585,-0.01857968
3944000,3944000,0.00265674,-0.004659876,0.00096473267,0.05583366,0.10275702,-0.055591475
3956000,3956000,-0.0012164018,-0.0015560676,-0.0010374857,-0.22327968,0.099355415,-0.22161329
3964000,3964000,-0.0016667605,-0.0058773356,-0.0010376305,-0.111192524,-0.31778648,-0.029699376
3976000,3976000,-0.00036774302,-0.00444942,0.0027029808,0.018511072,0.13299361,0.10575139
3984000,3984000,-0.00033848622,-0.0032902397,-0.00013827602,0.03697749,0.1052271,-0.17160942
3996000,3996000,-0.00017461,-0.0045196144,-0.0010378466,-0.060707286,-0.068212755,-0.123432085
4004000,4004000,-0.0020503344,-0.004607705,0.0004345322,-0.14417735,-0.025549956,0.09061505
4016000,4016000,0.00020962511,-0.0043340507,0.00073921843,0.11490646,0.0347303,0.05530054
4024000,4024000,-0.0021160718,-0.0019054658,0.0010310557,-0.17313868,0.21492095,0.042657692
4036000,4036000,-0.0010561822,-0.0033018026,0.00065208523,0.05188792,-0.076879136,-0.11226888
4044000,4044000,0.002210592,-0.0052177724,-0.00069864444,0.3181569,-0.16901548,-0.12505239
4056000,4056000,-0.0017491267,-0.0035858317,-0.0016839905,-0.29189184,-0.09974508,-0.093153074
4060000,4060000,-0.001964707,-0.0051632673,-0.00076447846,-0.18958445,-0.22639038,0.045707934
4072000,4072000,0.001245945,-0.0049696616,-0.0014093602,0.15809824,-0.11905868,-0.05781012
4080000,4080000,-0.0019186737,-0.0021526348,-0.0034084008,-0.24478462,0.22255956,-0.19257489
4092000,4092000,-0.0039128433,-0.0006583759,-0.0016298394,-0.07463708,0.089418344,0.07709594
4100000,4100000,-0.0027346606,-0.0007608328,-0.0007420566,0.06440262,0.047664236,0.08883111
4116000,4116000,-0.0010018721,-0.0041542174,0.00037263212,-0.061764643,-0.2082293,-0.025831852
4124000,4124000,-0.0029687008,-0.0007857196,-0.0030580796,-0.14745496,0.21525447,-0.2873888
4136000,4136000,0.0013523009,-0.0012767129,0.002356834,0.28396714,-0.047942907,0.3250908
4144000,4144000,0.00015414983,-0.0017145723,0.0017502627,-0.035652258,-0.02678395,0.037529387
4156000,4156000,0.0011757279,-0.005884899,0.0011515194,0.112050734,-0.31641126,0.007953716
4164000,4164000,-0.0024016097,-0.0030970564,0.0002675039,-0.29359257,0.19495079,-0.09198228
4176000,4176000,0.0013679991,-0.0014800751,0.00015271167,0.2588886,-0.027900174,0.045843236
4184000,4184000,0.0009093276,-0.0005521737,0.0019486912,0.005443774,0.093907066,0.13841738
4196000,4196000,-0.003550685,-0.0049348073,0.0030149296,-0.30861324,-0.30094615,0.028188186
4204000,4204000,-0.00076209684,-0.0006841519,3.3632386e-05,0.17632857,0.27242565,-0.24621007
4216000,4216000,0.00026953116,-0.0021010023,0.0032440177,0.008147463,-0.07263933,0.14154628
4224000,4224000,-0.0011182325,-0.0016221022,0.0023704,-0.06686458,0.023609262,-0.030549748
4232000,4232000,0.0016602817,-0.0028237342,0.0011644085,0.18914837,-0.103780836,-0.106996134
4240000,4240000,0.001106803,-0.0027017822,0.0016467294,0.011166181,-0.0140073225,0.0029400566
4252000,4252000,0.0006989979,-0.0021443088,-0.0007910441,-0.033559218,0.006177018,-0.12287308
4264000,4264000,-0.0003717381,-0.0008937367,0.0005992128,-0.00078618526,0.014949693,0.027068527
4276000,4276000,-0.0011768637,-0.0043500443,0.0012601082,-0.019806877,-0.17094025,0.015341514
4284000,4284000,0.00184943,-0.0020766156,0.0012003174,0.23519042,0.020278977,0.007749493
4296000,4296000,0.00312202,-0.0019985451,0.0015934255,0.15903124,0.035752453,-0.06948245
4304000,4304000,0.0009059988,-0.0009236913,-0.0010162629,-0.16138776,0.103515826,-0.18588844
4316000,4316000,0.0003278787,-0.0027630301,0.0016107303,0.0025876611,-0.14922425,0.13723588
4324000,4324000,0.0010347576,-0.0016193753,0.0022935336,0.04326027,0.08447769,0.09324757
4336000,4336000,0.0023198589,-0.0004966026,0.0014508339,0.16250783,0.01810071,-0.08555912
4344000,4344000,0.0018606329,-0.0028695478,0.0012072471,0.0024602711,-0.20488892,-0.019210164
4356000,4356000,-8.389703e-06,-0.0011027628,0.00087033486,-0.17718805,0.11944204,-0.124383084
4364000,4364000,-0.0015516331,-0.0025385204,-0.00076590537,-0.16322811,-0.09017795,-0.14764848
4376000,4376000,0.0014901855,0.0002174601,0.0014329124,0.060943857,0.17028749,0.09328118
4384000,4384000,-0.0008055505,0.0013987599,0.000524701,-0.17485823,0.16643178,-0.039319158
4396000,4396000,-0.003470662,-0.0011685216,-1.03295315e-05,-0.1132253,-0.15431544,-0.05593228
4404000,4404000,-0.002205927,0.00085952226,-0.0004941941,0.05128251,0.11711565,-0.045647528
4416000,4416000,-0.0007147457,-0.00051468797,0.0023481655,0.1389098,-0.062145036,0.19483258
4424000,4424000,-0.0004335494,-0.0023556105,0.003597424,0.07022476,-0.17772771,0.14696673
4436000,4436000,-0.00037747144,-0.002864568,0.0020697725,0.02171039,-0.05879172,-0.09550179
4444000,4444000,0.0017321603,-0.00079357764,0.003134746,0.14301534,0.17668727,0.08445643
4456000,4456000,-0.0019669216,-0.0014889669,0.00033737824,-0.16780865,-0.12541847,-0.22170326
4460000,4460000,-0.0025223861,-0.0022862535,0.0010197177,-0.15536714,-0.15718715,-0.053070847
4476000,4476000,0.0014116275,0.0012535327,-0.00045963482,0.18107699,0.07322804,-0.14412583
4480000,4480000,0.0012032524,7.002801e-05,8.678448e-05,0.080844134,-0.08543836,-0.02344847
4496000,4496000,-0.0009028504,-0.000601029,0.0032550455,-0.015622228,-0.043381255,0.20340264
4504000,4504000,0.00090345985,0.00076807546,0.002081464,0.1508483,0.12794942,-0.04819666
4516000,4516000,-0.00022306794,0.00078008464,0.00049701554,-0.08523822,0.056675125,-0.15228885
4524000,4524000,0.001313473,0.0010773763,0.0016033722,0.09857896,-0.060904194,0.028411282
4536000,4536000,-0.0019184933,-0.0016731024,0.0038890215,-0.22664149,-0.15134276,0.15502596
4544000,4544000,-0.00022791827,-0.0022534458,0.0037992217,0.0785725,-0.08022508,0.033985246
4556000,4556000,0.0010528618,0.0018393006,0.005147636,0.12915209,0.2802571,0.04217608
4564000,4564000,-0.0011497904,-0.00049965084,0.0034725354,-0.13900061,-0.12710342,-0.10363573
4576000,4576000,0.00012001634,-0.0017288867,0.0037541455,0.033468876,-0.041469462,-0.08956148
4584000,4584000,-0.00090186996,0.00058824476,0.0024871079,-0.06585112,0.17620675,-0.117561266
4596000,4596000,0.00038141105,-0.0025184853,0.004798739,0.071154684,-0.25586748,0.017155226
4604000,4604000,-0.00062818744,0.0010773283,0.0017260541,-0.06358757,0.25144815,-0.20507312
4616000,4616000,-0.00018159673,-0.00044155773,0.001962952,0.040699594,-0.11448675,-0.06446859
4624000,4624000,-0.0009810321,-0.0003840751,0.0034441017,-0.0748121,-0.007634046,0.12170771
4636000,4636000,0.0009108929,-0.00023353891,0.0063199876,0.15915197,-0.048836656,0.14060855
4644000,4644000,0.0017856699,-0.0038825553,0.0042913514,0.12318319,-0.31895503,-0.15352668
4656000,4656000,-0.00038664287,-0.0023707747,-0.00028842338,-0.0848353,0.08122964,-0.23797306
4664000,4664000,-0.0019487466,-0.00069735013,0.004472093,-0.16884077,0.15296982,0.346012
4676000,4676000,-0.0018235442,7.227389e-05,0.0018682904,0.009581305,0.025279598,-0.09352715
4684000,4684000,-0.0016454569,0.0018507296,0.0021514485,0.018628556,0.17108019,-0.039404523
4696000,4696000,0.00097587844,0.0007138634,-0.0023469548,0.12461836,-0.022595441,-0.15927318
4704000,4704000,-2.0941952e-06,0.00031932676,0.0026244316,-0.036712646,-0.039345726,0.34227496
4716000,4716000,-0.0005549415,0.0021876234,0.0019780016,-0.042579394,0.054878052,-0.024393966
4724000,4724000,-0.002453037,-0.00024379697,0.003071012,-0.15059748,-0.19444206,0.10587481
4736000,4736000,0.0009615328,0.0017529048,0.004429567,0.124802165,0.22353096,0.1551656
4744000,4744000,-0.00047485298,0.0012109429,0.004027735,-0.06164623,-0.008970857,-0.0054621473
4756000,4756000,0.0011136808,0.003842233,0.0019592617,0.08346605,0.17493421,-0.13948555
4764000,4764000,0.0010285373,0.003969882,0.0036307485,0.0136479605,0.045374632,0.10967107
4776000,4776000,-5.4959208e-05,-0.001296964,-0.00210658,-0.047604878,-0.29824188,-0.3236427
4784000,4784000,0.0017794548,-0.0012640529,0.00071149855,0.13458042,-0.06628997,0.10759819
4796000,4796000,0.0005366371,0.0028476082,0.00041314546,0.034854688,0.23045434,0.040106118
4804000,4804000,0.004436533,0.0011615185,0.0007695861,0.3134024,-0.07340306,0.05123826
4816000,4816000,0.0028499444,-0.0024673943,0.0006399732,-0.15359929,-0.24281403,-0.058634218
4824000,4824000,0.0023408765,-0.0030402285,-0.0028636393,-0.0640049,-0.11009088,-0.30954337
4836000,4836000,0.00021170359,0.003090243,0.0013748796,-0.1585733,0.35245776,0.22860229
4844000,4844000,0.00066666014,0.0010770005,0.0010467952,0.023902744,-0.045433663,0.05824078
4856000,4856000,0.0036675653,0.0023065128,0.0006862839,0.11872274,-0.013694702,-0.08478609
4864000,4864000,0.0011283886,5.9916172e-05,0.0002838954,-0.16121925,-0.16341534,-0.008281055
4876000,4876000,0.0016657559,0.0004544002,1.7710612e-05,0.050789338,0.031355567,-0.16831312
4884000,4884000,0.0033997488,0.0005203155,0.0005367027,0.13645434,-0.006652322,0.02691026
4896000,4896000,-0.0016314569,1.3963785e-05,0.0018635357,-0.29181144,-0.048037194,0.045703422
4904000,4904000,-0.0011189638,-0.00020258874,0.002201995,-0.028684296,-0.025742654,0.04760852
4916000,4916000,0.0013879193,-0.0003568898,0.0016954797,0.048135977,-0.07090459,-0.11493547
4924000,4924000,0.0035070004,-0.0006371122,0.001471233,0.18839233,-0.02181523,-0.039246716
4936000,4936000,0.002510227,-0.00041928235,0.0020154568,0.027981304,-0.030266983,0.016666003
4944000,4944000,-0.00039350206,0.0009191525,-0.0005145045,-0.27098963,0.13142411,-0.20497058
4956000,4956000,-0.0015450121,0.0035204135,0.0005252459,-0.025977746,0.115045115,-0.0041482914
4964000,4964000,0.0015353003,0.0006266809,-0.00034426828,0.23433474,-0.18593316,-0.05586149
4976000,4976000,0.0023641288,-0.00051942887,0.0047350205,0.07728081,-0.1813901,0.30469647
4984000,4984000,-9.974674e-05,0.0006437786,0.004408181,-0.1879338,0.025413083,0.056882422
4992000,4992000,-0.00027817336,0.00015480956,0.0008763168,-0.06595433,-0.0070696464,-0.2729263
5004000,5004000,0.0013008494,0.0023998518,0.0031950134,0.16298947,0.120462224,0.117873386
5016000,5016000,0.0011880468,0.00086490484,-0.0029466746,-0.042577825,-0.18598765,-0.4601357
5024000,5024000,-2.1461165e-05,-0.0005532354,0.00090151606,-0.099408,-0.12052154,0.24496567
5036000,5036000,0.00326477,0.0031691736,0.0014481741,0.23297366,0.12620664,-0.09956117
5044000,5044000,0.0030250894,0.0010392829,-0.0002721839,0.029770315,-0.09611638,-0.14601415
5056000,5056000,-5.1007257e-05,0.0027123229,0.002653725,-0.14972563,0.05084748,0.09886266
5064000,5064000,0.0014805616,0.002089455,0.00045865693,0.07450543,-0.054781813,-0.1587539
5076000,5076000,-0.0014629381,0.0007343078,0.0001303003,-0.26575089,-0.06374514,-0.08368891
5084000,5084000,0.0023546158,0.00043732207,9.090791e-05,0.28816354,-0.053573966,-0.012533893
5096000,5096000,0.00055178336,-0.0012113997,0.0012742643,-0.09642729,-0.13075453,0.053572122
5104000,5104000,0.0010762026,-0.0013463562,0.001438926,-0.024480455,-0.044520516,0.026156604
5116000,5116000,0.0006954031,0.002584997,0.00080748415,0.092316076,0.27803355,0.0024203204
5120000,5120000,0.0015780344,0.0024874182,0.0010354926,0.1474862,0.14802907,0.025883337
5136000,5136000,-0.0016545391,0.0011652121,0.0011032323,-0.20980361,-0.076031834,-0.05515774
5144000,5144000,-0.0012169977,-0.00030169357,0.0022656342,-0.008366913,-0.11999735,0.068167
5156000,5156000,0.0013485737,0.0013766717,-0.00050605333,0.018624887,-0.04334579,-0.16993502
5164000,5164000,-0.00021775533,0.00023962511,-0.00067081687,-0.082970776,-0.06370472,-0.061745502
5176000,5176000,-0.0010206327,0.0008770297,0.002186968,-0.10341133,0.056390528,0.1867079
5184000,5184000,0.000997847,-0.00028056884,0.002500447,0.15326019,-0.08668817,0.09277254
5196000,5196000,0.0015204359,-0.0020927666,0.0033887275,0.022455033,-0.09182081,0.017306266
5204000,5204000,-0.00069880066,-0.0001395042,-0.00029536698,-0.16710919,0.14676462,-0.31398937
5212000,5212000,0.0009739767,5.9203245e-05,3.0278461e-05,0.085008435,0.046410352,-0.044772275
5220000,5220000,0.0004178076,0.00037516048,-0.0003573579,-0.018044643,0.042339854,-0.051132865
5236000,5236000,0.0021069313,-0.00020378036,0.00055816653,0.04893651,0.06429428,-0.011259503
5244000,5244000,-0.0007777156,0.0014244933,0.0016551479,-0.23964545,0.14133553,0.12386735
5256000,5256000,-0.0013829062,-0.0012437413,0.0054246206,-0.11459701,-0.059541304,0.12099565
5264000,5264000,0.00023967784,0.003008002,0.0036768955,0.1275162,0.29731482,-0.0844754
5276000,5276000,0.0043076826,-0.0018571434,0.0028399623,0.28630787,-0.25553212,-0.15810278
5284000,5284000,0.0030948522,-0.001320139,0.00042688125,-0.015466571,-0.045182705,-0.26798198
5296000,5296000,0.00024010357,0.0006241924,-0.0029613585,-0.22022441,0.1947128,-0.1701873
5304000,5304000,-0.00035871356,0.0011305762,0.00096421887,-0.11085412,0.07528986,0.2583573
5316000,5316000,0.0027660474,0.0005826787,0.0013452419,0.20444077,0.0045999335,0.012093425
5324000,5324000,0.003011432,0.0011874037,-0.0014248454,0.06527962,0.061584268,-0.2199195
5336000,5336000,0.0019306986,-0.00032993592,0.0038437308,-0.012947623,-0.084994934,0.3605631
5344000,5344000,0.0027092462,0.0027478277,0.00354113,0.037981883,0.24976033,0.06984512
5356000,5356000,-0.0008996206,-0.002261574,0.005542628,-0.2670485,-0.42893374,0.20763059
5364000,5364000,-0.0014826949,-0.0036790418,0.0030722246,-0.12231949,-0.19064967,-0.14322744
5376000,5376000,0.001684788,0.0006520138,0.0017347122,0.18966985,0.16979887,-0.11266437
5384000,5384000,0.002499056,0.00040530693,0.000497728,0.16851899,0.060479414,-0.15388937
5396000,5396000,0.001519846,-0.0020778948,-0.0007094643,-0.14885557,-0.23653154,-0.049364395
5404000,5404000,0.00058255205,0.00064135715,0.0010807673,-0.11980254,0.17351864,0.14536513
5416000,5416000,0.0017050048,0.00013080519,0.0042086705,0.10280654,0.038597237,0.19824845
5424000,5424000,0.002498437,0.0010089679,0.0011250504,0.08538162,0.060820483,-0.22315463
5436000,5436000,0.00082107214,0.0008724816,0.0009837295,-0.041052308,0.038471244,0.013565452
5444000,5444000,0.0022289173,0.00058590155,0.0011789883,0.06575152,-0.03520248,0.015143004
5456000,5456000,-0.00025899638,0.000501161,0.0019503889,-0.14127623,0.051141985,0.10191895
5464000,5464000,-0.0012044806,0.0011416445,0.0038437466,-0.12107165,0.06221253,0.17733961
5476000,5476000,-0.0007065898,-0.0014933301,0.0013897655,-0.026453104,-0.14882031,-0.115020715
5484000,5484000,-0.0007181694,0.00023787795,0.0004322258,0.002206793,0.11915921,-0.11940025
5496000,5496000,0.00035821076,0.0010318449,0.00042018772,0.016443558,0.09791615,0.026037266
5504000,5504000,6.264076e-05,0.0011387672,0.000966964,0.015858222,0.035571497,0.034010425
5516000,5516000,0.0007107734,0.0030463834,0.0012788945,-0.012043618,0.12677398,0.08459051
5524000,5524000,-0.0012791108,0.0013517928,0.0030048648,-0.13689584,-0.1052473,0.12816826
5536000,5536000,0.0016112768,0.0015896158,0.00084919966,0.052152365,-0.032024454,-0.055700272
5544000,5544000,0.0018155497,0.0006463267,0.0010937911,0.06057036,-0.069548935,-8.2664475e-05
5556000,5556000,0.002617489,0.00078463275,0.0030811653,0.062256794,-0.054007374,0.105687946
5564000,5564000,0.0023097247,0.00023475848,0.0008411108,-0.011990115,-0.040333483,-0.15074065
5576000,5576000,0.0005118635,0.003975982,0.0006070611,-0.04735773,0.25740498,-0.019426199
5584000,5584000,-0.0005949987,0.0010014162,0.001460392,-0.13333933,-0.22362265,0.07327383
5596000,5596000,-0.00031834678,-0.0016003312,0.00061889767,-0.04328163,-0.146645,-0.09159627
5604000,5604000,-0.0004146546,0.0008000778,0.0013288507,0.0041864514,0.16105711,0.05446142
5616000,5616000,0.00216247,1.2642238e-05,-0.00023313361,0.16893618,-0.016797254,-0.17748302
5624000,5624000,0.0003176377,-0.0005573826,-0.0034247527,-0.13627571,-0.050615437,-0.29254398
5636000,5636000,-0.0015161289,0.0013238341,-0.00019700115,-0.032339767,0.07541348,0.13816981
5644000,5644000,0.00063175394,0.00119953,0.0011433983,0.1316958,-0.0026116287,0.16483228
5656000,5656000,0.00016611768,-0.00016011763,-1.49931875e-05,0.09479459,-0.13215335,-0.05090752
5660000,5660000,0.0016242773,0.00010703504,0.00034066557,0.2107497,-0.04663459,0.0091976905
5676000,5676000,-0.0019092588,0.0018955509,0.00088763604,-0.11800825,0.10391866,0.097355515
5684000,5684000,-0.00028326456,0.0024794373,0.0019938701,0.09942539,0.07507289,0.09911534
5696000,5696000,0.00024276739,0.0032783719,-9.747129e-05,0.09618234,0.12990107,-0.064724624
5704000,5704000,0.0005439862,0.0034843052,0.0013361407,0.031759597,0.024239404,0.10915627
5716000,5716000,0.00016398611,0.0005290564,-0.001505618,-0.026503911,-0.21463093,-0.18732679
5724000,5724000,-0.0026601884,-0.0016835807,2.4683715e-05,-0.25357014,-0.24166045,0.097418495
5736000,5736000,0.002235564,-0.00029053772,0.00018227944,0.33802256,0.075640865,-0.040339604
5744000,5744000,0.0008422936,0.00070621213,6.3577318e-06,-0.024168007,0.116023675,-0.03088115
5756000,5756000,5.2038813e-05,-0.000108615495,-0.00090479356,-0.039081354,-0.020235995,-0.024272777
5764000,5764000,0.00023124553,0.0021217866,0.002743025,0.0013703043,0.1571985,0.31473583
5776000,5776000,0.0003847991,-0.00012549246,8.6424174e-05,-0.027315285,-0.12748016,-0.20981038
5784000,5784000,-0.00035543623,0.000119906384,0.00015469745,-0.059440427,-0.016663106,-0.032211676
5792000,5792000,0.0008968895,-0.0014693639,0.0034954217,0.08998727,-0.14658415,0.27706757
5804000,5804000,-0.0020315517,0.00010146806,-0.00033319672,-0.19431305,0.10301233,-0.22363406
5812000,5812000,-0.00032483297,0.002441162,-0.000855351,0.0881425,0.25795537,-0.12797791
5824000,5824000,-0.0011755908,0.0006479821,0.0008740733,-0.03700754,-0.20231606,0.15678994
5832000,5832000,0.0024269596,-0.0017896965,-9.597506e-05,0.3061344,-0.29280457,-0.04861845
5840000,5840000,0.0027521183,-0.004280604,-0.0008595182,0.09363187,-0.24803534,-0.079247855
5856000,5856000,0.0026234556,-0.0013154955,0.00035809196,-0.020651136,0.031157177,0.11065726
5864000,5864000,0.0011508742,-0.0019068117,-0.00075002515,-0.11120192,-0.03505317,-0.06961277
5872000,5872000,0.0010656946,-0.0013921931,-0.0015454697,-0.07075002,0.052434076,-0.050471906
5880000,5880000,0.0015191345,0.00048269285,0.0024778917,0.051872402,0.1661028,0.30159
5892000,5892000,0.00049379957,1.3448298e-05,0.0005507557,-0.14025773,0.011854096,-0.0583712
5900000,5900000,0.00030250615,0.0032405746,0.0009264038,-0.0473397,0.25546402,-0.00035474004
5912000,5912000,0.002204036,0.0017852061,-0.0016708565,0.13497965,-0.10491201,-0.16151208
5920000,5920000,0.0006655741,0.0009915917,0.0023098183,-0.1103203,-0.04065923,0.29018113
5932000,5932000,0.0005365999,0.00030674646,0.001246705,-0.0048019104,-0.115664914,-0.016627772
5944000,5944000,0.0014106384,-0.0005300571,-0.00044149952,-0.01943259,-0.15075378,-0.11761078
5956000,5956000,-0.0023126681,0.001049038,0.00082888745,-0.20052986,0.045179337,0.04836859
5964000,5964000,-0.0023145997,0.0003903606,0.0021797281,-0.07519795,-0.031803843,0.13547894
5976000,5976000,-0.0012185094,-0.000246597,0.0024622753,0.15014559,-0.014574666,0.08050839
5984000,5984000,0.0013368124,0.0005401103,0.003057346,0.24446902,0.07774714,0.0017599887
5996000,5996000,0.0010258525,0.0014068414,0.0016891744,0.06986721,0.03369871,-0.10695241
6004000,6004000,0.0014413118,0.0007604491,0.0014870212,0.04287338,-0.0387058,-0.033388074
6016000,6016000,0.002169285,-0.0027248226,0.003107477,0.13155288,-0.20205623,0.12336617
6024000,6024000,-0.00014818809,0.00063228793,0.00059797725,-0.21628046,0.22594851,-0.20031749
6036000,6036000,0.0011057849,-0.0024745464,0.002985831,0.10231763,-0.297817,0.15801832
6044000,6044000,-0.00027842226,-0.00022255164,0.003042691,-0.083231494,0.15278111,0.05348419
6056000,6056000,0.0029843342,0.0017525954,0.0045502493,0.19978514,-0.0030027493,0.08316909
6064000,6064000,0.0018494943,0.0011582994,0.0028087753,-0.053150013,-0.019829275,-0.12422381
6076000,6076000,8.260913e-05,-0.00038200617,0.0009458445,-0.053854566,-0.13279706,-0.09158919
6084000,6084000,-0.00040754105,-0.0006101262,0.0003215716,-0.09049111,-0.047713295,-0.08955435
6096000,6096000,-0.0007780447,-0.0022321995,-0.0007679757,0.012107626,-0.21315394,-0.08941232
6104000,6104000,0.0026065398,-0.00011923723,0.00044678472,0.31754148,0.15457475,0.082740106
6116000,6116000,0.0012062099,0.0008466947,0.00070092257,-0.10698143,-0.026532717,0.0047430093
6124000,6124000,-0.0006198435,-0.00094052823,0.0017924297,-0.19366364,-0.11190232,0.10308958
6136000,6136000,0.002833683,0.0011650785,0.0015312678,0.25335944,-0.071422115,-0.014839086
6144000,6144000,-0.0015355706,-0.0007719896,0.002142844,-0.32515177,-0.12370697,0.023643134
6156000,6156000,-0.00048600452,0.0038190843,-0.00082824717,0.10857575,0.23884663,-0.1881305
6164000,6164000,0.0021741018,-9.179115e-05,-0.0009452113,0.24528363,-0.2692451,-0.051659387
6176000,6176000,-0.00069098256,-0.00095580146,0.0023104087,-0.17306726,-0.009086217,0.15014264
6180000,6180000,0.00010384701,0.00080210995,0.0020958544,-0.013252929,0.18373752,0.062543444
6192000,6192000,0.002894245,-1.3290439e-05,-0.0032129148,0.21564135,-0.15080723,-0.4461811
6204000,6204000,0.0022010056,-0.0015107826,-0.0021016896,-0.043285258,-0.12803973,0.14108619
6216000,6216000,0.0006101411,-0.002185376,0.0030503455,-0.11313394,-0.030250054,0.38213202
6220000,6220000,0.000930605,-0.002249043,0.0047383094,-0.030061826,-0.024088625,0.39926612
6232000,6232000,0.0011522627,0.0011470262,6.7311106e-05,-0.0049575064,0.18188713,-0.30644238
6240000,6240000,0.0034547895,0.0015987209,-0.00089157454,0.21278661,0.10611315,-0.12596467
6252000,6252000,0.00097347033,0.0012074001,0.0017140344,-0.155799,0.027302338,0.10692203
6260000,6260000,0.0025966452,-0.00018511247,0.0016161354,0.080726065,-0.13501371,0.02904096
6272000,6272000,0.00028336747,-0.0050183586,0.0010168422,-0.17081472,-0.24629818,-0.076147065
6280000,6280000,0.0025722878,-0.00088537624,0.0053730137,0.18246397,0.27058366,0.33998662
6292000,6292000,0.0012739957,0.0019626366,-0.00029844843,-0.15027864,0.23539218,-0.32170057
6300000,6300000,0.0005729394,0.00037515024,0.00020789183,-0.0938781,-0.07315525,-0.049038537
6312000,6312000,-0.0006215656,-0.0010479749,0.0022846882,-0.16203463,-0.11447297,0.097230874
6320000,6320000,0.00028733676,-0.0013498291,0.0023227457,0.0723132,-0.048715647,0.029620249
6332000,6332000,-0.00068849395,-0.002947656,0.00016797174,-0.14529799,-0.07284944,-0.12994927
6340000,6340000,0.0010613572,0.000643292,0.00017995105,0.12356911,0.25513387,-0.024469048
6352000,6352000,0.000904812,0.0006480906,0.0013887153,-0.07434696,0.08828583,0.06266775
6360000,6360000,0.00030468393,0.0027203066,0.0019538202,-0.05052402,0.17955911,0.06393973
6372000,6372000,0.002101845,-0.0010778224,0.0021654167,0.111691706,-0.2766396,0.12211405
6380000,6380000,0.0007459481,0.00035751192,0.003195038,-0.08846159,0.06278089,0.080778345
6392000,6392000,0.0019154351,0.0013647024,-0.00090834615,0.106710225,-0.05104019,-0.25754076
6400000,6400000,0.0004803649,-0.002165331,-0.0012673906,-0.085678734,-0.3132768,-0.09048787
6416000,6416000,0.0010544265,-0.0020692055,-0.00021588022,0.031573504,0.03823911,-0.07087663
6424000,6424000,0.0009455801,0.0025643436,0.00033442792,-0.013765285,0.38161808,0.041543256
6436000,6436000,0.0020267863,0.00035588723,-0.0009971544,0.063927025,-0.018806899,-0.1324734
6444000,6444000,0.0012012057,0.0012923335,-0.00076744216,-0.0591861,0.04862972,-0.012883744
6456000,6456000,0.00023337791,0.0010330337,-0.00025649724,-0.04394961,0.02469854,0.07019713
6464000,6464000,0.00047786313,0.0028816299,0.0031358944,-0.01312531,0.13484824,0.3266859
6476000,6476000,0.00088261336,0.0021354086,0.002230372,0.10091605,0.0199909,-0.14554036
6484000,6484000,0.0002993946,3.3419114e-05,-0.0017440364,-0.034644358,-0.15929918,-0.3619563
6496000,6496000,0.0007346895,-0.00040442264,-0.0012358255,0.0043325685,-0.110349745,-0.05829813
6504000,6504000,0.00010301499,-1.5675556e-05,-0.00081020314,-0.030017251,-0.003826036,0.039002568
6516000,6516000,0.0027507343,-0.00075112656,-0.00077148824,0.18848267,-0.12543163,0.031543646
6524000,6524000,0.0029171933,-0.000710628,-0.0004901315,0.05398888,0.0023407931,0.032439798
6536000,6536000,0.0008763717,0.0013584858,-0.0007215547,-0.08764503,0.10366553,0.0026809908
6544000,6544000,0.0010757912,0.0010618847,4.9591312e-05,-0.03408711,0.021995211,0.06129207
6556000,6556000,0.0015110878,0.00096103083,0.0023107065,0.13673168,-0.06005091,0.20593083
6564000,6564000,0.005023335,0.0015538409,0.0037517764,0.31191918,0.051009554,0.1597769
6576000,6576000,0.0024859202,-0.0003983453,-0.0027338392,-0.1663343,-0.11681132,-0.43109906
6584000,6584000,0.0011243905,0.00249921,0.0027375913,-0.1523923,0.16531795,0.36354026
6596000,6596000,0.0015742396,0.0018500658,-0.00016511246,-0.052497156,0.19073644,-0.15813828
6604000,6604000,-0.001000462,0.0019321528,0.00024031168,-0.22168027,0.002619908,-0.03803333
6616000,6616000,0.0010527362,0.00056401314,-0.0015773696,0.047781307,-0.054248247,-7.347857e-05
6624000,6624000,0.003511401,-0.0016013281,0.0023404255,0.26065674,-0.19760874,0.31209677
6636000,6636000,0.0006452282,-0.0014817417,0.0041834773,-0.20663014,0.014493135,0.1772278
6644000,6644000,0.00028893794,0.00029251073,0.0008022439,-0.08497591,0.13336603,-0.24929968
6656000,6656000,0.0016966681,0.00019798568,-0.00034591227,0.12952714,-0.0022165102,-0.009130798
6664000,6664000,0.004142867,-0.0009023659,2.1057398e-05,0.2290039,-0.050311018,0.005493994
6676000,6676000,0.001927875,0.0023504633,0.00070257083,-0.15088093,0.2398999,0.12880228
6684000,6684000,7.882016e-05,0.0014533033,0.002108166,-0.1651816,-0.060561452,0.14440367
6696000,6696000,-0.00016426528,0.00014798902,0.0001404498,-0.07126353,0.062228847,-0.11714845
6704000,6704000,0.0010371895,-0.0004442162,-0.0014665563,0.0835574,-0.08234056,-0.17860946
6716000,6716000,0.0001543446,7.402478e-05,0.00075192313,-0.061804593,0.120247126,0.15050353
6724000,6724000,0.0016910388,0.00010439847,-0.0012743272,0.140118,0.027470196,-0.1109567
6736000,6736000,0.0041534896,0.003131855,-0.000615739,0.12170477,0.266456,-0.030265024
6744000,6744000,0.0008857051,0.0013769413,0.0018033793,-0.24175525,-0.09501312,0.19525903
6756000,6756000,0.0024338942,-0.00051885936,-0.0024360598,0.017859545,-0.08618637,-0.24922344
6764000,6764000,-0.0013749151,0.0020152088,-0.0018247704,-0.31285107,0.17671438,-0.011439105
6776000,6776000,0.002283604,0.0004992322,0.0032920153,0.23728445,-0.08603629,0.2878847
6784000,6784000,0.00113304,0.0013936483,0.0008177324,-0.04758259,0.030061629,-0.121310964
6796000,6796000,0.00080742873,0.0006084237,0.0015424105,-0.03058971,-0.020379154,0.07714923
6804000,6804000,0.0021162068,0.00016433094,0.00022952346,0.10466811,-0.06860926,-0.10691002
6816000,6816000,2.8808368e-05,0.0006362349,-0.0044606305,-0.14298373,0.13195713,-0.2883665
6824000,6824000,0.0011519436,0.0012294282,-0.002437741,0.05838784,0.035952948,0.08831073
6836000,6836000,0.00047223084,0.00086801546,0.0005443918,-0.009373277,0.07059407,0.18425086
6844000,6844000,0.0023391328,-0.00056013325,-0.002965243,0.16608728,-0.09265347,-0.25730368
6856000,6856000,0.0017839986,0.001915897,-0.00064710964,-0.042105593,0.121862926,0.14914958
6864000,6864000,0.00059632066,0.000555384,3.7399586e-06,-0.12160103,-0.06202286,0.11018169
6876000,6876000,0.001084819,0.0013640914,0.0008083575,0.06624523,-0.031964324,0.009525507
6884000,6884000,0.004179383,0.00076019997,0.0006417801,0.28817138,-0.039403494,0.006952561
6896000,6896000,-0.00021271629,-0.0029079947,0.00042528322,-0.28514415,-0.23921347,-0.11944346
6904000,6904000,-0.0018378175,0.0014503696,-0.0002117324,-0.22285011,0.30913883,-0.048465688
6916000,6916000,-0.001263317,-0.0021943445,0.000112048,0.085110165,-0.2617633,-0.07973545
6924000,6924000,0.0023435885,-0.0043271636,-0.0015430117,0.32279974,-0.25455758,-0.13694678
6936000,6936000,0.0010706576,0.00046396954,-0.001581719,0.0018852977,0.3983902,-0.09794825
6944000,6944000,0.0010068538,0.00058086775,-0.0008970838,-0.014032224,0.12171291,0.06856978
6956000,6956000,0.00033030484,-0.000549661,0.000121143414,-0.009382639,-0.082777485,-0.03204277
6964000,6964000,0.00014468981,-0.00012247637,-0.0026502358,-0.02474446,0.0072004925,-0.21821204
6976000,6976000,0.00022026093,7.3086005e-05,0.00033425284,-0.039518103,0.056578215,0.20196474
6984000,6984000,0.0007518813,0.0042340434,-0.0002123201,0.050853997,0.35296533,-0.0008024437
6996000,6996000,-0.00035773695,-0.00058964686,-0.0043275617,-0.10070794,-0.27492517,-0.32354552
7004000,7004000,0.0011291681,-4.317984e-05,-0.00045415896,0.09099072,-0.049049903,0.26025712
7016000,7016000,0.0027966718,0.00060719764,-0.0010422145,0.20571017,-0.0068730405,-0.04494685
7020000,7020000,0.0034116043,-0.0008772854,-0.001096434,0.18336688,-0.16345178,-0.03145243
7032000,7032000,0.0016524598,-0.00072722184,0.00064032024,-0.07059573,0.06788333,0.09241907
7040000,7040000,0.0017285015,0.002412314,-0.0012785583,-0.023500962,0.28527144,-0.15494932
7052000,7052000,-0.0013088787,-0.00023190212,-0.0020997087,-0.17136097,-0.19589424,-0.050012913
7060000,7060000,-0.002079351,-0.0007124203,0.00020479888,-0.1409628,-0.07734229,0.18875961
7072000,7072000,0.00046926842,0.0010679257,-0.0016231787,0.14513297,0.043060496,-0.090725034
7080000,7080000,-0.0015479682,-1.0686461e-05,-0.0028758133,-0.10411093,-0.042814765,-0.1301382
7096000,7096000,-0.0008827627,-0.0010601399,-0.0014099407,0.11712636,-0.102558926,-0.00036920042
7100000,7100000,0.0009135277,0.00028273836,-0.002455186,0.25981972,0.08584334,-0.1125401
7112000,7112000,0.002000618,0.00079035945,-0.0030447515,0.08373814,-0.08365321,-0.035134077
7120000,7120000,0.001457427,0.0017605908,-0.0025250237,-0.032499578,0.0914983,0.0026170404
7136000,7136000,0.0027349796,0.0023556054,-0.0009668106,0.19017743,-0.14675397,0.16540289
7144000,7144000,0.0026571148,-0.0010350142,-0.0021151067,0.033312954,-0.29862988,-0.07977914
7156000,7156000,0.0011865079,-0.00051059807,-0.0031292373,-0.07157011,0.015808009,-0.037230298
7164000,7164000,0.00023448642,-0.00212717,-0.00093479664,-0.11948124,-0.1584877,0.18723343
7176000,7176000,-0.000662999,0.00092735,0.001019188,-0.104952514,0.22061889,0.120011434
7184000,7184000,-0.0021553098,0.0029474143,0.0013262188,-0.13047253,0.23612449,0.08469387
7196000,7196000,0.0013656883,0.0043850252,-0.00056284573,0.19052194,0.0684316,-0.24562438
7200000,7200000,0.0016719531,0.0015808258,-0.002224199,0.14153592,-0.26234448,-0.31857914
7216000,7216000,0.00047744124,0.0015836642,-0.00098209,-0.101154916,0.14511117,0.1776907
7224000,7224000,-0.0016463324,-0.0003148173,0.00027573435,-0.19926623,-0.10457903,0.15630747
7232000,7232000,-0.0016620606,0.00084232865,-0.00068719976,-0.043432243,0.05088178,-0.050697844
7244000,7244000,0.0021898514,-0.00042560464,-0.0033258381,0.22416627,-0.02583001,-0.12325932
7256000,7256000,0.005211887,-0.00035218475,-0.0011203666,0.21415864,-0.07124136,0.08295472
7264000,7264000,0.0030738828,0.00027844636,-0.00016344449,-0.11626786,0.04287829,0.09811021
7276000,7276000,0.0033494649,-0.0012001586,-0.0008401079,0.06254323,0.016951293,-0.020222496
7280000,7280000,0.0034834761,-0.00010107504,-0.0006878517,0.05005965,0.1277799,0.004833073
7292000,7292000,0.0009193941,0.0013907207,-0.001751867,-0.14734171,0.1543118,-0.10355382
7300000,7300000,0.0026995693,0.003674094,0.00012618239,0.11065377,0.21685506,0.15162274
7312000,7312000,0.0012297651,0.0019984338,0.0009515078,-0.11302833,-0.009575883,0.09178498
7320000,7320000,0.0012107163,0.0031423776,0.0012251189,-0.024050426,0.0632825,0.012990185
7332000,7332000,0.0019109965,0.0010742401,-0.0003580897,-0.061644673,-0.09921804,-0.06573799
7340000,7340000,-0.0006106044,-0.0024178675,0.00023807347,-0.2165272,-0.3210809,0.026654126
7352000,7352000,-0.000304615,-0.001519796,0.00030373153,-0.12504372,0.06924103,0.0012558207
7360000,7360000,-0.002599744,0.00024951436,-0.0020431825,-0.18235222,0.18990517,-0.19830146
7372000,7372000,0.0012128806,-0.0015876093,0.0003876523,0.15224135,-0.21580264,0.19686528
7380000,7380000,-0.00075706095,-0.0014088172,0.0009090807,-0.1297324,-0.036068276,0.08994056
7396000,7396000,0.0003166868,-0.0010751942,-0.001836464,0.15313673,0.08746062,-0.12181438
7400000,7400000,-0.0003008661,0.00091505004,-0.0017715836,0.046430465,0.2699531,0.038441945
7412000,7412000,0.00062487426,-0.0008630627,-0.00096320536,0.008407772,-0.12674694,0.025906937
7424000,7424000,-0.0010165522,-0.0034419154,-0.002398353,0.0020088926,-0.2327188,-0.15507683
7436000,7436000,6.109127e-06,-0.0007475191,-0.00014027487,0.0040988848,0.16381559,0.13568951
7444000,7444000,0.0009075537,0.0024145972,-0.0036075076,0.08905137,0.31582862,-0.24965873
7456000,7456000,-5.6626275e-05,-0.0028297813,-0.0014137792,-0.14922516,-0.29799145,0.09872736
7464000,7464000,-4.8223883e-06,-0.0031360104,-0.003311575,0.019566566,-0.098062195,-0.13943541
7476000,7476000,0.0028057313,-0.0015259623,-0.0023934084,0.05914948,0.081161454,0.07185647
7484000,7484000,0.0016146714,0.0009680856,-0.00051351025,-0.06459518,0.23036566,0.18614645
7496000,7496000,-0.004893543,-0.0019270596,-0.002755695,-0.41431308,-0.21415287,-0.095904745
7504000,7504000,-0.002412397,-0.0014338042,-0.0015412322,0.07158797,-0.0014543098,0.06712468
7516000,7516000,-0.0021958011,0.0018349236,-0.003053057,-0.022098675,0.17907093,-0.10104801
7524000,7524000,-0.000327299,0.0013444242,-0.0040875915,0.16337362,0.033736166,-0.13740173
7536000,7536000,-6.972591e-05,0.0020740284,-0.004409691,0.020910757,-0.013009898,-0.0016960579
7544000,7544000,0.0009319436,0.0018972168,-0.0026719058,0.10142185,-0.026152963,0.15217742
7556000,7556000,0.0022252365,-0.00021337857,-0.0035201793,0.10922572,-0.07903262,-0.0320687
7564000,7564000,0.0016932056,-0.00022210926,-0.0025443374,-0.010291411,-0.024186056,0.09859468
7576000,7576000,-0.0017181694,0.00029652473,-0.0006851289,-0.26374042,-0.080901965,0.022444582
7584000,7584000,0.0017938259,-0.0008445047,-0.0048346296,0.22510913,-0.0676163,-0.3549617
7596000,7596000,0.0006457968,0.0014196555,-0.00655654,-0.07100447,0.10809768,-0.13805826
7604000,7604000,0.00082985184,0.0006646686,-0.0027243267,0.00067419745,-0.036218822,0.31729096
7616000,7616000,9.583426e-06,-0.0022093183,-0.001722144,-0.08443527,-0.2788372,0.015708292
7620000,7620000,-0.0006206251,-0.002475957,-0.0034013505,-0.11586593,-0.18762869,-0.17150384
7632000,7632000,-0.00216182,0.0012696884,-0.00087793486,-0.10292602,0.18632147,0.18107617
7640000,7640000,-0.0011419206,0.00020164112,-0.0026755454,0.092307925,-0.016881878,-0.087611616
7652000,7652000,0.0006592356,0.0022775056,-0.0023276554,-0.018206969,0.13373215,0.022450307
7660000,7660000,0.0022221357,0.0033256598,-0.0011700721,0.17713001,0.13531789,0.096927054
7672000,7672000,-0.0017077484,0.00069402205,-0.0013932739,-0.3359,-0.1592308,-0.08275785
7680000,7680000,0.0007368609,0.001396758,-0.0025346861,0.12803833,0.0048572123,-0.0954301
7696000,7696000,-0.0012378787,0.0015239739,-0.001102723,-0.10494765,-0.039849643,0.012709788
7700000,7700000,-0.0012131255,-0.00025511207,-0.0014043655,-0.057173777,-0.21391293,-0.025170429
7712000,7712000,0.00060927146,-0.0024698223,0.0029952724,0.12269686,-0.11121517,0.34980375
7720000,7720000,0.0007531593,-0.0025673113,-0.00063205423,0.04223161,-0.033036064,-0.23712188
7736000,7736000,0.00054466724,0.0029275462,-0.00243094,0.04137359,0.26692706,-0.038945254
7744000,7744000,0.0002161978,0.0016336117,-0.0021824802,-0.0105184475,-0.044435948,0.0033602545
7756000,7756000,0.0010387285,-0.00022437843,-0.00026105938,0.063389935,-0.08325636,0.23508342
7764000,7764000,0.0017356649,0.0012421487,-0.0011371139,0.091073975,0.08514807,-0.037835136
7776000,7776000,-0.0012417411,-0.0018888307,-0.00080017536,-0.2211703,-0.15730074,0.07174142
7784000,7784000,0.00060987216,-0.00073944964,-0.0011121131,0.12377896,0.03017901,-0.015593615
7796000,7796000,0.0011247916,-0.00036327494,-0.0032007,0.020157065,0.059714023,-0.099644504
7804000,7804000,0.002760224,0.0034197553,-0.0017027241,0.12048178,0.34388328,0.07335227
7816000,7816000,0.0041259793,-0.00025621755,-0.00385452,0.1545762,-0.22434288,-0.16640358
7824000,7824000,0.0005631697,0.0034601334,-0.00158997,-0.27393445,0.2553488,0.18202877
7836000,7836000,0.00046418427,0.000656941,-0.000187826,0.02534061,-0.097185045,-0.008058893
7844000,7844000,0.0027125124,0.0019538417,-0.0020429697,0.19359066,0.028141769,-0.13629857
7856000,7856000,-0.0004263654,-0.0011692964,-0.0030145673,-0.23993272,-0.05947633,-0.086536616
7864000,7864000,0.0017000847,0.00047271047,-0.0028048884,0.13829546,0.07352357,0.020406889
7876000,7876000,0.0010880412,-0.00025225803,-0.001047712,-0.113973305,0.092311196,-0.06253503
7884000,7884000,-0.0016127123,0.0018667756,-0.00084426196,-0.2596447,0.17919108,0.045175824
7896000,7896000,-0.00045191974,0.00015250966,-0.0038350972,0.015423995,-0.059560116,-0.28105178
7904000,7904000,0.0009149883,0.001362789,-0.0044456795,0.13969761,0.09984406,-0.07363708
7916000,7916000,0.001241707,-0.0022794385,-0.004297624,0.025616571,-0.27150068,-0.16169073
7924000,7924000,0.0011613809,-0.0009056614,-0.0060944036,-0.001978035,0.049330097,-0.1687202
7936000,7936000,0.00087221194,-0.0011725184,-0.002482566,-0.03978784,-0.02545987,0.17130367
7944000,7944000,0.0012908659,0.00053573493,-0.0025031664,0.05345197,0.15121457,0.04206034
7956000,7956000,-4.432781e-05,4.7220383e-05,-0.0006507009,-0.100241736,-0.017081995,0.2019121
7964000,7964000,0.0012763422,-0.00030139275,-0.0016022744,0.06268774,-0.027605107,-0.046598807
7972000,7972000,-0.00074126467,0.00081006857,-0.00094976736,-0.15139869,0.07129052,0.05791948
7980000,7980000,-0.0019080975,-0.00071606925,-0.0007140185,-0.13935873,-0.09620258,0.028368616
7996000,7996000,0.00060780824,-0.00031923642,-0.0022171002,0.09694895,-0.17345123,-0.06375036
8004000,8004000,-0.0004364889,0.00034746947,-0.0010674765,-0.04394307,0.018077517,0.08549131
8016000,8016000,0.0001663781,-7.36909e-05,-0.0034739235,-0.0067521147,-0.0071468037,-0.21165423
8024000,8024000,-6.586651e-05,0.00029575732,-0.0025742534,-0.017964177,0.008196418,0.03542743
8036000,8036000,0.00076634274,0.0036379588,-0.0017162972,0.020449229,0.22468,0.040200584
8044000,8044000,0.00079329935,0.0010011853,-0.004214736,0.01950951,-0.18109316,-0.2121823
8056000,8056000,0.0011682683,-0.0002224464,-0.0018464649,0.04742548,0.003545141,0.09389337
8064000,8064000,0.0027013428,0.001316275,-0.0018342927,0.112994395,0.11607384,0.056654137
8076000,8076000,-0.0014229402,0.0031063342,-0.0017322148,-0.2320301,0.19684105,-0.049249258
8084000,8084000,0.0005280735,0.0007287841,-0.0033512558,0.099366285,-0.19082841,-0.121394455
8096000,8096000,0.00063985534,0.0002906425,-0.002525995,0.02021484,0.019714504,0.033412185
8104000,8104000,0.0009055289,0.0011149994,-0.0028858818,0.023057343,0.083863534,-0.04610056
8116000,8116000,0.0015725587,0.0006781793,-0.0024388584,0.036159053,-0.0070438003,0.066648155
8124000,8124000,0.0009633788,0.0028895056,-0.002743926,-0.032217257,0.1771715,0.0059638754
8136000,8136000,-0.0007457483,0.00081270887,-0.000810249,-0.1648772,-0.16242321,0.108214974
8144000,8144000,-0.0005859708,0.0012474847,-0.0018177619,-0.0070615485,-0.021937238,-0.07283055
8156000,8156000,-0.0015284695,-0.0009780251,-0.0018104318,-0.13287593,-0.095291555,0.11606544
8164000,8164000,0.0038631773,-0.0011968897,-0.0028992188,0.4285714,-0.049617425,-0.06536456
8176000,8176000,0.00084675464,-0.0026486446,-0.0024201525,-0.17368656,-0.15944263,-0.028010918
8184000,8184000,0.0021037254,0.0009193071,-0.0034673472,0.07529813,0.27053624,-0.07553189
8196000,8196000,-0.0008838464,0.00095525524,0.0002511501,-0.20433038,0.03709923,0.15746255
8204000,8204000,0.00012212817,0.0027059708,-0.000874942,0.02898077,0.17329964,-0.029274575
8216000,8216000,0.0008268013,0.00094370963,-0.0016596038,0.069212854,-0.21650484,-0.05913492
8220000,8220000,0.0018885797,-0.00013483409,-0.0025464918,0.15356676,-0.23934424,-0.12902604
8232000,8232000,-0.0007878033,0.0015549706,0.0010700608,-0.19072935,0.0034025372,0.28945008
8240000,8240000,0.00023051014,0.0013340204,-0.00029035762,0.04069251,0.008907107,-0.049509913
8252000,8252000,-0.0018622227,0.00087131,-0.005010008,-0.18901151,-0.04798699,-0.3300104
8260000,8260000,-0.00054485456,0.0008527343,-0.004662375,0.074482985,-0.03656777,-0.06946988
8272000,8272000,0.0024904164,0.0010446245,-0.0031709643,0.22946459,0.12410782,0.097896695
8280000,8280000,0.0013048883,0.0014230381,-0.0030308054,-0.07100621,0.006452947,0.051957477
8292000,8292000,-0.001041195,-0.0013264962,-0.00032011291,-0.121035054,-0.10598363,0.18374619
8300000,8300000,-0.0015746522,-0.0006514131,-0.00086600496,-0.071708046,0.027352396,0.024539132
8312000,8312000,0.0007766236,0.00084770983,-0.0011647147,0.052020743,0.12521653,-0.049253445
8320000,8320000,-0.0005901997,0.0026771354,-0.00062210695,-0.0564441,0.19862825,0.035301246
8332000,8332000,0.0042575947,0.002126527,-0.0011217903,0.22955824,-0.043555215,-0.049779914
8340000,8340000,0.0017303537,0.0005473546,-0.0016528746,-0.11891283,-0.13497631,-0.05068731
8352000,8352000,0.0044154315,0.002939447,-0.0031752428,0.15489408,0.12577859,-0.115484565
8360000,8360000,0.0013708267,0.001350245,-0.0028794159,-0.22276947,-0.10219641,-0.032533996
8372000,8372000,0.001737765,-0.00015216181,-0.004381934,0.038438115,-0.10852702,-0.030886086
8380000,8380000,0.002145853,0.00091629615,-0.0014476863,0.02251704,0.048011627,0.24107753
8392000,8392000,0.0017581048,-0.00034610322,-0.0026062638,0.067946345,0.0058578863,-0.08816154
8400000,8400000,0.0030246663,0.0006634039,-0.0026075803,0.12407467,0.058105938,-0.013407622
8416000,8416000,0.00024680304,-0.0006313473,-0.0032868788,-0.1294415,-0.027576411,0.01973198
8424000,8424000,0.00044887513,-0.001052578,-0.003286973,-0.018879184,-0.059334587,-0.018786835
8436000,8436000,-0.001978953,0.0016890396,-0.0025395397,-0.21441764,0.302708,0.061958585
8444000,8444000,-0.00038039533,0.0015805231,-0.0002550953,0.07519245,0.06316181,0.21313173
8456000,8456000,0.0024136794,0.00073126843,0.00020696875,0.16907139,-0.04820982,0.063088626
8464000,8464000,0.0016828502,0.00054499554,-0.00074559724,-0.0232797,-0.015577846,-0.064066224
8476000,8476000,-0.00026180467,0.0015040776,-0.002401332,-0.07715464,0.006848724,-0.08865643
8484000,8484000,0.00091276335,0.00086900964,-0.0018512722,0.066688634,-0.067257315,0.006395237
8496000,8496000,-0.0016161156,-0.00046857586,-0.000949677,-0.2074952,-0.117249265,0.05791591
8504000,8504000,0.0012675824,0.00084641436,-0.0042860447,0.1978194,0.11061114,-0.2607364
8516000,8516000,0.000650322,0.0018083255,-0.00039869442,-0.079537906,-0.0011176732,0.2405332
8524000,8524000,0.0007040345,0.0015261099,0.00015133375,-0.013878796,-0.004448017,0.107857324
8532000,8532000,-0.0010396113,-5.139457e-05,-0.00024405029,-0.17068172,-0.17215669,-0.0044524716
8544000,8544000,0.001240553,5.0250906e-05,-0.0018952106,0.20243725,0.036615003,-0.048628114
8556000,8556000,0.002316346,0.002348584,-0.0008875514,0.09212626,0.14661905,0.038543705
8564000,8564000,0.0013945167,0.0011888724,-0.001801968,-0.062430125,-0.065226704,-0.069400325
8576000,8576000,0.0008569729,0.0012593982,-0.0019674075,-0.061977677,0.06240288,-0.023491215
8584000,8584000,0.0016575333,-0.0005348511,-0.0019605476,0.05503524,-0.13746679,-0.010767847
8596000,8596000,0.0005590149,0.0010294206,-0.0011865825,-0.07375932,0.08104928,0.14649944
8604000,8604000,0.0020685063,-0.000413307,-0.0005981284,0.11182581,-0.108625636,0.0570177
8616000,8616000,0.0011919516,0.00083436165,-0.0018971834,-0.028904824,0.13400868,-0.033173513
8624000,8624000,0.0013915384,0.00076564495,-0.00040903268,-0.024119787,0.012093572,0.11508994
8636000,8636000,0.001063854,-0.001894834,-0.001313142,0.04113317,-0.10944394,-0.009002646
8640000,8640000,0.0011744658,-0.0012975452,0.00054033485,0.035338435,0.0017915595,0.19405532
8656000,8656000,-0.0017788572,-0.0024031005,-0.0025866767,-0.015905261,-0.048852574,-0.12350721
8664000,8664000,0.0011594907,-0.0011865594,-0.0023081256,0.22608815,0.09988168,-0.008002004
8672000,8672000,0.0022825212,-0.0019940566,-0.0026235925,0.15967676,-0.06389255,-0.04717787
8684000,8684000,-0.0011688207,0.0007541138,-0.0020815823,-0.2133522,0.2921036,0.08171417
8692000,8692000,0.0013777304,0.0002871859,0.0003759663,0.15433602,0.019340586,0.2292274
8700000,8700000,0.00095370045,0.0015481387,-0.0017877776,-0.006735511,0.1439931,-0.14886667
8712000,8712000,-0.00040221948,9.28021e-05,-0.003846466,0.0031885803,-0.0532297,-0.08167566
8720000,8720000,-0.0001602429,0.0024721643,-0.0026071533,-0.012199748,0.17137899,0.0824603
8732000,8732000,0.00065033784,-0.00025234045,0.0006370215,0.14018455,-0.16264811,0.2203014
8740000,8740000,9.1055874e-05,0.00064244866,-3.117253e-05,-0.008765079,0.0070250393,-0.008533709
8752000,8752000,-0.0005025127,-0.0012383382,-0.00038733275,-0.07191959,-0.040680476,0.06717743
8764000,8764000,0.00016485085,0.00171116,-0.0038491674,0.061921347,0.18311766,-0.23210412
8772000,8772000,0.0009936141,0.0002878732,-0.001982184,0.081465,-0.059349123,0.11120258
8780000,8780000,0.0007334249,0.0018141421,-0.003437417,-0.008722268,0.107319236,-0.12944143
8792000,8792000,-0.0005758646,0.0006125956,5.5892626e-05,-0.082065836,-0.058238525,0.27916846
8800000,8800000,-0.0009639085,0.00090605393,-0.0035113706,-0.06795324,0.015097693,-0.22732039
8812000,8812000,0.00020347675,0.0022455123,-0.0014737882,0.15572967,0.055713482,0.116490215
8820000,8820000,0.0018206981,-0.0032216725,-0.0022749822,0.17283702,-0.4595131,-0.02688795
8836000,8836000,-0.0010704097,0.0020054476,-0.00443072,-0.20069832,0.40683165,-0.21196681
8844000,8844000,-0.0013525431,0.0018979036,-0.0025900935,-0.0826329,0.09504008,0.10803027
8856000,8856000,0.0018785223,-0.00063078245,-0.0016471089,0.15016522,-0.154966,0.0528736
8864000,8864000,0.0019466558,0.000817962,-0.0023627048,0.04416478,0.1100086,-0.047982097
8876000,8876000,-0.001052292,0.0044933567,-0.0009202421,-0.18582453,0.18943898,0.123267576
8884000,8884000,-0.0012717462,-0.0017200322,-0.0021927443,-0.05478692,-0.48153406,-0.07569825
8896000,8896000,0.0017270957,-0.00080173323,-0.0026290454,0.15413243,0.0727056,-0.034352005
8904000,8904000,0.0043917876,-5.3164084e-05,-0.0005731302,0.31166598,0.046576787,0.16592383
8916000,8916000,-0.00088306295,0.0005804808,-0.0010714065,-0.49826288,0.093298174,-0.0067480626
8924000,8924000,-0.0012133304,0.00014640763,-0.0024065524,-0.14608164,-0.026405683,-0.1249875
8936000,8936000,-0.0015381818,9.889854e-05,-0.0029745582,0.024047695,0.08322926,-0.076660894
8944000,8944000,0.00060305104,0.00044617197,-0.0022677851,0.16668344,0.019771464,0.039287053
8956000,8956000,-0.00015330676,0.0007369616,-0.0009663902,-0.0055305315,0.09045452,0.13994865
8964000,8964000,-0.00046904455,0.0013942383,-0.0008650846,-0.035877746,0.061847083,0.037919313
8976000,8976000,0.0022221527,0.00063731335,-0.00038084143,0.14598598,-0.061670206,0.024362117
8984000,8984000,0.002679513,-0.002105284,-0.0008952141,0.10803389,-0.24281766,-0.036206488
8996000,8996000,0.0009627839,0.0016746148,-0.0005421452,-0.12068984,0.25881678,0.019253235
9004000,9004000,-0.00036039413,0.00072042365,-0.0029358491,-0.15688506,-0.02582078,-0.18925826
9016000,9016000,-0.0017736607,0.0038425294,-0.0022162243,-0.06348015,0.22107768,0.034717385
9024000,9024000,-0.000996309,0.0017906902,-0.0023144619,-0.0009399578,-0.124608845,-0.017922075
9036000,9036000,-0.00094003195,0.001321441,-0.001641205,0.10874309,-0.068100914,0.053363435
9044000,9044000,0.0009632391,-0.0013496391,-0.0013072526,0.20371649,-0.226893,0.024450261
9056000,9056000,0.001443081,0.0023985284,-0.0030297772,0.06817885,0.23372945,-0.074600875
9064000,9064000,-7.708266e-05,0.0027545372,-0.0016276982,-0.12232253,0.07291934,0.10099414
9076000,9076000,-0.0013372923,-0.0011551455,-0.0014781518,-0.065312445,-0.1953331,0.04087035
9084000,9084000,0.0020051,-0.00014043646,-0.0019913195,0.2612512,0.015846422,-0.029511496
9096000,9096000,-0.0010697114,0.0031963973,-0.000788337,-0.14871618,0.22837387,0.07580189
9104000,9104000,-0.00018753449,0.00096903974,-0.00086523703,0.021835474,-0.113816276,0.00306016
9116000,9116000,0.00050351646,0.0020626257,0.00019361323,0.041728087,0.10335761,0.1802292
9124000,9124000,-0.0006052669,0.0014720969,-0.0011512297,-0.088088974,-0.0032308483,-0.1045524
9136000,9136000,0.0014591994,0.0018574204,-0.0052473634,0.14856821,-0.096240856,-0.18229851
9144000,9144000,-0.0012797933,-0.0029706904,-0.0014084376,-0.19719994,-0.40474567,0.27016556
9156000,9156000,-0.0016227952,-0.001996837,-0.0028119069,0.013927765,-0.053293575,-0.19285583
9164000,9164000,-0.00011117465,-0.0011004666,-0.0035399902,0.1104897,0.06981401,-0.060408965
9176000,9176000,0.00030801457,-0.004708613,-0.0025853175,0.10912046,-0.24053171,-0.0964086
9184000,9184000,0.00093685655,-0.0016060886,-0.0036789463,0.0833563,0.20268248,-0.062902756
9192000,9192000,0.0011918211,-0.0007937546,-0.0016043808,0.04603362,0.13413584,0.114117935
9204000,9204000,0.00033821998,0.00067775603,-0.0013276027,-0.068266094,0.05671548,0.10386913
9216000,9216000,-0.0004454566,0.0017090102,-0.0020796591,-0.044472545,0.08696238,-0.05111056
9224000,9224000,-0.00025927683,-1.4070887e-05,-0.0041294117,-0.017458929,-0.08078169,-0.21191993
9236000,9236000,0.0017271151,0.0008764034,-0.0053390246,0.19837506,-0.07361936,-0.015994864
9244000,9244000,0.001960079,-0.0030074655,0.00016964274,0.05094523,-0.31100637,0.45632672
9256000,9256000,-0.0001144883,0.0017897594,0.0019706255,-0.08734887,0.2247386,0.20557088
9264000,9264000,0.0025317038,0.0014378582,0.00093787385,0.17826375,0.03504482,-0.05945617
9276000,9276000,0.0014258845,-0.0026129899,-0.0019549949,-0.022861676,-0.26907206,-0.15427257
9284000,9284000,0.0010938168,-0.0035397955,-0.0028721036,-0.020077873,-0.1526598,-0.12143422
9296000,9296000,0.0034744004,0.002233563,0.00015377474,0.14560656,0.36918533,0.13329193
9300000,9300000,0.0025609555,0.0020474668,-0.00048072822,-0.015150532,0.19048484,0.0078056413
9312000,9312000,0.00021123525,-0.002709704,-0.0009912706,-0.11167819,-0.3334748,0.009410566
9320000,9320000,0.00072136015,-0.00047682226,0.0023040068,0.000215929,0.12283538,0.27970892
9332000,9332000,-0.0016157365,0.002696521,-0.0012956809,-0.1403328,0.13836104,-0.26342022
9340000,9340000,0.00067014596,0.00033958023,-0.0036669858,0.14325751,-0.14939062,-0.26077792
9352000,9352000,3.884523e-05,-0.0020997883,-0.002947104,0.01701223,-0.22660774,-0.06051534
9360000,9360000,-0.00024584413,-0.0012929514,-0.0015242792,-0.024383068,0.0034826153,0.12438087
9372000,9372000,0.00057949463,-0.002225785,-0.0007673228,0.067343324,-0.059330318,0.10948835
9384000,9384000,-0.00335061,-0.0018386864,-0.00035879528,-0.2530756,-0.07092866,-0.01830122
9392000,9392000,0.0014875222,-0.0028785435,-0.0017757737,0.34921706,-0.08097567,-0.096475065
9400000,9400000,0.000688474,0.0028914562,-0.00019418192,-0.004898384,0.47617215,0.08260628
9412000,9412000,0.00047004945,0.0009688204,0.0008826532,0.068291605,-0.114303306,0.064757265
9424000,9424000,0.0009034147,0.0027878028,0.0024396263,-0.024020799,0.1452066,0.12672769
9436000,9436000,0.0009452919,0.003717748,-0.00071301364,-0.012320151,0.009090576,-0.19042374
9444000,9444000,0.0004959077,0.0016887514,-8.2420476e-05,-0.03389495,-0.13535026,0.0073035485
9456000,9456000,-0.00032020558,0.001401444,-0.00012790621,-0.071113795,-0.06381871,-0.04604692
9464000,9464000,0.00079859025,-0.0010476578,-0.0025413153,0.090178564,-0.2531023,-0.22529988
9476000,9476000,-0.00031730486,-0.0015131189,-0.0010881164,-0.1372811,-0.034542665,0.03836733
9480000,9480000,-0.00071973214,-0.00048374478,-0.0015967555,-0.121515974,0.09093011,-0.032787606
9492000,9492000,0.0024051326,0.0011113426,-0.0018838567,0.2037313,0.0764949,0.03498316
9500000,9500000,0.00055186905,0.0014235144,-0.0012801895,-0.09762588,0.08128734,0.041126225
9512000,9512000,0.0017969602,5.3871423e-05,-0.0010562734,0.026768122,-0.14167929,0.07834917
9520000,9520000,-0.0013287057,-0.00052764313,-0.0012927342,-0.21192572,-0.08840485,-0.021002417
9536000,9536000,-0.0006744141,0.001985649,-0.0023805187,-0.11013971,0.2398769,-0.06355575
9544000,9544000,0.0004937401,0.0027909938,-0.0014913187,0.07225918,0.118453145,0.06131566
9556000,9556000,0.0036210194,0.001954841,-0.0018982417,0.22442049,0.027920684,-0.08399841
9564000,9564000,0.0012232701,-0.0013579503,-0.0022894111,-0.12861577,-0.31075993,-0.024738362
9572000,9572000,0.0010699745,-0.0019365139,-0.001641916,-0.050070077,-0.08675059,0.039636455
9580000,9580000,0.0017344553,0.0010935543,-0.0007604006,0.045153707,0.20188025,0.086318664
9592000,9592000,-0.00018576777,-0.0017071981,-0.0013430137,-0.1913942,-0.18129858,0.010658127
9600000,9600000,3.4816447e-05,-0.00089274254,-0.0006967142,-0.020963013,0.023109246,0.034537368
9616000,9616000,0.0017218292,-0.0013860799,0.0022556444,-0.041780315,-0.100031346,0.10953957
9620000,9620000,0.000962402,-0.0014097183,1.4964899e-05,-0.105433784,-0.059571337,-0.17834768
9636000,9636000,-0.0004161247,0.0044870866,-0.003323834,-0.15406328,0.30087212,-0.181614
9644000,9644000,-0.0025082421,0.0026556794,-0.0014616376,-0.19550964,-0.084979154,0.1302443
9656000,9656000,-0.0024438351,0.0010322602,-0.0008160717,-0.10588556,-0.100957245,-0.04425302
9664000,9664000,0.00089695153,-0.00024741562,-0.00079853565,0.2603384,-0.1412871,0.035262782
9676000,9676000,-0.0016833566,0.0021411362,0.001163752,-0.093364,0.23025145,0.047750372
9680000,9680000,-0.0015930886,0.0042963345,-5.395926e-05,-0.04352888,0.36288667,-0.10364004
9692000,9692000,-0.0020218245,0.001879533,-0.0047616516,-0.01848736,-0.13247299,-0.3089202
9700000,9700000,-0.00052782753,0.0006553368,-0.0022944098,0.1472423,-0.11934926,0.11648336
9712000,9712000,6.975606e-07,0.0020541088,-0.0011261061,0.021832086,0.075372696,0.11164036
9724000,9724000,0.0011740337,0.00062580407,-0.0012203526,0.0854958,-0.11217965,-0.00038223536
9736000,9736000,-0.0014196102,0.0024134805,0.00064988126,-0.14797916,0.08321273,0.18510124
9744000,9744000,0.0013867378,-0.00023762509,0.00084605213,0.17436819,-0.18966608,0.058047444
