timestamp,timestamp_sample,control_mode_flags,output_tracking_error[0],output_tracking_error[1],output_tracking_error[2],filter_fault_flags,pos_horiz_accuracy,pos_vert_accuracy,mag_test_ratio,vel_test_ratio,pos_test_ratio,hgt_test_ratio,tas_test_ratio,hagl_test_ratio,beta_test_ratio,time_slip,accel_device_id,gyro_device_id,baro_device_id,mag_device_id,gps_check_fail_flags,innovation_check_flags,solution_status_flags,reset_count_vel_ne,reset_count_vel_d,reset_count_pos_ne,reset_count_pod_d,reset_count_quat,pre_flt_fail_innov_heading,pre_flt_fail_innov_vel_horiz,pre_flt_fail_innov_vel_vert,pre_flt_fail_innov_height,pre_flt_fail_mag_field_disturbed,health_flags,timeout_flags
3264000,3184000,13488881664,0.00036486212,0.017910013,0.0014817517,0,14.172738,10.008659,nan,nan,nan,nan,0.0,0.0,0.0,0.0,1310988,1310988,6620172,197388,0,0,128,1,1,1,1,0,0,0,0,0,0,0,0
3272000,3192000,13488881664,0.00033199613,0.0050711185,0.0015923064,0,14.142143,10.0,nan,nan,nan,nan,0.0,0.0,0.0,0.0,1310988,1310988,6620172,197388,0,0,128,1,1,1,1,0,0,0,0,0,0,0,0
3280000,3200000,13488881664,0.00030234433,0.0049703675,0.0015881618,0,14.142143,10.0,nan,nan,nan,nan,0.0,0.0,0.0,0.0,1310988,1310988,6620172,197388,0,0,128,1,1,1,1,0,0,0,0,0,0,0,0
3288000,3208000,13488881664,7.1770424e-05,0.001162313,4.334308e-05,0,14.142143,10.0,nan,nan,nan,nan,0.0,0.0,0.0,0.0,1310988,1310988,6620172,197388,0,0,128,1,1,1,1,0,0,0,0,0,0,0,0
3296000,3216000,13488881664,9.821225e-05,0.0014875961,7.476391e-05,0,14.142143,10.0,nan,nan,nan,nan,0.0,0.0,0.0,0.0,1310988,1310988,6620172,197388,0,0,128,1,1,1,1,0,0,0,0,0,0,0,0
3304000,3224000,13488881664,0.00012420694,0.0022092375,0.00010874183,0,14.142143,10.0,nan,nan,nan,nan,0.0,0.0,0.0,0.0,1310988,1310988,6620172,197388,0,0,128,1,1,1,1,0,0,0,0,0,0,0,0
3312000,3232000,13488881664,0.00014977412,0.002759544,0.00014574405,0,14.142143,10.0,nan,nan,nan,nan,0.0,0.0,0.0,0.0,1310988,1310988,6620172,197388,0,0,128,1,1,1,1,0,0,0,0,0,0,0,0
3320000,3240000,13488881664,0.00017507876,0.0033374324,0.0001853971,0,14.142143,10.0,nan,nan,nan,nan,0.0,0.0,0.0,0.0,1310988,1310988,6620172,197388,0,0,128,1,1,1,1,0,0,0,0,0,0,0,0
3328000,3248000,13488881664,0.0002000621,0.003610311,0.00022752922,0,14.142143,10.0,nan,nan,nan,nan,0.0,0.0,0.0,0.0,1310988,1310988,6620172,197388,0,0,128,1,1,1,1,0,0,0,0,0,0,0,0
3336000,3256000,13488881664,0.00022278499,0.0037739638,0.00027133472,0,14.142143,10.0,nan,nan,nan,nan,0.0,0.0,0.0,0.0,1310988,1310988,6620172,197388,0,0,128,1,1,1,1,0,0,0,0,0,0,0,0
3344000,3264000,13488881664,0.00024289404,0.0043835025,0.0003182467,0,14.142143,10.0,nan,nan,nan,nan,0.0,0.0,0.0,0.0,1310988,1310988,6620172,197388,0,0,128,1,1,1,1,0,0,0,0,0,0,0,0
3352000,3272000,13488881664,0.00026110208,0.0046941927,0.00036904967,0,14.142142,10.0,nan,nan,nan,nan,0.0,0.0,0.0,0.0,1310988,1310988,6620172,197388,0,0,128,1,1,1,1,0,0,0,0,0,0,0,0
3360000,3280000,13488881664,0.00027766114,0.005095031,0.00042018344,0,14.142142,10.0,nan,nan,nan,nan,0.0,0.0,0.0,0.0,1310988,1310988,6620172,197388,0,0,128,1,1,1,1,0,0,0,0,0,0,0,0
3368000,3288000,13488881664,0.00024752354,0.005075067,0.00035716957,0,14.142142,10.0,nan,nan,nan,nan,0.0,0.0,0.0,0.0,1310988,1310988,6620172,197388,0,0,128,1,1,1,1,0,0,0,0,0,0,0,0
3376000,3296000,13488881664,0.0002440722,0.004892338,0.00038556688,0,14.142142,10.0,nan,nan,nan,nan,0.0,0.0,0.0,0.0,1310988,1310988,6620172,197388,0,0,128,1,1,1,1,0,0,0,0,0,0,0,0
3384000,3304000,13488881664,0.00023926521,0.004715,0.00041414498,0,14.142142,10.0,nan,nan,nan,nan,0.0,0.0,0.0,0.0,1310988,1310988,6620172,197388,0,0,128,1,1,1,1,0,0,0,0,0,0,0,0
3392000,3312000,13488881664,0.00023315776,0.004542028,0.0004423608,0,14.142142,10.0,nan,nan,nan,nan,0.0,0.0,0.0,0.0,1310988,1310988,6620172,197388,0,0,128,1,1,1,1,0,0,0,0,0,0,0,0
3400000,3320000,13488881664,0.00022579958,0.0043745656,0.00047004924,0,14.142142,10.0,nan,nan,nan,nan,0.0,0.0,0.0,0.0,1310988,1310988,6620172,197388,0,0,128,1,1,1,1,0,0,0,0,0,0,0,0
3408000,3328000,13488881664,0.0002173626,0.0042126128,0.0004962982,0,14.142142,10.0,nan,nan,nan,nan,0.0,0.0,0.0,0.0,1310988,1310988,6620172,197388,0,0,128,1,1,1,1,0,0,0,0,0,0,0,0
3416000,3336000,13488881664,0.00020769297,0.0040554004,0.00052143174,0,14.142143,10.0,nan,nan,nan,nan,0.0,0.0,0.0,0.0,1310988,1310988,6620172,197388,0,0,128,1,1,1,1,0,0,0,0,0,0,0,0
3424000,3344000,13488881664,0.00019689332,0.0039039513,0.0005450217,0,14.142144,10.0,nan,nan,nan,nan,0.0,0.0,0.0,0.0,1310988,1310988,6620172,197388,0,0,128,1,1,1,1,0,0,0,0,0,0,0,0
3432000,3352000,13488881664,0.00018505566,0.0037572912,0.00056703517,0,14.142145,10.0,nan,nan,nan,nan,0.0,0.0,0.0,0.0,1310988,1310988,6620172,197388,0,0,128,1,1,1,1,0,0,0,0,0,0,0,0
3440000,3360000,13488881664,0.000172354,0.003615811,0.0005872223,0,14.142146,10.0,nan,nan,nan,nan,0.0,0.0,0.0,0.0,1310988,1310988,6620172,197388,0,0,128,1,1,1,1,0,0,0,0,0,0,0,0
3448000,3368000,13488881664,0.00015880333,0.0034798926,0.00058423856,0,0.014084185,7.071068,nan,nan,nan,nan,0.0,0.0,0.0,0.0,1310988,1310988,6620172,197388,0,0,128,1,1,1,1,0,0,0,0,0,0,0,0
3456000,3376000,13488881664,0.00014661766,0.0033482548,0.00056890876,0,0.014298394,7.071068,nan,nan,nan,nan,0.0,0.0,0.0,0.0,1310988,1310988,6620172,197388,0,0,128,1,1,1,1,0,0,0,0,0,0,0,0
3464000,3384000,13488881664,0.00013465926,0.0032213852,0.00055626594,0,0.014960001,7.071068,nan,nan,nan,nan,0.0,0.0,0.0,0.0,1310988,1310988,6620172,197388,0,0,128,1,1,1,1,0,0,0,0,0,0,0,0
3472000,3392000,13488881664,0.00012290981,0.0030994017,0.0005462318,0,0.01606768,7.071068,nan,nan,nan,nan,0.0,0.0,0.0,0.0,1310988,1310988,6620172,197388,0,0,128,1,1,1,1,0,0,0,0,0,0,0,0
3480000,3400000,13488881664,0.004075292,0.027138986,0.0024389862,0,0.014086824,7.071067,nan,nan,nan,nan,0.0,0.0,0.0,0.0,1310988,1310988,6620172,197388,0,0,128,1,1,1,1,0,0,0,0,0,0,0,0
3488000,3408000,13488881665,0.0040743654,0.027092846,0.0025783826,0,0.014086909,7.071067,nan,nan,nan,nan,0.0,0.0,0.0,0.0,1310988,1310988,6620172,197388,0,0,128,1,1,1,1,0,0,0,0,0,0,0,0
3496000,3416000,13488881683,0.0041240742,0.027047182,0.0027196275,0,0.014086982,7.071067,0.008865684,nan,nan,nan,0.0,0.0,0.0,0.0,1310988,1310988,6620172,197388,0,0,129,1,1,1,1,1,0,0,0,0,0,0,0
3504000,3424000,13488881683,0.004124518,0.027003136,0.0028626525,0,0.014087248,7.071067,0.008865684,nan,nan,nan,0.0,0.0,0.0,0.0,1310988,1310988,6620172,197388,0,0,129,1,1,1,1,1,0,0,0,0,0,0,0
3512000,3432000,13488881683,0.004125385,0.026959527,0.0030075752,0,0.014088044,7.071067,0.008865684,nan,nan,nan,0.0,0.0,0.0,0.0,1310988,1310988,6620172,197388,0,0,129,1,1,1,1,1,0,0,0,0,0,0,0
3520000,3440000,13488881683,0.004126648,0.02691608,0.0031541719,0,0.014089882,7.071067,0.008865684,nan,nan,nan,0.0,0.0,0.0,0.0,1310988,1310988,6620172,197388,0,0,129,1,1,1,1,1,0,0,0,0,0,0,0
3528000,3448000,13488881683,0.004128356,0.026873723,0.0033023884,0,0.014093634,7.071067,0.008865684,nan,nan,nan,0.0,0.0,0.0,0.0,1310988,1310988,6620172,197388,0,0,129,1,1,1,1,1,0,0,0,0,0,0,0
3536000,3456000,13488881683,0.004130565,0.026832895,0.0034524412,0,0.014100518,7.071067,0.008865684,nan,nan,nan,0.0,0.0,0.0,0.0,1310988,1310988,6620172,197388,0,0,129,1,1,1,1,1,0,0,0,0,0,0,0
3544000,3464000,13488881683,0.004133203,0.026792476,0.003603957,0,0.0141121065,7.071067,0.008865684,nan,nan,nan,0.0,0.0,0.0,0.0,1310988,1310988,6620172,197388,0,0,129,1,1,1,1,1,0,0,0,0,0,0,0
3552000,3472000,13488881683,0.0041362313,0.026752336,0.0037572705,0,0.014130306,7.071067,0.008865684,nan,nan,nan,0.0,0.0,0.0,0.0,1310988,1310988,6620172,197388,0,0,129,1,1,1,1,1,0,0,0,0,0,0,0
3560000,3480000,13488881683,0.004368799,0.026712567,0.003911975,0,0.0141573595,7.071067,0.0116542075,nan,nan,nan,0.0,0.0,0.0,0.0,1310988,1310988,6620172,197388,0,0,129,1,1,1,1,1,0,0,0,0,0,0,0
3568000,3488000,13488881683,0.0041813394,0.02594181,0.004058252,0,0.014195811,7.071067,0.0116542075,nan,nan,nan,0.0,0.0,0.0,0.0,1310988,1310988,6620172,197388,0,0,129,1,1,1,1,1,0,0,0,0,0,0,0
3576000,3496000,13488881683,0.003995372,0.02519218,0.004193196,0,0.014248505,7.071067,0.0116542075,nan,nan,nan,0.0,0.0,0.0,0.0,1310988,1310988,6620172,197388,0,0,129,1,1,1,1,1,0,0,0,0,0,0,0
3584000,3504000,13488881683,0.0037962461,0.024462473,0.004317393,0,0.014318555,7.071067,0.0116542075,nan,nan,nan,0.0,0.0,0.0,0.0,1310988,1310988,6620172,197388,0,0,129,1,1,1,1,1,0,0,0,0,0,0,0
3592000,3512000,13488881683,0.0035977175,0.023751339,0.0044309427,0,0.01440931,7.071067,0.0116542075,nan,nan,nan,0.0,0.0,0.0,0.0,1310988,1310988,6620172,197388,0,0,129,1,1,1,1,1,0,0,0,0,0,0,0
3600000,3520000,13488881683,0.003399905,0.02305762,0.0045345095,0,0.01452429,7.071067,0.0116542075,nan,nan,nan,0.0,0.0,0.0,0.0,1310988,1310988,6620172,197388,0,0,129,1,1,1,1,1,0,0,0,0,0,0,0
3608000,3528000,13488881683,0.0032031063,0.022380572,0.004627743,0,0.014667136,7.071067,0.0116542075,nan,nan,nan,0.0,0.0,0.0,0.0,1310988,1310988,6620172,197388,0,0,129,1,1,1,1,1,0,0,0,0,0,0,0
3616000,3536000,13488881683,0.0030073628,0.02171887,0.0047114505,0,0.014841543,7.071067,0.0116542075,nan,nan,nan,0.0,0.0,0.0,0.0,1310988,1310988,6620172,197388,0,0,129,1,1,1,1,1,0,0,0,0,0,0,0
3624000,3544000,13488881683,0.0028128303,0.02107323,0.004785434,0,0.015051192,7.071067,0.0116542075,nan,nan,nan,0.0,0.0,0.0,0.0,1310988,1310988,6620172,197388,0,0,129,1,1,1,1,1,0,0,0,0,0,0,0
3632000,3552000,13488881683,0.0031453096,0.020442113,0.0048506227,0,0.0152997095,7.071067,0.012419625,nan,nan,nan,0.0,0.0,0.0,0.0,1310988,1310988,6620172,197388,0,0,129,1,1,1,1,1,0,0,0,0,0,0,0
3640000,3560000,13488881683,0.0029789256,0.019823799,0.0049065696,0,0.015590544,7.071067,0.012419625,nan,nan,nan,0.0,0.0,0.0,0.0,1310988,1310988,6620172,197388,0,0,129,1,1,1,1,1,0,0,0,0,0,0,0
3648000,3568000,13488881683,0.002784717,0.01921851,0.004954021,0,0.015926884,7.071067,0.012419625,nan,nan,nan,0.0,0.0,0.0,0.0,1310988,1310988,6620172,197388,0,0,129,1,1,1,1,1,0,0,0,0,0,0,0
3656000,3576000,13488881683,0.002613157,0.018648036,0.0048730453,0,0.0106853135,5.7735023,0.012419625,nan,nan,nan,0.0,0.0,0.0,0.0,1310988,1310988,6620172,197388,0,0,129,1,1,1,1,1,0,0,0,0,0,0,0
3664000,3584000,13488881683,0.002438101,0.018068422,0.004908668,0,0.010984796,5.7735023,0.012419625,nan,nan,nan,0.0,0.0,0.0,0.0,1310988,1310988,6620172,197388,0,0,129,1,1,1,1,1,0,0,0,0,0,0,0
3672000,3592000,13488881683,0.0022741598,0.017501054,0.004936274,0,0.011348213,5.7735023,0.012419625,nan,nan,nan,0.0,0.0,0.0,0.0,1310988,1310988,6620172,197388,0,0,129,1,1,1,1,1,0,0,0,0,0,0,0
3680000,3600000,13488881683,0.0021213163,0.016945409,0.0049569295,0,0.011777791,5.7735023,0.012419625,nan,nan,nan,0.0,0.0,0.0,0.0,1310988,1310988,6620172,197388,0,0,129,1,1,1,1,1,0,0,0,0,0,0,0
3688000,3608000,13488881683,0.0019988252,0.016535329,0.0049811127,0,0.012039872,5.7735023,0.012419625,nan,nan,nan,0.0,0.0,0.0,0.0,1310988,1310988,6620172,197388,0,0,129,1,1,1,1,1,0,0,0,0,0,0,0
3696000,3616000,13488881683,0.0018662885,0.016001603,0.0049888003,0,0.0125508215,5.7735023,0.012419625,nan,nan,nan,0.0,0.0,0.0,0.0,1310988,1310988,6620172,197388,0,0,129,1,1,1,1,1,0,0,0,0,0,0,0
3704000,3624000,13488881683,0.0020457911,0.015479321,0.004990637,0,0.013124921,5.7735023,0.0051247994,nan,nan,nan,0.0,0.0,0.0,0.0,1310988,1310988,6620172,197388,0,0,129,1,1,1,1,1,0,0,0,0,0,0,0
3712000,3632000,13488881683,0.001939721,0.014968178,0.0049862983,0,0.013761887,5.7735023,0.0051247994,nan,nan,nan,0.0,0.0,0.0,0.0,1310988,1310988,6620172,197388,0,0,129,1,1,1,1,1,0,0,0,0,0,0,0
3720000,3640000,13488881683,0.0018010066,0.0144679155,0.0049765557,0,0.0144610265,5.7735023,0.0051247994,nan,nan,nan,0.0,0.0,0.0,0.0,1310988,1310988,6620172,197388,0,0,129,1,1,1,1,1,0,0,0,0,0,0,0
3728000,3648000,13488881683,0.0016698706,0.013979234,0.004961304,0,0.015221334,5.7735023,0.0051247994,nan,nan,nan,0.0,0.0,0.0,0.0,1310988,1310988,6620172,197388,0,0,129,1,1,1,1,1,0,0,0,0,0,0,0
3736000,3656000,13488881683,0.0015475774,0.013501399,0.0049411594,0,0.016041707,5.7735023,0.0051247994,nan,nan,nan,0.0,0.0,0.0,0.0,1310988,1310988,6620172,197388,0,0,129,1,1,1,1,1,0,0,0,0,0,0,0
3744000,3664000,13488881683,0.0014333256,0.013034043,0.0049163997,0,0.016921004,5.7735023,0.0051247994,nan,nan,nan,0.0,0.0,0.0,0.0,1310988,1310988,6620172,197388,0,0,129,1,1,1,1,1,0,0,0,0,0,0,0
3752000,3672000,13488881683,0.0013268491,0.012577855,0.00488718,0,0.017858014,5.7735023,0.0051247994,nan,nan,nan,0.0,0.0,0.0,0.0,1310988,1310988,6620172,197388,0,0,129,1,1,1,1,1,0,0,0,0,0,0,0
3760000,3680000,13488881683,0.0012279503,0.012132611,0.0048537506,0,0.018851554,5.7735023,0.0051247994,nan,nan,nan,0.0,0.0,0.0,0.0,1310988,1310988,6620172,197388,0,0,129,1,1,1,1,1,0,0,0,0,0,0,0
3768000,3688000,13488881683,0.0019989628,0.011698673,0.0048164288,0,0.01990053,5.7735023,0.014291659,nan,nan,nan,0.0,0.0,0.0,0.0,1310988,1310988,6620172,197388,0,0,129,1,1,1,1,1,0,0,0,0,0,0,0
3776000,3696000,13488881683,0.0019143443,0.0112733655,0.004775312,0,0.021003937,5.7735023,0.014291659,nan,nan,nan,0.0,0.0,0.0,0.0,1310988,1310988,6620172,197388,0,0,129,1,1,1,1,1,0,0,0,0,0,0,0
3784000,3704000,13488881683,0.0018343063,0.01085877,0.004730506,0,0.022160878,5.7735023,0.014291659,nan,nan,nan,0.0,0.0,0.0,0.0,1310988,1310988,6620172,197388,0,0,129,1,1,1,1,1,0,0,0,0,0,0,0
3792000,3712000,13488881683,0.0017421087,0.0104549965,0.0046826126,0,0.02337063,5.7735023,0.014291659,nan,nan,nan,0.0,0.0,0.0,0.0,1310988,1310988,6620172,197388,0,0,129,1,1,1,1,1,0,0,0,0,0,0,0
3800000,3720000,13488881683,0.0016538061,0.010061989,0.0046318034,0,0.024632566,5.7735023,0.014291659,nan,nan,nan,0.0,0.0,0.0,0.0,1310988,1310988,6620172,197388,0,0,129,1,1,1,1,1,0,0,0,0,0,0,0
3808000,3728000,13488881683,0.0015715368,0.009679555,0.0045777555,0,0.025946043,5.7735023,0.014291659,nan,nan,nan,0.0,0.0,0.0,0.0,1310988,1310988,6620172,197388,0,0,129,1,1,1,1,1,0,0,0,0,0,0,0
3816000,3736000,13488881683,0.0014943813,0.0093073305,0.0045211473,0,0.027310615,5.7735023,0.014291659,nan,nan,nan,0.0,0.0,0.0,0.0,1310988,1310988,6620172,197388,0,0,129,1,1,1,1,1,0,0,0,0,0,0,0
3824000,3744000,13488881683,0.0014226419,0.008945383,0.0044622393,0,0.028726,5.7735023,0.014291659,nan,nan,nan,0.0,0.0,0.0,0.0,1310988,1310988,6620172,197388,0,0,129,1,1,1,1,1,0,0,0,0,0,0,0
3832000,3752000,13488881683,0.0013557074,0.008593664,0.004400844,0,0.030191934,5.7735033,0.014291659,nan,nan,nan,0.0,0.0,0.0,0.0,1310988,1310988,6620172,197388,0,0,129,1,1,1,1,1,0,0,0,0,0,0,0
3840000,3760000,13488881683,0.0015451498,0.008252333,0.0043374235,0,0.03170821,5.773504,0.0044219983,nan,nan,nan,0.0,0.0,0.0,0.0,1310988,1310988,6620172,197388,0,0,129,1,1,1,1,1,0,0,0,0,0,0,0
3848000,3768000,13488881683,0.0014869558,0.0079203965,0.004271775,0,0.03327479,5.7735047,0.0044219983,nan,nan,nan,0.0,0.0,0.0,0.0,1310988,1310988,6620172,197388,0,0,129,1,1,1,1,1,0,0,0,0,0,0,0
3856000,3776000,13488881683,0.0013892392,0.0075981054,0.0042049154,0,0.03489176,5.773505,0.0044219983,nan,nan,nan,0.0,0.0,0.0,0.0,1310988,1310988,6620172,197388,0,0,129,1,1,1,1,1,0,0,0,0,0,0,0
3864000,3784000,13488881683,0.0012960517,0.008027954,0.0045802887,0,0.013189694,5.000002,0.0044219983,nan,nan,nan,0.0,0.0,0.0,0.0,1310988,1310988,6620172,197388,0,0,129,1,1,1,1,1,0,0,0,0,0,0,0
3872000,3792000,13488881683,0.0012074712,0.007723582,0.00450046,0,0.013820125,5.0000024,0.0044219983,nan,nan,nan,0.0,0.0,0.0,0.0,1310988,1310988,6620172,197388,0,0,129,1,1,1,1,1,0,0,0,0,0,0,0
3880000,3800000,13488881683,0.0011241942,0.00742882,0.0044196844,0,0.014490042,5.000003,0.0044219983,nan,nan,nan,0.0,0.0,0.0,0.0,1310988,1310988,6620172,197388,0,0,129,1,1,1,1,1,0,0,0,0,0,0,0
3888000,3808000,13488881683,0.0010461987,0.007143042,0.004338202,0,0.015199259,5.0000033,0.0044219983,nan,nan,nan,0.0,0.0,0.0,0.0,1310988,1310988,6620172,197388,0,0,129,1,1,1,1,1,0,0,0,0,0,0,0
3896000,3816000,13488881683,0.0010059472,0.0073563782,0.004334657,0,0.015279729,5.0000033,0.0044219983,nan,nan,nan,0.0,0.0,0.0,0.0,1310988,1310988,6620172,197388,0,0,129,1,1,1,1,1,0,0,0,0,0,0,0
3904000,3824000,13488881683,0.0017005078,0.007082896,0.0042534047,0,0.015998038,5.000004,0.014438199,nan,nan,nan,0.0,0.0,0.0,0.0,1310988,1310988,6620172,197388,0,0,129,1,1,1,1,1,0,0,0,0,0,0,0
3912000,3832000,13488881683,0.0016364256,0.0068173967,0.0041717966,0,0.016753098,5.0000043,0.014438199,nan,nan,nan,0.0,0.0,0.0,0.0,1310988,1310988,6620172,197388,0,0,129,1,1,1,1,1,0,0,0,0,0,0,0
3920000,3840000,4898947603,0.0015763597,0.006561224,0.004089767,0,0.017545061,5.000005,0.014438199,nan,nan,0.0009027725,0.0,0.0,0.0,0.0,1310988,1310988,6620172,197388,0,0,165,1,1,1,1,1,0,0,0,0,0,0,0
3928000,3848000,4898947603,0.0015074607,0.0063137594,0.0040076184,0,0.018374097,5.0000057,0.014438199,nan,nan,0.0009027725,0.0,0.0,0.0,0.0,1310988,1310988,6620172,197388,0,0,165,1,1,1,1,1,0,0,0,0,0,0,0
3936000,3856000,4898947603,0.001442222,0.006074816,0.003925586,0,0.019240504,5.000006,0.014438199,nan,nan,0.0009027725,0.0,0.0,0.0,0.0,1310988,1310988,6620172,197388,0,0,165,1,1,1,1,1,0,0,0,0,0,0,0
3944000,3864000,4898947603,0.0013825846,0.005844047,0.0038432635,0,0.020144587,5.000007,0.014438199,nan,nan,0.0009027725,0.0,0.0,0.0,0.0,1310988,1310988,6620172,197388,0,0,165,1,1,1,1,1,0,0,0,0,0,0,0
3952000,3872000,4898947603,0.0013211815,0.005614592,0.0037611083,0,0.021086706,5.0000076,0.014438199,nan,nan,0.0009027725,0.0,0.0,0.0,0.0,1310988,1310988,6620172,197388,0,0,165,1,1,1,1,1,0,0,0,0,0,0,0
3960000,3880000,4898947603,0.001263958,0.0053922306,0.003678835,0,0.022067329,5.0000086,0.014438199,nan,nan,0.0009027725,0.0,0.0,0.0,0.0,1310988,1310988,6620172,197388,0,0,165,1,1,1,1,1,0,0,0,0,0,0,0
3968000,3888000,4898947603,0.0012106835,0.0051763305,0.0035968665,0,0.023086874,5.0000095,0.014438199,nan,nan,0.0009027725,0.0,0.0,0.0,0.0,1310988,1310988,6620172,197388,0,0,165,1,1,1,1,1,0,0,0,0,0,0,0
3976000,3896000,4898947603,0.00053866877,0.004965151,0.0035147632,0,0.024145786,5.00001,0.013680422,nan,nan,0.0009027725,0.0,0.0,0.0,0.0,1310988,1310988,6620172,197388,0,0,165,1,1,1,1,1,0,0,0,0,0,0,0
3984000,3904000,4898947603,0.0004950707,0.0047559785,0.09192661,0,0.025244594,2.8673136,0.013680422,nan,nan,0.0046384493,0.0,0.0,0.0,0.0,1310988,1310988,6620172,197388,0,0,165,1,1,1,1,1,0,0,0,0,0,0,0
3992000,3912000,4898947603,0.0004310187,0.0045542596,0.08895713,0,0.026383847,2.8673143,0.013680422,nan,nan,0.0046384493,0.0,0.0,0.0,0.0,1310988,1310988,6620172,197388,0,0,165,1,1,1,1,1,0,0,0,0,0,0,0
4000000,3920000,4898947603,0.00037672927,0.0043583997,0.08607549,0,0.02756408,2.8673148,0.013680422,nan,nan,0.0046384493,0.0,0.0,0.0,0.0,1310988,1310988,6620172,197388,0,0,165,1,1,1,1,1,0,0,0,0,0,0,0
4008000,3928000,4898947603,0.00033440202,0.0041682003,0.08327941,0,0.028785827,2.8673155,0.013680422,nan,nan,0.0046384493,0.0,0.0,0.0,0.0,1310988,1310988,6620172,197388,0,0,165,1,1,1,1,1,0,0,0,0,0,0,0
4016000,3936000,4898947603,0.0003065787,0.003983313,0.08056576,0,0.030049717,2.8673162,0.013680422,nan,nan,0.0046384493,0.0,0.0,0.0,0.0,1310988,1310988,6620172,197388,0,0,165,1,1,1,1,1,0,0,0,0,0,0,0
4024000,3944000,4898947603,0.00029474017,0.0038033524,0.07793253,0,0.031356458,2.867317,0.013680422,nan,nan,0.0046384493,0.0,0.0,0.0,0.0,1310988,1310988,6620172,197388,0,0,165,1,1,1,1,1,0,0,0,0,0,0,0
4032000,3952000,4898947603,0.00029847852,0.0036281093,0.07537737,0,0.032706656,2.8673182,0.013680422,nan,nan,0.0046384493,0.0,0.0,0.0,0.0,1310988,1310988,6620172,197388,0,0,165,1,1,1,1,1,0,0,0,0,0,0,0
4040000,3960000,4898947603,0.00063509616,0.0034577874,0.029094648,0,0.03410094,2.2180383,0.00742523,nan,nan,0.004823284,0.0,0.0,0.0,0.0,1310988,1310988,6620172,197388,0,0,165,1,1,1,1,1,0,0,0,0,0,0,0
4048000,3968000,4898947603,0.00068532454,0.0032926407,0.028095352,0,0.035540067,2.2180393,0.00742523,nan,nan,0.004823284,0.0,0.0,0.0,0.0,1310988,1310988,6620172,197388,0,0,165,1,1,1,1,1,0,0,0,0,0,0,0
4056000,3976000,4898947603,0.00073561183,0.0031318725,0.027126914,0,0.03702464,2.2180402,0.00742523,nan,nan,0.004823284,0.0,0.0,0.0,0.0,1310988,1310988,6620172,197388,0,0,165,1,1,1,1,1,0,0,0,0,0,0,0
4064000,3984000,4898947603,0.0007482606,0.0029756024,0.02618781,0,0.03855551,2.2180412,0.00742523,nan,nan,0.004823284,0.0,0.0,0.0,0.0,1310988,1310988,6620172,197388,0,0,165,1,1,1,1,1,0,0,0,0,0,0,0
4072000,3992000,4898947603,0.0012726914,0.0053380597,0.025312558,0,0.01333825,2.2180424,0.00742523,nan,nan,0.004823284,0.0,0.0,0.0,0.0,1310988,1310988,6620172,197388,0,0,165,1,1,1,1,1,0,0,0,0,0,0,0
4080000,4000000,4898947603,0.0012734451,0.0052009188,0.02443138,0,0.013892253,2.2180438,0.00742523,nan,nan,0.004823284,0.0,0.0,0.0,0.0,1310988,1310988,6620172,197388,0,0,165,1,1,1,1,1,0,0,0,0,0,0,0
4088000,4008000,4898947603,0.0012726868,0.0050687976,0.023577463,0,0.014490326,2.218045,0.00742523,nan,nan,0.004823284,0.0,0.0,0.0,0.0,1310988,1310988,6620172,197388,0,0,165,1,1,1,1,1,0,0,0,0,0,0,0
4096000,4016000,4898947603,0.0012704259,0.004941535,0.022749534,0,0.015133379,2.2180467,0.00742523,nan,nan,0.004823284,0.0,0.0,0.0,0.0,1310988,1310988,6620172,197388,0,0,165,1,1,1,1,1,0,0,0,0,0,0,0
4104000,4024000,4898947603,0.0014014575,0.005513629,0.036462788,0,0.015231064,1.8735145,0.00742523,nan,nan,0.0024677608,0.0,0.0,0.0,0.0,1310988,1310988,6620172,197388,0,0,165,1,1,1,1,1,0,0,0,0,0,0,0
4112000,4032000,4898947603,0.0014196206,0.0053725773,0.03520917,0,0.015890608,1.8735158,0.0007376831,nan,nan,0.0024677608,0.0,0.0,0.0,0.0,1310988,1310988,6620172,197388,0,0,165,1,1,1,1,1,0,0,0,0,0,0,0
4120000,4040000,4898947603,0.0014156002,0.00523706,0.033993218,0,0.016593395,1.8735174,0.0007376831,nan,nan,0.0024677608,0.0,0.0,0.0,0.0,1310988,1310988,6620172,197388,0,0,165,1,1,1,1,1,0,0,0,0,0,0,0
4128000,4048000,4898947603,0.0013993788,0.005106835,0.032814123,0,0.017340062,1.8735191,0.0007376831,nan,nan,0.0024677608,0.0,0.0,0.0,0.0,1310988,1310988,6620172,197388,0,0,165,1,1,1,1,1,0,0,0,0,0,0,0
4136000,4056000,4898947603,0.0013828358,0.0049825558,0.03167035,0,0.01813126,1.8735209,0.0007376831,nan,nan,0.0024677608,0.0,0.0,0.0,0.0,1310988,1310988,6620172,197388,0,0,165,1,1,1,1,1,0,0,0,0,0,0,0
4144000,4064000,4898947603,0.0013662814,0.0048638177,0.03056097,0,0.018967565,1.8735229,0.0007376831,nan,nan,0.0024677608,0.0,0.0,0.0,0.0,1310988,1310988,6620172,197388,0,0,165,1,1,1,1,1,0,0,0,0,0,0,0
4152000,4072000,4898947603,0.001350838,0.0047501633,0.029485155,0,0.019849518,1.873525,0.0007376831,nan,nan,0.0024677608,0.0,0.0,0.0,0.0,1310988,1310988,6620172,197388,0,0,165,1,1,1,1,1,0,0,0,0,0,0,0
4160000,4080000,4898947603,0.001289904,0.004635721,0.022825759,0,0.020777497,1.651766,0.0007376831,nan,nan,0.0012729941,0.0,0.0,0.0,0.0,1310988,1310988,6620172,197388,0,0,165,1,1,1,1,1,0,0,0,0,0,0,0
4168000,4088000,4898947603,0.0012290573,0.0045222943,0.021994751,0,0.021751976,1.651768,0.0007376831,nan,nan,0.0012729941,0.0,0.0,0.0,0.0,1310988,1310988,6620172,197388,0,0,165,1,1,1,1,1,0,0,0,0,0,0,0
4176000,4096000,4898947603,0.0011685438,0.004409996,0.021188961,0,0.022773437,1.6517704,0.0007376831,nan,nan,0.0012729941,0.0,0.0,0.0,0.0,1310988,1310988,6620172,197388,0,0,165,1,1,1,1,1,0,0,0,0,0,0,0
4184000,4104000,4898947603,0.0029811955,0.004314316,0.020407889,0,0.0238422,1.6517729,0.06609442,nan,nan,0.0012729941,0.0,0.0,0.0,0.0,1310988,1310988,6620172,197388,0,0,165,1,1,1,1,1,0,0,0,0,0,0,0
4192000,4112000,4898947603,0.003009336,0.0042027277,0.019650757,0,0.024958791,1.6517755,0.06609442,nan,nan,0.0012729941,0.0,0.0,0.0,0.0,1310988,1310988,6620172,197388,0,0,165,1,1,1,1,1,0,0,0,0,0,0,0
4200000,4120000,4898947603,0.003040865,0.004093042,0.01891721,0,0.026123557,1.6517783,0.06609442,nan,nan,0.0012729941,0.0,0.0,0.0,0.0,1310988,1310988,6620172,197388,0,0,165,1,1,1,1,1,0,0,0,0,0,0,0
4208000,4128000,4898947603,0.0030737717,0.003983368,0.018206187,0,0.02733698,1.6517814,0.06609442,nan,nan,0.0012729941,0.0,0.0,0.0,0.0,1310988,1310988,6620172,197388,0,0,165,1,1,1,1,1,0,0,0,0,0,0,0
4216000,4136000,4898947603,0.0031068395,0.0038739531,0.017517176,0,0.028599415,1.6517847,0.06609442,nan,nan,0.0012729941,0.0,0.0,0.0,0.0,1310988,1310988,6620172,197388,0,0,165,1,1,1,1,1,0,0,0,0,0,0,0
4224000,4144000,4898947603,0.0031397888,0.0037658357,0.003572769,0,0.029911228,1.4937903,0.06609442,nan,nan,0.005678095,0.0,0.0,0.0,0.0,1310988,1310988,6620172,197388,0,0,165,1,1,1,1,1,0,0,0,0,0,0,0
4232000,4152000,4898947603,0.0031722656,0.0036573266,0.0035697022,0,0.031272773,1.4937936,0.06609442,nan,nan,0.005678095,0.0,0.0,0.0,0.0,1310988,1310988,6620172,197388,0,0,165,1,1,1,1,1,0,0,0,0,0,0,0
4240000,4160000,4898947603,0.0032041962,0.003549749,0.0035652525,0,0.032684516,1.4937972,0.06609442,nan,nan,0.005678095,0.0,0.0,0.0,0.0,1310988,1310988,6620172,197388,0,0,165,1,1,1,1,1,0,0,0,0,0,0,0
4248000,4168000,4898947603,0.0032359553,0.0034424928,0.003559346,0,0.034146912,1.493801,0.06609442,nan,nan,0.005678095,0.0,0.0,0.0,0.0,1310988,1310988,6620172,197388,0,0,165,1,1,1,1,1,0,0,0,0,0,0,0
4256000,4176000,4898947603,0.0031896173,0.0033353977,0.0035522718,0,0.0356605,1.493805,0.0015699578,nan,nan,0.005678095,0.0,0.0,0.0,0.0,1310988,1310988,6620172,197388,0,0,165,1,1,1,1,1,0,0,0,0,0,0,0
4264000,4184000,4898947603,0.0032203337,0.0032297443,0.0035436857,0,0.037225574,1.4938095,0.0015699578,nan,nan,0.005678095,0.0,0.0,0.0,0.0,1310988,1310988,6620172,197388,0,0,165,1,1,1,1,1,0,0,0,0,0,0,0
4272000,4192000,4898947603,0.0030749126,0.0031264601,0.0035338632,0,0.038842585,1.493814,0.0015699578,nan,nan,0.005678095,0.0,0.0,0.0,0.0,1310988,1310988,6620172,197388,0,0,165,1,1,1,1,1,0,0,0,0,0,0,0
4280000,4200000,4898947603,0.0031411895,0.0055338084,0.006659247,0,0.013351983,1.373913,0.0015699578,nan,nan,0.0010736563,0.0,0.0,0.0,0.0,1310988,1310988,6620172,197388,0,0,165,1,1,1,1,1,0,0,0,0,0,0,0
4288000,4208000,4898947603,0.0029943343,0.005417702,0.006553737,0,0.013934449,1.3739178,0.0015699578,nan,nan,0.0010736563,0.0,0.0,0.0,0.0,1310988,1310988,6620172,197388,0,0,165,1,1,1,1,1,0,0,0,0,0,0,0
4296000,4216000,4898947603,0.002846484,0.0053042783,0.0064502032,0,0.0145639675,1.3739227,0.0015699578,nan,nan,0.0010736563,0.0,0.0,0.0,0.0,1310988,1310988,6620172,197388,0,0,165,1,1,1,1,1,0,0,0,0,0,0,0
4304000,4224000,4898947603,0.002697795,0.005192939,0.0063485363,0,0.0152405435,1.373928,0.0015699578,nan,nan,0.0010736563,0.0,0.0,0.0,0.0,1310988,1310988,6620172,197388,0,0,165,1,1,1,1,1,0,0,0,0,0,0,0
4312000,4232000,4898947603,0.0026080434,0.005641443,0.006612898,0,0.015287921,1.3739268,0.0015699578,nan,nan,0.0010736563,0.0,0.0,0.0,0.0,1310988,1310988,6620172,197388,0,0,165,1,1,1,1,1,0,0,0,0,0,0,0
4320000,4240000,4898947603,0.0024621887,0.0055000754,0.0065189754,0,0.015974013,1.373932,0.0015699578,nan,nan,0.0010736563,0.0,0.0,0.0,0.0,1310988,1310988,6620172,197388,0,0,165,1,1,1,1,1,0,0,0,0,0,0,0
4328000,4248000,4898947603,0.0028536948,0.0053640963,0.006426582,0,0.016703036,1.3739375,0.012087784,nan,nan,0.0010736563,0.0,0.0,0.0,0.0,1310988,1310988,6620172,197388,0,0,165,1,1,1,1,1,0,0,0,0,0,0,0
4336000,4256000,4898947603,0.0027049284,0.005230766,0.0063358806,0,0.017474895,1.3739433,0.012087784,nan,nan,0.0010736563,0.0,0.0,0.0,0.0,1310988,1310988,6620172,197388,0,0,165,1,1,1,1,1,0,0,0,0,0,0,0
4344000,4264000,4898947603,0.002560431,0.005100499,0.0033953635,0,0.018289477,1.278936,0.012087784,nan,nan,0.0035385776,0.0,0.0,0.0,0.0,1310988,1310988,6620172,197388,0,0,165,1,1,1,1,1,0,0,0,0,0,0,0
4352000,4272000,4898947603,0.002416932,0.0049762544,0.003219836,0,0.019146621,1.2789419,0.012087784,nan,nan,0.0035385776,0.0,0.0,0.0,0.0,1310988,1310988,6620172,197388,0,0,165,1,1,1,1,1,0,0,0,0,0,0,0
4360000,4280000,4898947603,0.0022827212,0.004855858,0.0030521727,0,0.020046154,1.2789481,0.012087784,nan,nan,0.0035385776,0.0,0.0,0.0,0.0,1310988,1310988,6620172,197388,0,0,165,1,1,1,1,1,0,0,0,0,0,0,0
4368000,4288000,4898947603,0.0021304768,0.0047417744,0.0028926884,0,0.020987995,1.2789546,0.012087784,nan,nan,0.0035385776,0.0,0.0,0.0,0.0,1310988,1310988,6620172,197388,0,0,165,1,1,1,1,1,0,0,0,0,0,0,0
4376000,4296000,4898947603,0.0019855904,0.004627345,0.002740949,0,0.021972027,1.2789615,0.012087784,nan,nan,0.0035385776,0.0,0.0,0.0,0.0,1310988,1310988,6620172,197388,0,0,165,1,1,1,1,1,0,0,0,0,0,0,0
4384000,4304000,4898947603,0.0018480419,0.0045132483,0.0025970668,0,0.022998106,1.2789687,0.012087784,nan,nan,0.0035385776,0.0,0.0,0.0,0.0,1310988,1310988,6620172,197388,0,0,165,1,1,1,1,1,0,0,0,0,0,0,0
4392000,4312000,4898947603,0.0017178293,0.0043998323,0.002461169,0,0.024066176,1.2789763,0.012087784,nan,nan,0.0035385776,0.0,0.0,0.0,0.0,1310988,1310988,6620172,197388,0,0,165,1,1,1,1,1,0,0,0,0,0,0,0
4400000,4320000,4898947603,0.0013941767,0.004284684,0.005261498,0,0.025176205,1.2012898,0.0048008002,nan,nan,0.0015284437,0.0,0.0,0.0,0.0,1310988,1310988,6620172,197388,0,0,165,1,1,1,1,1,0,0,0,0,0,0,0
4408000,4328000,4898947603,0.0012744305,0.004170514,0.00500661,0,0.026328243,1.2012975,0.0048008002,nan,nan,0.0015284437,0.0,0.0,0.0,0.0,1310988,1310988,6620172,197388,0,0,165,1,1,1,1,1,0,0,0,0,0,0,0
4416000,4336000,4898947603,0.0011370432,0.0040568463,0.0047609317,0,0.027522253,1.2013056,0.0048008002,nan,nan,0.0015284437,0.0,0.0,0.0,0.0,1310988,1310988,6620172,197388,0,0,165,1,1,1,1,1,0,0,0,0,0,0,0
4424000,4344000,4898947603,0.0010074945,0.0039439695,0.0045243707,0,0.02875816,1.2013142,0.0048008002,nan,nan,0.0015284437,0.0,0.0,0.0,0.0,1310988,1310988,6620172,197388,0,0,165,1,1,1,1,1,0,0,0,0,0,0,0
4432000,4352000,4898947603,0.0008852481,0.003831606,0.0042963787,0,0.03003605,1.2013232,0.0048008002,nan,nan,0.0015284437,0.0,0.0,0.0,0.0,1310988,1310988,6620172,197388,0,0,165,1,1,1,1,1,0,0,0,0,0,0,0
4440000,4360000,4898947603,0.00077067036,0.0037199056,0.004076692,0,0.031356018,1.2013324,0.0048008002,nan,nan,0.0015284437,0.0,0.0,0.0,0.0,1310988,1310988,6620172,197388,0,0,165,1,1,1,1,1,0,0,0,0,0,0,0
4448000,4368000,4898947603,0.00066318724,0.0036091232,0.0038653493,0,0.032718144,1.2013422,0.0048008002,nan,nan,0.0015284437,0.0,0.0,0.0,0.0,1310988,1310988,6620172,197388,0,0,165,1,1,1,1,1,0,0,0,0,0,0,0
4456000,4376000,4898947603,0.00056471594,0.0034989098,0.0036618807,0,0.03412264,1.2013522,0.0048008002,nan,nan,0.0015284437,0.0,0.0,0.0,0.0,1310988,1310988,6620172,197388,0,0,165,1,1,1,1,1,0,0,0,0,0,0,0
4464000,4384000,4898947603,0.00047563796,0.003389513,0.0031463213,0,0.035569627,1.1362885,0.0048008002,nan,nan,0.0030196337,0.0,0.0,0.0,0.0,1310988,1310988,6620172,197388,0,0,165,1,1,1,1,1,0,0,0,0,0,0,0
4472000,4392000,4898947603,0.001130269,0.0032863792,0.0031446738,0,0.037059255,1.1362989,0.018008094,nan,nan,0.0030196337,0.0,0.0,0.0,0.0,1310988,1310988,6620172,197388,0,0,165,1,1,1,1,1,0,0,0,0,0,0,0
4480000,4400000,4898947603,0.0010501269,0.0031804526,0.0031415944,0,0.0385917,1.1363096,0.018008094,nan,nan,0.0030196337,0.0,0.0,0.0,0.0,1310988,1310988,6620172,197388,0,0,165,1,1,1,1,1,0,0,0,0,0,0,0
4488000,4408000,4898947603,0.0012891592,0.0049236906,0.0033349176,0,0.013339492,1.136321,0.018008094,nan,nan,0.0030196337,0.0,0.0,0.0,0.0,1310988,1310988,6620172,197388,0,0,165,1,1,1,1,1,0,0,0,0,0,0,0
4496000,4416000,4898947603,0.0012323831,0.0048006503,0.0033282388,0,0.013887526,1.1363328,0.018008094,nan,nan,0.0030196337,0.0,0.0,0.0,0.0,1310988,1310988,6620172,197388,0,0,165,1,1,1,1,1,0,0,0,0,0,0,0
4504000,4424000,4898947603,0.001182351,0.0046797646,0.0033207508,0,0.014470639,1.1363449,0.018008094,nan,nan,0.0030196337,0.0,0.0,0.0,0.0,1310988,1310988,6620172,197388,0,0,165,1,1,1,1,1,0,0,0,0,0,0,0
4512000,4432000,4898947603,0.0011388322,0.004561615,0.0033118052,0,0.015088451,1.1363577,0.018008094,nan,nan,0.0030196337,0.0,0.0,0.0,0.0,1310988,1310988,6620172,197388,0,0,165,1,1,1,1,1,0,0,0,0,0,0,0
4520000,4440000,4898947603,0.0011431837,0.0050849686,0.0019192473,0,0.015173005,1.0808032,0.018008094,nan,nan,0.0015611793,0.0,0.0,0.0,0.0,1310988,1310988,6620172,197388,0,0,165,1,1,1,1,1,0,0,0,0,0,0,0
4528000,4448000,4898947603,0.0011119746,0.0049144393,0.0019376167,0,0.015801216,1.0808144,0.018008094,nan,nan,0.0015611793,0.0,0.0,0.0,0.0,1310988,1310988,6620172,197388,0,0,165,1,1,1,1,1,0,0,0,0,0,0,0
4536000,4456000,4898947603,0.0010862993,0.0047488064,0.0019586103,0,0.016461372,1.0808259,0.018008094,nan,nan,0.0015611793,0.0,0.0,0.0,0.0,1310988,1310988,6620172,197388,0,0,165,1,1,1,1,1,0,0,0,0,0,0,0
4544000,4464000,4898947603,0.0009517842,0.0045876442,0.0019812228,0,0.01715318,1.0808381,0.003444856,nan,nan,0.0015611793,0.0,0.0,0.0,0.0,1310988,1310988,6620172,197388,0,0,165,1,1,1,1,1,0,0,0,0,0,0,0
4552000,4472000,4898947603,0.00093513896,0.004430949,0.002005458,0,0.017876415,1.0808506,0.003444856,nan,nan,0.0015611793,0.0,0.0,0.0,0.0,1310988,1310988,6620172,197388,0,0,165,1,1,1,1,1,0,0,0,0,0,0,0
4560000,4480000,4898947603,0.00089441316,0.0042791665,0.0020309666,0,0.018630913,1.0808636,0.003444856,nan,nan,0.0015611793,0.0,0.0,0.0,0.0,1310988,1310988,6620172,197388,0,0,165,1,1,1,1,1,0,0,0,0,0,0,0
4568000,4488000,4898947603,0.0008590145,0.004132191,0.0020571456,0,0.01941641,1.0808771,0.003444856,nan,nan,0.0015611793,0.0,0.0,0.0,0.0,1310988,1310988,6620172,197388,0,0,165,1,1,1,1,1,0,0,0,0,0,0,0
4576000,4496000,4898947603,0.00079786626,0.003992832,0.0020836536,0,0.020232711,1.080891,0.003444856,nan,nan,0.0015611793,0.0,0.0,0.0,0.0,1310988,1310988,6620172,197388,0,0,165,1,1,1,1,1,0,0,0,0,0,0,0
4584000,4504000,4898947603,0.00073982024,0.0038600282,0.009926953,0,0.021079678,1.0327759,0.003444856,nan,nan,0.005269664,0.0,0.0,0.0,0.0,1310988,1310988,6620172,197388,0,0,165,1,1,1,1,1,0,0,0,0,0,0,0
4592000,4512000,4898947603,0.0006845914,0.0037246128,0.009721062,0,0.021957126,1.0327902,0.003444856,nan,nan,0.005269664,0.0,0.0,0.0,0.0,1310988,1310988,6620172,197388,0,0,165,1,1,1,1,1,0,0,0,0,0,0,0
4600000,4520000,4898947603,0.0006319518,0.0035913815,0.009520393,0,0.022864917,1.032805,0.003444856,nan,nan,0.005269664,0.0,0.0,0.0,0.0,1310988,1310988,6620172,197388,0,0,165,1,1,1,1,1,0,0,0,0,0,0,0
4608000,4528000,4898947603,0.0005783411,0.0034564487,0.009323821,0,0.023802986,1.0328203,0.003444856,nan,nan,0.005269664,0.0,0.0,0.0,0.0,1310988,1310988,6620172,197388,0,0,165,1,1,1,1,1,0,0,0,0,0,0,0
4616000,4536000,4898947603,0.0005889276,0.0033244106,0.009131266,0,0.024771256,1.0328363,0.010357846,nan,nan,0.005269664,0.0,0.0,0.0,0.0,1310988,1310988,6620172,197388,0,0,165,1,1,1,1,1,0,0,0,0,0,0,0
4624000,4544000,4898947603,0.0005821731,0.0031958958,0.008942662,0,0.025769692,1.0328526,0.010357846,nan,nan,0.005269664,0.0,0.0,0.0,0.0,1310988,1310988,6620172,197388,0,0,165,1,1,1,1,1,0,0,0,0,0,0,0
4632000,4552000,4898947603,0.0005741294,0.003070368,0.008757983,0,0.026798189,1.0328696,0.010357846,nan,nan,0.005269664,0.0,0.0,0.0,0.0,1310988,1310988,6620172,197388,0,0,165,1,1,1,1,1,0,0,0,0,0,0,0
4640000,4560000,4898947603,0.00057030766,0.0029472625,0.0070918985,0,0.027856762,0.99064964,0.010357846,nan,nan,0.0010330358,0.0,0.0,0.0,0.0,1310988,1310988,6620172,197388,0,0,165,1,1,1,1,1,0,0,0,0,0,0,0
4648000,4568000,4898947603,0.00056854286,0.00282867,0.0069623804,0,0.02894535,0.99066705,0.010357846,nan,nan,0.0010330358,0.0,0.0,0.0,0.0,1310988,1310988,6620172,197388,0,0,165,1,1,1,1,1,0,0,0,0,0,0,0
4656000,4576000,4898947603,0.0005682921,0.0027133469,0.0068348823,0,0.030064,0.99068505,0.010357846,nan,nan,0.0010330358,0.0,0.0,0.0,0.0,1310988,1310988,6620172,197388,0,0,165,1,1,1,1,1,0,0,0,0,0,0,0
4664000,4584000,4898947603,0.0005705091,0.002601343,0.0067095314,0,0.031212697,0.9907037,0.010357846,nan,nan,0.0010330358,0.0,0.0,0.0,0.0,1310988,1310988,6620172,197388,0,0,165,1,1,1,1,1,0,0,0,0,0,0,0
4672000,4592000,4898947603,0.00057429983,0.0024934725,0.006586762,0,0.03239164,0.9907229,0.010357846,nan,nan,0.0010330358,0.0,0.0,0.0,0.0,1310988,1310988,6620172,197388,0,0,165,1,1,1,1,1,0,0,0,0,0,0,0
4680000,4600000,4898947603,0.0005792032,0.002389868,0.006465792,0,0.03360087,0.99074274,0.010357846,nan,nan,0.0010330358,0.0,0.0,0.0,0.0,1310988,1310988,6620172,197388,0,0,165,1,1,1,1,1,0,0,0,0,0,0,0
4688000,4608000,4898947603,0.0012512387,0.0022897765,0.006347155,0,0.034840427,0.99076325,0.013167063,nan,nan,0.0010330358,0.0,0.0,0.0,0.0,1310988,1310988,6620172,197388,0,0,165,1,1,1,1,1,0,0,0,0,0,0,0
4696000,4616000,4898947603,0.0013484483,0.0028765763,0.006261281,0,0.01316828,0.9907844,0.013167063,nan,nan,0.0010330358,0.0,0.0,0.0,0.0,1310988,1310988,6620172,197388,0,0,165,1,1,1,1,1,0,0,0,0,0,0,0
4704000,4624000,4898947603,0.0013292207,0.0027674467,0.008395452,0,0.013649395,0.95334256,0.013167063,nan,nan,0.0016969864,0.0,0.0,0.0,0.0,1310988,1310988,6620172,197388,0,0,165,1,1,1,1,1,0,0,0,0,0,0,0
4712000,4632000,4898947603,0.0013089753,0.0026624235,0.008210361,0,0.0141552575,0.9533642,0.013167063,nan,nan,0.0016969864,0.0,0.0,0.0,0.0,1310988,1310988,6620172,197388,0,0,165,1,1,1,1,1,0,0,0,0,0,0,0
4720000,4640000,4898947603,0.0012880766,0.002562061,0.008029317,0,0.014685683,0.9533865,0.013167063,nan,nan,0.0016969864,0.0,0.0,0.0,0.0,1310988,1310988,6620172,197388,0,0,165,1,1,1,1,1,0,0,0,0,0,0,0
4728000,4648000,4898947603,0.0012835148,0.003933078,0.0089872135,0,0.014825537,0.95333135,0.013167063,nan,nan,0.0016969864,0.0,0.0,0.0,0.0,1310988,1310988,6620172,197388,0,0,165,1,1,1,1,1,0,0,0,0,0,0,0
4736000,4656000,4898947603,0.0012616497,0.0037401824,0.0088053215,0,0.015368865,0.9533511,0.013167063,nan,nan,0.0016969864,0.0,0.0,0.0,0.0,1310988,1310988,6620172,197388,0,0,165,1,1,1,1,1,0,0,0,0,0,0,0
4744000,4664000,4898947603,0.0012390761,0.0035524059,0.008627562,0,0.015935136,0.9533714,0.013167063,nan,nan,0.0016969864,0.0,0.0,0.0,0.0,1310988,1310988,6620172,197388,0,0,165,1,1,1,1,1,0,0,0,0,0,0,0
4752000,4672000,4898947603,0.0012160116,0.0033696573,0.008453883,0,0.016524144,0.9533923,0.013167063,nan,nan,0.0016969864,0.0,0.0,0.0,0.0,1310988,1310988,6620172,197388,0,0,165,1,1,1,1,1,0,0,0,0,0,0,0
4760000,4680000,4898947603,0.0010842221,0.0031872627,0.0060627423,0,0.017135756,0.91989464,0.0022575762,nan,nan,0.0017962623,0.0,0.0,0.0,0.0,1310988,1310988,6620172,197388,0,0,165,1,1,1,1,1,0,0,0,0,0,0,0
4768000,4688000,4898947603,0.001060127,0.0030147694,0.0059678676,0,0.017769871,0.91991603,0.0022575762,nan,nan,0.0017962623,0.0,0.0,0.0,0.0,1310988,1310988,6620172,197388,0,0,165,1,1,1,1,1,0,0,0,0,0,0,0
4776000,4696000,4898947603,0.0010028287,0.00284724,0.00587511,0,0.018426329,0.919938,0.0022575762,nan,nan,0.0017962623,0.0,0.0,0.0,0.0,1310988,1310988,6620172,197388,0,0,165,1,1,1,1,1,0,0,0,0,0,0,0
4784000,4704000,4898947603,0.0009361574,0.0026856242,0.005783511,0,0.019104976,0.91996074,0.0022575762,nan,nan,0.0017962623,0.0,0.0,0.0,0.0,1310988,1310988,6620172,197388,0,0,165,1,1,1,1,1,0,0,0,0,0,0,0
4792000,4712000,4898947603,0.0008703367,0.0025278558,0.005694135,0,0.019805681,0.9199841,0.0022575762,nan,nan,0.0017962623,0.0,0.0,0.0,0.0,1310988,1310988,6620172,197388,0,0,165,1,1,1,1,1,0,0,0,0,0,0,0
4800000,4720000,4898947603,0.0008057242,0.0023742681,0.005606133,0,0.02052835,0.92000806,0.0022575762,nan,nan,0.0017962623,0.0,0.0,0.0,0.0,1310988,1310988,6620172,197388,0,0,165,1,1,1,1,1,0,0,0,0,0,0,0
4808000,4728000,4898947603,0.00074211,0.002224684,0.0055199363,0,0.021272857,0.9200328,0.0022575762,nan,nan,0.0017962623,0.0,0.0,0.0,0.0,1310988,1310988,6620172,197388,0,0,165,1,1,1,1,1,0,0,0,0,0,0,0
4816000,4736000,4898947603,0.0006782189,0.0020649552,0.005434469,0,0.022039134,0.92005813,0.0022575762,nan,nan,0.0017962623,0.0,0.0,0.0,0.0,1310988,1310988,6620172,197388,0,0,165,1,1,1,1,1,0,0,0,0,0,0,0
4824000,4744000,4898947603,0.0006153769,0.0019226009,0.010403047,0,0.022827126,0.8898506,0.0022575762,nan,nan,0.0043524345,0.0,0.0,0.0,0.0,1310988,1310988,6620172,197388,0,0,165,1,1,1,1,1,0,0,0,0,0,0,0
4832000,4752000,4898947603,0.000562332,0.0017709928,0.010157701,0,0.02363677,0.88987654,0.00018852597,nan,nan,0.0043524345,0.0,0.0,0.0,0.0,1310988,1310988,6620172,197388,0,0,165,1,1,1,1,1,0,0,0,0,0,0,0
4840000,4760000,4898947603,0.00050207064,0.0016235749,0.009918139,0,0.024468083,0.88990325,0.00018852597,nan,nan,0.0043524345,0.0,0.0,0.0,0.0,1310988,1310988,6620172,197388,0,0,165,1,1,1,1,1,0,0,0,0,0,0,0
4848000,4768000,4898947603,0.00044856087,0.0014806973,0.009683696,0,0.025320997,0.8899306,0.00018852597,nan,nan,0.0043524345,0.0,0.0,0.0,0.0,1310988,1310988,6620172,197388,0,0,165,1,1,1,1,1,0,0,0,0,0,0,0
4856000,4776000,4898947603,0.00039629848,0.0013424424,0.009454242,0,0.026195472,0.8899588,0.00018852597,nan,nan,0.0043524345,0.0,0.0,0.0,0.0,1310988,1310988,6620172,197388,0,0,165,1,1,1,1,1,0,0,0,0,0,0,0
4864000,4784000,4898947603,0.0003467319,0.0012084927,0.009230162,0,0.027091483,0.8899877,0.00018852597,nan,nan,0.0043524345,0.0,0.0,0.0,0.0,1310988,1310988,6620172,197388,0,0,165,1,1,1,1,1,0,0,0,0,0,0,0
4872000,4792000,4898947603,0.00030067135,0.0010786437,0.009010997,0,0.028009074,0.89001733,0.00018852597,nan,nan,0.0043524345,0.0,0.0,0.0,0.0,1310988,1310988,6620172,197388,0,0,165,1,1,1,1,1,0,0,0,0,0,0,0
4880000,4800000,4898947603,0.00025796192,0.0009484449,0.006781146,0,0.028948229,0.86259353,0.00018852597,nan,nan,0.0018449216,0.0,0.0,0.0,0.0,1310988,1310988,6620172,197388,0,0,165,1,1,1,1,1,0,0,0,0,0,0,0
4888000,4808000,4898947603,0.0002187952,0.0008290144,0.006636141,0,0.029908981,0.8626238,0.00018852597,nan,nan,0.0018449216,0.0,0.0,0.0,0.0,1310988,1310988,6620172,197388,0,0,165,1,1,1,1,1,0,0,0,0,0,0,0
4896000,4816000,4898947603,0.00018295889,0.00071584433,0.006493665,0,0.030891424,0.86265486,0.00018852597,nan,nan,0.0018449216,0.0,0.0,0.0,0.0,1310988,1310988,6620172,197388,0,0,165,1,1,1,1,1,0,0,0,0,0,0,0
4904000,4824000,4898947603,0.0010749174,0.0020436533,0.0063600205,0,0.012928308,0.8626868,0.018709464,nan,nan,0.0018449216,0.0,0.0,0.0,0.0,1310988,1310988,6620172,197388,0,0,165,1,1,1,1,1,0,0,0,0,0,0,0
4912000,4832000,4898947603,0.0010951393,0.001973424,0.0062232246,0,0.013348963,0.86271954,0.018709464,nan,nan,0.0018449216,0.0,0.0,0.0,0.0,1310988,1310988,6620172,197388,0,0,165,1,1,1,1,1,0,0,0,0,0,0,0
4920000,4840000,4898947603,0.0011141293,0.0019097675,0.006089471,0,0.01378799,0.86275315,0.018709464,nan,nan,0.0018449216,0.0,0.0,0.0,0.0,1310988,1310988,6620172,197388,0,0,165,1,1,1,1,1,0,0,0,0,0,0,0
4928000,4848000,4898947603,0.001131755,0.0018522943,0.0059580975,0,0.01424522,0.86278766,0.018709464,nan,nan,0.0018449216,0.0,0.0,0.0,0.0,1310988,1310988,6620172,197388,0,0,165,1,1,1,1,1,0,0,0,0,0,0,0
4936000,4856000,4898947603,0.0011597231,0.0038628227,0.0072678807,0,0.014417241,0.8626574,0.018709464,nan,nan,0.0018449216,0.0,0.0,0.0,0.0,1310988,1310988,6620172,197388,0,0,165,1,1,1,1,1,0,0,0,0,0,0,0
4944000,4864000,4898947603,0.001174409,0.0036743432,0.0050551295,0,0.014887716,0.83761805,0.018709464,nan,nan,0.0020123764,0.0,0.0,0.0,0.0,1310988,1310988,6620172,197388,0,0,165,1,1,1,1,1,0,0,0,0,0,0,0
4952000,4872000,4898947603,0.0011877706,0.0035003345,0.0049800077,0,0.015375452,0.83764744,0.018709464,nan,nan,0.0020123764,0.0,0.0,0.0,0.0,1310988,1310988,6620172,197388,0,0,165,1,1,1,1,1,0,0,0,0,0,0,0
4960000,4880000,4898947603,0.0011998614,0.0033324643,0.0049064546,0,0.015880384,0.8376776,0.018709464,nan,nan,0.0020123764,0.0,0.0,0.0,0.0,1310988,1310988,6620172,197388,0,0,165,1,1,1,1,1,0,0,0,0,0,0,0
4968000,4888000,4898947603,0.0012107256,0.0031713112,0.0048338645,0,0.01640239,0.8377085,0.018709464,nan,nan,0.0020123764,0.0,0.0,0.0,0.0,1310988,1310988,6620172,197388,0,0,165,1,1,1,1,1,0,0,0,0,0,0,0
4976000,4896000,4898947603,0.0014452925,0.0030165254,0.004762552,0,0.01694136,0.83774006,0.0045945165,nan,nan,0.0020123764,0.0,0.0,0.0,0.0,1310988,1310988,6620172,197388,0,0,165,1,1,1,1,1,0,0,0,0,0,0,0
4984000,4904000,4898947603,0.0014554653,0.0028683755,0.004692478,0,0.017497187,0.8377725,0.0045945165,nan,nan,0.0020123764,0.0,0.0,0.0,0.0,1310988,1310988,6620172,197388,0,0,165,1,1,1,1,1,0,0,0,0,0,0,0
4992000,4912000,4898947603,0.0014043069,0.0027281737,0.0046236785,0,0.018069794,0.8378057,0.0045945165,nan,nan,0.0020123764,0.0,0.0,0.0,0.0,1310988,1310988,6620172,197388,0,0,165,1,1,1,1,1,0,0,0,0,0,0,0
5000000,4920000,4898947603,0.001351827,0.0026105384,0.008848895,0,0.018659087,0.8148186,0.0045945165,nan,nan,0.0044112834,0.0,0.0,0.0,0.0,1310988,1310988,6620172,197388,0,0,165,1,1,1,1,1,0,0,0,0,0,0,0
5008000,4928000,4898947603,0.0012985384,0.002480129,0.008645086,0,0.019264985,0.8148525,0.0045945165,nan,nan,0.0044112834,0.0,0.0,0.0,0.0,1310988,1310988,6620172,197388,0,0,165,1,1,1,1,1,0,0,0,0,0,0,0
5016000,4936000,4898947603,0.0012442019,0.0023547222,0.008446516,0,0.01988746,0.8148871,0.0045945165,nan,nan,0.0044112834,0.0,0.0,0.0,0.0,1310988,1310988,6620172,197388,0,0,165,1,1,1,1,1,0,0,0,0,0,0,0
5024000,4944000,4898947603,0.0011884712,0.0022224574,0.008251777,0,0.020526413,0.81492263,0.0045945165,nan,nan,0.0044112834,0.0,0.0,0.0,0.0,1310988,1310988,6620172,197388,0,0,165,1,1,1,1,1,0,0,0,0,0,0,0
5032000,4952000,4898947603,0.0011319825,0.002096708,0.008061086,0,0.021181788,0.814959,0.0045945165,nan,nan,0.0044112834,0.0,0.0,0.0,0.0,1310988,1310988,6620172,197388,0,0,165,1,1,1,1,1,0,0,0,0,0,0,0
5040000,4960000,4898947603,0.0010747313,0.0019770793,0.007874015,0,0.021853527,0.8149962,0.0045945165,nan,nan,0.0044112834,0.0,0.0,0.0,0.0,1310988,1310988,6620172,197388,0,0,165,1,1,1,1,1,0,0,0,0,0,0,0
5048000,4968000,4898947603,0.00087609363,0.0018640312,0.007690873,0,0.022541597,0.8150343,0.0027601596,nan,nan,0.0044112834,0.0,0.0,0.0,0.0,1310988,1310988,6620172,197388,0,0,165,1,1,1,1,1,0,0,0,0,0,0,0
5056000,4976000,4898947603,0.00081669755,0.001757404,0.0075114416,0,0.02324601,0.8150732,0.0027601596,nan,nan,0.0044112834,0.0,0.0,0.0,0.0,1310988,1310988,6620172,197388,0,0,165,1,1,1,1,1,0,0,0,0,0,0,0
5064000,4984000,4898947603,0.00074435404,0.0016601256,0.007870877,0,0.023966728,0.79386854,0.0027601596,nan,nan,0.0005794832,0.0,0.0,0.0,0.0,1310988,1310988,6620172,197388,0,0,165,1,1,1,1,1,0,0,0,0,0,0,0
5072000,4992000,4898947603,0.0006713948,0.0015680447,0.0076814974,0,0.024703734,0.7939082,0.0027601596,nan,nan,0.0005794832,0.0,0.0,0.0,0.0,1310988,1310988,6620172,197388,0,0,165,1,1,1,1,1,0,0,0,0,0,0,0
5080000,5000000,4898947603,0.000601155,0.0014837744,0.007496339,0,0.025457043,0.7939487,0.0027601596,nan,nan,0.0005794832,0.0,0.0,0.0,0.0,1310988,1310988,6620172,197388,0,0,165,1,1,1,1,1,0,0,0,0,0,0,0
5088000,5008000,4898947603,0.0005333466,0.0014073617,0.0073150354,0,0.026226634,0.79399025,0.0027601596,nan,nan,0.0005794832,0.0,0.0,0.0,0.0,1310988,1310988,6620172,197388,0,0,165,1,1,1,1,1,0,0,0,0,0,0,0
5096000,5016000,4898947603,0.00046829908,0.0013395984,0.0071374807,0,0.027012484,0.79403263,0.0027601596,nan,nan,0.0005794832,0.0,0.0,0.0,0.0,1310988,1310988,6620172,197388,0,0,165,1,1,1,1,1,0,0,0,0,0,0,0
5104000,5024000,4898947603,0.0004060566,0.001280952,0.00696387,0,0.027814634,0.794076,0.0027601596,nan,nan,0.0005794832,0.0,0.0,0.0,0.0,1310988,1310988,6620172,197388,0,0,165,1,1,1,1,1,0,0,0,0,0,0,0
5112000,5032000,4898947603,0.00047702462,0.0022262048,0.006813606,0,0.012679852,0.79412043,0.0027601596,nan,nan,0.0005794832,0.0,0.0,0.0,0.0,1310988,1310988,6620172,197388,0,0,165,1,1,1,1,1,0,0,0,0,0,0,0
5120000,5040000,4898947603,0.00046241784,0.0021737795,0.0101574715,0,0.013053164,0.7744786,0.010922303,nan,nan,0.0040051034,0.0,0.0,0.0,0.0,1310988,1310988,6620172,197388,0,0,165,1,1,1,1,1,0,0,0,0,0,0,0
5128000,5048000,4898947603,0.0004908109,0.0021236965,0.009882274,0,0.013440892,0.7745238,0.010922303,nan,nan,0.0040051034,0.0,0.0,0.0,0.0,1310988,1310988,6620172,197388,0,0,165,1,1,1,1,1,0,0,0,0,0,0,0
5136000,5056000,4898947603,0.00051577325,0.002079567,0.009614195,0,0.0138429655,0.77457,0.010922303,nan,nan,0.0040051034,0.0,0.0,0.0,0.0,1310988,1310988,6620172,197388,0,0,165,1,1,1,1,1,0,0,0,0,0,0,0
5144000,5064000,4898947603,0.0005426326,0.004041962,0.011009176,0,0.014028971,0.7743522,0.010922303,nan,nan,0.0040051034,0.0,0.0,0.0,0.0,1310988,1310988,6620172,197388,0,0,165,1,1,1,1,1,0,0,0,0,0,0,0
5152000,5072000,4898947603,0.00056834135,0.003860123,0.010728688,0,0.014443782,0.77439106,0.010922303,nan,nan,0.0040051034,0.0,0.0,0.0,0.0,1310988,1310988,6620172,197388,0,0,165,1,1,1,1,1,0,0,0,0,0,0,0
5160000,5080000,4898947603,0.0005930333,0.003685155,0.010455893,0,0.014872341,0.77443075,0.010922303,nan,nan,0.0040051034,0.0,0.0,0.0,0.0,1310988,1310988,6620172,197388,0,0,165,1,1,1,1,1,0,0,0,0,0,0,0
5168000,5088000,4898947603,0.00061623735,0.003516638,0.010189976,0,0.015314584,0.7744712,0.010922303,nan,nan,0.0040051034,0.0,0.0,0.0,0.0,1310988,1310988,6620172,197388,0,0,165,1,1,1,1,1,0,0,0,0,0,0,0
5176000,5096000,4898947603,0.0006376717,0.0033549992,0.009930663,0,0.015770383,0.7745126,0.010922303,nan,nan,0.0040051034,0.0,0.0,0.0,0.0,1310988,1310988,6620172,197388,0,0,165,1,1,1,1,1,0,0,0,0,0,0,0
5184000,5104000,4898947603,0.0006574399,0.0032100913,0.011521575,0,0.016239645,0.75625765,0.010922303,nan,nan,0.0022073744,0.0,0.0,0.0,0.0,1310988,1310988,6620172,197388,0,0,165,1,1,1,1,1,0,0,0,0,0,0,0
5192000,5112000,4898947603,0.00076758256,0.0030616114,0.01121616,0,0.016722325,0.7562998,0.0017884871,nan,nan,0.0022073744,0.0,0.0,0.0,0.0,1310988,1310988,6620172,197388,0,0,165,1,1,1,1,1,0,0,0,0,0,0,0
5200000,5120000,4898947603,0.0007804017,0.0029206385,0.010918289,0,0.017218353,0.7563428,0.0017884871,nan,nan,0.0022073744,0.0,0.0,0.0,0.0,1310988,1310988,6620172,197388,0,0,165,1,1,1,1,1,0,0,0,0,0,0,0
5208000,5128000,4898947603,0.00076018646,0.0027858533,0.010628636,0,0.017727675,0.75638676,0.0017884871,nan,nan,0.0022073744,0.0,0.0,0.0,0.0,1310988,1310988,6620172,197388,0,0,165,1,1,1,1,1,0,0,0,0,0,0,0
5216000,5136000,4898947603,0.00073772983,0.0026573127,0.01034631,0,0.018250251,0.7564316,0.0017884871,nan,nan,0.0022073744,0.0,0.0,0.0,0.0,1310988,1310988,6620172,197388,0,0,165,1,1,1,1,1,0,0,0,0,0,0,0
5224000,5144000,4898947603,0.0007137238,0.0025350046,0.01007145,0,0.018786024,0.7564773,0.0017884871,nan,nan,0.0022073744,0.0,0.0,0.0,0.0,1310988,1310988,6620172,197388,0,0,165,1,1,1,1,1,0,0,0,0,0,0,0
5232000,5152000,4898947603,0.000688003,0.0024085955,0.0098029785,0,0.019334959,0.756524,0.0017884871,nan,nan,0.0022073744,0.0,0.0,0.0,0.0,1310988,1310988,6620172,197388,0,0,165,1,1,1,1,1,0,0,0,0,0,0,0
5240000,5160000,4898947603,0.00066058163,0.002284221,0.00854067,0,0.019897016,0.73949194,0.0017884871,nan,nan,0.0012542523,0.0,0.0,0.0,0.0,1310988,1310988,6620172,197388,0,0,165,1,1,1,1,1,0,0,0,0,0,0,0
5248000,5168000,4898947603,0.0006318977,0.002173289,0.008316364,0,0.02047217,0.7395394,0.0017884871,nan,nan,0.0012542523,0.0,0.0,0.0,0.0,1310988,1310988,6620172,197388,0,0,165,1,1,1,1,1,0,0,0,0,0,0,0
5256000,5176000,4898947603,0.0006018047,0.0020703985,0.008097049,0,0.02106037,0.73958784,0.0017884871,nan,nan,0.0012542523,0.0,0.0,0.0,0.0,1310988,1310988,6620172,197388,0,0,165,1,1,1,1,1,0,0,0,0,0,0,0
5264000,5184000,4898947603,0.0013961471,0.0019755987,0.007882487,0,0.021661602,0.7396374,0.015080201,nan,nan,0.0012542523,0.0,0.0,0.0,0.0,1310988,1310988,6620172,197388,0,0,165,1,1,1,1,1,0,0,0,0,0,0,0
5272000,5192000,4898947603,0.001367921,0.0018885006,0.0076727387,0,0.022275817,0.7396878,0.015080201,nan,nan,0.0012542523,0.0,0.0,0.0,0.0,1310988,1310988,6620172,197388,0,0,165,1,1,1,1,1,0,0,0,0,0,0,0
5280000,5200000,4898947603,0.0013338319,0.0018100523,0.0074675805,0,0.022902993,0.7397393,0.015080201,nan,nan,0.0012542523,0.0,0.0,0.0,0.0,1310988,1310988,6620172,197388,0,0,165,1,1,1,1,1,0,0,0,0,0,0,0
5288000,5208000,4898947603,0.0012987069,0.0017405269,0.007266719,0,0.023543103,0.73979175,0.015080201,nan,nan,0.0012542523,0.0,0.0,0.0,0.0,1310988,1310988,6620172,197388,0,0,165,1,1,1,1,1,0,0,0,0,0,0,0
5296000,5216000,4898947603,0.0012644966,0.0016799459,0.007070521,0,0.024196148,0.7398452,0.015080201,nan,nan,0.0012542523,0.0,0.0,0.0,0.0,1310988,1310988,6620172,197388,0,0,165,1,1,1,1,1,0,0,0,0,0,0,0
5304000,5224000,4898947603,0.0012313079,0.0016320401,0.008208444,0,0.02486215,0.72390103,0.015080201,nan,nan,0.0017451799,0.0,0.0,0.0,0.0,1310988,1310988,6620172,197388,0,0,165,1,1,1,1,1,0,0,0,0,0,0,0
5312000,5232000,4898947603,0.001199309,0.001587931,0.007977731,0,0.025541091,0.7239554,0.015080201,nan,nan,0.0017451799,0.0,0.0,0.0,0.0,1310988,1310988,6620172,197388,0,0,165,1,1,1,1,1,0,0,0,0,0,0,0
5320000,5240000,4898947603,0.0011699619,0.0015389852,0.0077528837,0,0.012448432,0.7240109,0.015080201,nan,nan,0.0017451799,0.0,0.0,0.0,0.0,1310988,1310988,6620172,197388,0,0,165,1,1,1,1,1,0,0,0,0,0,0,0
5328000,5248000,4898947603,0.0011403101,0.0015066235,0.007533145,0,0.012785811,0.7240674,0.015080201,nan,nan,0.0017451799,0.0,0.0,0.0,0.0,1310988,1310988,6620172,197388,0,0,165,1,1,1,1,1,0,0,0,0,0,0,0
5336000,5256000,4898947603,0.0018256286,0.0014837395,0.007318441,0,0.0131351035,0.724125,0.012910202,nan,nan,0.0017451799,0.0,0.0,0.0,0.0,1310988,1310988,6620172,197388,0,0,165,1,1,1,1,1,0,0,0,0,0,0,0
5344000,5264000,4898947603,0.0018017119,0.0014684835,0.007109033,0,0.013496251,0.72418374,0.012910202,nan,nan,0.0017451799,0.0,0.0,0.0,0.0,1310988,1310988,6620172,197388,0,0,165,1,1,1,1,1,0,0,0,0,0,0,0
5352000,5272000,4898947603,0.001734419,0.003466657,0.008675536,0,0.013686608,0.7238437,0.012910202,nan,nan,0.0017451799,0.0,0.0,0.0,0.0,1310988,1310988,6620172,197388,0,0,165,1,1,1,1,1,0,0,0,0,0,0,0
5360000,5280000,4898947603,0.0016687002,0.0032942907,0.008285725,0,0.014059696,0.7088893,0.012910202,nan,nan,0.0002177585,0.0,0.0,0.0,0.0,1310988,1310988,6620172,197388,0,0,165,1,1,1,1,1,0,0,0,0,0,0,0
5368000,5288000,4898947603,0.0016045888,0.0031301524,0.008065856,0,0.014444239,0.7089381,0.012910202,nan,nan,0.0002177585,0.0,0.0,0.0,0.0,1310988,1310988,6620172,197388,0,0,165,1,1,1,1,1,0,0,0,0,0,0,0
5376000,5296000,4898947603,0.0015422609,0.0029732203,0.007851305,0,0.014840152,0.70898783,0.012910202,nan,nan,0.0002177585,0.0,0.0,0.0,0.0,1310988,1310988,6620172,197388,0,0,165,1,1,1,1,1,0,0,0,0,0,0,0
5384000,5304000,4898947603,0.001481537,0.002823608,0.007642064,0,0.01524738,0.7090385,0.012910202,nan,nan,0.0002177585,0.0,0.0,0.0,0.0,1310988,1310988,6620172,197388,0,0,165,1,1,1,1,1,0,0,0,0,0,0,0
5392000,5312000,4898947603,0.0014225341,0.0026810938,0.007438169,0,0.015665876,0.7090902,0.012910202,nan,nan,0.0002177585,0.0,0.0,0.0,0.0,1310988,1310988,6620172,197388,0,0,165,1,1,1,1,1,0,0,0,0,0,0,0
5400000,5320000,4898947603,0.0013650727,0.0025457242,0.0072392244,0,0.016095562,0.70914274,0.012910202,nan,nan,0.0002177585,0.0,0.0,0.0,0.0,1310988,1310988,6620172,197388,0,0,165,1,1,1,1,1,0,0,0,0,0,0,0
5408000,5328000,4898947603,0.0020305454,0.0024186869,0.0070454283,0,0.016536398,0.7091963,0.013012336,nan,nan,0.0002177585,0.0,0.0,0.0,0.0,1310988,1310988,6620172,197388,0,0,165,1,1,1,1,1,0,0,0,0,0,0,0
5416000,5336000,4898947603,0.0019788602,0.0022978515,0.0068563023,0,0.016988318,0.70925087,0.013012336,nan,nan,0.0002177585,0.0,0.0,0.0,0.0,1310988,1310988,6620172,197388,0,0,165,1,1,1,1,1,0,0,0,0,0,0,0
5424000,5344000,4898947603,0.00189002,0.002178429,0.005825806,0,0.01745128,0.6951744,0.013012336,nan,nan,0.0012100341,0.0,0.0,0.0,0.0,1310988,1310988,6620172,197388,0,0,165,1,1,1,1,1,0,0,0,0,0,0,0
5432000,5352000,4898947603,0.0018023677,0.0020732265,0.0056736777,0,0.017925251,0.69522977,0.013012336,nan,nan,0.0012100341,0.0,0.0,0.0,0.0,1310988,1310988,6620172,197388,0,0,165,1,1,1,1,1,0,0,0,0,0,0,0
5440000,5360000,4898947603,0.0017180841,0.0019664941,0.0055246134,0,0.018410204,0.6952862,0.013012336,nan,nan,0.0012100341,0.0,0.0,0.0,0.0,1310988,1310988,6620172,197388,0,0,165,1,1,1,1,1,0,0,0,0,0,0,0
5448000,5368000,4898947603,0.0016371899,0.0018693126,0.005378007,0,0.018906085,0.6953437,0.013012336,nan,nan,0.0012100341,0.0,0.0,0.0,0.0,1310988,1310988,6620172,197388,0,0,165,1,1,1,1,1,0,0,0,0,0,0,0
5456000,5376000,4898947603,0.0015593872,0.0017817322,0.005234342,0,0.019412858,0.69540215,0.013012336,nan,nan,0.0012100341,0.0,0.0,0.0,0.0,1310988,1310988,6620172,197388,0,0,165,1,1,1,1,1,0,0,0,0,0,0,0
5464000,5384000,4898947603,0.0014846788,0.0017036722,0.0050934837,0,0.019930517,0.6954617,0.013012336,nan,nan,0.0012100341,0.0,0.0,0.0,0.0,1310988,1310988,6620172,197388,0,0,165,1,1,1,1,1,0,0,0,0,0,0,0
5472000,5392000,4898947603,0.0014131243,0.0016356373,0.0049553188,0,0.020459035,0.69552225,0.013012336,nan,nan,0.0012100341,0.0,0.0,0.0,0.0,1310988,1310988,6620172,197388,0,0,165,1,1,1,1,1,0,0,0,0,0,0,0
5480000,5400000,4898947603,0.00061801274,0.0015680509,0.003376247,0,0.020998389,0.68224114,0.0130866505,nan,nan,0.0021703464,0.0,0.0,0.0,0.0,1310988,1310988,6620172,197388,0,0,165,1,1,1,1,1,0,0,0,0,0,0,0
5488000,5408000,4898947603,0.0005494039,0.0015214809,0.0032913857,0,0.021548571,0.6823026,0.0130866505,nan,nan,0.0021703464,0.0,0.0,0.0,0.0,1310988,1310988,6620172,197388,0,0,165,1,1,1,1,1,0,0,0,0,0,0,0
5496000,5416000,4898947603,0.00044464477,0.0014848232,0.0032080812,0,0.022109585,0.68236524,0.0130866505,nan,nan,0.0021703464,0.0,0.0,0.0,0.0,1310988,1310988,6620172,197388,0,0,165,1,1,1,1,1,0,0,0,0,0,0,0
5504000,5424000,4898947603,0.00034248867,0.0014581875,0.0031259109,0,0.022681406,0.68242896,0.0130866505,nan,nan,0.0021703464,0.0,0.0,0.0,0.0,1310988,1310988,6620172,197388,0,0,165,1,1,1,1,1,0,0,0,0,0,0,0
5512000,5432000,4898947603,0.00024488964,0.0014407532,0.003045321,0,0.023264041,0.68249375,0.0130866505,nan,nan,0.0021703464,0.0,0.0,0.0,0.0,1310988,1310988,6620172,197388,0,0,165,1,1,1,1,1,0,0,0,0,0,0,0
5520000,5440000,4898947603,0.00015193767,0.0014324978,0.0029660158,0,0.023857472,0.6825597,0.0130866505,nan,nan,0.0021703464,0.0,0.0,0.0,0.0,1310988,1310988,6620172,197388,0,0,165,1,1,1,1,1,0,0,0,0,0,0,0
5528000,5448000,4898947603,0.00025413302,0.0023533492,0.0029476904,0,0.012243291,0.68262684,0.0130866505,nan,nan,0.0021703464,0.0,0.0,0.0,0.0,1310988,1310988,6620172,197388,0,0,165,1,1,1,1,1,0,0,0,0,0,0,0
5536000,5456000,4898947603,0.00024845643,0.0023474898,0.0028737711,0,0.012553568,0.68269503,0.0130866505,nan,nan,0.0021703464,0.0,0.0,0.0,0.0,1310988,1310988,6620172,197388,0,0,165,1,1,1,1,1,0,0,0,0,0,0,0
5544000,5464000,4898947603,0.00026938505,0.0023448197,0.003663612,0,0.012874108,0.6701327,0.0130866505,nan,nan,0.0013893197,0.0,0.0,0.0,0.0,1310988,1310988,6620172,197388,0,0,165,1,1,1,1,1,0,0,0,0,0,0,0
5552000,5472000,4898947603,0.00024911028,0.0023466293,0.0035622427,0,0.013204863,0.67020196,0.0034378185,nan,nan,0.0013893197,0.0,0.0,0.0,0.0,1310988,1310988,6620172,197388,0,0,165,1,1,1,1,1,0,0,0,0,0,0,0
5560000,5480000,4898947603,0.00027864915,0.0037260724,0.005329487,0,0.013395085,0.6697556,0.0034378185,nan,nan,0.0013893197,0.0,0.0,0.0,0.0,1310988,1310988,6620172,197388,0,0,165,1,1,1,1,1,0,0,0,0,0,0,0
5568000,5488000,4898947603,0.00028798738,0.0035843337,0.005194398,0,0.013737012,0.66981316,0.0034378185,nan,nan,0.0013893197,0.0,0.0,0.0,0.0,1310988,1310988,6620172,197388,0,0,165,1,1,1,1,1,0,0,0,0,0,0,0
5576000,5496000,4898947603,0.00029876045,0.0034503092,0.0050624055,0,0.014088836,0.6698717,0.0034378185,nan,nan,0.0013893197,0.0,0.0,0.0,0.0,1310988,1310988,6620172,197388,0,0,165,1,1,1,1,1,0,0,0,0,0,0,0
5584000,5504000,4898947603,0.00030912907,0.003323909,0.004933522,0,0.014450504,0.6699312,0.0034378185,nan,nan,0.0013893197,0.0,0.0,0.0,0.0,1310988,1310988,6620172,197388,0,0,165,1,1,1,1,1,0,0,0,0,0,0,0
5592000,5512000,4898947603,0.0003178636,0.0032052933,0.004807873,0,0.014821967,0.6699917,0.0034378185,nan,nan,0.0013893197,0.0,0.0,0.0,0.0,1310988,1310988,6620172,197388,0,0,165,1,1,1,1,1,0,0,0,0,0,0,0
5600000,5520000,4898947603,0.00032471592,0.003130784,0.009576052,0,0.015203167,0.65810174,0.0034378185,nan,nan,0.007863322,0.0,0.0,0.0,0.0,1310988,1310988,6620172,197388,0,0,165,1,1,1,1,1,0,0,0,0,0,0,0
5608000,5528000,4898947603,0.0003293304,0.0030244347,0.009295665,0,0.015594067,0.65816313,0.0034378185,nan,nan,0.007863322,0.0,0.0,0.0,0.0,1310988,1310988,6620172,197388,0,0,165,1,1,1,1,1,0,0,0,0,0,0,0
5616000,5536000,4898947603,0.00032060407,0.0029266817,0.00902273,0,0.01599461,0.65822554,0.0034378185,nan,nan,0.007863322,0.0,0.0,0.0,0.0,1310988,1310988,6620172,197388,0,0,165,1,1,1,1,1,0,0,0,0,0,0,0
5624000,5544000,4898947603,0.00037997926,0.0028353967,0.0087570045,0,0.016404752,0.658289,0.0018749323,nan,nan,0.007863322,0.0,0.0,0.0,0.0,1310988,1310988,6620172,197388,0,0,165,1,1,1,1,1,0,0,0,0,0,0,0
5632000,5552000,4898947603,0.0003680142,0.0027508184,0.008498455,0,0.01682446,0.6583535,0.0018749323,nan,nan,0.007863322,0.0,0.0,0.0,0.0,1310988,1310988,6620172,197388,0,0,165,1,1,1,1,1,0,0,0,0,0,0,0
5640000,5560000,4898947603,0.00036102417,0.002672599,0.008246737,0,0.017253699,0.6584191,0.0018749323,nan,nan,0.007863322,0.0,0.0,0.0,0.0,1310988,1310988,6620172,197388,0,0,165,1,1,1,1,1,0,0,0,0,0,0,0
5648000,5568000,4898947603,0.0003508769,0.002606581,0.009899893,0,0.017692432,0.6471323,0.0018749323,nan,nan,0.0031429348,0.0,0.0,0.0,0.0,1310988,1310988,6620172,197388,0,0,165,1,1,1,1,1,0,0,0,0,0,0,0
