timestamp,roll,pitch,yaw,thrust_body[0],thrust_body[1],thrust_body[2],reset_integral
4376000,0.12906039,0.14895166,0.00034463406,0.0,0.0,-0.001,0
4380000,0.12906162,0.14876752,0.0005119443,0.0,0.0,-0.001,0
4400000,0.1294007,0.14795025,0.00043684244,0.0,0.0,-0.001,0
4420000,0.12958582,0.14733294,0.0005286336,0.0,0.0,-0.001,0
4440000,0.12955359,0.14710563,0.0004969239,0.0,0.0,-0.001,0
4460000,0.12973805,0.14678428,0.00058329105,0.0,0.0,-0.001,0
4480000,0.12968962,0.14636907,0.00046563148,0.0,0.0,-0.001,0
4496000,0.12977554,0.14598493,0.00041681528,0.0,0.0,-0.001,0
4520000,0.12968259,0.14496237,0.0004914999,0.0,0.0,-0.001,0
4536000,0.12970734,0.144537,0.00043016672,0.0,0.0,-0.001,0
4560000,0.1296756,0.14383058,0.00045979023,0.0,0.0,-0.001,0
4576000,0.12967353,0.14351359,0.0004710555,0.0,0.0,-0.001,0
4600000,0.1296855,0.14295177,0.00052571297,0.0,0.0,-0.001,0
4616000,0.1297075,0.14253023,0.0005398989,0.0,0.0,-0.001,0
4640000,0.12967606,0.14216664,0.0005469918,0.0,0.0,-0.001,0
4660000,0.12965766,0.14222033,0.00061416626,0.0,0.0,-0.001,0
4680000,0.12990524,0.1419688,0.0006183386,0.0,0.0,-0.001,0
4700000,0.12980828,0.14165941,0.0006738305,0.0,0.0,-0.001,0
4720000,0.1296294,0.14115784,0.0007418394,0.0,0.0,-0.001,0
4736000,0.1293959,0.14093311,0.00067842007,0.0,0.0,-0.001,0
4760000,0.12895274,0.14025162,0.000703454,0.0,0.0,-0.001,0
4780000,0.12856156,0.14007677,0.0006417036,0.0,0.0,-0.001,0
4800000,0.1280805,0.1397308,0.00069093704,0.0,0.0,-0.001,0
4820000,0.12734865,0.1398043,0.00065505505,0.0,0.0,-0.001,0
4840000,0.1269979,0.13959892,0.0006412864,0.0,0.0,-0.001,0
4860000,0.12645556,0.1392895,0.0006175041,0.0,0.0,-0.001,0
4880000,0.12606284,0.13917129,0.0006300211,0.0,0.0,-0.001,0
4896000,0.12595308,0.13911688,0.0005636811,0.0,0.0,-0.001,0
4920000,0.1253769,0.139167,0.00042182207,0.0,0.0,-0.001,0
4940000,0.12463645,0.13923901,0.00050902367,0.0,0.0,-0.001,0
4956000,0.12445118,0.13898823,0.00050234795,0.0,0.0,-0.001,0
4976000,0.12376822,0.13900575,0.00031876564,0.0,0.0,-0.001,0
4996000,0.12337852,0.13898183,0.00045269728,0.0,0.0,-0.001,0
5016000,0.12281477,0.13880685,0.00045645237,0.0,0.0,-0.001,0
5036000,0.12229974,0.13866097,0.00048691034,0.0,0.0,-0.001,0
5056000,0.1218577,0.1384574,0.00038969517,0.0,0.0,-0.001,0
5076000,0.1215969,0.13832468,0.00051862,0.0,0.0,-0.001,0
5096000,0.12123962,0.1383959,0.0004581213,0.0,0.0,-0.001,0
5116000,0.12102013,0.13837765,0.0005198717,0.0,0.0,-0.001,0
5140000,0.12076743,0.13832456,0.00055617094,0.0,0.0,-0.001,0
5156000,0.12047885,0.13824819,0.00059622526,0.0,0.0,-0.001,0
5176000,0.120343916,0.13828388,0.00058329105,0.0,0.0,-0.001,0
5196000,0.12000371,0.13853748,0.000572443,0.0,0.0,-0.001,0
5216000,0.11982199,0.13862185,0.0006504655,0.0,0.0,-0.001,0
5236000,0.1194833,0.13875233,0.0005899668,0.0,0.0,-0.001,0
5260000,0.11950046,0.13873862,0.0005532503,0.0,0.0,-0.001,0
5280000,0.119065285,0.13880335,0.0007067919,0.0,0.0,-0.001,0
5300000,0.118857235,0.13884823,0.00063169,0.0,0.0,-0.001,0
5316000,0.11867551,0.13880284,0.00062960386,0.0,0.0,-0.001,0
5336000,0.118330106,0.13874581,0.0006300211,0.0,0.0,-0.001,0
5356000,0.1181561,0.13862798,0.00060373545,0.0,0.0,-0.001,0
5376000,0.11813393,0.13875662,0.00072556734,0.0,0.0,-0.001,0
5400000,0.11779338,0.13879463,0.0007414222,0.0,0.0,-0.001,0
5416000,0.117688134,0.13874666,0.0007443428,0.0,0.0,-0.001,0
5436000,0.11750353,0.13861571,0.0006558895,0.0,0.0,-0.001,0
5456000,0.117380545,0.13854492,0.0007355809,0.0,0.0,-0.001,0
5480000,0.1175166,0.13855937,0.0007184744,0.0,0.0,-0.001,0
5496000,0.117495745,0.13847153,0.0006079078,0.0,0.0,-0.001,0
5520000,0.117489986,0.13814043,0.0005040169,0.0,0.0,-0.001,0
5536000,0.11745297,0.13796474,0.0005219579,0.0,0.0,-0.001,0
5560000,0.11735827,0.1378569,0.00049316883,0.0,0.0,-0.001,0
5580000,0.11749525,0.13752411,0.0005161166,0.0,0.0,-0.001,0
5600000,0.11778694,0.13764869,0.00050359964,0.0,0.0,-0.001,0
5620000,0.11783327,0.13764463,0.0005636811,0.0,0.0,-0.001,0
5640000,0.118153766,0.13752456,0.00049734116,0.0,0.0,-0.001,0
5660000,0.11831337,0.13746046,0.0005111098,0.0,0.0,-0.001,0
5676000,0.11856909,0.13731647,0.0005015135,0.0,0.0,-0.001,0
5696000,0.11872849,0.13698435,0.00050359964,0.0,0.0,-0.001,0
5716000,0.11877366,0.13670674,0.00051152706,0.0,0.0,-0.001,0
5740000,0.11893444,0.13683325,0.0004956722,0.0,0.0,-0.001,0
5756000,0.119121045,0.13680263,0.0005065203,0.0,0.0,-0.001,0
5776000,0.11930898,0.13665214,0.0005540848,0.0,0.0,-0.001,0
5796000,0.11951663,0.13672768,0.0005303025,0.0,0.0,-0.001,0
5816000,0.11987563,0.13648167,0.0006066561,0.0,0.0,-0.001,0
5836000,0.11994392,0.1366489,0.0005682707,0.0,0.0,-0.001,0
5856000,0.1197882,0.13685097,0.00063210726,0.0,0.0,-0.001,0
5876000,0.1197944,0.13700573,0.0005636811,0.0,0.0,-0.001,0
5896000,0.11975115,0.13688582,0.00061166286,0.0,0.0,-0.001,0
5916000,0.11965187,0.13663405,0.00042140484,0.0,0.0,-0.001,0
5936000,0.11962245,0.1364426,0.0003066659,0.0,0.0,-0.001,0
5956000,0.11980089,0.13637726,0.0004197359,0.0,0.0,-0.001,0
5980000,0.12020651,0.13637571,0.00039219856,0.0,0.0,-0.001,0
6000000,0.12019772,0.13620524,0.0003579855,0.0,0.0,-0.001,0
6020000,0.12010592,0.13634452,0.000459373,0.0,0.0,-0.001,0
6040000,0.12021816,0.136431,0.00037050247,0.0,0.0,-0.001,0
6060000,0.120065995,0.13617761,0.00055783987,0.0,0.0,-0.001,0
6080000,0.12008608,0.13613099,0.00064504147,0.0,0.0,-0.001,0
6100000,0.12022517,0.13626195,0.0006170869,0.0,0.0,-0.001,0
6120000,0.1200238,0.13616766,0.0006825924,0.0,0.0,-0.001,0
6140000,0.1199437,0.13604406,0.0006003976,0.0,0.0,-0.001,0
6156000,0.12012841,0.13577165,0.00064212084,0.0,0.0,-0.001,0
6176000,0.12009081,0.1358492,0.00066006184,0.0,0.0,-0.001,0
6200000,0.11981449,0.13575573,0.000757277,0.0,0.0,-0.001,0
6216000,0.119723655,0.1359757,0.0006504655,0.0,0.0,-0.001,0
6236000,0.11957816,0.13593397,0.0006325245,0.0,0.0,-0.001,0
6256000,0.11931012,0.1357683,0.00063335896,0.0,0.0,-0.001,0
6276000,0.119182646,0.13617645,0.0005632639,0.0,0.0,-0.001,0
6296000,0.118932076,0.13605185,0.0006875992,0.0,0.0,-0.001,0
6316000,0.11895798,0.13613054,0.000572443,0.0,0.0,-0.001,0
6336000,0.11891548,0.13634259,0.00065380335,0.0,0.0,-0.001,0
6356000,0.11877246,0.13621514,0.00063210726,0.0,0.0,-0.001,0
6376000,0.118611515,0.13617258,0.0006696582,0.0,0.0,-0.001,0
6400000,0.11849619,0.13612509,0.00075894594,0.0,0.0,-0.001,0
6420000,0.11837605,0.13635686,0.000626266,0.0,0.0,-0.001,0
6440000,0.118186176,0.13626304,0.0007264018,0.0,0.0,-0.001,0
6460000,0.11812419,0.13612175,0.0005824566,0.0,0.0,-0.001,0
6480000,0.11810404,0.13594748,0.0006492138,0.0,0.0,-0.001,0
6500000,0.11806298,0.13595814,0.00056910515,0.0,0.0,-0.001,0
6520000,0.11780198,0.13603653,0.00055491924,0.0,0.0,-0.001,0
6540000,0.11760881,0.13594928,0.0005232096,0.0,0.0,-0.001,0
6560000,0.11741971,0.13578957,0.00042641163,0.0,0.0,-0.001,0
6576000,0.117056414,0.13580692,0.00054323673,0.0,0.0,-0.001,0
6600000,0.11689459,0.13573,0.00046771765,0.0,0.0,-0.001,0
6616000,0.1168565,0.13580887,0.0005144477,0.0,0.0,-0.001,0
6636000,0.1166075,0.13617788,0.0006187558,0.0,0.0,-0.001,0
6656000,0.11652568,0.13630787,0.0008081794,0.0,0.0,-0.001,0
6680000,0.11616829,0.13633327,0.00077438354,0.0,0.0,-0.001,0
6696000,0.116160214,0.13647795,0.000816524,0.0,0.0,-0.001,0
6720000,0.116083235,0.13667868,0.000834465,0.0,0.0,-0.001,0
6736000,0.115713134,0.13658628,0.00081318617,0.0,0.0,-0.001,0
6756000,0.115473494,0.13661774,0.0006646514,0.0,0.0,-0.001,0
6780000,0.11541195,0.1364826,0.0005620122,0.0,0.0,-0.001,0
6800000,0.115336046,0.13657995,0.0005682707,0.0,0.0,-0.001,0
6820000,0.1152534,0.1367192,0.00056409836,0.0,0.0,-0.001,0
6840000,0.115198515,0.13688996,0.0005390644,0.0,0.0,-0.001,0
6860000,0.114980854,0.13693903,0.00051277876,0.0,0.0,-0.001,0
6880000,0.11489072,0.13692063,0.0004710555,0.0,0.0,-0.001,0
6900000,0.11478082,0.13717534,0.00050777197,0.0,0.0,-0.001,0
6920000,0.11497402,0.13740323,0.0004977584,0.0,0.0,-0.001,0
6936000,0.114851534,0.13768601,0.00035130978,0.0,0.0,-0.001,0
6956000,0.1148033,0.13775085,0.0004339218,0.0,0.0,-0.001,0
6976000,0.11477157,0.13781567,0.00031751394,0.0,0.0,-0.001,0
6996000,0.114804134,0.13768026,0.00050234795,0.0,0.0,-0.001,0
7016000,0.11471413,0.13775368,0.0004068017,0.0,0.0,-0.001,0
7036000,0.114565775,0.13798313,0.00047022104,0.0,0.0,-0.001,0
7056000,0.1147491,0.13801636,0.0004606247,0.0,0.0,-0.001,0
7076000,0.11500318,0.13808098,0.0006183386,0.0,0.0,-0.001,0
7100000,0.11528392,0.13819546,0.0006341934,0.0,0.0,-0.001,0
7120000,0.11515069,0.13806802,0.0007405877,0.0,0.0,-0.001,0
7136000,0.115063764,0.13778335,0.0007209778,0.0,0.0,-0.001,0
7160000,0.114872955,0.13797842,0.0007927418,0.0,0.0,-0.001,0
7180000,0.11502582,0.13802087,0.0006183386,0.0,0.0,-0.001,0
7200000,0.11508269,0.1376465,0.00075393915,0.0,0.0,-0.001,0
7216000,0.11515673,0.1376747,0.0009379387,0.0,0.0,-0.001,0
7236000,0.11552717,0.13774955,0.00074100494,0.0,0.0,-0.001,0
7256000,0.11528777,0.13783282,0.00089913607,0.0,0.0,-0.001,0
7280000,0.11508465,0.13801521,0.0008582473,0.0,0.0,-0.001,0
7300000,0.11503966,0.13782409,0.0005966425,0.0,0.0,-0.001,0
7316000,0.11503085,0.13761443,0.0005632639,0.0,0.0,-0.001,0
7336000,0.11496439,0.13754232,0.0006183386,0.0,0.0,-0.001,0
7356000,0.11516796,0.13782911,0.0006633997,0.0,0.0,-0.001,0
7376000,0.11524254,0.13789406,0.0007201433,0.0,0.0,-0.001,0
7400000,0.11549397,0.13806257,0.0007401705,0.0,0.0,-0.001,0
7420000,0.11580155,0.13819447,0.00062835217,0.0,0.0,-0.001,0
7440000,0.11602315,0.13837022,0.0007122159,0.0,0.0,-0.001,0
7460000,0.11622166,0.13854475,0.00061917305,0.0,0.0,-0.001,0
7480000,0.116142966,0.13873768,0.00066173077,0.0,0.0,-0.001,0
7496000,0.1165694,0.13879147,0.0006696582,0.0,0.0,-0.001,0
7520000,0.11709764,0.13873318,0.0008265376,0.0,0.0,-0.001,0
7540000,0.11723719,0.1384409,0.0006763339,0.0,0.0,-0.001,0
7560000,0.1171449,0.1384266,0.0008069277,0.0,0.0,-0.001,0
7580000,0.11722404,0.13840985,0.0006237626,0.0,0.0,-0.001,0
7600000,0.11712797,0.13829052,0.0007380843,0.0,0.0,-0.001,0
7620000,0.1172616,0.13838764,0.0006058216,0.0,0.0,-0.001,0
7636000,0.117669985,0.13830788,0.0005862117,0.0,0.0,-0.001,0
7660000,0.11772316,0.13793702,0.0005878806,0.0,0.0,-0.001,0
7676000,0.11791585,0.13776432,0.0006003976,0.0,0.0,-0.001,0
7696000,0.11814456,0.137512,0.0006220937,0.0,0.0,-0.001,0
7716000,0.11832753,0.13776997,0.00059080124,0.0,0.0,-0.001,0
7736000,0.118448064,0.13762967,0.00070512295,0.0,0.0,-0.001,0
7760000,0.11850226,0.1374851,0.0006379485,0.0,0.0,-0.001,0
7776000,0.118562356,0.13755986,0.0006533861,0.0,0.0,-0.001,0
7796000,0.11851401,0.13762625,0.00064378977,0.0,0.0,-0.001,0
7820000,0.11814007,0.13731205,0.0006404519,0.0,0.0,-0.001,0
7840000,0.118259385,0.13700351,0.00070261955,0.0,0.0,-0.001,0
7856000,0.118267655,0.1370663,0.00072056055,0.0,0.0,-0.001,0
7876000,0.11819011,0.13707826,0.00058496,0.0,0.0,-0.001,0
7896000,0.11843766,0.13693248,0.0006337762,0.0,0.0,-0.001,0
7916000,0.11842656,0.13693959,0.0005983114,0.0,0.0,-0.001,0
7936000,0.1183876,0.13704306,0.00046271086,0.0,0.0,-0.001,0
7956000,0.1183919,0.13698593,0.00046479702,0.0,0.0,-0.001,0
7976000,0.11847809,0.13695906,0.00040513277,0.0,0.0,-0.001,0
7996000,0.118581764,0.13686013,0.00049108267,0.0,0.0,-0.001,0
8016000,0.11862816,0.1368283,0.00047063828,0.0,0.0,-0.001,0
8036000,0.11865441,0.13656555,0.0004965067,0.0,0.0,-0.001,0
8056000,0.11864989,0.13654624,0.00046688318,0.0,0.0,-0.001,0
8080000,0.1186899,0.1362253,0.00049483776,0.0,0.0,-0.001,0
8096000,0.118701674,0.13624233,0.0004956722,0.0,0.0,-0.001,0
8120000,0.11862981,0.1360582,0.0005207062,0.0,0.0,-0.001,0
8136000,0.118679054,0.1358534,0.00048941374,0.0,0.0,-0.001,0
8160000,0.1187876,0.13587168,0.00051862,0.0,0.0,-0.001,0
8180000,0.11856336,0.13604768,0.0005565882,0.0,0.0,-0.001,0
8196000,0.11855159,0.13592684,0.00052571297,0.0,0.0,-0.001,0
8216000,0.11854089,0.13562304,0.0005453229,0.0,0.0,-0.001,0
8236000,0.11853112,0.13546248,0.0005194545,0.0,0.0,-0.001,0
8256000,0.11869523,0.13530895,0.0006237626,0.0,0.0,-0.001,0
8276000,0.11854759,0.13522929,0.00056785345,0.0,0.0,-0.001,0
8296000,0.11872016,0.13538235,0.00039803982,0.0,0.0,-0.001,0
8316000,0.11878927,0.13533896,0.00046479702,0.0,0.0,-0.001,0
8336000,0.11850608,0.13508101,0.00041681528,0.0,0.0,-0.001,0
8356000,0.11813719,0.13484266,0.00047564507,0.0,0.0,-0.001,0
8376000,0.11797374,0.13479716,0.0005636811,0.0,0.0,-0.001,0
8396000,0.11778796,0.13481309,0.0005507469,0.0,0.0,-0.001,0
8416000,0.117622234,0.13488978,0.0006054044,0.0,0.0,-0.001,0
8440000,0.11769945,0.13489172,0.00054448843,0.0,0.0,-0.001,0
8460000,0.11752892,0.1348385,0.00052529573,0.0,0.0,-0.001,0
8480000,0.1175246,0.13469031,0.00055742264,0.0,0.0,-0.001,0
8496000,0.11759083,0.134727,0.0005361438,0.0,0.0,-0.001,0
8516000,0.11746375,0.13457812,0.0005336404,0.0,0.0,-0.001,0
8536000,0.11754119,0.1345679,0.0005699396,0.0,0.0,-0.001,0
8560000,0.11729499,0.13441242,0.0005682707,0.0,0.0,-0.001,0
8576000,0.117197365,0.13435972,0.0005828738,0.0,0.0,-0.001,0
8600000,0.11702056,0.13436343,0.00047773123,0.0,0.0,-0.001,0
8620000,0.11680476,0.1343629,0.0005069375,0.0,0.0,-0.001,0
8640000,0.11671873,0.13453497,0.00045979023,0.0,0.0,-0.001,0
8660000,0.11689649,0.1348286,0.000567019,0.0,0.0,-0.001,0
8676000,0.11673302,0.13503851,0.00057703257,0.0,0.0,-0.001,0
8696000,0.11668005,0.134984,0.00055742264,0.0,0.0,-0.001,0
8716000,0.11670141,0.1348427,0.0005791187,0.0,0.0,-0.001,0
8736000,0.116735645,0.13471416,0.00047940016,0.0,0.0,-0.001,0
8756000,0.116754435,0.13481322,0.00052779913,0.0,0.0,-0.001,0
8776000,0.11666389,0.13467349,0.00052028894,0.0,0.0,-0.001,0
8796000,0.116685644,0.13454552,0.00054240227,0.0,0.0,-0.001,0
8816000,0.1167202,0.13439067,0.0005373955,0.0,0.0,-0.001,0
8836000,0.11662931,0.13457578,0.00056159496,0.0,0.0,-0.001,0
8856000,0.11656122,0.13449647,0.0005386472,0.0,0.0,-0.001,0
8876000,0.11649402,0.13413318,0.00050777197,0.0,0.0,-0.001,0
8896000,0.11644671,0.13431114,0.0005403161,0.0,0.0,-0.001,0
8920000,0.11615053,0.13428229,0.0005161166,0.0,0.0,-0.001,0
8936000,0.11630784,0.13432606,0.0005515814,0.0,0.0,-0.001,0
8956000,0.11628952,0.1342832,0.0004914999,0.0,0.0,-0.001,0
8976000,0.116164245,0.13414055,0.0004618764,0.0,0.0,-0.001,0
8996000,0.11592179,0.13418476,0.000495255,0.0,0.0,-0.001,0
9016000,0.11606107,0.13390908,0.0004351735,0.0,0.0,-0.001,0
9040000,0.116245374,0.13372995,0.00041347742,0.0,0.0,-0.001,0
9056000,0.11611326,0.1336347,0.0004581213,0.0,0.0,-0.001,0
9080000,0.116180316,0.13354547,0.00043725967,0.0,0.0,-0.001,0
9096000,0.11617379,0.13335982,0.00030124187,0.0,0.0,-0.001,0
9116000,0.11615523,0.13318855,0.0003901124,0.0,0.0,-0.001,0
9136000,0.116113976,0.13292734,0.00042015314,0.0,0.0,-0.001,0
9156000,0.1163325,0.13320218,0.0004464388,0.0,0.0,-0.001,0
9176000,0.11635972,0.13357021,0.0003579855,0.0,0.0,-0.001,0
9196000,0.11622793,0.13367416,0.0004581213,0.0,0.0,-0.001,0
9220000,0.116225295,0.1335663,0.0004685521,0.0,0.0,-0.001,0
9240000,0.1160997,0.13352297,0.00047814846,0.0,0.0,-0.001,0
9256000,0.11606566,0.13348515,0.00040513277,0.0,0.0,-0.001,0
9280000,0.11580842,0.13363668,0.0005211234,0.0,0.0,-0.001,0
9296000,0.11553431,0.13364373,0.00048440695,0.0,0.0,-0.001,0
9316000,0.115431145,0.13375743,0.00047022104,0.0,0.0,-0.001,0
9336000,0.11549522,0.13351691,0.000536561,0.0,0.0,-0.001,0
9356000,0.11548275,0.13364254,0.00052154064,0.0,0.0,-0.001,0
9376000,0.115489006,0.13383313,0.0004864931,0.0,0.0,-0.001,0
9400000,0.11556204,0.13392967,0.0005002618,0.0,0.0,-0.001,0
9416000,0.11550874,0.13375892,0.0004902482,0.0,0.0,-0.001,0
9440000,0.11539009,0.13324302,0.00044226646,0.0,0.0,-0.001,0
9456000,0.1153886,0.13302922,0.00043600798,0.0,0.0,-0.001,0
9476000,0.115327165,0.13316365,0.00048565865,0.0,0.0,-0.001,0
9500000,0.11519398,0.13298695,0.0004877448,0.0,0.0,-0.001,0
9516000,0.11511314,0.1329154,0.00051403046,0.0,0.0,-0.001,0
9536000,0.11511121,0.13286112,0.0005686879,0.0,0.0,-0.001,0
9556000,0.114859514,0.13257374,0.0005465746,0.0,0.0,-0.001,0
9576000,0.11470301,0.13268419,0.00056117773,0.0,0.0,-0.001,0
9596000,0.11460807,0.13275576,0.00047898293,0.0,0.0,-0.001,0
9616000,0.11437925,0.13283877,0.0004030466,0.0,0.0,-0.001,0
9636000,0.11430814,0.13255648,0.00051862,0.0,0.0,-0.001,0
9656000,0.11457612,0.13231036,0.00033962727,0.0,0.0,-0.001,0
9676000,0.11464819,0.13222024,0.00040888786,0.0,0.0,-0.001,0
9696000,0.11488995,0.13190417,0.00040638447,0.0,0.0,-0.001,0
9716000,0.11484442,0.13168249,0.000423491,0.0,0.0,-0.001,0
9736000,0.11486238,0.13147394,0.00031375885,0.0,0.0,-0.001,0
9756000,0.11478175,0.13144013,0.0004606247,0.0,0.0,-0.001,0
9780000,0.11458938,0.13158765,0.00047940016,0.0,0.0,-0.001,0
9800000,0.114577785,0.13172735,0.0003771782,0.0,0.0,-0.001,0
9820000,0.114686325,0.13171096,0.00047147274,0.0,0.0,-0.001,0
9840000,0.11454434,0.13168503,0.00046730042,0.0,0.0,-0.001,0
9860000,0.11461869,0.13176233,0.00045853853,0.0,0.0,-0.001,0
9876000,0.114375636,0.13167611,0.0004543662,0.0,0.0,-0.001,0
9896000,0.11433445,0.13156334,0.00046563148,0.0,0.0,-0.001,0
9920000,0.11407208,0.13129887,0.0004864931,0.0,0.0,-0.001,0
9940000,0.113722965,0.13157447,0.0004209876,0.0,0.0,-0.001,0
9960000,0.113664076,0.13160188,0.00032669306,0.0,0.0,-0.001,0
9976000,0.11356284,0.13190341,0.0003629923,0.0,0.0,-0.001,0
9996000,0.113444164,0.13171756,0.00042766333,0.0,0.0,-0.001,0
10016000,0.113313474,0.13177122,0.00036257505,0.0,0.0,-0.001,0
10036000,0.11344609,0.13198283,0.00047397614,0.0,0.0,-0.001,0
10056000,0.11330088,0.13195892,0.00042557716,0.0,0.0,-0.001,0
10076000,0.11337695,0.1320591,0.000495255,0.0,0.0,-0.001,0
10096000,0.11339331,0.13214962,0.000459373,0.0,0.0,-0.001,0
10116000,0.11339624,0.13227393,0.00049191713,0.0,0.0,-0.001,0
10136000,0.11338278,0.13216475,0.00050860643,0.0,0.0,-0.001,0
10160000,0.11351988,0.13222402,0.00045019388,0.0,0.0,-0.001,0
10176000,0.11364635,0.13236266,0.00043600798,0.0,0.0,-0.001,0
10200000,0.11373939,0.13215499,0.00046020746,0.0,0.0,-0.001,0
10220000,0.11375975,0.13193315,0.0004810691,0.0,0.0,-0.001,0
10240000,0.113845356,0.1320019,0.00052696466,0.0,0.0,-0.001,0
10260000,0.114043854,0.13202086,0.00050860643,0.0,0.0,-0.001,0
10280000,0.11399602,0.13202976,0.0005457401,0.0,0.0,-0.001,0
10300000,0.113970295,0.13175309,0.0005052686,0.0,0.0,-0.001,0
10320000,0.11416708,0.13134675,0.00053948164,0.0,0.0,-0.001,0
10336000,0.114100784,0.1311664,0.00053697824,0.0,0.0,-0.001,0
10360000,0.11424727,0.13109818,0.0004852414,0.0,0.0,-0.001,0
10380000,0.11438663,0.13124228,0.00049233437,0.0,0.0,-0.001,0
10400000,0.114688486,0.13137047,0.00047814846,0.0,0.0,-0.001,0
10420000,0.11461088,0.13125658,0.00051027536,0.0,0.0,-0.001,0
10440000,0.11458969,0.13118106,0.0004914999,0.0,0.0,-0.001,0
10456000,0.11452864,0.13092606,0.000441432,0.0,0.0,-0.001,0
10480000,0.11423788,0.13106689,0.00051653385,0.0,0.0,-0.001,0
10500000,0.11401804,0.13096201,0.0005207062,0.0,0.0,-0.001,0
10520000,0.11421917,0.13088298,0.0005565882,0.0,0.0,-0.001,0
10540000,0.11414232,0.1310648,0.00056785345,0.0,0.0,-0.001,0
10560000,0.11423384,0.13092503,0.0005636811,0.0,0.0,-0.001,0
10580000,0.11425512,0.13103497,0.000500679,0.0,0.0,-0.001,0
10600000,0.11408858,0.13118708,0.0005482435,0.0,0.0,-0.001,0
10620000,0.11381912,0.13127673,0.0004990101,0.0,0.0,-0.001,0
10640000,0.11368841,0.13147447,0.0005553365,0.0,0.0,-0.001,0
10660000,0.11363641,0.1314273,0.0004944205,0.0,0.0,-0.001,0
10680000,0.11375191,0.13141538,0.00056159496,0.0,0.0,-0.001,0
10700000,0.113942206,0.13137059,0.00049859285,0.0,0.0,-0.001,0
10720000,0.11375888,0.1309923,0.0005361438,0.0,0.0,-0.001,0
10740000,0.113464825,0.13065518,0.00046771765,0.0,0.0,-0.001,0
10760000,0.11325584,0.13056515,0.00042682886,0.0,0.0,-0.001,0
10780000,0.11306677,0.13025373,0.0004631281,0.0,0.0,-0.001,0
10800000,0.11314868,0.13014081,0.00041514635,0.0,0.0,-0.001,0
10816000,0.11305541,0.13004795,0.000441432,0.0,0.0,-0.001,0
10840000,0.11282666,0.13003801,0.00045603514,0.0,0.0,-0.001,0
10856000,0.11263394,0.13017498,0.00046730042,0.0,0.0,-0.001,0
10876000,0.11245097,0.13025458,0.00047564507,0.0,0.0,-0.001,0
10896000,0.11249084,0.1303665,0.00050902367,0.0,0.0,-0.001,0
10920000,0.112438984,0.13041201,0.00044935942,0.0,0.0,-0.001,0
10936000,0.11256162,0.13032924,0.00039052963,0.0,0.0,-0.001,0
10960000,0.11271588,0.1303689,0.00043934584,0.0,0.0,-0.001,0
10980000,0.11266265,0.13049677,0.0004723072,0.0,0.0,-0.001,0
11000000,0.112500004,0.13084483,0.0004852414,0.0,0.0,-0.001,0
11016000,0.1123688,0.13088706,0.00041264296,0.0,0.0,-0.001,0
11040000,0.11239774,0.13018171,0.00045102835,0.0,0.0,-0.001,0
11056000,0.112379596,0.13009961,0.00049358606,0.0,0.0,-0.001,0
11080000,0.11278445,0.12995277,0.0004297495,0.0,0.0,-0.001,0
11100000,0.11296841,0.12987985,0.0004748106,0.0,0.0,-0.001,0
11120000,0.11316836,0.12999003,0.00053572655,0.0,0.0,-0.001,0
11136000,0.11300506,0.12986241,0.00048440695,0.0,0.0,-0.001,0
11156000,0.112895235,0.12974267,0.00047689676,0.0,0.0,-0.001,0
11176000,0.11295766,0.1296518,0.00047522783,0.0,0.0,-0.001,0
11200000,0.113045394,0.12900639,0.0004927516,0.0,0.0,-0.001,0
11216000,0.113088146,0.1289663,0.0004439354,0.0,0.0,-0.001,0
11240000,0.11300833,0.12889087,0.00044101477,0.0,0.0,-0.001,0
11260000,0.112954326,0.12884526,0.00045728683,0.0,0.0,-0.001,0
11280000,0.11309451,0.12849177,0.00040221214,0.0,0.0,-0.001,0
11296000,0.113012694,0.12836902,0.00043725967,0.0,0.0,-0.001,0
11316000,0.11283954,0.12820217,0.00043851137,0.0,0.0,-0.001,0
11336000,0.11286835,0.12817335,0.00044852495,0.0,0.0,-0.001,0
11360000,0.11287188,0.12816544,0.0004376769,0.0,0.0,-0.001,0
11376000,0.11269107,0.1280964,0.0005002618,0.0,0.0,-0.001,0
11396000,0.11261513,0.12827769,0.00044852495,0.0,0.0,-0.001,0
11416000,0.11265693,0.12840644,0.00052529573,0.0,0.0,-0.001,0
11436000,0.11268822,0.12849855,0.000477314,0.0,0.0,-0.001,0
11456000,0.11273182,0.1285502,0.00046813488,0.0,0.0,-0.001,0
11480000,0.11294018,0.12856746,0.000536561,0.0,0.0,-0.001,0
11500000,0.1130504,0.12841943,0.0004940033,0.0,0.0,-0.001,0
11520000,0.112984255,0.12863567,0.00051903725,0.0,0.0,-0.001,0
11536000,0.113131456,0.12886971,0.0005156994,0.0,0.0,-0.001,0
11560000,0.113248326,0.12881377,0.0004889965,0.0,0.0,-0.001,0
11576000,0.11313855,0.12871142,0.00045353174,0.0,0.0,-0.001,0
11600000,0.11298708,0.12892711,0.0004556179,0.0,0.0,-0.001,0
11616000,0.113033906,0.1289825,0.00049358606,0.0,0.0,-0.001,0
11636000,0.112828046,0.12870164,0.00047647953,0.0,0.0,-0.001,0
11656000,0.11268614,0.12867065,0.0004618764,0.0,0.0,-0.001,0
11680000,0.112622835,0.1286421,0.00048023462,0.0,0.0,-0.001,0
11696000,0.11279909,0.1284573,0.00051152706,0.0,0.0,-0.001,0
11716000,0.11300413,0.1283062,0.00047522783,0.0,0.0,-0.001,0
11736000,0.113047,0.12825337,0.0005207062,0.0,0.0,-0.001,0
11756000,0.113191776,0.1281184,0.00045478344,0.0,0.0,-0.001,0
11776000,0.113071844,0.12819909,0.00044727325,0.0,0.0,-0.001,0
11796000,0.11285404,0.1276645,0.00046646595,0.0,0.0,-0.001,0
11816000,0.11293865,0.1273917,0.0003926158,0.0,0.0,-0.001,0
11840000,0.11297813,0.12727475,0.00046730042,0.0,0.0,-0.001,0
11856000,0.11294434,0.12734495,0.00046771765,0.0,0.0,-0.001,0
11880000,0.11270856,0.12708813,0.0004927516,0.0,0.0,-0.001,0
11896000,0.112594634,0.12691323,0.0004927516,0.0,0.0,-0.001,0
11916000,0.11252538,0.12685311,0.00046354532,0.0,0.0,-0.001,0
11940000,0.112516776,0.12698984,0.00049734116,0.0,0.0,-0.001,0
11960000,0.11220085,0.12688214,0.00049108267,0.0,0.0,-0.001,0
11980000,0.11201579,0.12681086,0.00048190355,0.0,0.0,-0.001,0
11996000,0.1120047,0.1267541,0.00047647953,0.0,0.0,-0.001,0
12016000,0.11195587,0.12630019,0.0005069375,0.0,0.0,-0.001,0
12036000,0.111783974,0.12622635,0.00050735474,0.0,0.0,-0.001,0
12056000,0.11161595,0.12625442,0.0004005432,0.0,0.0,-0.001,0
12080000,0.11149277,0.12614907,0.00048190355,0.0,0.0,-0.001,0
12096000,0.11143211,0.12611115,0.00042766333,0.0,0.0,-0.001,0
12120000,0.111351,0.12597136,0.000500679,0.0,0.0,-0.001,0
12140000,0.1113817,0.12598161,0.00048065186,0.0,0.0,-0.001,0
12160000,0.11126186,0.12617037,0.0004376769,0.0,0.0,-0.001,0
12176000,0.11110702,0.12629558,0.00044852495,0.0,0.0,-0.001,0
12200000,0.1110935,0.12630977,0.00048190355,0.0,0.0,-0.001,0
12216000,0.111203104,0.12646842,0.00043725967,0.0,0.0,-0.001,0
12240000,0.11094294,0.12674277,0.00047439337,0.0,0.0,-0.001,0
12256000,0.11083994,0.12674479,0.00041139126,0.0,0.0,-0.001,0
12280000,0.11086701,0.12692599,0.0004698038,0.0,0.0,-0.001,0
12296000,0.11083955,0.1271778,0.00043851137,0.0,0.0,-0.001,0
12316000,0.11087132,0.12724048,0.00046604872,0.0,0.0,-0.001,0
12336000,0.11061143,0.12719284,0.0004259944,0.0,0.0,-0.001,0
12356000,0.11068659,0.12733562,0.00045645237,0.0,0.0,-0.001,0
12376000,0.11065818,0.12746404,0.0004209876,0.0,0.0,-0.001,0
12396000,0.110531606,0.1274339,0.00045979023,0.0,0.0,-0.001,0
12416000,0.11042783,0.12749709,0.00046396255,0.0,0.0,-0.001,0
12436000,0.11036894,0.12729926,0.00047397614,0.0,0.0,-0.001,0
12456000,0.110407546,0.12755118,0.0005373955,0.0,0.0,-0.001,0
12480000,0.11031898,0.12775867,0.00046938658,0.0,0.0,-0.001,0
12500000,0.11054309,0.12796995,0.0005002618,0.0,0.0,-0.001,0
12520000,0.11070113,0.12772124,0.0005298853,0.0,0.0,-0.001,0
12540000,0.11080581,0.12742896,0.00047647953,0.0,0.0,-0.001,0
12560000,0.110863075,0.12737021,0.0005198717,0.0,0.0,-0.001,0
12580000,0.11102792,0.12722495,0.00048023462,0.0,0.0,-0.001,0
12600000,0.111100525,0.12732406,0.0004977584,0.0,0.0,-0.001,0
12616000,0.11088839,0.12742709,0.0005482435,0.0,0.0,-0.001,0
12636000,0.11065553,0.12726802,0.0004723072,0.0,0.0,-0.001,0
12660000,0.11044897,0.12736286,0.0004914999,0.0,0.0,-0.001,0
12680000,0.11046429,0.12735815,0.00053572655,0.0,0.0,-0.001,0
12696000,0.1104608,0.12742382,0.0005040169,0.0,0.0,-0.001,0
12716000,0.11043806,0.12783667,0.0004556179,0.0,0.0,-0.001,0
12736000,0.110250525,0.12794201,0.00045645237,0.0,0.0,-0.001,0
12760000,0.11044597,0.12775613,0.0004426837,0.0,0.0,-0.001,0
12780000,0.11030296,0.12795244,0.00044894218,0.0,0.0,-0.001,0
12800000,0.110354416,0.12783585,0.00042390823,0.0,0.0,-0.001,0
12820000,0.110073954,0.1280161,0.00046688318,0.0,0.0,-0.001,0
12840000,0.109907344,0.12776826,0.0005182028,0.0,0.0,-0.001,0
12856000,0.10975378,0.12777534,0.00045603514,0.0,0.0,-0.001,0
12876000,0.10967389,0.1279872,0.00048065186,0.0,0.0,-0.001,0
12896000,0.1096466,0.12795207,0.0004748106,0.0,0.0,-0.001,0
12920000,0.109491795,0.12805861,0.00046479702,0.0,0.0,-0.001,0
12940000,0.10924787,0.12774779,0.00047689676,0.0,0.0,-0.001,0
12960000,0.109089576,0.12761359,0.00049984455,0.0,0.0,-0.001,0
12976000,0.10908994,0.12762465,0.00047314167,0.0,0.0,-0.001,0
13000000,0.10911103,0.12759595,0.00046563148,0.0,0.0,-0.001,0
13020000,0.109096125,0.12753554,0.00045728683,0.0,0.0,-0.001,0
13040000,0.10943421,0.1275327,0.0004885793,0.0,0.0,-0.001,0
13056000,0.10958865,0.12747607,0.0004785657,0.0,0.0,-0.001,0
13080000,0.10987288,0.12715594,0.0004184842,0.0,0.0,-0.001,0
13096000,0.1099795,0.12718235,0.00047022104,0.0,0.0,-0.001,0
13116000,0.10976909,0.12706824,0.00041931868,0.0,0.0,-0.001,0
13136000,0.10974446,0.12709579,0.00041598082,0.0,0.0,-0.001,0
13156000,0.10977819,0.12755656,0.00045770407,0.0,0.0,-0.001,0
13176000,0.10974869,0.12720226,0.0004944205,0.0,0.0,-0.001,0
13196000,0.10968205,0.12707917,0.0004543662,0.0,0.0,-0.001,0
13220000,0.10981676,0.1269584,0.00047272444,0.0,0.0,-0.001,0
13236000,0.10989554,0.12691765,0.00047188997,0.0,0.0,-0.001,0
13256000,0.109986395,0.12677412,0.00047397614,0.0,0.0,-0.001,0
13276000,0.110114366,0.12666234,0.0004927516,0.0,0.0,-0.001,0
13296000,0.110094115,0.12687431,0.00043559074,0.0,0.0,-0.001,0
13320000,0.109977216,0.12681922,0.00045645237,0.0,0.0,-0.001,0
13336000,0.11005137,0.12672764,0.00053447485,0.0,0.0,-0.001,0
13360000,0.110258505,0.12678063,0.00045269728,0.0,0.0,-0.001,0
13376000,0.11019551,0.12678339,0.0004105568,0.0,0.0,-0.001,0
13400000,0.11037266,0.12628439,0.00047522783,0.0,0.0,-0.001,0
13420000,0.11010084,0.12626928,0.00043725967,0.0,0.0,-0.001,0
13440000,0.11003855,0.12649754,0.00038343668,0.0,0.0,-0.001,0
13460000,0.10996712,0.12635492,0.00043559074,0.0,0.0,-0.001,0
13476000,0.10986892,0.12616481,0.0004005432,0.0,0.0,-0.001,0
13496000,0.109763816,0.12632643,0.000387609,0.0,0.0,-0.001,0
13516000,0.10943911,0.12629852,0.0004222393,0.0,0.0,-0.001,0
13536000,0.109236635,0.1264861,0.00038969517,0.0,0.0,-0.001,0
13556000,0.109171085,0.12660646,0.0004451871,0.0,0.0,-0.001,0
13576000,0.10895864,0.12663694,0.00020694733,0.0,0.0,-0.001,0
13600000,0.10856993,0.12650436,0.00029206276,0.0,0.0,-0.001,0
13616000,0.108452015,0.12645715,0.00025242567,0.0,0.0,-0.001,0
13640000,0.108113155,0.12641658,0.00025618076,0.0,0.0,-0.001,0
13656000,0.108050406,0.12656501,0.00030833483,0.0,0.0,-0.001,0
13680000,0.10783114,0.12653682,0.00028705597,0.0,0.0,-0.001,0
13700000,0.10774143,0.12651001,0.0004105568,0.0,0.0,-0.001,0
13720000,0.10777235,0.12663281,0.00023698807,0.0,0.0,-0.001,0
13740000,0.10768579,0.12658769,0.00034421682,0.0,0.0,-0.001,0
13760000,0.1077375,0.12651017,0.0002824664,0.0,0.0,-0.001,0
13780000,0.1077924,0.12654774,0.00039595366,0.0,0.0,-0.001,0
13800000,0.10799351,0.12648754,0.000346303,0.0,0.0,-0.001,0
13816000,0.108118616,0.12631947,0.00035339594,0.0,0.0,-0.001,0
13840000,0.108136006,0.12633316,0.00040638447,0.0,0.0,-0.001,0
13860000,0.10800852,0.12630337,0.0004798174,0.0,0.0,-0.001,0
13880000,0.10790312,0.126278,0.00048607588,0.0,0.0,-0.001,0
13900000,0.108162336,0.12613575,0.00045478344,0.0,0.0,-0.001,0
13920000,0.1083954,0.12610373,0.00049066544,0.0,0.0,-0.001,0
13940000,0.10837103,0.12612166,0.0005056858,0.0,0.0,-0.001,0
13960000,0.10814263,0.12612411,0.0004685521,0.0,0.0,-0.001,0
13980000,0.108255334,0.12604257,0.00047022104,0.0,0.0,-0.001,0
14000000,0.10823071,0.12583713,0.00050860643,0.0,0.0,-0.001,0
14020000,0.10798569,0.12585998,0.00046604872,0.0,0.0,-0.001,0
14040000,0.1078317,0.12579338,0.0004518628,0.0,0.0,-0.001,0
14060000,0.10809657,0.12581438,0.00047188997,0.0,0.0,-0.001,0
14080000,0.108023115,0.12546164,0.00047272444,0.0,0.0,-0.001,0
14100000,0.10804277,0.12542465,0.00048357248,0.0,0.0,-0.001,0
14120000,0.107869454,0.12542914,0.0004852414,0.0,0.0,-0.001,0
14140000,0.10778872,0.12545854,0.0004543662,0.0,0.0,-0.001,0
14160000,0.107802376,0.12534587,0.0005661845,0.0,0.0,-0.001,0
14180000,0.10769773,0.12528926,0.0005144477,0.0,0.0,-0.001,0
14200000,0.10760463,0.12544934,0.0006016493,0.0,0.0,-0.001,0
14220000,0.107391566,0.12533313,0.00048816204,0.0,0.0,-0.001,0
14240000,0.10771956,0.12525436,0.0005686879,0.0,0.0,-0.001,0
14260000,0.107993536,0.12504205,0.0004927516,0.0,0.0,-0.001,0
14280000,0.108333096,0.124710485,0.00053197145,0.0,0.0,-0.001,0
14300000,0.10845872,0.12439047,0.0005232096,0.0,0.0,-0.001,0
14320000,0.1084159,0.12417926,0.0006054044,0.0,0.0,-0.001,0
14340000,0.10876273,0.12395879,0.00051277876,0.0,0.0,-0.001,0
14360000,0.10888501,0.12396368,0.0005787015,0.0,0.0,-0.001,0
14380000,0.10873918,0.12385515,0.000495255,0.0,0.0,-0.001,0
14400000,0.10866977,0.12364999,0.0005290508,0.0,0.0,-0.001,0
14420000,0.10869423,0.12367781,0.000477314,0.0,0.0,-0.001,0
14440000,0.10883024,0.12382661,0.00051152706,0.0,0.0,-0.001,0
14460000,0.10888779,0.123746924,0.0005019307,0.0,0.0,-0.001,0
14476000,0.1086844,0.12348364,0.00044351816,0.0,0.0,-0.001,0
14496000,0.1089113,0.12338373,0.00049316883,0.0,0.0,-0.001,0
14520000,0.108647026,0.12350881,0.00048732758,0.0,0.0,-0.001,0
14536000,0.10864693,0.12333757,0.0004618764,0.0,0.0,-0.001,0
14560000,0.1085861,0.122922085,0.0004247427,0.0,0.0,-0.001,0
14576000,0.10856885,0.122807756,0.00044226646,0.0,0.0,-0.001,0
14600000,0.10858599,0.122672625,0.0004017949,0.0,0.0,-0.001,0
14616000,0.108476326,0.1225802,0.00043600798,0.0,0.0,-0.001,0
14636000,0.10859097,0.122490495,0.00040721893,0.0,0.0,-0.001,0
14656000,0.10869668,0.122438595,0.00039470196,0.0,0.0,-0.001,0
14676000,0.10866625,0.12244759,0.00041598082,0.0,0.0,-0.001,0
14696000,0.10880026,0.12227863,0.00039595366,0.0,0.0,-0.001,0
14716000,0.108879395,0.121923566,0.00048440695,0.0,0.0,-0.001,0
14736000,0.10860755,0.1218299,0.00051862,0.0,0.0,-0.001,0
14760000,0.10883185,0.12165788,0.00049108267,0.0,0.0,-0.001,0
14780000,0.108934484,0.12117137,0.00049191713,0.0,0.0,-0.001,0
14800000,0.10907921,0.121356465,0.00049734116,0.0,0.0,-0.001,0
14820000,0.1092779,0.12141253,0.0004506111,0.0,0.0,-0.001,0
14836000,0.10922066,0.12142577,0.0004685521,0.0,0.0,-0.001,0
14856000,0.10901863,0.121412195,0.000554502,0.0,0.0,-0.001,0
14876000,0.10887844,0.1215447,0.000500679,0.0,0.0,-0.001,0
14896000,0.108995266,0.12191177,0.00053697824,0.0,0.0,-0.001,0
14916000,0.10910729,0.121930696,0.0004785657,0.0,0.0,-0.001,0
14936000,0.10882529,0.12184556,0.0005699396,0.0,0.0,-0.001,0
14960000,0.108768374,0.121869154,0.0005303025,0.0,0.0,-0.001,0
14976000,0.10876216,0.12176987,0.00059080124,0.0,0.0,-0.001,0
14996000,0.10895777,0.12191992,0.00047564507,0.0,0.0,-0.001,0
15020000,0.10895558,0.12181006,0.00045269728,0.0,0.0,-0.001,0
15040000,0.109072134,0.12187917,0.00039178133,0.0,0.0,-0.001,0
15056000,0.1092423,0.121674664,0.0004965067,0.0,0.0,-0.001,0
15076000,0.10918409,0.121773005,0.000441432,0.0,0.0,-0.001,0
15096000,0.10933995,0.12139494,0.0003671646,0.0,0.0,-0.001,0
15116000,0.10951239,0.12120349,0.00040221214,0.0,0.0,-0.001,0
15136000,0.109466136,0.120987624,0.00043559074,0.0,0.0,-0.001,0
15160000,0.109541275,0.12091384,0.0004376769,0.0,0.0,-0.001,0
15176000,0.10931868,0.12064777,0.00042641163,0.0,0.0,-0.001,0
15200000,0.10903277,0.120372236,0.0005148649,0.0,0.0,-0.001,0
15220000,0.10910929,0.12030389,0.00046604872,0.0,0.0,-0.001,0
15240000,0.10914579,0.12055595,0.00045853853,0.0,0.0,-0.001,0
15260000,0.10894094,0.12036112,0.00046354532,0.0,0.0,-0.001,0
15280000,0.109025806,0.12022981,0.0004222393,0.0,0.0,-0.001,0
15300000,0.109071635,0.120229,0.00045019388,0.0,0.0,-0.001,0
15316000,0.10915733,0.12000284,0.0004464388,0.0,0.0,-0.001,0
15336000,0.10886751,0.11990222,0.00048065186,0.0,0.0,-0.001,0
15356000,0.10859787,0.119973585,0.00044435263,0.0,0.0,-0.001,0
15376000,0.10851617,0.119877115,0.00048023462,0.0,0.0,-0.001,0
15400000,0.10854721,0.11970934,0.00042307377,0.0,0.0,-0.001,0
15420000,0.10842377,0.119354345,0.00045645237,0.0,0.0,-0.001,0
15440000,0.10818589,0.11914038,0.0004994273,0.0,0.0,-0.001,0
15456000,0.108131245,0.11885431,0.00046896935,0.0,0.0,-0.001,0
15480000,0.108098544,0.11837302,0.00059330463,0.0,0.0,-0.001,0
15496000,0.10795072,0.118104935,0.0004618764,0.0,0.0,-0.001,0
15520000,0.107816085,0.11797677,0.0005044341,0.0,0.0,-0.001,0
15536000,0.10771729,0.11780288,0.0005056858,0.0,0.0,-0.001,0
15560000,0.10754454,0.11747563,0.000477314,0.0,0.0,-0.001,0
15580000,0.10764781,0.11736982,0.00041890144,0.0,0.0,-0.001,0
15600000,0.107589945,0.11719693,0.00037550926,0.0,0.0,-0.001,0
15620000,0.1073648,0.11744685,0.0003784299,0.0,0.0,-0.001,0
15636000,0.10746418,0.11717795,0.00040346384,0.0,0.0,-0.001,0
15656000,0.10757114,0.117052466,0.00039929152,0.0,0.0,-0.001,0
15676000,0.10765035,0.11667633,0.0004080534,0.0,0.0,-0.001,0
15696000,0.10753769,0.11663161,0.00039762259,0.0,0.0,-0.001,0
15720000,0.107354075,0.11648688,0.00036466122,0.0,0.0,-0.001,0
15740000,0.10744615,0.1164496,0.00039887428,0.0,0.0,-0.001,0
15756000,0.10742488,0.11641408,0.0004284978,0.0,0.0,-0.001,0
15776000,0.11165868,0.11684128,0.00046145916,0.0,0.0,-0.011236104,0
15796000,0.111826085,0.11811727,0.00042557716,0.0,0.0,-0.0142446505,0
15820000,0.11145547,0.11863465,0.0004259944,0.0,0.0,-0.01729018,0
15840000,0.11205803,0.11844488,0.0004068017,0.0,0.0,-0.01944042,0
15856000,0.114115775,0.117101595,0.000441432,0.0,0.0,-0.021683497,0
15876000,0.112511255,0.1173811,0.0003963709,0.0,0.0,-0.025103787,0
15896000,0.11289423,0.116485596,0.00039678812,0.0,0.0,-0.027459988,0
15916000,0.11253254,0.11599649,0.00038176775,0.0,0.0,-0.031009058,0
15936000,0.11251893,0.11477825,0.0003721714,0.0,0.0,-0.033530723,0
15956000,0.11168456,0.11380895,0.0003963709,0.0,0.0,-0.03742025,0
15976000,0.112197205,0.11338091,0.00039345026,0.0,0.0,-0.04009394,0
15996000,0.11266319,0.11492172,0.00040847063,0.0,0.0,-0.044089273,0
16020000,0.11202988,0.11477617,0.00037175417,0.0,0.0,-0.048145276,0
16040000,0.1124458,0.11387548,0.00038677454,0.0,0.0,-0.050943717,0
16056000,0.11245096,0.11370782,0.00041472912,0.0,0.0,-0.05380033,0
16080000,0.11198371,0.11559119,0.00045853853,0.0,0.0,-0.05814366,0
16096000,0.11318348,0.11574552,0.00040513277,0.0,0.0,-0.06104379,0
16116000,0.112748235,0.11556648,0.00042015314,0.0,0.0,-0.06545862,0
16136000,0.1127115,0.11368957,0.00044852495,0.0,0.0,-0.068620555,0
16160000,0.11260501,0.11510491,0.00036758184,0.0,0.0,-0.07332563,0
16176000,0.11302743,0.1142351,0.00037801266,0.0,0.0,-0.07647898,0
16200000,0.11469291,0.115126565,0.0004760623,0.0,0.0,-0.08140017,0
16216000,0.11483826,0.114227474,0.0004581213,0.0,0.0,-0.08469309,0
16240000,0.11350626,0.11517446,0.00047063828,0.0,0.0,-0.08971116,0
16260000,0.11584232,0.117592834,0.00043350458,0.0,0.0,-0.094805524,0
16280000,0.11625803,0.118377574,0.00047272444,0.0,0.0,-0.09826309,0
16300000,0.115771465,0.11841976,0.00041013956,0.0,0.0,-0.10355252,0
16320000,0.11720044,0.11857803,0.00046730042,0.0,0.0,-0.10714663,0
16340000,0.11741901,0.116419405,0.0004042983,0.0,0.0,-0.11266721,0
16360000,0.117593184,0.11564894,0.000477314,0.0,0.0,-0.11654164,0
16380000,0.11746519,0.116318785,0.00039929152,0.0,0.0,-0.122284226,0
16400000,0.11703668,0.116375715,0.00045019388,0.0,0.0,-0.12612416,0
16420000,0.11851244,0.11686996,0.00039052963,0.0,0.0,-0.13203488,0
16440000,0.11931097,0.117312,0.00038218498,0.0,0.0,-0.13606326,0
16460000,0.117645815,0.11718617,0.00039553642,0.0,0.0,-0.14218473,0
16476000,0.11827583,0.11796019,0.00038135052,0.0,0.0,-0.14626254,0
16500000,0.116513066,0.117971994,0.0004259944,0.0,0.0,-0.15254481,0
16520000,0.11704727,0.11799713,0.00039470196,0.0,0.0,-0.15678905,0
16540000,0.11802255,0.118218824,0.00038218498,0.0,0.0,-0.1633571,0
16560000,0.11714292,0.11786008,0.00036090612,0.0,0.0,-0.1676864,0
16580000,0.11704623,0.11906871,0.00036507845,0.0,0.0,-0.17429698,0
16600000,0.11782791,0.11870201,0.00036925077,0.0,0.0,-0.17880596,0
16616000,0.11701456,0.11765091,0.000333786,0.0,0.0,-0.18328255,0
16640000,0.11929344,0.118629925,0.00031667948,0.0,0.0,-0.19004728,0
16656000,0.11860651,0.11775648,0.00032919645,0.0,0.0,-0.19467394,0
16680000,0.119130984,0.117934875,0.0003362894,0.0,0.0,-0.20170091,0
16696000,0.11940124,0.11692728,0.0004969239,0.0,0.0,-0.20640664,0
16716000,0.11938119,0.116976686,0.00038301945,0.0,0.0,-0.21351165,0
16736000,0.11853489,0.11829098,0.0004543662,0.0,0.0,-0.21837063,0
16760000,0.12067305,0.118500404,0.0004284978,0.0,0.0,-0.225705,0
16776000,0.12174243,0.11720774,0.00039887428,0.0,0.0,-0.23073179,0
16800000,0.12144714,0.11604433,0.00041514635,0.0,0.0,-0.23833808,0
16816000,0.12123803,0.11732804,0.00044602156,0.0,0.0,-0.2434871,0
16840000,0.120555274,0.118351325,0.00043267012,0.0,0.0,-0.25123596,0
16856000,0.120944396,0.11892501,0.00041347742,0.0,0.0,-0.25643694,0
16880000,0.1217168,0.11938067,0.00034588575,0.0,0.0,-0.26438564,0
16896000,0.12080085,0.12026445,0.0003863573,0.0,0.0,-0.26969773,0
16920000,0.120341085,0.11893898,0.0003951192,0.0,0.0,-0.2777544,0
16936000,0.1229404,0.1177249,0.00034797192,0.0,0.0,-0.28319833,0
16960000,0.12221156,0.11788569,0.00039345026,0.0,0.0,-0.29150966,0
16980000,0.124055535,0.11737434,0.00039678812,0.0,0.0,-0.29989654,0
17000000,0.12518564,0.1162161,0.00040721893,0.0,0.0,-0.30560213,0
17016000,0.12563786,0.11736731,0.0003554821,0.0,0.0,-0.3112322,0
17040000,0.12424706,0.11936058,0.0004401803,0.0,0.0,-0.31988555,0
17056000,0.12567542,0.11984002,0.0003604889,0.0,0.0,-0.3257057,0
17080000,0.12197947,0.11780046,0.00040888786,0.0,0.0,-0.33021885,0
17096000,0.12244417,0.11594906,0.0003721714,0.0,0.0,-0.3319386,0
17120000,0.12333886,0.115505025,0.00038468838,0.0,0.0,-0.33422616,0
17140000,0.12447365,0.117215574,0.0003913641,0.0,0.0,-0.33598253,0
17160000,0.12598625,0.117092915,0.00040346384,0.0,0.0,-0.33838207,0
17176000,0.12554532,0.11558706,0.00042182207,0.0,0.0,-0.34003204,0
17200000,0.1267849,0.11694695,0.00033169985,0.0,0.0,-0.34256935,0
17220000,0.1265562,0.116590485,0.00035715103,0.0,0.0,-0.34442848,0
17240000,0.12767065,0.11533669,0.00034838915,0.0,0.0,-0.3469664,0
17260000,0.12688103,0.115201026,0.00039887428,0.0,0.0,-0.34876078,0
17280000,0.1265646,0.115242876,0.00040137768,0.0,0.0,-0.35130894,0
17296000,0.12790382,0.11532131,0.0003926158,0.0,0.0,-0.3530539,0
17316000,0.12584704,0.11391547,0.0003926158,0.0,0.0,-0.35586962,0
17336000,0.12685132,0.11322047,0.00039470196,0.0,0.0,-0.35760286,0
17356000,0.12602197,0.11264033,0.0004118085,0.0,0.0,-0.36041662,0
17376000,0.12561707,0.115034595,0.000387609,0.0,0.0,-0.3620951,0
17400000,0.12645453,0.11570387,0.00044226646,0.0,0.0,-0.36503094,0
17416000,0.12617931,0.115165286,0.00044560432,0.0,0.0,-0.3668112,0
17436000,0.125467,0.11522495,0.00039720535,0.0,0.0,-0.36971384,0
17456000,0.12470704,0.11461051,0.0004093051,0.0,0.0,-0.37149787,0
17476000,0.12415076,0.11525979,0.00037008524,0.0,0.0,-0.37448546,0
17496000,0.12468261,0.11399409,0.00035381317,0.0,0.0,-0.37611052,0
17516000,0.124942966,0.11150189,0.00037008524,0.0,0.0,-0.379156,0
17536000,0.12534098,0.112398066,0.00043600798,0.0,0.0,-0.38082808,0
17556000,0.12297133,0.112047024,0.00042933226,0.0,0.0,-0.3839094,0
17576000,0.12427021,0.114461794,0.00042140484,0.0,0.0,-0.38567695,0
17596000,0.12448425,0.11296945,0.00038218498,0.0,0.0,-0.38894305,0
17616000,0.12559743,0.11265263,0.00041764975,0.0,0.0,-0.39061415,0
17636000,0.12427302,0.11257151,0.00037425756,0.0,0.0,-0.39404863,0
17656000,0.12328707,0.113363706,0.0003579855,0.0,0.0,-0.39576352,0
17680000,0.12274522,0.112249434,0.0004172325,0.0,0.0,-0.39924324,0
17696000,0.12426361,0.11045296,0.00042390823,0.0,0.0,-0.4010152,0
17720000,0.123226106,0.11180071,0.00042766333,0.0,0.0,-0.4045259,0
17736000,0.124219686,0.111093014,0.00036382675,0.0,0.0,-0.4062966,0
17756000,0.125623,0.110773966,0.00033420324,0.0,0.0,-0.40995997,0
17780000,0.12617233,0.11213766,0.00033712387,0.0,0.0,-0.41192824,0
17800000,0.12611923,0.11117364,0.0002591014,0.0,0.0,-0.41531354,0
17816000,0.12529066,0.11134678,0.00034171343,0.0,0.0,-0.4170444,0
17836000,0.122823626,0.11263338,0.0003296137,0.0,0.0,-0.42073616,0
17856000,0.12263177,0.110025756,0.00031793118,0.0,0.0,-0.42250165,0
17880000,0.12252067,0.10983816,0.00034046173,0.0,0.0,-0.42638454,0
17900000,0.12211145,0.10896116,0.00032377243,0.0,0.0,-0.42830124,0
17920000,0.12199535,0.10794123,0.000274539,0.0,0.0,-0.4319446,0
17936000,0.1225406,0.10682707,0.00037634373,0.0,0.0,-0.43367386,0
17960000,0.12277887,0.10717007,0.00027954578,0.0,0.0,-0.43771294,0
17976000,0.123239316,0.107113324,0.00031125546,0.0,0.0,-0.43952066,0
18000000,0.12265211,0.1083372,0.0003066659,0.0,0.0,-0.44354358,0
18020000,0.12335477,0.10684006,0.00030750036,0.0,0.0,-0.44562975,0
18040000,0.12374743,0.10850077,0.00026410818,0.0,0.0,-0.44955257,0
18056000,0.1228376,0.10913423,0.00030708313,0.0,0.0,-0.45138785,0
18076000,0.12426659,0.11072337,0.00034964085,0.0,0.0,-0.45573986,0
18100000,0.124702506,0.11020285,0.00033044815,0.0,0.0,-0.45796087,0
18120000,0.12389729,0.10916014,0.00030875206,0.0,0.0,-0.46198264,0
18136000,0.124828964,0.10928495,0.0002732873,0.0,0.0,-0.4636859,0
18160000,0.12657827,0.10885486,0.00034713745,0.0,0.0,-0.4681158,0
18180000,0.12761408,0.10882999,0.00028789043,0.0,0.0,-0.47031924,0
18200000,0.12826936,0.109447554,0.00026369095,0.0,0.0,-0.47447786,0
18216000,0.12881263,0.10819752,0.00028079748,0.0,0.0,-0.47626534,0
18240000,0.12868918,0.10942359,0.00030583143,0.0,0.0,-0.48079652,0
18256000,0.12888843,0.10936894,0.00038301945,0.0,0.0,-0.48257217,0
18280000,0.12866955,0.109997936,0.0003721714,0.0,0.0,-0.48712543,0
18296000,0.12793659,0.11056845,0.00041472912,0.0,0.0,-0.48881653,0
18320000,0.126869,0.11037281,0.00038719177,0.0,0.0,-0.4935373,0
18336000,0.12732995,0.10963265,0.00035756826,0.0,0.0,-0.49533755,0
18360000,0.12518868,0.10950071,0.00038301945,0.0,0.0,-0.5002847,0
18380000,0.1255797,0.108240284,0.0003004074,0.0,0.0,-0.5025444,0
18400000,0.1259076,0.10818128,0.0004376769,0.0,0.0,-0.506976,0
18416000,0.12709907,0.108356014,0.0003659129,0.0,0.0,-0.5087789,0
18440000,0.12788431,0.10795144,0.0003079176,0.0,0.0,-0.51382625,0
18460000,0.12755555,0.10882562,0.0003170967,0.0,0.0,-0.5161553,0
18480000,0.12957387,0.107917264,0.00031626225,0.0,0.0,-0.52074,0
18496000,0.12903811,0.10944314,0.00035715103,0.0,0.0,-0.52248526,0
18520000,0.12961005,0.10832818,0.00030457973,0.0,0.0,-0.5277783,0
18540000,0.13384573,0.10953183,0.00029581785,0.0,0.0,-0.5302423,0
18560000,0.13351887,0.11055364,0.00025701523,0.0,0.0,-0.5349566,0
18576000,0.13401864,0.10983394,0.0002707839,0.0,0.0,-0.5367748,0
18596000,0.13474162,0.109317884,0.00026285648,0.0,0.0,-0.542108,0
18616000,0.13427128,0.109916635,0.00023823977,0.0,0.0,-0.5438039,0
18636000,0.13370426,0.10967533,0.0002515912,0.0,0.0,-0.5492008,0
18660000,0.13330333,0.1100163,0.00028663874,0.0,0.0,-0.5515731,0
18676000,0.13426225,0.10920826,0.00026869774,0.0,0.0,-0.5564911,0
18696000,0.13508894,0.10837209,0.00026202202,0.0,0.0,-0.5582839,0
18716000,0.1357998,0.10664299,0.00026243925,0.0,0.0,-0.5638729,0
18736000,0.13501438,0.10710854,0.00029540062,0.0,0.0,-0.5655933,0
18760000,0.13514796,0.10761311,0.0002603531,0.0,0.0,-0.57124764,0
18776000,0.13536356,0.10896993,0.00028955936,0.0,0.0,-0.5984697,0
18796000,0.13711849,0.10827688,0.0002812147,0.0,0.0,-0.60429406,0
18816000,0.13856879,0.10835101,0.0002757907,0.0,0.0,-0.60608137,0
18840000,0.13868172,0.106105834,0.00026619434,0.0,0.0,-0.611917,0
18856000,0.13859083,0.105261445,0.00026285648,0.0,0.0,-0.6136995,0
18880000,0.13973701,0.10257156,0.0003233552,0.0,0.0,-0.6197172,0
18896000,0.14149602,0.10254111,0.00035464764,0.0,0.0,-0.6214799,0
18916000,0.14115624,0.10179738,0.00024741888,0.0,0.0,-0.6275439,0
18936000,0.1410002,0.10251592,0.00029540062,0.0,0.0,-0.6293388,0
18960000,0.14063744,0.10159032,0.00026661158,0.0,0.0,-0.6354204,0
18976000,0.14138658,0.10114034,0.0002937317,0.0,0.0,-0.63716435,0
18996000,0.14319699,0.103184395,0.00023573637,0.0,0.0,-0.6433701,0
19016000,0.14217392,0.10314843,0.00030082464,0.0,0.0,-0.64516616,0
19040000,0.14043112,0.10530769,0.0002503395,0.0,0.0,-0.65143085,0
19056000,0.13988899,0.10438821,0.00027495623,0.0,0.0,-0.6530532,0
19080000,0.13671783,0.104633406,0.0002949834,0.0,0.0,-0.65935844,0
19096000,0.13756065,0.10528757,0.00026911497,0.0,0.0,-0.661147,0
19120000,0.13779695,0.10421746,0.00034546852,0.0,0.0,-0.66758966,0
19136000,0.13875704,0.10421642,0.00035256147,0.0,0.0,-0.66934776,0
19156000,0.13897656,0.10475444,0.00026744604,0.0,0.0,-0.67582744,0
19176000,0.13709104,0.10393129,0.0003221035,0.0,0.0,-0.67756057,0
19196000,0.13332766,0.103198886,0.00028955936,0.0,0.0,-0.68372,0
19220000,0.12732227,0.101636775,0.0002937317,0.0,0.0,-0.68554467,0
19240000,0.11986946,0.10255305,0.00030082464,0.0,0.0,-0.6906489,0
19260000,0.108934544,0.10421211,0.00024658442,0.0,0.0,-0.69196016,0
19280000,0.096094,0.10604234,0.00029540062,0.0,0.0,-0.6968441,0
19300000,0.08034855,0.1058149,0.0002182126,0.0,0.0,-0.6978824,0
19320000,0.061967824,0.10453875,0.00014895201,0.0,0.0,-0.7026672,0
19336000,0.04337395,0.101136364,-1.2099743e-05,0.0,0.0,-0.7031622,0
19360000,0.016193235,0.09441959,-0.000110566616,0.0,0.0,-0.707951,0
19380000,-0.009715127,0.08496963,-0.00022780895,0.0,0.0,-0.7083997,0
19396000,-0.032438405,0.07310407,-0.00032669306,0.0,0.0,-0.7129694,0
19416000,-0.062677816,0.05658544,-0.00067299604,0.0,0.0,-0.71311885,0
19440000,-0.098693386,0.03005574,-0.0008941293,0.0,0.0,-0.7177754,0
19460000,-0.13198319,0.003926811,-0.0005207062,0.0,0.0,-0.71797633,0
19480000,-0.16122627,-0.027166551,-0.0009404421,0.0,0.0,-0.72278243,0
19500000,-0.20243971,-0.06751528,-0.00023531914,0.0,0.0,-0.7231103,0
19520000,-0.24684057,-0.113541745,-0.0004389286,0.0,0.0,-0.7282126,0
19540000,-0.30516273,-0.17635022,0.00055783987,0.0,0.0,-0.7288702,0
19560000,-0.351654,-0.22859113,0.00054490566,0.0,0.0,-0.73389876,0
19576000,-0.3886994,-0.27342194,0.0009471178,0.0,0.0,-0.7339872,0
19600000,-0.43387625,-0.33546984,0.0013338923,0.0,0.0,-0.73866296,0
19620000,-0.4675826,-0.38339174,0.0016910434,0.0,0.0,-0.73832184,0
19640000,-0.48405778,-0.41475597,0.0015237331,0.0,0.0,-0.74289054,0
19656000,-0.49482337,-0.43676037,0.0014628172,0.0,0.0,-0.7424627,0
19680000,-0.5020402,-0.45704573,0.0011006594,0.0,0.0,-0.74640286,0
19696000,-0.5016979,-0.46455485,0.000733912,0.0,0.0,-0.7455733,0
19720000,-0.49308753,-0.46731374,0.00013518333,0.0,0.0,-0.7490233,0
19740000,-0.48384845,-0.46526507,-0.00043433905,0.0,0.0,-0.74711066,0
19760000,-0.46740562,-0.44974765,-0.00093626976,0.0,0.0,-0.7509901,0
19780000,-0.4494993,-0.4335494,-0.001426518,0.0,0.0,-0.74856347,0
19800000,-0.42766255,-0.4112078,-0.0017527938,0.0,0.0,-0.75235987,0
19820000,-0.40774918,-0.38893366,-0.0021733642,0.0,0.0,-0.74950665,0
19840000,-0.3842505,-0.36366057,-0.0023961663,0.0,0.0,-0.75336534,0
19856000,-0.36665317,-0.34396544,-0.0024783611,0.0,0.0,-0.7514788,0
19880000,-0.34129792,-0.31384322,-0.0026177168,0.0,0.0,-0.7540959,0
19896000,-0.32514793,-0.29456213,-0.0026515126,0.0,0.0,-0.75215465,0
19920000,-0.3029603,-0.2652684,-0.0026423335,0.0,0.0,-0.7547131,0
19940000,-0.2847581,-0.24362199,-0.0026135445,0.0,0.0,-0.7511722,0
19960000,-0.2707351,-0.22428402,-0.0025058985,0.0,0.0,-0.75513214,0
19980000,-0.2570778,-0.20784354,-0.0024883747,0.0,0.0,-0.7516236,0
20000000,-0.24692318,-0.19468981,-0.0024078488,0.0,0.0,-0.75572556,0
20020000,-0.23686053,-0.18475787,-0.0023160577,0.0,0.0,-0.75034016,0
20040000,-0.22768222,-0.17699045,-0.0023331642,0.0,0.0,-0.749177,0
20060000,-0.2223286,-0.17061503,-0.0022760034,0.0,0.0,-0.74166185,0
20080000,-0.215258,-0.16326204,-0.0022309422,0.0,0.0,-0.73990864,0
20096000,-0.20976947,-0.16165379,-0.0022735,0.0,0.0,-0.7338898,0
20120000,-0.20415479,-0.1594868,-0.002244711,0.0,0.0,-0.73068804,0
20140000,-0.20048644,-0.15673006,-0.00225389,0.0,0.0,-0.7237293,0
20160000,-0.19634616,-0.15548849,-0.0022972822,0.0,0.0,-0.7218622,0
20180000,-0.18997964,-0.16007079,-0.0023782253,0.0,0.0,-0.71551657,0
20196000,-0.18690272,-0.15805353,-0.0023636222,0.0,0.0,-0.7134767,0
20220000,-0.18633808,-0.1583144,-0.0024612546,0.0,0.0,-0.7073659,0
20240000,-0.18535249,-0.15827051,-0.002438724,0.0,0.0,-0.7089343,0
20256000,-0.18444245,-0.15986821,-0.0025380254,0.0,0.0,-0.7075907,0
20280000,-0.18435849,-0.15888852,-0.0024879575,0.0,0.0,-0.71410954,0
20300000,-0.18329951,-0.15506692,-0.0025542974,0.0,0.0,-0.71281314,0
20316000,-0.17956126,-0.15261872,-0.0025830865,0.0,0.0,-0.7192643,0
20336000,-0.17562404,-0.1485845,-0.0024687648,0.0,0.0,-0.7173579,0
20360000,-0.1721977,-0.14530167,-0.0024378896,0.0,0.0,-0.7230824,0
20376000,-0.16875446,-0.13921124,-0.0024174452,0.0,0.0,-0.72022617,0
20400000,-0.16071807,-0.13169672,-0.002277255,0.0,0.0,-0.7252722,0
20416000,-0.15568659,-0.12743695,-0.002260983,0.0,0.0,-0.72192186,0
20440000,-0.14667283,-0.120848134,-0.0021600127,0.0,0.0,-0.72646296,0
20460000,-0.13771006,-0.11410732,-0.0021124482,0.0,0.0,-0.7220182,0
20480000,-0.13127793,-0.10970683,-0.0019806027,0.0,0.0,-0.7269314,0
20500000,-0.12446655,-0.1048974,-0.0019551516,0.0,0.0,-0.7225129,0
20520000,-0.118651174,-0.10044664,-0.001866281,0.0,0.0,-0.7271437,0
20536000,-0.114482306,-0.096581325,-0.0018437505,0.0,0.0,-0.7230769,0
20560000,-0.10697606,-0.091126725,-0.0017185807,0.0,0.0,-0.7269935,0
20576000,-0.10101581,-0.08819744,-0.001704812,0.0,0.0,-0.7229102,0
20600000,-0.0962896,-0.08501296,-0.0015579462,0.0,0.0,-0.7269847,0
20616000,-0.09369641,-0.08444004,-0.0015258193,0.0,0.0,-0.72288907,0
20640000,-0.08944061,-0.082721606,-0.0015187263,0.0,0.0,-0.7265157,0
20656000,-0.08941724,-0.08084275,-0.0014916062,0.0,0.0,-0.72203994,0
20680000,-0.08698166,-0.07873361,-0.0015003681,0.0,0.0,-0.7256465,0
20696000,-0.08681049,-0.07776604,-0.0014457107,0.0,0.0,-0.72139364,0
20716000,-0.08446203,-0.07617241,-0.0014277697,0.0,0.0,-0.7250961,0
20736000,-0.082115464,-0.07548957,-0.0014227629,0.0,0.0,-0.72097296,0
20760000,-0.079243764,-0.072062224,-0.0013393164,0.0,0.0,-0.7246613,0
20780000,-0.07617153,-0.06903677,-0.0013372302,0.0,0.0,-0.7198712,0
20800000,-0.074688554,-0.06837153,-0.0012421012,0.0,0.0,-0.7244199,0
20816000,-0.07175599,-0.06675367,-0.0012487769,0.0,0.0,-0.7204942,0
20840000,-0.06880055,-0.061357174,-0.001151979,0.0,0.0,-0.7243585,0
20856000,-0.06562811,-0.058010407,-0.00095421076,0.0,0.0,-0.72041553,0
20880000,-0.061112538,-0.056429345,-0.0010276437,0.0,0.0,-0.7242666,0
20896000,-0.058360837,-0.053455465,-0.000972569,0.0,0.0,-0.72025007,0
20920000,-0.053871684,-0.051696934,-0.0009638071,0.0,0.0,-0.7239933,0
20936000,-0.05190005,-0.049079843,-0.00083363056,0.0,0.0,-0.7200339,0
20960000,-0.04773629,-0.04553368,-0.00076019764,0.0,0.0,-0.7239005,0
20980000,-0.04375748,-0.04234954,-0.0008044243,0.0,0.0,-0.7191982,0
20996000,-0.041503675,-0.04112743,-0.00073057413,0.0,0.0,-0.723484,0
21020000,-0.041154772,-0.040521473,-0.0006930232,0.0,0.0,-0.7186629,0
21040000,-0.041849457,-0.038818393,-0.0005812049,0.0,0.0,-0.72294736,0
21060000,-0.040019263,-0.037121933,-0.0006041527,0.0,0.0,-0.7179211,0
21080000,-0.04044812,-0.037357185,-0.00057411194,0.0,0.0,-0.72209936,0
21100000,-0.038419828,-0.033425286,-0.00052821636,0.0,0.0,-0.7172579,0
21120000,-0.03745111,-0.03114713,-0.00039553642,0.0,0.0,-0.721598,0
21136000,-0.037883796,-0.030153014,-0.0004259944,0.0,0.0,-0.7177293,0
21156000,-0.036841948,-0.029788451,-0.00046938658,0.0,0.0,-0.72128475,0
21176000,-0.03657876,-0.02962692,-0.00038719177,0.0,0.0,-0.717383,0
21200000,-0.035415016,-0.027964793,-0.00038093328,0.0,0.0,-0.7209024,0
21216000,-0.034215778,-0.027555494,-0.00034838915,0.0,0.0,-0.7170378,0
21236000,-0.031260096,-0.026225755,-0.00041681528,0.0,0.0,-0.72059596,0
21256000,-0.029728536,-0.02641363,-0.00031793118,0.0,0.0,-0.7166932,0
21280000,-0.02717341,-0.024461966,-0.00035756826,0.0,0.0,-0.72026473,0
21300000,-0.02400992,-0.023358593,-0.0003863573,0.0,0.0,-0.7159248,0
21320000,-0.023313878,-0.020768907,-0.00030875206,0.0,0.0,-0.72015154,0
21340000,-0.019651864,-0.020155119,-0.00032877922,0.0,0.0,-0.7157599,0
21360000,-0.018954393,-0.019002598,-0.00032502413,0.0,0.0,-0.7199189,0
21376000,-0.018459257,-0.01711438,-0.00030249357,0.0,0.0,-0.71620655,0
21400000,-0.013924435,-0.015578026,-0.00029999018,0.0,0.0,-0.7196993,0
21420000,-0.014125632,-0.015750563,-0.00024241209,0.0,0.0,-0.71537006,0
21436000,-0.0155737735,-0.015740678,-0.00028163195,0.0,0.0,-0.71942544,0
21456000,-0.016490433,-0.014984006,-0.00029206276,0.0,0.0,-0.7153456,0
21476000,-0.016724054,-0.015572291,-0.0002374053,0.0,0.0,-0.71856445,0
21496000,-0.019577889,-0.01623827,-0.00026285648,0.0,0.0,-0.71463245,0
21516000,-0.017541531,-0.014896705,-0.00023573637,0.0,0.0,-0.717956,0
21536000,-0.018295495,-0.015899798,-0.0002720356,0.0,0.0,-0.7142024,0
21556000,-0.016830076,-0.014980715,-0.00022280216,0.0,0.0,-0.7176023,0
21576000,-0.016672876,-0.013292017,-9.3877316e-05,0.0,0.0,-0.71389306,0
21600000,-0.015343047,-0.0126602305,-7.343292e-05,0.0,0.0,-0.71726686,0
21616000,-0.013565541,-0.013156199,-0.00011307001,0.0,0.0,-0.713617,0
21640000,-0.0129483165,-0.01395819,-0.00016856194,0.0,0.0,-0.71710885,0
21656000,-0.012378092,-0.011865653,-8.177757e-05,0.0,0.0,-0.71352357,0
21676000,-0.010433955,-0.010382804,-0.00011599064,0.0,0.0,-0.71691555,0
21696000,-0.009739414,-0.009822107,-3.7550926e-06,0.0,0.0,-0.71330315,0
21716000,-0.009584914,-0.009015403,-7.8856945e-05,0.0,0.0,-0.7167024,0
21736000,-0.007997564,-0.009017869,-8.803606e-05,0.0,0.0,-0.71315694,0
21760000,-0.0065902965,-0.009807,-6.8843365e-05,0.0,0.0,-0.71648896,0
21780000,-0.0038857553,-0.009163205,-9.763241e-05,0.0,0.0,-0.7124943,0
21796000,-0.0020798463,-0.00986316,-0.00011432171,0.0,0.0,-0.7164374,0
21816000,-0.0022629192,-0.011089388,-0.00014936924,0.0,0.0,-0.71292484,0
21840000,-0.005141441,-0.01102317,-0.00013893843,0.0,0.0,-0.71604794,0
21856000,-0.005539828,-0.009980832,-0.00010973215,0.0,0.0,-0.7122869,0
21880000,-0.00632797,-0.009949376,-0.000103890896,0.0,0.0,-0.71541166,0
21900000,-0.0063358517,-0.00814993,-6.467104e-05,0.0,0.0,-0.7111153,0
21920000,-0.0070162034,-0.0075579216,-5.465746e-05,0.0,0.0,-0.71496505,0
21936000,-0.007856721,-0.0083489735,-6.300211e-05,0.0,0.0,-0.7114871,0
21960000,-0.0063040582,-0.009014603,-1.4603138e-05,0.0,0.0,-0.71466464,0
21976000,-0.0057269568,-0.008437402,-6.592274e-05,0.0,0.0,-0.7112727,0
22000000,-0.0044709686,-0.0072678244,-6.842613e-05,0.0,0.0,-0.7145274,0
22020000,-0.0018364554,-0.007401672,-7.510185e-05,0.0,0.0,-0.71062356,0
22036000,-2.3088418e-05,-0.006083714,-4.2557716e-05,0.0,0.0,-0.71435887,0
22056000,-0.00091331825,-0.0059514605,-5.13196e-05,0.0,0.0,-0.71097785,0
22080000,0.0003911592,-0.0056294897,-3.963709e-05,0.0,0.0,-0.71425265,0
22096000,0.0022346368,-0.002947629,-7.343292e-05,0.0,0.0,-0.71087795,0
22116000,0.002540174,-0.0007758774,5.00679e-06,0.0,0.0,-0.71403867,0
22136000,0.0023960015,-0.0008407284,7.3850155e-05,0.0,0.0,-0.7107036,0
22156000,0.0020472175,0.00015019882,3.504753e-05,0.0,0.0,-0.7138491,0
22176000,0.0022717575,-0.0007498554,2.8371811e-05,0.0,0.0,-0.7104525,0
22200000,0.0036276784,-0.0021649008,2.7537346e-05,0.0,0.0,-0.7135185,0
22216000,0.002787076,-0.001655601,8.678436e-05,0.0,0.0,-0.7102068,0
22240000,0.00089108944,-0.0029118333,-1.7940998e-05,0.0,0.0,-0.71310693,0
22256000,-0.0002191281,-0.0048080636,2.0861626e-05,0.0,0.0,-0.7096431,0
22280000,-3.460236e-05,-0.004990772,-0.0007376671,0.0,0.0,-0.71254545,0
22296000,-0.001724585,-0.0035092402,-0.0007902384,0.0,0.0,-0.70911497,0
22320000,-0.00040553045,-0.003543746,-0.00080525875,0.0,0.0,-0.71217877,0
22336000,-0.0013777623,-0.0040215827,-0.0006375313,0.0,0.0,-0.7089218,0
22360000,-0.0009884192,-0.0031764735,-0.0005211234,0.0,0.0,-0.71193,0
22376000,-0.0022404967,-0.001697609,-0.0005403161,0.0,0.0,-0.7087176,0
22400000,-0.0004904745,-0.0014096883,-0.00039595366,0.0,0.0,-0.7117013,0
22420000,0.0014156457,-0.00088376174,-0.0001385212,0.0,0.0,-0.7080674,0
22440000,0.0025003776,-0.001281628,-0.00012934208,0.0,0.0,-0.7115156,0
22460000,0.002256696,0.001232185,-6.7174435e-05,0.0,0.0,-0.70784765,0
22480000,0.0012019901,0.00076627656,-1.7940998e-05,0.0,0.0,-0.71125096,0
22500000,0.0017798059,0.0010086851,7.0929527e-06,0.0,0.0,-0.7098392,0
22520000,0.00249884,0.0018180942,5.2154064e-05,0.0,0.0,-0.7061051,0
22540000,0.0046032276,0.0035182186,7.969141e-05,0.0,0.0,-0.7026767,0
22560000,0.003922089,0.0018704564,0.00012099743,0.0,0.0,-0.6982702,0
22576000,0.0038472908,0.0026346357,0.00012558699,0.0,0.0,-0.6950044,0
22600000,0.0061903717,0.0021395562,0.00021111965,0.0,0.0,-0.68988955,0
22616000,0.005392883,0.0031486957,9.2208385e-05,0.0,0.0,-0.6864411,0
22640000,0.0053574936,0.0046388945,0.00017273426,0.0,0.0,-0.6812733,0
22660000,0.0064512333,0.0066455025,0.00013643503,0.0,0.0,-0.6782433,0
22680000,0.0049121063,0.0071062734,0.00025951862,0.0,0.0,-0.67259854,0
22696000,0.0022943737,0.0070296256,4.7564507e-05,0.0,0.0,-0.6692246,0
22720000,0.0010759179,0.006422303,5.173683e-05,0.0,0.0,-0.6640414,0
22736000,0.001401904,0.007032805,2.8371811e-05,0.0,0.0,-0.66060525,0
22760000,0.0011289837,0.007981794,-1.5437603e-05,0.0,0.0,-0.6555214,0
22776000,-0.00039750338,0.00554496,-2.169609e-05,0.0,0.0,-0.65334046,0
22800000,-0.00068776123,0.0051450846,-2.2947788e-05,0.0,0.0,-0.65752375,0
22816000,-0.0007318435,0.004241891,-7.259846e-05,0.0,0.0,-0.66080314,0
22840000,0.00027137063,0.002096242,-7.176399e-05,0.0,0.0,-0.66622025,0
22860000,0.00014661811,0.00072219345,-2.002716e-05,0.0,0.0,-0.6715512,0
22880000,0.0011521084,-0.0012032585,-8.636713e-05,0.0,0.0,-0.67531526,0
22896000,0.00036141183,-0.00232192,-0.00011181831,0.0,0.0,-0.67873,0
22920000,0.0012069116,-0.0030558822,-5.7578087e-05,0.0,0.0,-0.68375844,0
22940000,0.00075842487,-0.0026364638,-1.001358e-05,0.0,0.0,-0.6880541,0
22960000,0.0025757146,-0.0019911872,-4.965067e-05,0.0,0.0,-0.6914623,0
22980000,0.0028388947,0.00044916855,0.0,0.0,0.0,-0.6950949,0
23000000,0.0040139463,0.0009576828,-1.335144e-05,0.0,0.0,-0.6983116,0
23016000,0.005586465,0.002500569,2.8789043e-05,0.0,0.0,-0.70063895,0
23036000,0.0076463223,0.0052566896,5.13196e-05,0.0,0.0,-0.7038219,0
23056000,0.010032251,0.0066696275,-2.8789043e-05,0.0,0.0,-0.7058661,0
23080000,0.011547139,0.009359024,3.4213066e-05,0.0,0.0,-0.7088996,0
23096000,0.0148098525,0.009737092,1.41859055e-05,0.0,0.0,-0.7107509,0
23116000,0.014708927,0.010157648,6.133318e-05,0.0,0.0,-0.71341693,0
