timestamp,x,y,z,vx,vy,vz,acceleration[0],acceleration[1],acceleration[2],thrust[0],thrust[1],thrust[2],yaw,yawspeed
3264000,nan,nan,nan,nan,nan,nan,0.0,0.0,100.0,-0.0,-0.0,-0.001,6.286852e-05,0.0
3272000,nan,nan,nan,nan,nan,nan,0.0,0.0,100.0,-0.0,-0.0,-0.001,7.220278e-05,0.0
3360000,nan,nan,nan,nan,nan,nan,0.0,0.0,100.0,-0.0,-0.0,-0.001,1.6226314,0.0
3456000,nan,nan,nan,nan,nan,nan,0.0,0.0,100.0,-0.0,-0.0,-0.001,1.6225743,0.0
3560000,nan,nan,nan,nan,nan,nan,0.0,0.0,100.0,-0.0,-0.0,-0.001,1.618157,0.0
3656000,nan,nan,nan,nan,nan,nan,0.0,0.0,100.0,-0.0,-0.0,-0.001,1.6191053,0.0
3760000,nan,nan,nan,nan,nan,nan,0.0,0.0,100.0,-0.0,-0.0,-0.001,1.620181,0.0
3856000,nan,nan,nan,nan,nan,nan,0.0,0.0,100.0,-0.0,-0.0,-0.001,1.6211177,0.0
3960000,nan,nan,nan,nan,nan,nan,0.0,0.0,100.0,-0.0,-0.0,-0.001,1.6220645,0.0
4064000,nan,nan,nan,nan,nan,nan,0.0,0.0,100.0,-0.0,-0.0,-0.001,1.622174,0.0
4160000,nan,nan,nan,nan,nan,nan,0.0,0.0,100.0,-0.0,-0.0,-0.001,1.6216838,0.0
4264000,nan,nan,nan,nan,nan,nan,0.0,0.0,100.0,-0.0,-0.0,-0.001,1.6232324,0.0
4360000,nan,nan,nan,nan,nan,nan,0.0,0.0,100.0,-0.0,-0.0,-0.001,1.624905,0.0
4464000,nan,nan,nan,nan,nan,nan,0.0,0.0,100.0,-0.0,-0.0,-0.001,1.6257727,0.0
4560000,nan,nan,nan,nan,nan,nan,0.0,0.0,100.0,-0.0,-0.0,-0.001,1.6264778,0.0
4656000,nan,nan,nan,nan,nan,nan,0.0,0.0,100.0,-0.0,-0.0,-0.001,1.6268201,0.0
4760000,nan,nan,nan,nan,nan,nan,0.0,0.0,100.0,-0.0,-0.0,-0.001,1.6263978,0.0
4864000,nan,nan,nan,nan,nan,nan,0.0,0.0,100.0,-0.0,-0.0,-0.001,1.6260096,0.0
4960000,nan,nan,nan,nan,nan,nan,0.0,0.0,100.0,-0.0,-0.0,-0.001,1.6264207,0.0
5056000,nan,nan,nan,nan,nan,nan,0.0,0.0,100.0,-0.0,-0.0,-0.001,1.627284,0.0
5160000,nan,nan,nan,nan,nan,nan,0.0,0.0,100.0,-0.0,-0.0,-0.001,1.6274815,0.0
5256000,nan,nan,nan,nan,nan,nan,0.0,0.0,100.0,-0.0,-0.0,-0.001,1.6272516,0.0
5360000,nan,nan,nan,nan,nan,nan,0.0,0.0,100.0,-0.0,-0.0,-0.001,1.6265337,0.0
5456000,nan,nan,nan,nan,nan,nan,0.0,0.0,100.0,-0.0,-0.0,-0.001,1.625639,0.0
5560000,nan,nan,nan,nan,nan,nan,0.0,0.0,100.0,-0.0,-0.0,-0.001,1.6254481,0.0
5656000,nan,nan,nan,nan,nan,nan,0.0,0.0,100.0,-0.0,-0.0,-0.001,1.6255918,0.0
5760000,nan,nan,nan,nan,nan,nan,0.0,0.0,100.0,-0.0,-0.0,-0.001,1.6259158,0.0
5856000,nan,nan,nan,nan,nan,nan,0.0,0.0,100.0,-0.0,-0.0,-0.001,1.6258289,0.0
5960000,nan,nan,nan,nan,nan,nan,0.0,0.0,100.0,-0.0,-0.0,-0.001,1.6261022,0.0
6064000,nan,nan,nan,nan,nan,nan,0.0,0.0,100.0,-0.0,-0.0,-0.001,1.6269815,0.0
6160000,nan,nan,nan,nan,nan,nan,0.0,0.0,100.0,-0.0,-0.0,-0.001,1.6263679,0.0
6256000,nan,nan,nan,nan,nan,nan,0.0,0.0,100.0,-0.0,-0.0,-0.001,1.6257635,0.0
6360000,nan,nan,nan,nan,nan,nan,0.0,0.0,100.0,-0.0,-0.0,-0.001,1.6252311,0.0
6456000,nan,nan,nan,nan,nan,nan,0.0,0.0,100.0,-0.0,-0.0,-0.001,1.6244398,0.0
6560000,nan,nan,nan,nan,nan,nan,0.0,0.0,100.0,-0.0,-0.0,-0.001,1.6242882,0.0
6656000,nan,nan,nan,nan,nan,nan,0.0,0.0,100.0,-0.0,-0.0,-0.001,1.6241846,0.0
6760000,nan,nan,nan,nan,nan,nan,0.0,0.0,100.0,-0.0,-0.0,-0.001,1.6228733,0.0
6864000,nan,nan,nan,nan,nan,nan,0.0,0.0,100.0,-0.0,-0.0,-0.001,1.6225556,0.0
6960000,nan,nan,nan,nan,nan,nan,0.0,0.0,100.0,-0.0,-0.0,-0.001,1.6230507,0.0
7056000,nan,nan,nan,nan,nan,nan,0.0,0.0,100.0,-0.0,-0.0,-0.001,1.623597,0.0
7160000,nan,nan,nan,nan,nan,nan,0.0,0.0,100.0,-0.0,-0.0,-0.001,1.6227115,0.0
7256000,nan,nan,nan,nan,nan,nan,0.0,0.0,100.0,-0.0,-0.0,-0.001,1.621436,0.0
7360000,nan,nan,nan,nan,nan,nan,0.0,0.0,100.0,-0.0,-0.0,-0.001,1.62056,0.0
7456000,nan,nan,nan,nan,nan,nan,0.0,0.0,100.0,-0.0,-0.0,-0.001,1.6197205,0.0
7560000,nan,nan,nan,nan,nan,nan,0.0,0.0,100.0,-0.0,-0.0,-0.001,1.6186554,0.0
7656000,nan,nan,nan,nan,nan,nan,0.0,0.0,100.0,-0.0,-0.0,-0.001,1.6180665,0.0
7760000,nan,nan,nan,nan,nan,nan,0.0,0.0,100.0,-0.0,-0.0,-0.001,1.6175593,0.0
7856000,nan,nan,nan,nan,nan,nan,0.0,0.0,100.0,-0.0,-0.0,-0.001,1.6168392,0.0
7960000,nan,nan,nan,nan,nan,nan,0.0,0.0,100.0,-0.0,-0.0,-0.001,1.6167293,0.0
8056000,nan,nan,nan,nan,nan,nan,0.0,0.0,100.0,-0.0,-0.0,-0.001,1.6171178,0.0
8160000,nan,nan,nan,nan,nan,nan,0.0,0.0,100.0,-0.0,-0.0,-0.001,1.6172663,0.0
8256000,nan,nan,nan,nan,nan,nan,0.0,0.0,100.0,-0.0,-0.0,-0.001,1.6172236,0.0
8360000,nan,nan,nan,nan,nan,nan,0.0,0.0,100.0,-0.0,-0.0,-0.001,1.6175247,0.0
8456000,nan,nan,nan,nan,nan,nan,0.0,0.0,100.0,-0.0,-0.0,-0.001,1.6173292,0.0
8560000,nan,nan,nan,nan,nan,nan,0.0,0.0,100.0,-0.0,-0.0,-0.001,1.6171533,0.0
8664000,nan,nan,nan,nan,nan,nan,0.0,0.0,100.0,-0.0,-0.0,-0.001,1.6170985,0.0
8760000,nan,nan,nan,nan,nan,nan,0.0,0.0,100.0,-0.0,-0.0,-0.001,1.6168935,0.0
8856000,nan,nan,nan,nan,nan,nan,0.0,0.0,100.0,-0.0,-0.0,-0.001,1.6167872,0.0
8960000,nan,nan,nan,nan,nan,nan,0.0,0.0,100.0,-0.0,-0.0,-0.001,1.6167839,0.0
9056000,nan,nan,nan,nan,nan,nan,0.0,0.0,100.0,-0.0,-0.0,-0.001,1.6170236,0.0
9160000,nan,nan,nan,nan,nan,nan,0.0,0.0,100.0,-0.0,-0.0,-0.001,1.6177195,0.0
9264000,nan,nan,nan,nan,nan,nan,0.0,0.0,100.0,-0.0,-0.0,-0.001,1.6182177,0.0
9360000,nan,nan,nan,nan,nan,nan,0.0,0.0,100.0,-0.0,-0.0,-0.001,1.6182698,0.0
9456000,nan,nan,nan,nan,nan,nan,0.0,0.0,100.0,-0.0,-0.0,-0.001,1.6183814,0.0
9560000,nan,nan,nan,nan,nan,nan,0.0,0.0,100.0,-0.0,-0.0,-0.001,1.618351,0.0
9656000,nan,nan,nan,nan,nan,nan,0.0,0.0,100.0,-0.0,-0.0,-0.001,1.6185315,0.0
9760000,nan,nan,nan,nan,nan,nan,0.0,0.0,100.0,-0.0,-0.0,-0.001,1.6191899,0.0
9856000,nan,nan,nan,nan,nan,nan,0.0,0.0,100.0,-0.0,-0.0,-0.001,1.6195884,0.0
9960000,nan,nan,nan,nan,nan,nan,0.0,0.0,100.0,-0.0,-0.0,-0.001,1.6199962,0.0
10056000,nan,nan,nan,nan,nan,nan,0.0,0.0,100.0,-0.0,-0.0,-0.001,1.6204494,0.0
10160000,nan,nan,nan,nan,nan,nan,0.0,0.0,100.0,-0.0,-0.0,-0.001,1.6206496,0.0
10264000,nan,nan,nan,nan,nan,nan,0.0,0.0,100.0,-0.0,-0.0,-0.001,1.6207496,0.0
10360000,nan,nan,nan,nan,nan,nan,0.0,0.0,100.0,-0.0,-0.0,-0.001,1.6206125,0.0
10456000,nan,nan,nan,nan,nan,nan,0.0,0.0,100.0,-0.0,-0.0,-0.001,1.6206683,0.0
10560000,nan,nan,nan,nan,nan,nan,0.0,0.0,100.0,-0.0,-0.0,-0.001,1.6204207,0.0
10656000,nan,nan,nan,nan,nan,nan,0.0,0.0,100.0,-0.0,-0.0,-0.001,1.6202418,0.0
10760000,nan,nan,nan,nan,nan,nan,0.0,0.0,100.0,-0.0,-0.0,-0.001,1.620253,0.0
10856000,nan,nan,nan,nan,nan,nan,0.0,0.0,100.0,-0.0,-0.0,-0.001,1.6204613,0.0
10960000,nan,nan,nan,nan,nan,nan,0.0,0.0,100.0,-0.0,-0.0,-0.001,1.6205641,0.0
11064000,nan,nan,nan,nan,nan,nan,0.0,0.0,100.0,-0.0,-0.0,-0.001,1.6206923,0.0
11160000,nan,nan,nan,nan,nan,nan,0.0,0.0,100.0,-0.0,-0.0,-0.001,1.6207556,0.0
11256000,nan,nan,nan,nan,nan,nan,0.0,0.0,100.0,-0.0,-0.0,-0.001,1.6208255,0.0
11360000,nan,nan,nan,nan,nan,nan,0.0,0.0,100.0,-0.0,-0.0,-0.001,1.6210748,0.0
11464000,nan,nan,nan,nan,nan,nan,0.0,0.0,100.0,-0.0,-0.0,-0.001,1.6211294,0.0
11560000,nan,nan,nan,nan,nan,nan,0.0,0.0,100.0,-0.0,-0.0,-0.001,1.6210053,0.0
11656000,nan,nan,nan,nan,nan,nan,0.0,0.0,100.0,-0.0,-0.0,-0.001,1.6210971,0.0
11760000,nan,nan,nan,nan,nan,nan,0.0,0.0,100.0,-0.0,-0.0,-0.001,1.6211729,0.0
11856000,nan,nan,nan,nan,nan,nan,0.0,0.0,100.0,-0.0,-0.0,-0.001,1.6213374,0.0
11960000,nan,nan,nan,nan,nan,nan,0.0,0.0,100.0,-0.0,-0.0,-0.001,1.6212877,0.0
12056000,nan,nan,nan,nan,nan,nan,0.0,0.0,100.0,-0.0,-0.0,-0.001,1.6212107,0.0
12160000,nan,nan,nan,nan,nan,nan,0.0,0.0,100.0,-0.0,-0.0,-0.001,1.6212434,0.0
12256000,nan,nan,nan,nan,nan,nan,0.0,0.0,100.0,-0.0,-0.0,-0.001,1.6212751,0.0
12360000,nan,nan,nan,nan,nan,nan,0.0,0.0,100.0,-0.0,-0.0,-0.001,1.6213518,0.0
12456000,nan,nan,nan,nan,nan,nan,0.0,0.0,100.0,-0.0,-0.0,-0.001,1.6213781,0.0
12560000,nan,nan,nan,nan,nan,nan,0.0,0.0,100.0,-0.0,-0.0,-0.001,1.6212194,0.0
12656000,nan,nan,nan,nan,nan,nan,0.0,0.0,100.0,-0.0,-0.0,-0.001,1.6210088,0.0
12760000,nan,nan,nan,nan,nan,nan,0.0,0.0,100.0,-0.0,-0.0,-0.001,1.6208787,0.0
12856000,nan,nan,nan,nan,nan,nan,0.0,0.0,100.0,-0.0,-0.0,-0.001,1.6209127,0.0
12960000,nan,nan,nan,nan,nan,nan,0.0,0.0,100.0,-0.0,-0.0,-0.001,1.6207954,0.0
13056000,nan,nan,nan,nan,nan,nan,0.0,0.0,100.0,-0.0,-0.0,-0.001,1.6207511,0.0
13160000,nan,nan,nan,nan,nan,nan,0.0,0.0,100.0,-0.0,-0.0,-0.001,1.620784,0.0
13256000,nan,nan,nan,nan,nan,nan,0.0,0.0,100.0,-0.0,-0.0,-0.001,1.6206763,0.0
13360000,nan,nan,nan,nan,nan,nan,0.0,0.0,100.0,-0.0,-0.0,-0.001,1.6205851,0.0
13456000,nan,nan,nan,nan,nan,nan,0.0,0.0,100.0,-0.0,-0.0,-0.001,1.6208085,0.0
13560000,nan,nan,nan,nan,nan,nan,0.0,0.0,100.0,-0.0,-0.0,-0.001,1.6211014,0.0
13656000,nan,nan,nan,nan,nan,nan,0.0,0.0,100.0,-0.0,-0.0,-0.001,1.6218421,0.0
13760000,nan,nan,nan,nan,nan,nan,0.0,0.0,100.0,-0.0,-0.0,-0.001,1.6225948,0.0
13864000,nan,nan,nan,nan,nan,nan,0.0,0.0,100.0,-0.0,-0.0,-0.001,1.6229105,0.0
13960000,nan,nan,nan,nan,nan,nan,0.0,0.0,100.0,-0.0,-0.0,-0.001,1.6226869,0.0
14064000,nan,nan,nan,nan,nan,nan,0.0,0.0,100.0,-0.0,-0.0,-0.001,1.6225287,0.0
14160000,nan,nan,nan,nan,nan,nan,0.0,0.0,100.0,-0.0,-0.0,-0.001,1.6223042,0.0
14264000,nan,nan,nan,nan,nan,nan,0.0,0.0,100.0,-0.0,-0.0,-0.001,1.6217557,0.0
14360000,nan,nan,nan,nan,nan,nan,0.0,0.0,100.0,-0.0,-0.0,-0.001,1.6212285,0.0
14464000,nan,nan,nan,nan,nan,nan,0.0,0.0,100.0,-0.0,-0.0,-0.001,1.620852,0.0
14560000,nan,nan,nan,nan,nan,nan,0.0,0.0,100.0,-0.0,-0.0,-0.001,1.6208203,0.0
14656000,nan,nan,nan,nan,nan,nan,0.0,0.0,100.0,-0.0,-0.0,-0.001,1.6209521,0.0
14760000,nan,nan,nan,nan,nan,nan,0.0,0.0,100.0,-0.0,-0.0,-0.001,1.6208868,0.0
14856000,nan,nan,nan,nan,nan,nan,0.0,0.0,100.0,-0.0,-0.0,-0.001,1.6206175,0.0
14960000,nan,nan,nan,nan,nan,nan,0.0,0.0,100.0,-0.0,-0.0,-0.001,1.6201333,0.0
15056000,nan,nan,nan,nan,nan,nan,0.0,0.0,100.0,-0.0,-0.0,-0.001,1.6198986,0.0
15160000,nan,nan,nan,nan,nan,nan,0.0,0.0,100.0,-0.0,-0.0,-0.001,1.620004,0.0
15256000,nan,nan,nan,nan,nan,nan,0.0,0.0,100.0,-0.0,-0.0,-0.001,1.6199574,0.0
15360000,nan,nan,nan,nan,nan,nan,0.0,0.0,100.0,-0.0,-0.0,-0.001,1.6198722,0.0
15456000,nan,nan,nan,nan,nan,nan,0.0,0.0,100.0,-0.0,-0.0,-0.001,1.619698,0.0
15560000,nan,nan,nan,nan,nan,nan,0.0,0.0,100.0,-0.0,-0.0,-0.001,1.619367,0.0
15656000,nan,nan,nan,nan,nan,nan,0.0,0.0,100.0,-0.0,-0.0,-0.001,1.6194689,0.0
15760000,nan,nan,nan,nan,nan,nan,0.0,0.0,100.0,-0.0,-0.0,-0.001,1.6195945,0.0
15856000,0.0029150967,0.00293284,-0.027365234,2.9884119e-05,0.00054362195,2.2626715,-0.01051211,-0.0021930763,9.3594675,-2.4369028e-05,-5.0839594e-06,-0.022799969,1.6194849,0.0
15960000,0.0028942644,0.0029435416,-0.023367343,-8.843397e-05,0.00093646726,2.0736806,-0.0059108837,0.0018241815,9.046754,-2.5564288e-05,7.889497e-06,-0.038743943,1.6195157,0.0
16056000,0.0028613713,0.0029605902,-0.02870232,-0.0002557271,0.0011984541,1.8992274,-0.0058663944,-0.0011379147,8.723316,-3.744352e-05,-7.262984e-06,-0.05523467,1.6194912,0.0
16160000,0.0028109364,0.0029868265,-0.024151508,-0.0004902546,0.0013034019,1.7102363,-0.006620231,-0.0028354912,8.337857,-5.314662e-05,-2.2763072e-05,-0.0748876,1.6193472,0.0
16264000,0.0027507117,0.0030182179,-0.029100956,-0.0006159485,0.00078250427,1.5212455,-0.012065689,-0.006170964,7.913537,-0.00011868181,-6.0699487e-05,-0.096521914,1.6191157,0.0
16360000,0.0026706306,0.0030600117,-0.026657026,-0.0008496731,3.7876773e-05,1.3467922,-0.01403675,-0.0045606745,7.483757,-0.00017392282,-5.650919e-05,-0.11843458,1.6188408,0.0
16456000,0.0025830276,0.0031057699,-0.030295026,-0.0012615856,-0.0005959504,1.172339,-0.014573764,-0.006325612,7.017942,-0.00020636582,-8.957123e-05,-0.14218456,1.6186935,0.0
16560000,0.0024733064,0.0031631177,-0.02695137,-0.0018101757,-0.0012093773,0.9833486,-0.014249594,-0.007412323,6.4751616,-0.00024951992,-0.00012979473,-0.16985863,1.6186811,0.0
16656000,0.0023583474,0.0032232315,-0.030077524,-0.0020175162,-0.0014272877,0.8088963,-0.017954394,-0.0056817196,5.942132,-0.0003611243,-0.000114278824,-0.19703558,1.6188521,0.0
16760000,0.0022189906,0.003296131,-0.029358417,-0.002215005,-0.0014549152,0.6199064,-0.019665876,-0.007691956,5.3304405,-0.00045828553,-0.0001792502,-0.22822317,1.6186966,0.0
16856000,0.0020766756,0.0033706003,-0.031581953,-0.0026349374,-0.0015111106,0.44545412,-0.019499144,-0.00982291,4.725984,-0.00051145547,-0.00025765138,-0.25904188,1.6184716,0.0
16960000,0.0019077868,0.0034589972,-0.029813942,-0.003239303,-0.0016625228,0.25646424,-0.020631997,-0.008293746,4.034774,-0.0006253481,-0.00025138035,-0.2942838,1.6184713,0.0
17064000,0.0017384101,0.003547668,-0.031030105,-0.003486152,-0.0015790995,0.08487419,-0.020521132,-0.010172345,3.3750927,-0.0006804834,-0.00033731628,-0.32791817,1.6183413,0.0
17160000,0.0015401382,0.0036514841,-0.031175649,-0.0037047882,-0.001407181,0.032373257,-0.027324509,-0.0068044323,3.170291,-0.0009416625,-0.00023449569,-0.33836013,1.6182241,0.0
17264000,0.0013434933,0.0037544647,-0.031229535,-0.004263875,-0.0013201025,-0.016793964,-0.026309803,-0.005799002,2.9650838,-0.0009409142,-0.00020738898,-0.3488228,1.6180252,0.0
17360000,0.0011157343,0.0038737548,-0.030754667,-0.0050302073,-0.0012037037,-0.06994761,-0.02504721,-0.004634197,2.7367423,-0.0009239483,-0.00017094753,-0.360465,1.617742,0.0
17456000,0.00089190266,0.003991002,-0.030308606,-0.005202258,-0.0010114164,-0.11795825,-0.024005266,-0.00478928,2.518398,-0.00090730796,-0.0001810166,-0.37159744,1.6174695,0.0
17560000,0.0006346197,0.004125786,-0.032249186,-0.005212548,-0.0007377658,-0.17203449,-0.023946386,-0.0028305901,2.2725804,-0.0009313372,-0.00011008901,-0.38413066,1.617174,0.0
17656000,0.00038348837,0.0042573586,-0.030750563,-0.005519877,-0.0005171024,-0.21951954,-0.02358459,-0.0020289524,2.0393507,-0.0009536132,-8.203813e-05,-0.39602205,1.6168737,0.0
17760000,9.668713e-05,0.004407632,-0.03188498,-0.0060544806,-0.00028030656,-0.2743564,-0.028398758,5.8371224e-05,1.7611344,-0.001184971,2.435607e-06,-0.41020715,1.6166035,0.0
17856000,-0.00018168967,0.0045535024,-0.03120454,-0.005594258,0.0005743132,-0.32058868,-0.02460281,0.0005570767,1.5153284,-0.0010522514,2.3825927e-05,-0.42273974,1.6165377,0.0
17960000,-0.0004982653,0.0047194,-0.036907412,-0.004759642,0.0017517485,-0.37636912,-0.025937108,0.0027873938,1.2147909,-0.0011551148,0.0001241372,-0.4380629,1.6166157,0.0
18056000,-0.00080423325,0.0048797484,-0.035359114,-0.0045195245,0.0025750925,-0.4223256,-0.025188798,0.0007259258,0.94571257,-0.0011563418,3.3325065e-05,-0.45178208,1.6166823,0.0
18160000,-0.0011504614,0.0050612073,-0.03931103,-0.0047287717,0.0031267945,-0.4788443,-0.030855408,-0.0002780694,0.61640334,-0.0014738544,-1.3282398e-05,-0.46857217,1.6167449,0.0
18256000,-0.001483647,0.0052358387,-0.036591128,-0.004910543,0.0034736493,-0.5237288,-0.034725435,-0.0015353295,0.33416104,-0.0016988815,-7.511333e-05,-0.48296252,1.6167612,0.0
18360000,-0.0018589427,0.005432549,-0.042385694,-0.005209593,0.0036428627,-0.58106726,-0.030399768,-0.0014510961,-0.016262293,-0.0015448878,-7.374336e-05,-0.50082916,1.6164339,0.0
18456000,-0.002209156,0.0056161266,-0.037952334,-0.0056875236,0.0036709942,-0.62539405,-0.033255097,-0.0007009364,-0.31680107,-0.0017457178,-3.679548e-05,-0.5161524,1.6161485,0.0
18560000,-0.0025868763,0.0058141453,-0.042232644,-0.0065352414,0.0035924187,-0.68346363,-0.042369008,-0.005232104,-0.69829893,-0.0023069787,-0.00028488637,-0.53560334,1.6160724,0.0
18656000,-0.002932794,0.0059955157,-0.03714294,-0.006883583,0.0037449952,-0.7266549,-0.040963933,-0.004471297,-1.0114231,-0.0023031177,-0.00025139,-0.5515682,1.6162372,0.0
18760000,-0.003303255,0.00618978,-0.044252172,-0.007177377,0.003984781,-0.78549224,-0.044710126,-0.003293155,-1.4103557,-0.0025976726,-0.00019133337,-0.5719081,1.6163167,0.0
18856000,-0.0036399197,0.0063663432,-0.038342282,-0.007876872,0.0040372727,-0.82813203,-0.05017887,0.0022547874,-2.2443626,-0.0031505788,0.00014157126,-0.61443067,1.616245,0.0
18960000,-0.003997303,0.0065537966,-0.044660773,-0.009030965,0.0041441116,-0.8877214,-0.053496152,0.0057202852,-2.6715298,-0.0034741783,0.00037149008,-0.6362101,1.616,0.0
19056000,-0.0043190145,0.006722564,-0.0382161,-0.008649373,0.0043226257,-0.9292866,-0.048768137,0.0034252424,-3.0154662,-0.003255163,0.00022862722,-0.653746,1.6158364,0.0
19160000,-0.0046572653,0.0069000334,-0.046802666,-0.0076378155,0.004432718,-0.98970395,-0.04954599,0.0015118478,-3.4648433,-0.003408129,0.00010399575,-0.67665786,1.6155788,0.0
19264000,-0.004958317,0.0070580128,-0.03941901,-0.007160267,0.004434188,-1.0306593,-0.0313024,-0.000443561,-3.7728295,-0.002203713,-3.122703e-05,-0.69236076,1.6152643,0.0
19360000,-0.0052703973,0.007221808,-0.0498717,-0.006758479,0.004298559,-1.0915688,-0.0188442,0.0011626431,-4.0814548,-0.001358638,8.3824794e-05,-0.70809627,1.6150999,0.0
19456000,-0.005543658,0.007365256,-0.04789999,-0.006203855,0.0043106386,-1.1312735,0.014613049,0.0065088496,-4.275216,0.0010859987,0.0004837185,-0.7179754,1.6173863,0.0
19560000,-0.0058213966,0.0075110868,-0.06916419,-0.004115535,0.0051817275,-1.1929768,0.1419527,0.10965499,-4.5840487,0.010621123,0.008204559,-0.73372144,1.62213,0.0
19664000,-0.006058341,0.0076355315,-0.07444645,0.0029855093,0.010316885,-1.2305228,0.29793075,0.28379807,-4.725323,0.022509383,0.021441625,-0.7409244,1.6240393,0.0
19760000,-0.0062920917,0.007758339,-0.10659119,0.014596375,0.020351006,-1.2943008,0.39077827,0.39228675,-4.880879,0.029840296,0.029955486,-0.7488556,1.6238918,0.0
19856000,-0.0064826864,0.007858515,-0.126226,0.02829067,0.033606254,-1.3320726,0.42840323,0.43636233,-4.879467,0.032710694,0.033318408,-0.7487836,1.6233548,0.0
19960000,-0.006656915,0.007950148,-0.17975082,0.044395823,0.049672574,-1.3950835,0.44253474,0.43547776,-4.945773,0.033942074,0.03340081,-0.75216424,1.6230348,0.0
20064000,-0.0067806463,0.008015301,-0.21621595,0.061283275,0.06589913,-1.423237,0.45444185,0.43891674,-4.679637,0.034226727,0.033057436,-0.73859507,1.6229081,0.0
20160000,-0.006868109,0.008061493,-0.2860747,0.076690875,0.08017987,-1.4486152,0.46674484,0.44812453,-4.305551,0.03424498,0.032878812,-0.719522,1.6227652,0.0
20256000,-0.0069273096,0.00809287,-0.3330141,0.095550045,0.09435466,-1.4091897,0.48713845,0.47192663,-4.0365057,0.035060592,0.033965755,-0.7058045,1.6224937,0.0
20360000,-0.006991269,0.008126678,-0.40683258,0.11693268,0.108953565,-1.3899361,0.51029867,0.48149392,-4.332855,0.037513755,0.035396222,-0.7209141,1.6220093,0.0
20464000,-0.007047546,0.008156391,-0.45294234,0.1352568,0.122018576,-1.3529073,0.50735974,0.47317,-4.3095117,0.037235174,0.034725983,-0.71972394,1.6216356,0.0
20560000,-0.0071051014,0.00818676,-0.52616006,0.1492315,0.13239908,-1.3461933,0.49597764,0.46421114,-4.404922,0.036647215,0.034300026,-0.7245885,1.6214112,0.0
20656000,-0.007155077,0.008213111,-0.57660943,0.1626543,0.14298421,-1.3145521,0.48810977,0.46130964,-4.30778,0.035818513,0.033851866,-0.7196356,1.6211456,0.0
20760000,-0.007205802,0.008239837,-0.6554219,0.17509899,0.15329662,-1.300419,0.4790278,0.45283514,-4.359798,0.03528207,0.033352893,-0.72228783,1.620906,0.0
20856000,-0.007250674,0.008263497,-0.70838654,0.18323071,0.1603671,-1.2671978,0.46497846,0.43773448,-4.2809477,0.034056533,0.032061096,-0.71826756,1.6206369,0.0
20960000,-0.0072972686,0.008288092,-0.7863624,0.18876956,0.16550358,-1.2515271,0.43984175,0.420642,-4.3494034,0.032371476,0.03095841,-0.7217579,1.6203547,0.0
21064000,-0.0073376005,0.008309387,-0.8416643,0.19412929,0.16865417,-1.2118449,0.42226452,0.4048243,-4.2331505,0.030822622,0.029549595,-0.7158306,1.6199919,0.0
21160000,-0.0073782844,0.00833087,-0.9232687,0.19744742,0.16977642,-1.1993331,0.40700588,0.38342634,-4.3023047,0.029855078,0.02812545,-0.7193565,1.6194704,0.0
21256000,-0.00741306,0.008349238,-0.97942424,0.19795583,0.1691182,-1.1639972,0.3871155,0.36482668,-4.2152576,0.028221818,0.026596896,-0.7149183,1.6190202,0.0
21360000,-0.0074477233,0.008367548,-1.0585456,0.19578563,0.16666588,-1.1444993,0.3621939,0.34260544,-4.2817726,0.026529482,0.025094692,-0.71830964,1.6189895,0.0
21456000,-0.007476979,0.008383003,-1.1150978,0.19441442,0.16380197,-1.1087404,0.34459084,0.3256486,-4.192328,0.025080496,0.023701815,-0.71374923,1.6191025,0.0
21560000,-0.0075072404,0.008398986,-1.1954412,0.19213466,0.15979879,-1.0872593,0.32666206,0.30805847,-4.239379,0.023855096,0.022496536,-0.71614814,1.6192344,0.0
21656000,-0.0075338003,0.00841301,-1.251572,0.18763728,0.15486346,-1.0506297,0.3092232,0.29197568,-4.1629725,0.022459213,0.021206506,-0.7122525,1.6189195,0.0
21760000,-0.007560738,0.008427233,-1.3279272,0.18075,0.14843452,-1.0280142,0.28798637,0.27654248,-4.221901,0.021004794,0.020170115,-0.71525705,1.618584,0.0
21856000,-0.0075838882,0.008439455,-1.3831512,0.17475545,0.14253971,-0.99132067,0.27210984,0.26560855,-4.140805,0.019731833,0.019260399,-0.7111223,1.6184485,0.0
21960000,-0.007607109,0.008451716,-1.4590689,0.16784434,0.13591531,-0.96704185,0.25801513,0.25451672,-4.1896286,0.018775668,0.01852109,-0.7136116,1.6182681,0.0
22064000,-0.0076268283,0.008462126,-1.5121702,0.15928145,0.12865993,-0.92480755,0.23821993,0.24146596,-4.1109014,0.017236616,0.017471483,-0.70959765,1.6181341,0.0
22160000,-0.007646332,0.008472422,-1.583066,0.15024798,0.12148005,-0.9047149,0.2198645,0.22645056,-4.1754756,0.01598131,0.016460031,-0.71289,1.6179913,0.0
22256000,-0.0076629007,0.008481167,-1.6347663,0.14179136,0.11436758,-0.8677055,0.20858917,0.22112244,-4.0945845,0.0150752645,0.015981076,-0.7087657,1.6164258,0.0
22360000,-0.0076802857,0.008490345,-1.704125,0.13266732,0.10671783,-0.84110016,0.19866526,0.20939119,-4.141776,0.014406731,0.01518455,-0.7111718,1.6196717,0.0
22456000,-0.007695486,0.00849837,-1.752749,0.123573095,0.0995024,-0.80371034,0.18405263,0.19733658,-4.071327,0.013278941,0.014237345,-0.7075799,1.620998,0.0
22560000,-0.0077108718,0.008506492,-1.8344419,0.11324563,0.09157722,-0.7863488,0.17069367,0.1885983,-3.879218,0.012145367,0.013419337,-0.6977851,1.620903,0.0
22656000,-0.00772404,0.008513443,-1.90363,0.103739716,0.08324126,-0.73108417,0.15685779,0.17415412,-3.4921415,0.010844694,0.012040513,-0.6780497,1.6203818,0.0
22760000,-0.0077371863,0.008520383,-1.9685205,0.09359871,0.0738091,-0.62661475,0.15345481,0.16042306,-3.0729103,0.01027661,0.010743262,-0.6566748,1.620208,0.0
22856000,-0.007748287,0.008526245,-2.0160055,0.084414445,0.065612376,-0.5146698,0.14724171,0.15773122,-3.3614979,0.010080886,0.010799049,-0.6713887,1.6205375,0.0
22960000,-0.007759188,0.008532001,-2.0554276,0.074760236,0.057461835,-0.42577112,0.13830742,0.15349786,-3.7712657,0.009762872,0.010835138,-0.692281,1.6207126,0.0
23056000,-0.007768144,0.008536731,-2.0837443,0.06517054,0.049464535,-0.36855,0.12389294,0.13637027,-4.039353,0.008919814,0.009818133,-0.70594966,1.6207316,0.0
23160000,-0.00777654,0.008541164,-2.108907,0.054468755,0.04067529,-0.33265728,0.10844527,0.1265773,-4.2537446,0.00792617,0.009251424,-0.7168806,1.6207825,0.0
23256000,-0.0077830525,0.008544604,-2.1295288,0.04512595,0.03324038,-0.31874132,0.09967332,0.11834131,-4.313652,0.0073177256,0.008688276,-0.71993506,1.6207436,0.0
23360000,-0.007789453,0.008547983,-2.1505473,0.035720855,0.025958877,-0.308409,0.09652449,0.11492424,-0.2071521,0.0070347674,0.008375752,-0.7147865,1.6207458,-0.00050250255
23456000,-0.0077951266,0.008550978,-2.1689918,0.028411219,0.019603087,-0.29606706,0.09771089,0.1082499,-0.13931122,0.007074451,0.007837496,-0.70994407,1.6207458,-0.00047700416
23560000,-0.0078009632,0.00855406,-2.1879935,0.021673165,0.013223531,-0.2811314,0.095563255,0.10738583,-0.11146532,0.006896624,0.0077498374,-0.7079564,1.6207458,-0.000194057
23656000,-0.0078060636,0.008556753,-2.2046716,0.016120156,0.0079886075,-0.26895285,0.10150987,0.10400697,-0.109540544,0.0073245964,0.0075047775,-0.707819,1.6207458,-0.00018420999
23760000,-0.007811278,0.008559506,-2.2218523,0.010820529,0.0030050264,-0.25711632,0.10161969,0.101346076,-0.116624124,0.0073391385,0.0073193777,-0.7083246,1.6207458,-7.494115e-05
23856000,-0.007815891,0.008561942,-2.236932,0.0069464585,-0.0010992314,-0.24397317,0.104635365,0.10211901,-0.09870961,0.007545446,0.0073639867,-0.7070459,1.6207458,-7.113843e-05
23960000,-0.007820662,0.008564459,-2.252465,0.0035311067,-0.00499162,-0.22911629,0.103596024,0.10215154,-0.09036685,0.0074607655,0.007356737,-0.7064504,1.6207458,-2.8940858e-05
24064000,-0.007824838,0.008566662,-2.2660985,0.00047487227,-0.008257027,-0.21604884,0.104750015,0.105154335,-0.084588036,0.0075429967,0.0075721117,-0.7060379,1.6207458,-2.747232e-05
24160000,-0.007829113,0.008568917,-2.28014,-0.0020495832,-0.01067909,-0.20667085,0.10659109,0.10953346,-0.103409216,0.0076883878,0.00790062,-0.70738137,1.6207458,-1.1176415e-05
24256000,-0.007832861,0.0085708955,-2.2924643,-0.0014022279,-0.010086957,-0.1937075,0.130347,0.12960695,-0.0830122,0.0093822135,0.009328946,-0.7059254,1.6207458,-1.0609292e-05
24360000,-0.0078367535,0.008572954,-2.3051574,0.0013858972,-0.0073843715,-0.1784632,0.15009396,0.1492289,-0.071555056,0.010793058,0.010730852,-0.70510757,1.6207458,-4.316121e-06
24464000,-0.007840164,0.008574758,-2.316297,0.0039025056,-0.0046525067,-0.16570288,0.15734068,0.15644738,-0.07156459,0.0113133835,0.011249154,-0.7051083,1.6207458,-4.097108e-06
24560000,-0.007843661,0.0085766055,-2.3277693,0.005818552,-0.0023238717,-0.15676816,0.15564954,0.16128099,-0.09404267,0.011217599,0.011623455,-0.7067128,1.6207458,-1.6668041e-06
24664000,-0.007846727,0.008578225,-2.3378384,0.008287987,0.0019388939,-0.14564647,0.16977671,0.17598292,-0.07950715,0.012215526,0.012662066,-0.70567524,1.6207458,-1.582226e-06
24760000,-0.007849906,0.0085799005,-2.3482087,0.010587938,0.0063714734,-0.13649881,0.17052421,0.18568252,-0.09223601,0.01228645,0.013378622,-0.7065838,1.6207458,-6.4368834e-07
24864000,-0.007852683,0.008581366,-2.3573093,0.012428722,0.01035552,-0.12797064,0.17136121,0.19205177,-0.087671414,0.012340447,0.013830462,-0.706258,1.6207458,-6.110258e-07
24960000,-0.007855532,0.0085828705,-2.366681,0.013554088,0.013345348,-0.12194448,0.1713021,0.19308367,-0.10937828,0.012363401,0.013935445,-0.7078074,1.6207458,-2.4858028e-07
25056000,-0.007858052,0.008584201,-2.3749056,0.014282266,0.017091524,-0.11512426,0.17102814,0.19971979,-0.09762093,0.012330078,0.014398569,-0.7069682,1.6207458,-2.3596662e-07
25160000,-0.007860634,0.008585566,-2.383374,0.014680249,0.02121404,-0.108004875,0.17054313,0.20759927,-0.11090554,0.0123104,0.014985241,-0.70791644,1.6207458,-9.599702e-08
25256000,-0.007862908,0.00858676,-2.3908057,0.014694913,0.024158193,-0.10274954,0.16889672,0.20809567,-0.09440668,0.012172936,0.014998132,-0.70673877,1.6207458,-9.1125855e-08
25360000,-0.0078652445,0.008587995,-2.3984587,0.0143915415,0.026420644,-0.09773486,0.16708386,0.20472954,-0.115612894,0.0120682465,0.014787343,-0.70825243,1.6207458,-3.7072233e-08
25456000,-0.0078672785,0.008589068,-2.4051573,0.0146083245,0.027603379,-0.09141955,0.17039391,0.20239905,-0.08861902,0.012274182,0.014579644,-0.70632565,1.6207458,-3.5191086e-08
25560000,-0.007869397,0.008590186,-2.412073,0.014987927,0.027999286,-0.08401137,0.16794688,0.1995979,-0.10553644,0.012116857,0.014400381,-0.7075332,1.6207458,-1.4316598e-08
25656000,-0.007871249,0.008591164,-2.4181435,0.014999362,0.02787594,-0.07889284,0.17300193,0.19305679,-0.08520659,0.012455555,0.013899437,-0.70608205,1.6207458,-1.3590133e-08
25760000,-0.0078731645,0.008592175,-2.424392,0.014763118,0.027273128,-0.07413149,0.16798158,0.18967219,-0.11314705,0.012128283,0.013694346,-0.7080764,1.6207458,-5.5287996e-09
25856000,-0.007874846,0.008593065,-2.4298759,0.015079106,0.028085453,-0.06684856,0.1688632,0.19780228,-0.08163977,0.012154919,0.014237978,-0.7058275,1.6207458,-5.2482525e-09
25960000,-0.007876576,0.008593979,-2.435521,0.015653273,0.029600691,-0.058007713,0.17662925,0.20225537,-0.087114036,0.012719871,0.014565325,-0.7062182,1.6207458,-2.1351179e-09
26056000,-0.007878077,0.008594776,-2.4404244,0.01597366,0.030428987,-0.05207288,0.17938551,0.2055806,-0.07615618,0.0129044,0.014788789,-0.70543605,1.6207458,-2.0267759e-09
26160000,-0.007879613,0.008595588,-2.4454348,0.016053034,0.030690102,-0.047585964,0.17816728,0.19858272,-0.10353461,0.01285164,0.014324255,-0.7073903,1.6207458,-8.2454216e-10
26256000,-0.007880961,0.0085963,-2.4498367,0.014408433,0.031380374,-0.041042116,0.16379419,0.19791171,-0.07737339,0.011784123,0.014238699,-0.7055229,1.6207458,-7.8270257e-10
26360000,-0.007882351,0.008597034,-2.4543724,0.011490439,0.032113582,-0.033475637,0.15293598,0.19985843,-0.08227544,0.011007606,0.014384861,-0.70587283,1.6207458,-3.1842265e-10
26456000,-0.007883571,0.008597681,-2.4583583,0.008938011,0.032201264,-0.02880676,0.14773107,0.2019715,-0.0813107,0.010632306,0.014536028,-0.70580393,1.6207458,-3.0226502e-10
26560000,-0.007884829,0.008598345,-2.462467,0.0064587593,0.031825982,-0.025555853,0.14943051,0.19992943,-0.10160266,0.010777194,0.014419266,-0.7072524,1.6207458,-1.2296882e-10
26656000,-0.007885935,0.008598931,-2.4660778,0.0050991983,0.030099822,-0.019810561,0.15464702,0.18966742,-0.08548267,0.011134405,0.013655833,-0.7061018,1.6207458,-1.1672902e-10
26760000,-0.007887077,0.008599534,-2.469803,0.004288819,0.027349917,-0.013146877,0.15743218,0.18485272,-0.07846458,0.011326215,0.013298944,-0.7056008,1.6207458,-4.748822e-11
26856000,-0.00788808,0.008600064,-2.4730797,0.0037334778,0.024832409,-0.009306453,0.16058624,0.17832768,-0.08559115,0.011561552,0.012838864,-0.7061095,1.6207458,-4.507853e-11
26960000,-0.007889116,0.00860061,-2.4764607,0.0032976118,0.022203317,-0.0071971416,0.16357592,0.1779081,-0.09937766,0.011793884,0.012827239,-0.7070936,1.6207458,-1.8339054e-11
27056000,-0.007890026,0.00860109,-2.4794333,0.0029409188,0.020761227,-0.0045683384,0.16208294,0.17857218,-0.10249794,0.011690772,0.012880113,-0.7073163,1.6207458,-1.740848e-11
27160000,-0.007890965,0.0086015845,-2.482496,0.0025126832,0.019745287,-0.0021488667,0.1615698,0.17608152,-0.10125728,0.011651668,0.012698186,-0.70722777,1.6207458,-7.0821972e-12
27256000,-0.007891787,0.00860202,-2.4851866,0.002261582,0.018622795,-0.0012485981,0.16897817,0.1772289,-0.10713945,0.012192315,0.012787632,-0.7076476,1.6207458,-6.722827e-12
27360000,-0.007892636,0.008602468,-2.4879596,0.0022085183,0.017406425,-0.0015296936,0.17068568,0.1787273,-0.117720865,0.012329818,0.012910721,-0.70840293,1.6207458,-2.7350112e-12
27456000,-0.007893383,0.008602863,-2.4903955,0.0016144896,0.015244694,0.0011489391,0.16311695,0.17057571,-0.1080624,0.011771986,0.01231028,-0.7077135,1.6207458,-2.5962292e-12
27560000,-0.007894151,0.008603271,-2.4929075,0.00071179064,0.012393732,0.0047593117,0.16435522,0.16867594,-0.10158768,0.0118534,0.012165012,-0.7072513,1.6207458,-1.0562097e-12
27656000,-0.007894829,0.008603629,-2.4951155,0.00016849521,0.010095711,0.00612545,0.16732603,0.16594714,-0.111721724,0.01207963,0.011980084,-0.7079747,1.6207458,-1.0026148e-12
27760000,-0.007895526,0.008603999,-2.4973917,-0.00013298105,0.0079822745,0.006248951,0.16678295,0.16654614,-0.11918071,0.012051292,0.0120341815,-0.7085071,1.6207458,-4.078883e-13
27856000,-0.00789614,0.0086043235,-2.4993925,-0.0018343246,0.004868086,0.009210825,0.16195521,0.15798423,-0.10482643,0.011682367,0.0113959275,-0.7074825,1.6207458,-3.8719088e-13
27960000,-0.007896773,0.008604658,-2.501454,-0.0042514508,0.0010718982,0.012960911,0.15361728,0.15516701,-0.09417706,0.011071877,0.011183574,-0.7067224,1.6207458,-1.5751875e-13
28064000,-0.007897327,0.008604951,-2.5032628,-0.0059968308,-0.001965859,0.014448404,0.15527464,0.14924835,-0.10349785,0.011201103,0.010766382,-0.7073877,1.6207458,-1.495258e-13
28160000,-0.007897897,0.008605251,-2.5051222,-0.0070047406,-0.0042549013,0.014056206,0.1572269,0.1486935,-0.11720113,0.011356542,0.010740171,-0.7083658,1.6207458,-6.083076e-14
28264000,-0.007898397,0.008605515,-2.506753,-0.0077411975,-0.0049025766,0.018670082,0.15671398,0.15716812,-0.09489212,0.011292897,0.011325624,-0.7067734,1.6207458,-5.774404e-14
28360000,-0.007898914,0.0086057875,-2.5084314,-0.0080905985,-0.0045382604,0.023643732,0.15638569,0.1684552,-0.08280014,0.011257574,0.012126409,-0.70591027,1.6207458,-2.3491693e-14
28456000,-0.007899366,0.008606026,-2.5099053,-0.008102561,-0.003956174,0.026501656,0.16151538,0.17414364,-0.08447127,0.011627628,0.012536746,-0.70602953,1.6207458,-2.2299659e-14
28560000,-0.007899832,0.008606271,-2.5114229,-0.0077389176,-0.0031830599,0.027552843,0.16593881,0.1741904,-0.101770535,0.011968583,0.012563742,-0.70726436,1.6207458,-9.072048e-15
28656000,-0.007900242,0.008606487,-2.5127552,-0.00894862,-0.003310492,0.031666994,0.16041426,0.17492434,-0.08994344,0.011554914,0.012600099,-0.7064202,1.6207458,-8.611707e-15
28760000,-0.007900662,0.008606708,-2.5141246,-0.010917347,-0.0037169075,0.036664248,0.1528031,0.17539969,-0.08132387,0.010997356,0.01262365,-0.7058049,1.6207458,-3.5034536e-15
28864000,-0.007901031,0.008606903,-2.5153258,-0.01215849,-0.0037770944,0.038701773,0.1483444,0.17340383,-0.09308996,0.0106899785,0.012495809,-0.7066448,1.6207458,-3.3256786e-15
28960000,-0.007901411,0.008607102,-2.516562,-0.012754137,-0.0036660489,0.038377047,0.15221259,0.17606083,-0.11001566,0.010987164,0.012708602,-0.7078529,1.6207458,-1.3529677e-15
29056000,-0.007901744,0.008607277,-2.5176466,-0.013775844,-0.0038334446,0.042722702,0.15597767,0.1732198,-0.08567991,0.011231728,0.01247331,-0.70611584,1.6207458,-1.2843144e-15
29160000,-0.007902086,0.008607456,-2.5187628,-0.014788351,-0.0040530306,0.048721552,0.15363571,0.17902845,-0.06417909,0.011037743,0.012862048,-0.7045811,1.6207458,-5.224907e-16
29256000,-0.0079023875,0.008607615,-2.5197427,-0.015198392,-0.0039116703,0.051202774,0.14638053,0.18057904,-0.07652656,0.010530879,0.012991181,-0.70546246,1.6207458,-4.9597797e-16
29360000,-0.007902695,0.008607779,-2.520752,-0.015261195,-0.003549285,0.05096841,0.15040489,0.18072824,-0.10233069,0.0108477445,0.013034775,-0.70730436,1.6207458,-2.0177602e-16
29456000,-0.007902966,0.008607922,-2.521638,-0.014899716,-0.004193111,0.05170417,0.15831006,0.17669313,-0.10029925,0.011416727,0.012742444,-0.70715934,1.6207458,-1.9153735e-16
29560000,-0.007903243,0.008608068,-2.52255,-0.014123191,-0.0053193076,0.052300215,0.1555897,0.176776,-0.09919212,0.011217991,0.01274552,-0.70708036,1.6207458,-7.7922095e-17
29656000,-0.007903489,0.008608198,-2.5233507,-0.013204845,-0.0058449022,0.050632715,0.15534754,0.17920193,-0.111371,0.011213507,0.012935395,-0.70794964,1.6207458,-7.396811e-17
29760000,-0.007903743,0.00860833,-2.5241761,-0.012063248,-0.005929548,0.047380447,0.16276714,0.18092568,-0.12431753,0.011764712,0.0130772,-0.7088738,1.6207458,-3.0092043e-17
29856000,-0.007903965,0.008608447,-2.5249004,-0.011904316,-0.0060895327,0.047929287,0.16099739,0.18166056,-0.10987317,0.011621803,0.013113399,-0.70784277,1.6207458,-2.8565088e-17
29960000,-0.007904193,0.008608567,-2.525647,-0.012023943,-0.006116487,0.049936295,0.1582055,0.18408105,-0.09529207,0.011401826,0.013266667,-0.70680195,1.6207458,-1.1620979e-17
30064000,-0.0079043945,0.008608672,-2.5263016,-0.0117323045,-0.0057135248,0.0495317,0.1559687,0.18289179,-0.10177753,0.0112482775,0.013189938,-0.7072649,1.6207458,-1.1031298e-17
30160000,-0.007904601,0.008608781,-2.526976,-0.011265267,-0.0051304186,0.047672033,0.15568258,0.1843652,-0.112101264,0.0112411305,0.01331217,-0.7080018,1.6207458,-4.487803e-18
30256000,-0.007904784,0.008608876,-2.5275688,-0.011350583,-0.0069258977,0.05000472,0.15323436,0.17412093,-0.09367627,0.011042702,0.012547874,-0.7066866,1.6207458,-4.2600794e-18
30360000,-0.00790497,0.008608974,-2.5281785,-0.0115916515,-0.009919026,0.053441048,0.15203497,0.16881463,-0.08202607,0.010942791,0.012150516,-0.705855,1.6207458,-1.7331047e-18
30456000,-0.007905135,0.00860906,-2.5287127,-0.011528112,-0.011697576,0.05398965,0.15102957,0.16756985,-0.09493541,0.01088345,0.012075369,-0.7067765,1.6207458,-1.6451619e-18
30560000,-0.0079053035,0.008609149,-2.5292625,-0.011244686,-0.012748413,0.052353382,0.1509601,0.17308919,-0.11291896,0.010899385,0.012497115,-0.70806015,1.6207458,-6.692923e-19
30656000,-0.007905452,0.008609226,-2.5297458,-0.0108930245,-0.013702342,0.054897785,0.15523954,0.17103538,-0.09604563,0.011189774,0.012328349,-0.7068557,1.6207458,-6.3533055e-19
30760000,-0.007905603,0.008609305,-2.5302432,-0.010322145,-0.014440291,0.05875802,0.15819085,0.17089689,-0.07681689,0.01137977,0.0122938035,-0.7054832,1.6207458,-2.5846807e-19
30856000,-0.007905737,0.008609377,-2.53068,-0.009516986,-0.014500897,0.059808254,0.16075279,0.17211278,-0.088448316,0.01157821,0.012396412,-0.70631343,1.6207458,-2.4535268e-19
30960000,-0.0079058735,0.0086094495,-2.5311296,-0.008509438,-0.014014139,0.058708668,0.16132098,0.17650038,-0.10174507,0.011633283,0.012727911,-0.7072626,1.6207458,-9.9815484e-20
31056000,-0.0079059955,0.008609512,-2.5315244,-0.0084556965,-0.015355351,0.05995536,0.15842131,0.16874291,-0.09979054,0.011424545,0.012168888,-0.70712304,1.6207458,-9.475057e-20
31160000,-0.007906119,0.008609579,-2.5319333,-0.008762598,-0.01745255,0.06143713,0.15345679,0.16934618,-0.09465778,0.011059818,0.012204985,-0.70675665,1.6207458,-3.8546856e-20
31264000,-0.00790623,0.008609638,-2.5322938,-0.008815475,-0.018361986,0.06018114,0.15167019,0.17195444,-0.106274284,0.01094379,0.0124074025,-0.7075859,1.6207458,-3.6590884e-20
31360000,-0.007906343,0.008609697,-2.5326643,-0.008737958,-0.018380605,0.05743742,0.1499958,0.17439196,-0.11584607,0.010832771,0.012594673,-0.7082691,1.6207458,-1.488607e-20
31456000,-0.0079064425,0.008609748,-2.5329895,-0.008528952,-0.018958887,0.058695793,0.15230942,0.17534323,-0.10040857,0.010981644,0.012642402,-0.70716715,1.6207458,-1.4130709e-20
31560000,-0.007906545,0.008609803,-2.5333247,-0.008154478,-0.019535346,0.061258793,0.1550291,0.1732427,-0.088418335,0.011165356,0.012477118,-0.7063113,1.6207458,-5.74872e-21
31664000,-0.007906634,0.008609851,-2.533618,-0.0076370374,-0.019283552,0.06113887,0.15383573,0.17486621,-0.0967863,0.01109097,0.012607188,-0.7069086,1.6207458,-5.457013e-21
31760000,-0.007906728,0.008609899,-2.5339205,-0.0070919152,-0.018444099,0.05898404,0.15377294,0.17594464,-0.11149045,0.011101388,0.0127020385,-0.70795816,1.6207458,-2.2200467e-21
31864000,-0.007906808,0.008609941,-2.534186,-0.006370867,-0.020048194,0.061091423,0.15232131,0.17405684,-0.09226611,0.010974468,0.012540473,-0.70658594,1.6207458,-2.1073957e-21
31960000,-0.007906891,0.008609985,-2.5344594,-0.00569512,-0.02204108,0.063745975,0.15318139,0.16755798,-0.08405801,0.011027993,0.012063008,-0.7060001,1.6207458,-8.573403e-22
32056000,-0.007906966,0.008610023,-2.5346994,-0.0050214916,-0.022932801,0.06402564,0.15729131,0.17055438,-0.092547104,0.011334185,0.012289902,-0.70660603,1.6207458,-8.1383647e-22
32160000,-0.00790704,0.008610063,-2.5349467,-0.0042775837,-0.022835737,0.062329292,0.155828,0.17454755,-0.10840021,0.011247689,0.012598868,-0.7077376,1.6207458,-3.3108863e-22
32264000,-0.007907107,0.008610099,-2.5351632,-0.0035844515,-0.02351565,0.06543684,0.1490819,0.17285196,-0.09058422,0.010739856,0.01245225,-0.7064659,1.6207458,-3.1428827e-22
32360000,-0.0079071745,0.008610135,-2.5353858,-0.0031198626,-0.024059476,0.068849325,0.14940557,0.17096104,-0.07743681,0.010749167,0.0123000005,-0.7055274,1.6207458,-1.2786018e-22
32456000,-0.007907235,0.008610167,-2.5355809,-0.002827553,-0.02371985,0.06925583,0.14856811,0.17706372,-0.08955212,0.010701592,0.012754175,-0.7063922,1.6207458,-1.213722e-22
32560000,-0.0079072965,0.008610199,-2.535782,-0.0026407207,-0.02260204,0.067251205,0.14768496,0.17924148,-0.10396615,0.010652538,0.012928714,-0.7074211,1.6207458,-4.937719e-23
32656000,-0.007907349,0.008610227,-2.5359583,-0.0024396533,-0.023371208,0.06975126,0.15264471,0.17370635,-0.086898066,0.010991838,0.0125084715,-0.7062028,1.6207458,-4.6871654e-23
32760000,-0.007907405,0.008610256,-2.5361404,-0.0022151172,-0.024785468,0.07343793,0.1464163,0.16627511,-0.073782414,0.010529985,0.011958193,-0.7052666,1.6207458,-1.9068541e-23
32864000,-0.007907453,0.008610282,-2.5363004,-0.002167274,-0.025102425,0.07373595,0.14520155,0.17200695,-0.09128536,0.010459786,0.0123907495,-0.70651597,1.6207458,-1.8100951e-23
32960000,-0.007907499,0.008610306,-2.5364647,-0.0022820532,-0.024488728,0.07183981,0.14290905,0.17879939,-0.10188054,0.01030783,0.012896552,-0.70727223,1.6206986,-0.000210745
33064000,-0.007898886,0.008700825,-2.5360234,-7.7749864e-05,-0.023767956,0.09483062,0.15311362,0.20122491,0.3406846,0.010550321,0.013865438,-0.67567253,1.6206986,-0.00020005122
33160000,-0.007869925,0.00901448,-2.5314405,0.002731312,-0.022669565,0.16185793,0.16356318,0.20745318,0.7392419,0.010794887,0.01369155,-0.64723283,1.6206986,-8.1385755e-05
33264000,-0.007825076,0.0095031075,-2.5196328,0.005237465,-0.02027477,0.25496206,0.17162077,0.21265976,0.9047099,0.011120934,0.01378024,-0.6354217,1.6206986,-7.7256016e-05
33360000,-0.0077568605,0.010248148,-2.4944165,0.00718892,-0.016449511,0.39348686,0.17320846,0.22079392,1.1411505,0.010924972,0.013926383,-0.6185445,1.6206986,-3.142964e-05
33456000,-0.0076757744,0.0111349765,-2.4564958,0.009855023,-0.014640475,0.5347056,0.18190712,0.22247277,0.6540336,0.012117813,0.014820111,-0.653315,1.6206986,-2.9834815e-05
33560000,-0.0075683026,0.012311402,-2.4013257,0.012965267,-0.013022323,0.6440641,0.18772738,0.22249661,0.068657994,0.013306872,0.015771456,-0.6950992,1.6206986,-1.2137535e-05
33656000,-0.0074509787,0.013596432,-2.3411741,0.015180643,-0.010144988,0.7030667,0.18220088,0.22177441,-0.32105786,0.0134311225,0.016348327,-0.72291714,1.6206986,-1.1521643e-05
33760000,-0.007316328,0.015074305,-2.2702303,0.016510118,-0.008912191,0.7262248,0.16971174,0.18602243,-0.6314701,0.012892941,0.014132059,-0.7450744,1.6206986,-4.687287e-06
33856000,-0.0072023235,0.01631985,-2.2030652,0.01711635,-0.010050981,0.72473305,0.17031482,0.18715024,-0.563632,0.012855819,0.014126603,-0.7402011,1.6206986,-4.449441e-06
33960000,-0.0070880433,0.017568955,-2.1302652,0.017222771,-0.011206463,0.72748154,0.1631853,0.18821432,-0.3370109,0.012046999,0.013894743,-0.72397614,1.6206986,-1.810142e-06
34056000,-0.0069894856,0.018646205,-2.0630653,0.016781723,-0.011291874,0.73048395,0.15955786,0.19500867,-0.25631452,0.011685865,0.014282248,-0.71829575,1.6206986,-1.7182903e-06
34160000,-0.0068897964,0.019735837,-1.9902656,0.01588723,-0.010455422,0.7322542,0.15450066,0.2016811,-0.23772782,0.011295352,0.014744656,-0.716969,1.6206986,-6.9904274e-07
34264000,-0.00680382,0.02067557,-1.9230655,0.015819611,-0.012940455,0.7331714,0.15814038,0.18824537,-0.23084554,0.011553912,0.013753418,-0.71647775,1.6206986,-6.6357137e-07
34360000,-0.006716858,0.021626078,-1.8502657,0.015917921,-0.016015455,0.745207,0.15319593,0.176825,-0.19228864,0.011149095,0.0128687415,-0.71372557,1.6206986,-2.6995713e-07
34456000,-0.0066418583,0.022445839,-1.7830658,0.015519307,-0.017738167,0.7483657,0.15333578,0.1766754,-0.2093166,0.011178128,0.012879577,-0.714941,1.6206986,-2.5625872e-07
34560000,-0.0065659955,0.023275025,-1.710266,0.014752958,-0.018274732,0.7486188,0.15282619,0.1855759,-0.23494954,0.011169085,0.013562553,-0.7167707,1.6206986,-1.0425234e-07
34656000,-0.006500567,0.023990162,-1.6430662,0.015139006,-0.01998792,0.7523524,0.15448938,0.18395446,-0.22569877,0.011282112,0.013433901,-0.7161104,1.6206986,-9.896228e-08
34760000,-0.0064343885,0.024713507,-1.570266,0.015903408,-0.021891762,0.75695723,0.1584101,0.18414304,-0.21205358,0.011551604,0.013428104,-0.7151364,1.6206986,-4.0260286e-08
34864000,-0.0063773105,0.025337378,-1.5030658,0.016067756,-0.02226485,0.752423,0.1596853,0.18683952,-0.25270662,0.011691267,0.013679347,-0.7180382,1.6206986,-3.8217365e-08
34960000,-0.006319578,0.025968399,-1.4302659,0.01584901,-0.021490049,0.75648993,0.16075057,0.19073854,-0.25411722,0.011770894,0.013966751,-0.71813893,1.6206986,-1.5547762e-08
35056000,-0.0062697846,0.026512649,-1.363066,0.016508028,-0.023474304,0.7577613,0.16021629,0.1831698,-0.24840651,0.01172571,0.013405603,-0.7177313,1.6206986,-1.4758825e-08
35160000,-0.0062194187,0.027063154,-1.2902659,0.017306099,-0.026424913,0.75953656,0.15786767,0.17897326,-0.23992711,0.011543542,0.013086817,-0.717126,1.6206986,-6.0042527e-09
35256000,-0.006175978,0.027537964,-1.2230657,0.017392447,-0.027461749,0.7587281,0.16113415,0.18405479,-0.25385326,0.011799245,0.013477637,-0.71812004,1.6206986,-5.6995804e-09
35360000,-0.0061320397,0.028018221,-1.150266,0.016980805,-0.02706368,0.75575215,0.15890361,0.19107713,-0.2707268,0.011655052,0.014014872,-0.7193245,1.6206986,-2.3187292e-09
35456000,-0.0060941405,0.028432474,-1.0830661,0.018389398,-0.028860614,0.7559654,0.16530499,0.18222651,-0.25977635,0.012113751,0.01335378,-0.7185429,1.6206986,-2.2010704e-09
35560000,-0.0060558044,0.028851492,-1.0102662,0.020499393,-0.031345632,0.7570053,0.16507263,0.17623577,-0.25121832,0.012085115,0.012902378,-0.717932,1.6206986,-8.954495e-10
35656000,-0.0060227383,0.029212903,-0.9430662,0.02148129,-0.032006804,0.7557104,0.16859159,0.18176185,-0.2602108,0.012352924,0.013317926,-0.71857387,1.6206986,-8.500119e-10
35760000,-0.005989294,0.029578451,-0.87026626,0.02174644,-0.031247484,0.7526653,0.16488948,0.18429498,-0.27200165,0.012095562,0.0135190645,-0.7194155,1.6206986,-3.4580575e-10
35856000,-0.0059604472,0.029893754,-0.8030663,0.023554517,-0.03415319,0.7519902,0.16878785,0.17022437,-0.26928604,0.012378581,0.012483932,-0.71922165,1.6206986,-3.2825856e-10
35960000,-0.0059312666,0.030212706,-0.73026633,0.025909675,-0.03844277,0.7519519,0.17169243,0.16396804,-0.2581162,0.012577665,0.0120118,-0.7184244,1.6206986,-1.3354363e-10
36064000,-0.0059060976,0.030487806,-0.6630663,0.026953733,-0.04043073,0.74441105,0.16815726,0.16297579,-0.2905958,0.012358407,0.011977604,-0.72074276,1.6206986,-1.2676726e-10
36160000,-0.0058806394,0.030766075,-0.59026635,0.02696368,-0.040597714,0.74689144,0.16893448,0.17465514,-0.27679366,0.012397992,0.012817828,-0.71975756,1.6206986,-5.157203e-11
36264000,-0.005858679,0.031006105,-0.52306634,0.0282884,-0.044300124,0.7423178,0.17579482,0.16413757,-0.28121546,0.012907657,0.012051727,-0.72007316,1.6206986,-4.8955125e-11
36360000,-0.0058364673,0.031248882,-0.45026624,0.029612463,-0.048136413,0.749694,0.17836937,0.15545128,-0.24705404,0.01305295,0.01137582,-0.71763474,1.6206986,-1.9916145e-11
36464000,-0.005817306,0.031458315,-0.38306624,0.030034738,-0.049939472,0.74360096,0.17672239,0.1595478,-0.2785489,0.012973604,0.011712777,-0.71988285,1.6206986,-1.8905544e-11
36560000,-0.005797926,0.031670142,-0.31026623,0.029688096,-0.04975929,0.7470917,0.17365454,0.16512437,-0.26605996,0.012729904,0.012104592,-0.7189914,1.6206986,-7.69124e-12
36656000,-0.0057812072,0.031852867,-0.24306627,0.031350378,-0.05126656,0.74725956,0.17924392,0.16157012,-0.26116446,0.013136248,0.011840987,-0.71864194,1.6206986,-7.3009645e-12
36760000,-0.0057642977,0.032037698,-0.17026626,0.03377807,-0.052911505,0.74785966,0.18527763,0.16313206,-0.25715676,0.013573158,0.011950808,-0.7183559,1.6206986,-2.9702115e-12
36856000,-0.005749711,0.03219714,-0.10306628,0.034812823,-0.052483525,0.7464783,0.18742125,0.167478,-0.26843932,0.013744512,0.012281977,-0.7191612,1.6206986,-2.8194949e-12
36960000,-0.005734956,0.03235842,-0.030266281,0.034901384,-0.050460886,0.74354625,0.1816231,0.176057,-0.27920794,0.013333113,0.0129245,-0.7199299,1.6206986,-1.1470398e-12
37064000,-0.005722229,0.032497536,0.03693372,0.03653913,-0.051241715,0.7373643,0.18363023,0.1678295,-0.29265633,0.0134980045,0.012336548,-0.7208898,1.6206986,-1.0888358e-12
37160000,-0.0057093548,0.03263827,0.109733716,0.03862692,-0.05217244,0.7126714,0.20652565,0.17135623,-2.2526066,0.018127624,0.015040657,-0.8607821,1.6206986,-4.4296516e-13
37256000,-0.0056982483,0.03275967,0.1769337,0.039404154,-0.0516608,0.685964,0.17389503,0.15298548,-0.9930352,0.013667647,0.012024217,-0.7707931,1.6206986,-4.2048786e-13
37360000,-0.005687015,0.03288244,0.24973373,0.038536828,-0.050117664,0.6834777,0.16917026,0.15652512,-0.38959584,0.012551166,0.01161299,-0.7276931,1.6206986,-1.7106478e-13
37456000,-0.005677324,0.03298836,0.31693375,0.039794426,-0.05114508,0.73008126,0.18315017,0.15869682,-0.006850302,0.01307984,0.0113334805,-0.700375,1.6206986,-1.6238447e-13
37560000,-0.005667521,0.033095494,0.38973376,0.041920237,-0.05270967,0.79734135,0.19301201,0.16342019,0.2296837,0.013452289,0.011389838,-0.6835033,1.6206986,-6.606199e-14
37656000,-0.0056590657,0.033187915,0.4569338,0.04271671,-0.052207623,0.8409028,0.19367322,0.16925658,0.20743355,0.013530729,0.011824893,-0.6851098,1.6206986,-6.270983e-14
37760000,-0.005650513,0.033281405,0.5297338,0.042517755,-0.04999949,0.87116086,0.18996447,0.18283448,0.10470477,0.013414538,0.012911046,-0.69246453,1.6206986,-2.5511897e-14
37856000,-0.0056431335,0.033362065,0.5969337,0.0429747,-0.05004631,0.93171847,0.18974993,0.17075796,0.26116708,0.013182706,0.011863256,-0.68131316,1.6206986,-2.4217351e-14
37960000,-0.005635669,0.033443637,0.66973364,0.043515578,-0.05078869,1.0039153,0.19751252,0.17110749,0.3918885,0.013534042,0.011724706,-0.6720005,1.6206986,-9.852213e-15
38064000,-0.00562923,0.03351401,0.7369336,0.043158244,-0.049788896,1.0412832,0.19759625,0.17312701,0.26835352,0.013718606,0.01201977,-0.6808449,1.6206986,-9.352284e-15
38160000,-0.0056227166,0.03358521,0.8097337,0.042165913,-0.04761013,1.0664098,0.19392852,0.18063386,0.15545602,0.013623028,0.012689107,-0.6889035,1.6206986,-3.8047386e-15
38256000,-0.005617098,0.033646632,0.8769337,0.042205464,-0.048206456,1.1177397,0.19758703,0.1633775,0.28646475,0.013692147,0.011321535,-0.6795521,1.6206986,-3.6116752e-15
38360000,-0.005611415,0.033708762,0.9497337,0.042605944,-0.050141588,1.1780895,0.19737211,0.1560014,0.3882835,0.01353059,0.010694474,-0.67228425,1.6206986,-1.4693182e-15
38456000,-0.0056065107,0.03376235,1.0169337,0.04222758,-0.05041738,1.2062943,0.1984596,0.15748475,0.2820031,0.013758627,0.010917961,-0.67987055,1.6206986,-1.3947609e-15
38560000,-0.005601551,0.03381655,1.0897335,0.041098427,-0.049284205,1.2137022,0.19094221,0.17052391,0.11113153,0.013475414,0.012034427,-0.6920674,1.6206986,-5.674229e-16
38656000,-0.005597272,0.033863325,1.1569334,0.03962954,-0.049604744,1.250119,0.18403368,0.16005187,0.2020345,0.01286663,0.0111899525,-0.68557876,1.6206986,-5.3863037e-16
38760000,-0.005592942,0.033910647,1.2297336,0.03757636,-0.050386865,1.293953,0.18268788,0.15257888,0.2692146,0.012682747,0.010592489,-0.6807834,1.6206986,-2.1912806e-16
38864000,-0.005589209,0.03395145,1.2969335,0.035089683,-0.04970017,1.3027667,0.17644712,0.15908736,0.105232716,0.012459534,0.011233701,-0.6924885,1.6206986,-2.0800889e-16
38960000,-0.005585431,0.033992738,1.3697335,0.03252878,-0.047921333,1.301398,0.17295502,0.16581531,-0.042567156,0.012398804,0.011886971,-0.70303845,1.6206986,-8.462312e-17
39064000,-0.005582173,0.034028362,1.4369335,0.030163331,-0.045847133,1.3268738,0.16900009,0.16993491,0.06800829,0.011980845,0.012047117,-0.69514555,1.6206986,-8.0329104e-17
39160000,-0.0055788774,0.034064386,1.5097333,0.028041424,-0.043446224,1.364702,0.16537172,0.1778712,0.16777413,0.01160143,0.012478314,-0.6880242,1.6206986,-3.267985e-17
39264000,-0.0055760336,0.034095477,1.5769331,0.025569443,-0.039949887,1.3653651,0.16809747,0.17957853,0.0132198,0.01198245,0.012800853,-0.6990563,1.6206986,-3.1021586e-17
39360000,-0.005573156,0.03412693,1.6497333,0.02319503,-0.036114134,1.356219,0.16168545,0.19149688,-0.12473888,0.01168868,0.013843828,-0.70890385,1.6206986,-1.26203426e-17
39456000,-0.0055706734,0.034154072,1.7169336,0.020249866,-0.034976475,1.374351,0.15610386,0.17901053,-0.020216502,0.011165049,0.0128034055,-0.701443,1.6206986,-1.1979952e-17
39560000,-0.0055681625,0.034181517,1.7897338,0.01680473,-0.035180505,1.4007194,0.15396155,0.16506502,0.06995757,0.010909581,0.011696363,-0.69500643,1.6206986,-4.873739e-18
39656000,-0.0055659963,0.034205195,1.8569336,0.013813014,-0.03465176,1.399476,0.15324384,0.16160227,-0.047136363,0.010990287,0.011589736,-0.7033646,1.6206986,-4.626432e-18
39760000,-0.005563806,0.034229144,1.9297335,0.0108391065,-0.03335393,1.3778539,0.15096304,0.16605479,-0.21015912,0.0110062435,0.012106536,-0.71500117,1.6206986,-1.8821459e-18
39856000,-0.005561915,0.0342498,1.9969336,0.010801007,-0.036727767,1.4378624,0.20740129,0.011547741,2.5746815,0.010917628,0.0006078744,-0.51618475,1.6206986,-1.7866408e-18
39960000,-0.0055600046,0.034270696,2.0697334,0.011608509,-0.04088877,1.5215988,0.20085505,0.021938087,3.1536486,0.009723677,0.0010620538,-0.47480753,1.6206986,-7.268493e-19
40064000,-0.0055583552,0.034288734,2.136933,0.012448695,-0.044810195,1.5762303,0.19554299,0.007781388,3.607712,0.008819548,0.0003509629,-0.44234577,1.6206986,-6.899669e-19
40160000,-0.0055566877,0.034306966,2.209733,0.013184618,-0.048361927,1.6231184,0.19907781,-0.0053579095,4.0035486,0.0084047895,-0.00022620351,-0.41404676,1.6206986,-2.8069544e-19
40256000,-0.005555248,0.034322705,2.2769327,0.014393731,-0.04925841,1.6973686,0.20286942,-0.0047028423,4.557407,0.0077471714,-0.00017959203,-0.3744789,1.6206986,-2.6645217e-19
40360000,-0.0055537904,0.034338627,2.3497324,0.015920771,-0.04894019,1.7845757,0.20051335,-0.009156682,5.2139277,0.0066979933,-0.00030587186,-0.32759312,1.6206986,-1.0839927e-19
40456000,-0.0055525345,0.034352355,2.416932,0.017188983,-0.04939945,1.8000001,0.20558526,-0.014391079,5.5431747,0.0063739605,-0.00044618064,-0.30406544,1.6206986,-1.0289879e-19
40560000,-0.0055512628,0.03436624,2.4897318,0.018518142,-0.05053897,1.8000001,0.20232336,-0.022000687,5.8150105,0.0058718487,-0.0006385061,-0.28463513,1.6206986,-4.1861753e-20
40664000,-0.005550165,0.03437823,2.5569315,0.019100165,-0.050227,1.8000001,0.20229374,-0.02492328,6.1276736,0.005410366,-0.0006665757,-0.26230007,1.6206986,-3.973757e-20
40760000,-0.0055490537,0.034390356,2.6297312,0.01942138,-0.049682714,1.8000001,0.19565216,-0.018354692,6.424397,0.0048115626,-0.00045138656,-0.24111149,1.6206986,-1.6166218e-20
40856000,-0.0055480953,0.034400817,2.696931,0.019850751,-0.04986719,1.8000001,0.19498542,-0.020054456,6.7024326,0.0043990943,-0.0004524515,-0.22126147,1.6206986,-1.5345898e-20
40960000,-0.0055471263,0.0344114,2.7697306,0.020492664,-0.05069451,1.8000001,0.18882422,-0.026011098,6.9855833,0.0038710923,-0.0005332544,-0.20105103,1.6206986,-6.2430883e-21
41064000,-0.0055462904,0.034420528,2.8369303,0.021153117,-0.04944642,1.8000001,0.1857118,-0.018772066,7.3090987,0.0033707074,-0.00034071686,-0.17797095,1.6206986,-5.9262963e-21
41160000,-0.005545446,0.034429763,2.90973,0.021887159,-0.047753572,1.8000001,0.18618205,-0.014044683,7.607424,0.0029744164,-0.00022437573,-0.15669477,1.6206986,-2.4109629e-21
41256000,-0.005544719,0.03443774,2.9769297,0.022820896,-0.046951395,1.8000001,0.18807587,-0.015904784,7.8877096,0.002622457,-0.00022177014,-0.13670987,1.6206986,-2.2886238e-21
41360000,-0.005543982,0.0344458,3.0497293,0.02403547,-0.04696506,1.8000001,0.18328366,-0.021709012,8.139224,0.0022421777,-0.0002655745,-0.119978756,1.6206986,-9.310683e-22
41456000,-0.0055433484,0.03445274,3.116929,0.024242133,-0.045032196,1.8000001,0.17819922,-0.009481921,8.199937,0.0021801798,-0.00011600664,-0.119980134,1.6206986,-8.838232e-22
41560000,-0.0055427076,0.034459762,3.1897287,0.024009822,-0.042038232,1.8000001,0.17589626,0.0013710512,8.274021,0.0021519226,1.6773502e-05,-0.1199807,1.6206986,-3.5956098e-22
41664000,-0.005542152,0.03446583,3.2569284,0.024289954,-0.040106066,1.8000001,0.17157717,0.0043437043,8.32373,0.0020992423,5.3145115e-05,-0.119981624,1.6206986,-3.4131583e-22
41760000,-0.0055415905,0.034471978,3.3297281,0.024901915,-0.039207604,1.8000001,0.1687986,-0.000703459,8.352085,0.0020652835,-8.606957e-06,-0.11998222,1.6206986,-1.3885566e-22
41864000,-0.005541108,0.03447726,3.3969278,0.025288397,-0.037397128,1.8000001,0.16450655,0.0058363527,8.419582,0.002013129,7.142165e-05,-0.11998309,1.6206986,-1.3180973e-22
41960000,-0.005540619,0.034482613,3.4697275,0.025673818,-0.035694774,1.8000001,0.1620672,0.0068137636,8.48519,0.00198303,8.337219e-05,-0.11998358,1.6206986,-5.362344e-23
42056000,-0.0055401963,0.034487233,3.5369272,0.026397273,-0.034826126,1.8000001,0.15994225,0.005495632,8.528693,0.0019570738,6.724526e-05,-0.119984016,1.6206986,-5.090244e-23
42160000,-0.005539769,0.0344919,3.609727,0.027555723,-0.03464744,1.8000001,0.1620409,0.002305527,8.560715,0.001982418,2.8205954e-05,-0.11998362,1.6206986,-2.0708361e-23
42256000,-0.005539402,0.03449593,3.6769266,0.027445251,-0.033104487,1.8000001,0.15134655,0.0086016515,8.618648,0.0018512432,0.000105213825,-0.11998567,1.6206986,-1.965756e-23
42360000,-0.0055390284,0.034500033,3.7497263,0.026762892,-0.030817177,1.8000001,0.14597408,0.017062193,8.691193,0.0017861503,0.0002087743,-0.11998652,1.6206986,-7.9971784e-24
42456000,-0.005538706,0.034503542,3.816926,0.026635868,-0.0294366,1.8000001,0.1413111,0.021093212,8.738809,0.0017288195,0.0002580573,-0.119987264,1.6206986,-7.591379e-24
42560000,-0.005538381,0.034507092,3.8897257,0.026994593,-0.0285566,1.8000001,0.14269672,0.016991321,8.77001,0.00174592,0.00020789186,-0.119987115,1.6206986,-3.0883599e-24
42664000,-0.0055381,0.034510165,3.9569254,0.027105834,-0.027347993,1.8000001,0.13511583,0.021783192,8.833948,0.0016529013,0.00026647848,-0.119988315,1.6206986,-2.931648e-24
42760000,-0.0055378154,0.034513272,4.0297265,0.027249653,-0.02627589,1.8000001,0.13381748,0.021378316,8.894907,0.0016375125,0.00026160452,-0.11998854,1.6206986,-1.1926664e-24
42856000,-0.005537569,0.034515966,4.0969276,0.02786575,-0.02564318,1.8000001,0.13520548,0.025587684,8.938483,0.0016540852,0.0003130362,-0.11998819,1.6206986,-1.1321472e-24
42960000,-0.0055373223,0.034518655,4.169729,0.02890082,-0.025394252,1.8000001,0.13249722,0.016997894,8.969895,0.001621533,0.00020802431,-0.11998886,1.6206986,-4.6058536e-25
43064000,-0.005537107,0.034521006,4.2369304,0.029052325,-0.02478042,1.8000001,0.12738058,0.024546582,9.030121,0.0015592659,0.00030047473,-0.11998949,1.6206986,-4.37214e-25
43160000,-0.0055368906,0.03452337,4.3097315,0.028961355,-0.024135854,1.8000001,0.12192434,0.022622148,9.089878,0.001491737,0.00027678063,-0.11999041,1.6206986,-1.7786935e-25
43256000,-0.0055367034,0.034525417,4.3769326,0.02929692,-0.023836687,1.8000001,0.12771745,0.0221495,9.131343,0.0015624671,0.00027097206,-0.11998952,1.6206986,-1.6884377e-25
43360000,-0.0055365143,0.034527477,4.449734,0.030121738,-0.023844197,1.8000001,0.11924038,0.0154122105,9.163633,0.0014596881,0.00018866945,-0.11999097,1.6206986,-6.868979e-26
43456000,-0.005536351,0.03452927,4.516935,0.028791105,-0.023631465,1.8000001,0.109282605,0.015224478,9.218485,0.0013372655,0.00018629833,-0.1199924,1.6206986,-6.520428e-26
43560000,-0.0055361865,0.034531068,4.5897355,0.026490167,-0.023378786,1.8000001,0.10227733,0.016078496,9.284145,0.0012508421,0.00019663849,-0.119993314,1.6206986,-2.6526702e-26
43664000,-0.0055360436,0.03453263,4.6569366,0.02505479,-0.023420261,1.8000001,0.09125431,0.013505383,9.330741,0.0011164225,0.00016522741,-0.11999469,1.6206986,-2.5180664e-26
43760000,-0.005535899,0.03453419,4.7297373,0.024342705,-0.023674024,1.8000001,0.09334172,0.012355023,9.363169,0.0011426947,0.0001512509,-0.11999446,1.6206986,-1.02441115e-26
43856000,-0.0055357753,0.03453554,4.796938,0.023329236,-0.02286569,1.8000001,0.08843906,0.014581826,9.41781,0.0010815742,0.0001783299,-0.11999499,1.6206986,-9.724296e-27
43960000,-0.005535649,0.034536906,4.8697386,0.02236591,-0.021468787,1.8000001,0.08872687,0.022125164,9.478833,0.0010854152,0.00027066196,-0.11999478,1.6206986,-3.9560824e-27
44064000,-0.00553554,0.034538087,4.9369392,0.022119068,-0.020423928,1.8000001,0.08521212,0.025812551,9.516626,0.0010423342,0.00031574507,-0.11999506,1.6206986,-3.7553396e-27
44160000,nan,nan,nan,nan,nan,nan,0.0,0.0,100.0,-0.0,-0.0,-0.12,1.6232988,0.0
44256000,nan,nan,nan,nan,nan,nan,0.0,0.0,100.0,-0.0,-0.0,-0.12,1.6234447,0.0
44360000,nan,nan,nan,nan,nan,nan,0.0,0.0,100.0,-0.0,-0.0,-0.12,1.6235713,0.0
44456000,nan,nan,nan,nan,nan,nan,0.0,0.0,100.0,-0.0,-0.0,-0.12,1.6235864,0.0
44560000,nan,nan,nan,nan,nan,nan,0.0,0.0,100.0,-0.0,-0.0,-0.12,1.6236198,0.0
44664000,nan,nan,nan,nan,nan,nan,0.0,0.0,100.0,-0.0,-0.0,-0.12,1.6236614,0.0
44760000,nan,nan,nan,nan,nan,nan,0.0,0.0,100.0,-0.0,-0.0,-0.12,1.6237179,0.0
44856000,nan,nan,nan,nan,nan,nan,0.0,0.0,100.0,-0.0,-0.0,-0.001,1.6238475,0.0
44960000,nan,nan,nan,nan,nan,nan,0.0,0.0,100.0,-0.0,-0.0,-0.001,1.6241872,0.0
45056000,nan,nan,nan,nan,nan,nan,0.0,0.0,100.0,-0.0,-0.0,-0.001,1.624322,0.0
45160000,nan,nan,nan,nan,nan,nan,0.0,0.0,100.0,-0.0,-0.0,-0.001,1.6244633,0.0
45256000,nan,nan,nan,nan,nan,nan,0.0,0.0,100.0,-0.0,-0.0,-0.001,1.6245606,0.0
45360000,nan,nan,nan,nan,nan,nan,0.0,0.0,100.0,-0.0,-0.0,-0.001,1.6248273,0.0
45456000,nan,nan,nan,nan,nan,nan,0.0,0.0,100.0,-0.0,-0.0,-0.001,1.6250437,0.0
