timestamp,timestamp_sample,device_id,bias,bias_var,innov,innov_var,innov_test_ratio
8624000,8543999,6620172,487.31165,0.0002704803,-0.06915283,13.250322,4.010061e-05
12320000,12239000,6620172,487.3127,0.056621555,0.018554688,12.426914,3.078233e-06
12496000,12416000,6620172,487.3139,0.0587748,0.10473633,12.436363,9.800738e-05
12896000,12816000,6620172,487.3149,0.06339014,0.004852295,12.437641,2.1033613e-07
13064000,12984000,6620172,487.3162,0.06521161,0.10522461,12.427672,9.899251e-05
13728000,13644000,6620172,487.3173,0.072161995,0.03265381,12.443444,9.521044e-06
13968000,13884000,6620172,487.31836,0.074456155,0.08477783,12.437839,6.420624e-05
14208000,14124000,6620172,487.31696,0.07664238,-0.14916992,12.445342,0.00019866125
14328000,14244000,6620172,487.31586,0.07769477,-0.09448242,12.43836,7.97437e-05
14808000,14724000,6620172,487.317,0.08164583,0.050689697,12.444435,2.2941495e-05
15344000,15264000,6620172,487.318,0.085549355,0.008544922,12.452933,6.514814e-07
15464000,15384000,6620172,487.3193,0.08636664,0.08670044,12.442337,6.712714e-05
16056000,15970666,6620172,487.32083,0.089997865,0.11932373,12.452849,0.00012704056
16656000,16572000,6620172,487.32254,0.093267836,0.10147095,12.448096,9.190475e-05
17256000,17172000,6620172,487.32376,0.09607701,0.0519104,12.458775,2.4032057e-05
17432000,17352000,6620172,487.32477,0.096771546,0.09591675,12.450683,8.21019e-05
18504000,18420000,6620172,487.3237,0.10052045,-0.03768921,12.465553,1.2661349e-05
18792000,18708000,6620172,487.32477,0.1012374,0.04043579,12.461682,1.4578495e-05
18848000,18768000,6620172,487.32584,0.10134605,0.13085938,12.46404,0.00015265406
19376000,19296000,6620172,487.32465,0.10261264,-0.027130127,12.470872,6.557893e-06
19496000,19415000,6620172,487.3259,0.10291311,0.06588745,12.459769,3.871265e-05
19736000,19654000,6620172,487.32693,0.103486694,0.021606445,12.470325,4.15955e-06
19792000,19712000,6620172,487.3258,0.103558674,-0.13400269,12.47277,0.00015996375
20432000,20352000,6620172,487.32697,0.10462535,0.115356445,12.467182,0.00011859679
20616000,20530666,6620172,487.32812,0.10504127,0.021118164,12.459171,3.9772294e-06
21440000,21360000,6620172,487.3295,0.106186025,0.15716553,12.4613905,0.00022024476
21560000,21480000,6620172,487.33072,0.106367454,0.08935547,12.466391,7.1163784e-05
22040000,21960000,6620172,487.33215,0.1070358,0.06149292,12.470545,3.3691653e-05
22152000,22068000,6620172,487.33414,0.10705662,0.17471313,12.475219,0.00027186944
22448000,22368000,6620172,487.33536,0.1073657,0.07904053,12.471155,5.566093e-05
22512000,22428000,6620172,487.33643,0.107504465,0.12213135,12.474093,0.00013286262
22688000,22606000,6620172,487.3376,0.107643984,0.08786011,12.464991,6.88096e-05
22872000,22788000,6620172,487.3398,0.1079074,0.14874268,12.472904,0.00019708842
22992000,22908000,6620172,487.34137,0.10803367,0.13061523,12.478229,0.00015191206
23168000,23086000,6620172,487.34305,0.10814561,0.092681885,12.468819,7.654589e-05
23288000,23206000,6620172,487.3441,0.108260706,0.026275635,12.473952,6.1497835e-06
24312000,24228000,6620172,487.3457,0.10915772,0.087402344,12.46776,6.8079324e-05
24432000,24348000,6620172,487.3472,0.10923964,0.1538086,12.472763,0.00021074439
24840000,24756000,6620172,487.34882,0.10932116,0.07385254,12.473014,4.8586648e-05
25488000,25404000,6620172,487.35016,0.109520055,0.07064819,12.466914,4.4483673e-05
25664000,25584000,6620172,487.3515,0.109556034,0.09051514,12.474089,7.2977855e-05
25848000,25764000,6620172,487.3533,0.109721124,0.09133911,12.465595,7.43632e-05
26072000,25992000,6620172,487.3547,0.10958446,0.06790161,12.474318,4.1067746e-05
26432000,26352000,6620172,487.35577,0.10977191,0.096191406,12.472915,8.242559e-05
26552000,26472000,6620172,487.35745,0.10983077,0.15258789,12.478074,0.00020732424
26672000,26592000,6620172,487.35876,0.109885775,0.07223511,12.466606,4.650567e-05
26792000,26712000,6620172,487.36002,0.109939605,0.063568115,12.4714985,3.6001245e-05
26976000,26892000,6620172,487.36115,0.1100853,0.017730713,12.479525,2.7990577e-06
27152000,27072000,6620172,487.36224,0.11009077,0.054351807,12.470075,2.632185e-05
27392000,27312000,6620172,487.36334,0.11018422,0.026153564,12.480313,6.08967e-06
27752000,27670000,6620172,487.36575,0.11031059,0.16049194,12.478749,0.0002293469
27864000,27780000,6620172,487.36685,0.11022185,0.05331421,12.466663,2.5333384e-05
28224000,28140000,6620172,487.3679,0.11035114,0.056488037,12.465294,2.8442511e-05
28400000,28318000,6620172,487.37,0.110343136,0.17022705,12.472281,0.00025814798
28512000,28428000,6620172,487.37128,0.110253535,0.09375,12.476769,7.827046e-05
28808000,28728000,6620172,487.37296,0.11029191,0.09390259,12.472458,7.85526e-05
28928000,28848000,6620172,487.3741,0.11033235,0.10559082,12.477566,9.928415e-05
29112000,29028000,6620172,487.3755,0.11045622,0.08111572,12.468854,5.8632853e-05
29216000,29136000,6620172,487.37653,0.11022691,0.016052246,12.472607,2.2954714e-06
29504000,29424000,6620172,487.3778,0.11013809,0.046569824,12.467887,1.9327417e-05
29808000,29724000,6620172,487.37885,0.110316075,0.05331421,12.476337,2.531374e-05
29928000,29842666,6620172,487.38022,0.11035667,0.054260254,12.4692545,2.6234975e-05
30104000,30020000,6620172,487.38135,0.11034936,0.042022705,12.476496,1.572653e-05
30152000,30072000,6620172,487.38254,0.11017028,0.13305664,12.478163,0.00015764491
30336000,30252000,6620172,487.3837,0.110301554,0.068115234,12.469452,4.1342682e-05
30512000,30432000,6620172,487.38516,0.11029718,0.093170166,12.476715,7.73056e-05
30680000,30600000,6620172,487.38635,0.11015705,0.0741272,12.466935,4.8972575e-05
30800000,30720000,6620172,487.3885,0.11020135,0.15255737,12.471837,0.00020734494
30920000,30840000,6620172,487.3898,0.110244885,0.08004761,12.476937,5.7061898e-05
31040000,30958000,6620172,487.391,0.110286385,0.047302246,12.465618,1.9943767e-05
31272000,31188000,6620172,487.39255,0.11024338,0.08239746,12.474907,6.0471095e-05
31568000,31486000,6620172,487.39395,0.11028319,0.063201904,12.470694,3.5589936e-05
31800000,31716000,6620172,487.39496,0.11024205,0.013366699,12.480382,1.5906621e-06
31976000,31896000,6620172,487.39725,0.11023947,0.14660645,12.470935,0.00019149817
32096000,32014000,6620172,487.39905,0.11028151,0.17416382,12.475998,0.0002701457
32144000,32064000,6620172,487.40005,0.11010361,0.11300659,12.477663,0.00011371868
32264000,32184000,6620172,487.4018,0.11014986,0.11450195,12.466294,0.00011685462
32504000,32424000,6620172,487.40344,0.11023799,0.07373047,12.47625,4.8413604e-05
32624000,32542000,6620172,487.40463,0.11027963,0.0942688,12.464991,7.921392e-05
32792000,32712000,6620172,487.40622,0.11014709,0.12579346,12.471406,0.00014098022
32912000,32832000,6620172,487.40814,0.11019247,0.13970947,12.476498,0.0001738267
32976000,32892000,6620172,487.4092,0.11028187,0.118377686,12.479434,0.00012476774
33096000,33012000,6620172,487.41055,0.11032347,0.10501099,12.467896,9.82729e-05
33216000,33132000,6620172,487.41248,0.11036436,0.12597656,12.472832,0.00014137478
33456000,33372000,6620172,487.41348,0.110442944,0.019073486,12.466544,3.2424373e-06
33872000,33792000,6620172,487.41534,0.11049877,0.10247803,12.467264,9.359397e-05
34592000,34512000,6620172,487.4165,0.11067859,0.038238525,12.480899,1.301709e-05
35472000,35388000,6620172,487.4179,0.11057408,0.06826782,12.46732,4.1535215e-05
35768000,35688000,6620172,487.41678,0.11058626,-0.09786987,12.479584,8.528162e-05
35888000,35808000,6620172,487.41797,0.11061476,0.105163574,12.468017,9.855775e-05
36000000,35916000,6620172,487.4169,0.11051019,-0.13607788,12.4723215,0.0001649625
36360000,36276000,6620172,487.4154,0.110610016,-0.10568237,12.470881,9.950971e-05
37184000,37104000,6620172,487.41403,0.11054409,-0.053222656,12.471696,2.5236264e-05
37304000,37224000,6620172,487.41617,0.11057546,0.15948486,12.476708,0.0002265147
37368000,37282666,6620172,487.41785,0.11065803,0.18737793,12.479557,0.00031260448
37424000,37344000,6620172,487.41962,0.11060521,0.19830322,12.465473,0.00035051635
37488000,37404000,6620172,487.4211,0.110686325,0.16720581,12.468028,0.00024915088
37544000,37464000,6620172,487.42328,0.110633366,0.24346924,12.470042,0.0005281749
37608000,37522666,6620172,487.42538,0.110714346,0.2340393,12.472647,0.00048795127
37664000,37582000,6620172,487.4289,0.11066126,0.39074707,12.47469,0.0013599382
37712000,37632000,6620172,487.4324,0.110476464,0.39117432,12.476158,0.0013627534
37776000,37692000,6620172,487.4371,0.110560745,0.52667236,12.478818,0.0024698188
37832000,37752000,6620172,487.44006,0.11050964,0.32925415,12.465112,0.0009663264
37896000,37809333,6620172,487.4439,0.110592425,0.42855835,12.467513,0.0016368075
37944000,37860000,6620172,487.44672,0.11040827,0.31454468,12.468847,0.00088164926
38000000,37920000,6620172,487.45114,0.11036034,0.49630737,12.470737,0.002194658
38056000,37976000,6620172,487.45755,0.110313416,0.7194824,12.472639,0.004611471
38112000,38028000,6620172,487.46326,0.11026748,0.6409607,12.474549,0.0036592782
38168000,38088000,6620172,487.46893,0.11022252,0.6369934,12.476469,0.0036135635
38232000,38148000,6620172,487.47366,0.110310145,0.5299988,12.463852,0.002504119
38288000,38208000,6620172,487.47888,0.110263556,0.5852661,12.465597,0.003053171
38352000,38268000,6620172,487.48462,0.110350765,0.64385986,12.467879,0.0036944314
38408000,38328000,6620172,487.49112,0.110303774,0.72854614,12.469651,0.004729523
38472000,38388000,6620172,487.4976,0.110390596,0.7236023,12.4719715,0.004664684
38528000,38448000,6620172,487.50388,0.110343225,0.70391846,12.473765,0.0044137184
38592000,38508000,6620172,487.51013,0.110429674,0.7005615,12.47612,0.004370896
38648000,38568000,6620172,487.51572,0.11038077,0.62557983,12.46333,0.0034889027
38712000,38628000,6620172,487.52112,0.11046569,0.6051636,12.465486,0.0032643285
38768000,38686000,6620172,487.52847,0.11041645,0.82162476,12.467154,0.006016407
38816000,38736000,6620172,487.53592,0.1102354,0.83395386,12.468322,0.0061977427
38880000,38796000,6620172,487.5434,0.110323325,0.83847046,12.470538,0.006263944
38936000,38856000,6620172,487.55124,0.110277034,0.8779602,12.472249,0.006866926
39000000,38916000,6620172,487.55826,0.110364534,0.78790283,12.474507,0.005529418
39056000,38976000,6620172,487.56424,0.1103167,0.66986084,12.462165,0.004000674
39120000,39036000,6620172,487.5713,0.11040267,0.7888489,12.464245,0.005547268
39176000,39096000,6620172,487.57837,0.11035445,0.7932434,12.465853,0.0056085223
39240000,39156000,6620172,487.58572,0.110440046,0.8229065,12.467982,0.006034792
39296000,39216000,6620172,487.59293,0.11039146,0.8060608,12.469626,0.005789481
39360000,39274666,6620172,487.60135,0.1104767,0.9428406,12.471808,0.007919624
39416000,39336000,6620172,487.6075,0.11042669,0.6882324,12.459949,0.0042238794
39480000,39396000,6620172,487.61462,0.110510506,0.7932434,12.461961,0.0056102737
39536000,39456000,6620172,487.6217,0.11046018,0.7925415,12.463519,0.0055996496
39600000,39516000,6620172,487.62988,0.11054369,0.9154358,12.465593,0.0074696513
39656000,39576000,6620172,487.63815,0.11049306,0.9233093,12.467197,0.0075977175
39720000,39634666,6620172,487.64612,0.11057628,0.8918457,12.469332,0.0070875115
39776000,39696000,6620172,487.6532,0.11052537,0.79016113,12.470982,0.0055627325
39840000,39754666,6620172,487.6605,0.11060726,0.8132324,12.459852,0.0058975816
39896000,39816000,6620172,487.6679,0.11055502,0.8285217,12.461382,0.006120672
39960000,39876000,6620172,487.6754,0.11063667,0.8395691,12.463415,0.0062839584
40016000,39936000,6620172,487.68277,0.11058419,0.8208618,12.464984,0.006006284
40080000,39993333,6620172,487.69034,0.110665604,0.8460083,12.467067,0.0063788514
40128000,40044000,6620172,487.7002,0.11048009,1.1025391,12.468164,0.0108328555
40184000,40104000,6620172,487.70898,0.11043081,0.9848633,12.469779,0.008642724
40248000,40164000,6620172,487.71585,0.11051431,0.7671509,12.458945,0.0052485312
40304000,40224000,6620172,487.722,0.110463664,0.6852112,12.460435,0.004186713
40368000,40284000,6620172,487.7288,0.11054686,0.7604065,12.462415,0.0051552164
40424000,40344000,6620172,487.73587,0.11049591,0.79104614,12.463934,0.0055783526
40488000,40404000,6620172,487.74298,0.11057881,0.79367065,12.465954,0.0056145196
40544000,40464000,6620172,487.75018,0.110527575,0.804657,12.467502,0.0057703163
40608000,40524000,6620172,487.75812,0.11061,0.8872986,12.467115,0.0070166704
40664000,40584000,6620172,487.7648,0.11055748,0.74746704,12.458474,0.004982838
40728000,40644000,6620172,487.77145,0.110638835,0.7428894,12.460378,0.0049212403
40784000,40704000,6620172,487.77798,0.11058607,0.7284546,12.461835,0.0047313
40848000,40764000,6620172,487.78644,0.110667184,0.9445801,12.463778,0.007953996
40904000,40824000,6620172,487.79443,0.11061419,0.8935547,12.465261,0.0071170228
40968000,40884000,6620172,487.80237,0.11069508,0.88586426,12.467242,0.0069939326
41024000,40944000,6620172,487.8084,0.11064088,0.67477417,12.456544,0.0040614097
41088000,41004000,6620172,487.81384,0.11072058,0.6068115,12.45838,0.003284003
41144000,41063000,6620172,487.82104,0.110666186,0.80285645,12.459783,0.00574808
41208000,41124000,6620172,487.8276,0.11074569,0.7324829,12.461661,0.0047838385
41264000,41184000,6620172,487.83432,0.110691115,0.74786377,12.463095,0.004986279
41328000,41244000,6620172,487.84302,0.11077044,0.96939087,12.465014,0.0083765
41384000,41304000,6620172,487.85062,0.110715695,0.8489685,12.466476,0.006423873
41448000,41364000,6620172,487.8554,0.110793896,0.53448486,12.456456,0.0025482017
41504000,41424000,6620172,487.86203,0.11073803,0.73846436,12.457819,0.0048637874
41560000,41480000,6620172,487.86884,0.11068328,0.76052856,12.4592,0.0051582027
41616000,41532000,6620172,487.87497,0.11062962,0.68356323,12.460598,0.004166544
41672000,41592000,6620172,487.88037,0.11057703,0.60302734,12.462014,0.0032422259
41736000,41652000,6620172,487.88763,0.11065832,0.8096924,12.463916,0.0058444426
41792000,41712000,6620172,487.89508,0.110605486,0.8300476,12.465367,0.006141273
41856000,41770666,6620172,487.9015,0.110685594,0.7141113,12.455582,0.004549098
41912000,41832000,6620172,487.9067,0.1106316,0.58358765,12.456942,0.0030377933
41976000,41890666,6620172,487.91302,0.11071149,0.7031555,12.458771,0.0044094566
42032000,41950000,6620172,487.91922,0.1106573,0.6899719,12.460174,0.004245181
42080000,42000000,6620172,487.92554,0.11047137,0.7059326,12.461137,0.0044435114
42144000,42060000,6620172,487.93182,0.11055448,0.70098877,12.46305,0.0043808185
42200000,42120000,6620172,487.93768,0.11050344,0.65460205,12.464518,0.0038197658
42264000,42180000,6620172,487.94183,0.110585324,0.4623108,12.454904,0.0019067124
42320000,42240000,6620172,487.94696,0.11053307,0.57266235,12.456283,0.0029252723
42384000,42300000,6620172,487.95255,0.11061469,0.62350464,12.4581375,0.0034672387
42440000,42360000,6620172,487.95822,0.110562176,0.6323242,12.45957,0.0035656118
42504000,42418666,6620172,487.9639,0.110643536,0.6348877,12.461494,0.0035940255
42560000,42478000,6620172,487.97,0.11059078,0.68078613,12.462981,0.0041319677
42608000,42528000,6620172,487.97537,0.11040609,0.5995178,12.461823,0.0032046463
42672000,42586666,6620172,487.9804,0.11048969,0.5639038,12.454491,0.002836884
42728000,42646000,6620172,487.9849,0.11043912,0.50076294,12.455912,0.002236899
42792000,42706666,6620172,487.98947,0.11052239,0.5119324,12.45782,0.002337441
42848000,42768000,6620172,487.9945,0.11047151,0.56207275,12.459304,0.0028174017
42912000,42828000,6620172,487.99954,0.11055448,0.56256104,12.461294,0.002821848
42968000,42886000,6620172,488.00433,0.11050331,0.5364685,12.462842,0.0025658358
43016000,42936000,6620172,488.00745,0.11031944,0.3484497,12.452512,0.0010833797
43080000,42996000,6620172,488.01105,0.11040458,0.40148926,12.454407,0.0014380775
43136000,43056000,6620172,488.01566,0.11035553,0.5166321,12.455892,0.0023809234
43200000,43116000,6620172,488.01993,0.1104403,0.47753906,12.457877,0.0020339077
43256000,43176000,6620172,488.02478,0.110390894,0.544281,12.459434,0.002641834
43320000,43236000,6620172,488.02908,0.110475324,0.48101807,12.461512,0.002063049
43376000,43296000,6620172,488.03436,0.11042559,0.58969116,12.463142,0.003100125
43440000,43356000,6620172,488.0379,0.11050876,0.39569092,12.453607,0.0013969296
43496000,43416000,6620172,488.04102,0.11045779,0.34866333,12.455134,0.0010844802
43560000,43474666,6620172,488.04446,0.11054067,0.3843994,12.457174,0.0013179635
43616000,43534000,6620172,488.0488,0.11048942,0.48287964,12.458783,0.0020795034
43680000,43593333,6620172,488.05182,0.11057204,0.33770752,12.460925,0.0010169244
43728000,43644000,6620172,488.05612,0.11038771,0.48150635,12.462113,0.0020671396
43784000,43704000,6620172,488.05865,0.110339604,0.28222656,12.46384,0.0007100704
43848000,43764000,6620172,488.06177,0.110424355,0.34713745,12.454123,0.0010750961
43904000,43824000,6620172,488.06482,0.11037494,0.34054565,12.455737,0.0010345196
43960000,43880000,6620172,488.066,0.11032654,0.13204956,12.457394,0.00015552642
44024000,43942000,6620172,488.06897,0.110411964,0.33261108,12.45959,0.0009865684
44088000,44004000,6620172,488.07132,0.110496044,0.262146,12.461845,0.00061271933
44144000,44064000,6620172,488.07526,0.11044598,0.43969727,12.463639,0.0017235351
44208000,44124000,6620172,488.07812,0.11052956,0.32162476,12.463132,0.0009222087
44264000,44184000,6620172,488.08044,0.11047824,0.25949097,12.455429,0.0006006801
44328000,44244000,6620172,488.08197,0.11056079,0.16885376,12.457637,0.0002542982
44384000,44304000,6620172,488.08417,0.11050923,0.24710083,12.459399,0.0005445137
44448000,44364000,6620172,488.0866,0.11059156,0.27386475,12.461724,0.0006687312
44504000,44424000,6620172,488.08862,0.11053979,0.22341919,12.463582,0.0004449954
44568000,44484000,6620172,488.0909,0.11062191,0.25500488,12.466026,0.0005795974
44688000,44604000,6620172,488.0948,0.11064983,0.33261108,12.457486,0.0009867349
44744000,44664000,6620172,488.0959,0.110596664,0.12399292,12.459303,0.00013710633
44808000,44724000,6620172,488.09943,0.11067742,0.394104,12.461693,0.001384848
44864000,44784000,6620172,488.10095,0.110624105,0.16998291,12.463609,0.00025758715
44984000,44902000,6620172,488.10352,0.110653624,0.2394104,12.4681425,0.0005107893
45168000,45084000,6620172,488.10513,0.11075764,0.1298523,12.461694,0.00015034177
45288000,45204000,6620172,488.10693,0.11078211,0.10519409,12.466231,9.862908e-05
45344000,45264000,6620172,488.10803,0.110727295,0.12298584,12.468299,0.00013479088
45464000,45384000,6620172,488.10922,0.11075019,0.059814453,12.459171,3.1906606e-05
45648000,45564000,6620172,488.11053,0.110850155,0.1887207,12.466284,0.00031743848
45944000,45864000,6620172,488.1092,0.11083461,-0.039489746,12.463588,1.3902187e-05
46008000,45924000,6620172,488.1064,0.110911466,-0.30941772,12.466239,0.00085332093
46128000,46044000,6620172,488.10413,0.11093124,-0.16345215,12.471155,0.00023803022
46304000,46224000,6620172,488.10266,0.11089169,-0.059326172,12.463394,3.1377174e-05
46424000,46343000,6620172,488.10107,0.110909365,-0.07095337,12.468217,4.4864122e-05
46608000,46524000,6620172,488.09882,0.111002855,-0.17767334,12.471886,0.00028123535
46728000,46644000,6620172,488.09717,0.111018516,-0.07559204,12.465739,5.0932103e-05
46784000,46704000,6620172,488.09607,0.11095943,-0.12295532,12.467898,0.00013472833
46904000,46824000,6620172,488.09344,0.11097544,-0.19345093,12.47296,0.00033337233
46968000,46884000,6620172,488.0908,0.11105054,-0.2956848,12.47589,0.000778653
47024000,46943000,6620172,488.08853,0.11099045,-0.2505188,12.46259,0.00055953825
47088000,47004000,6620172,488.08624,0.11106443,-0.25442505,12.46526,0.00057700014
47144000,47064000,6620172,488.08438,0.11100448,-0.20620728,12.467413,0.00037895626
47208000,47124000,6620172,488.08295,0.1110786,-0.1593628,12.47021,0.00022628595
47264000,47184000,6620172,488.08084,0.1110188,-0.23501587,12.472464,0.0004920391
47328000,47244000,6620172,488.07816,0.11109308,-0.30044556,12.475385,0.00080396124
47384000,47304000,6620172,488.0761,0.11103345,-0.22808838,12.4777355,0.00046326342
47448000,47364000,6620172,488.0736,0.1111066,-0.27981567,12.464627,0.0006979467
47504000,47423000,6620172,488.07144,0.11104584,-0.24157715,12.466768,0.00052013405
47568000,47484000,6620172,488.06918,0.11111916,-0.2515869,12.469546,0.000564005
47624000,47544000,6620172,488.06683,0.11105858,-0.26086426,12.4717865,0.0006062587
47688000,47604000,6620172,488.06558,0.11113209,-0.13912964,12.474689,0.00017241183
47744000,47664000,6620172,488.06284,0.111071706,-0.30532837,12.477025,0.0008301962
47808000,47724000,6620172,488.05988,0.111145034,-0.33044434,12.475367,0.00097252504
