timestamp,timestamp_sample,xyz[0],xyz[1],xyz[2]
3264000,3264000,-0.212684,0.18377058,-9.915943
3268000,3268000,-0.20877458,0.17401055,-9.902502
3316000,3316000,-0.21927729,0.21338749,-9.948717
3364000,3364000,-0.21589926,0.1948189,-9.907037
3416000,3416000,-0.22960842,0.17747974,-9.925365
3464000,3464000,-0.21742597,0.2062248,-9.93914
3512000,3512000,-0.23233674,0.2009331,-9.864136
3564000,3564000,-0.20326275,0.17841548,-9.836596
3616000,3616000,-0.21676438,0.20539188,-9.823705
3664000,3664000,-0.20912766,0.18429473,-9.841424
3712000,3712000,-0.23186277,0.19464388,-9.841571
3764000,3764000,-0.21172519,0.20381814,-9.820929
3812000,3812000,-0.2238947,0.18180165,-9.820539
3864000,3864000,-0.20274876,0.2035027,-9.825917
3916000,3916000,-0.20804755,0.18828309,-9.832738
3964000,3964000,-0.22636048,0.20686111,-9.821611
4016000,4016000,-0.22460899,0.19398148,-9.819053
4064000,4064000,-0.22545893,0.18078014,-9.843405
4116000,4116000,-0.21696359,0.19115454,-9.836191
4164000,4164000,-0.20403853,0.19226146,-9.823462
4216000,4216000,-0.20132846,0.18260945,-9.821234
4264000,4264000,-0.20326807,0.20178083,-9.824847
4316000,4316000,-0.22054422,0.20393203,-9.833712
4364000,4364000,-0.21637243,0.18509245,-9.815178
4416000,4416000,-0.20846999,0.19584152,-9.828228
4464000,4464000,-0.22063799,0.2049151,-9.807025
4516000,4516000,-0.21095006,0.16614382,-9.811399
4564000,4564000,-0.20805833,0.16695015,-9.802138
4616000,4616000,-0.21594165,0.1656075,-9.811337
4664000,4664000,-0.2195315,0.18169433,-9.787899
4716000,4716000,-0.21633127,0.16236965,-9.809355
4764000,4764000,-0.23603976,0.21180603,-9.817351
4816000,4816000,-0.25655705,0.1802216,-9.827145
4864000,4864000,-0.20525822,0.18555519,-9.8001795
4916000,4916000,-0.2080592,0.18063636,-9.814952
4960000,4960000,-0.20499238,0.17930415,-9.790241
5016000,5016000,-0.21487775,0.19320187,-9.800016
5064000,5064000,-0.19178882,0.17419341,-9.83024
5116000,5116000,-0.22557867,0.16645187,-9.798706
5164000,5164000,-0.2203573,0.19302854,-9.831366
5212000,5212000,-0.21066839,0.20594683,-9.790884
5264000,5264000,-0.22159626,0.17470424,-9.827022
5316000,5316000,-0.19055466,0.21023184,-9.809879
5364000,5364000,-0.20154893,0.20349021,-9.801132
5416000,5416000,-0.197776,0.17805298,-9.835679
5464000,5464000,-0.18708003,0.19575506,-9.80925
5516000,5516000,-0.20645589,0.18539236,-9.8076935
5564000,5564000,-0.19328102,0.1882154,-9.814013
5616000,5616000,-0.18847224,0.18195254,-9.804529
5660000,5660000,-0.2239492,0.18584262,-9.843414
5716000,5716000,-0.20119143,0.16843316,-9.848066
5764000,5764000,-0.18782333,0.19127047,-9.7954235
5816000,5816000,-0.19597174,0.16355488,-9.816408
5860000,5860000,-0.19651338,0.17465314,-9.811012
5912000,5912000,-0.18643396,0.18916813,-9.818091
5964000,5964000,-0.2266458,0.18738465,-9.785299
6016000,6016000,-0.20857312,0.16528621,-9.821331
6064000,6064000,-0.2136181,0.16227946,-9.810013
6116000,6116000,-0.18847722,0.196039,-9.785427
6164000,6164000,-0.2077415,0.18078366,-9.7844305
6216000,6216000,-0.20345975,0.19529817,-9.830282
6260000,6260000,-0.23349714,0.18275723,-9.821894
6312000,6312000,-0.19215433,0.16235721,-9.801996
6360000,6360000,-0.216779,0.18170562,-9.809044
6416000,6416000,-0.1955122,0.17715707,-9.8102665
6464000,6464000,-0.22272463,0.18995759,-9.790186
6516000,6516000,-0.20581536,0.17120656,-9.810871
6564000,6564000,-0.21972188,0.17890625,-9.812283
6616000,6616000,-0.22162262,0.18232332,-9.802136
6660000,6660000,-0.21828142,0.17867783,-9.7911625
6716000,6716000,-0.21061447,0.19666563,-9.774889
6764000,6764000,-0.20272888,0.15711556,-9.797766
6816000,6816000,-0.2372537,0.16996202,-9.792719
6864000,6864000,-0.19051996,0.21241485,-9.784081
6916000,6916000,-0.22715907,0.18517058,-9.809632
6960000,6960000,-0.21940637,0.22146502,-9.791514
7012000,7012000,-0.19630964,0.17644355,-9.793404
7060000,7060000,-0.21013719,0.21954183,-9.795163
7116000,7116000,-0.23796591,0.1805977,-9.802046
7164000,7164000,-0.19045982,0.18037054,-9.784766
7216000,7216000,-0.20604925,0.1812627,-9.79411
7264000,7264000,-0.22612977,0.20517538,-9.794585
7312000,7312000,-0.19196662,0.17027438,-9.793181
7364000,7364000,-0.18975922,0.1802631,-9.783272
7416000,7416000,-0.19693637,0.18604714,-9.811194
7464000,7464000,-0.22920102,0.1433411,-9.813298
7516000,7516000,-0.21292052,0.17862482,-9.771731
7564000,7564000,-0.18895078,0.16098055,-9.801147
7616000,7616000,-0.19555491,0.19454744,-9.825968
7660000,7660000,-0.1918567,0.18473656,-9.799779
7712000,7712000,-0.20481831,0.19220705,-9.797838
7764000,7764000,-0.20914839,0.17445785,-9.819677
7816000,7816000,-0.22549975,0.18966526,-9.79584
7860000,7860000,-0.20672165,0.18506715,-9.815503
7912000,7912000,-0.20248583,0.16407077,-9.793041
7960000,7960000,-0.23430191,0.17804337,-9.78629
8016000,8016000,-0.22311236,0.15965211,-9.791751
8060000,8060000,-0.20772657,0.18922251,-9.811623
8112000,8112000,-0.22378752,0.2179591,-9.817686
8164000,8164000,-0.2301836,0.18345559,-9.804171
8216000,8216000,-0.20948198,0.184805,-9.771606
8260000,8260000,-0.18834595,0.15995923,-9.782491
8312000,8312000,-0.18993658,0.16749378,-9.778715
8360000,8360000,-0.20385115,0.18853809,-9.778187
8416000,8416000,-0.23513377,0.1943198,-9.79477
8464000,8464000,-0.17799728,0.16558231,-9.7982
8516000,8516000,-0.2023311,0.20779033,-9.810092
8560000,8560000,-0.2083408,0.19741437,-9.801605
8616000,8616000,-0.21622312,0.21219827,-9.805521
8664000,8664000,-0.21086824,0.16464047,-9.813508
8712000,8712000,-0.20434637,0.1659985,-9.778267
8764000,8764000,-0.17728281,0.17836796,-9.813171
8812000,8812000,-0.19376935,0.21075952,-9.813288
8860000,8860000,-0.2107053,0.1893277,-9.796124
8916000,8916000,-0.20296451,0.18809316,-9.819908
8960000,8960000,-0.19069415,0.17539206,-9.8024645
9016000,9016000,-0.2029384,0.15797052,-9.798538
9064000,9064000,-0.19210446,0.17248945,-9.817563
9112000,9112000,-0.20439632,0.17332837,-9.807642
9160000,9160000,-0.19432384,0.18644854,-9.828232
9212000,9212000,-0.20189258,0.15433472,-9.789766
9264000,9264000,-0.18000728,0.1796089,-9.818462
9312000,9312000,-0.18751368,0.20112172,-9.802019
9360000,9360000,-0.19503374,0.20611018,-9.793916
9416000,9416000,-0.22063586,0.16008908,-9.813503
9464000,9464000,-0.18389612,0.17695716,-9.782393
9512000,9512000,-0.18108058,0.19678512,-9.788279
9560000,9560000,-0.20405957,0.16774298,-9.784758
9616000,9616000,-0.1832148,0.1926299,-9.794002
9660000,9660000,-0.17687483,0.19374067,-9.799896
9712000,9712000,-0.18360822,0.17818093,-9.785628
9760000,9760000,-0.20412885,0.15642136,-9.806271
9816000,9816000,-0.2045644,0.17340305,-9.799019
9864000,9864000,-0.20796244,0.17774741,-9.803993
9916000,9916000,-0.1880549,0.18606816,-9.77098
9964000,9964000,-0.20454215,0.17324224,-9.795671
10012000,10012000,-0.1849125,0.182832,-9.766207
10060000,10060000,-0.20055106,0.18826413,-9.79431
10112000,10112000,-0.19060645,0.15381494,-9.781026
10164000,10164000,-0.21902776,0.1632973,-9.814845
10216000,10216000,-0.21069509,0.17544764,-9.823324
10264000,10264000,-0.22108531,0.17543422,-9.791582
10316000,10316000,-0.17810284,0.16640618,-9.822804
10364000,10364000,-0.21780413,0.17853242,-9.768213
10416000,10416000,-0.19566065,0.16345334,-9.789203
10464000,10464000,-0.21663943,0.17645396,-9.7855015
10516000,10516000,-0.19904202,0.17225003,-9.804059
10564000,10564000,-0.18550427,0.16177249,-9.799206
10616000,10616000,-0.19963461,0.1797174,-9.767418
10664000,10664000,-0.19929937,0.15394336,-9.801464
10716000,10716000,-0.18170215,0.18525371,-9.795718
10764000,10764000,-0.1770917,0.17951381,-9.782137
10816000,10816000,-0.18283316,0.14746018,-9.787304
10864000,10864000,-0.20441177,0.13948126,-9.771721
10916000,10916000,-0.2119796,0.15359035,-9.780945
10964000,10964000,-0.20775461,0.1502914,-9.787176
11016000,11016000,-0.21554662,0.169862,-9.779406
11064000,11064000,-0.19709884,0.16015272,-9.797325
11116000,11116000,-0.15777418,0.1979844,-9.779332
11164000,11164000,-0.22318357,0.17051445,-9.813837
11212000,11212000,-0.18708542,0.1743649,-9.778477
11264000,11264000,-0.19589218,0.1725322,-9.770774
11312000,11312000,-0.19288301,0.14218551,-9.788935
11360000,11360000,-0.20189443,0.14941692,-9.765139
11412000,11412000,-0.20976737,0.1620902,-9.778478
11464000,11464000,-0.20191376,0.17384966,-9.803405
11516000,11516000,-0.20064837,0.14950968,-9.787991
11564000,11564000,-0.19802566,0.17536649,-9.775547
11616000,11616000,-0.22291842,0.17382227,-9.779765
11664000,11664000,-0.20470335,0.1673445,-9.794933
11712000,11712000,-0.20669566,0.16609518,-9.779516
11760000,11760000,-0.2053048,0.18331574,-9.801531
11816000,11816000,-0.1863073,0.16747743,-9.800168
11864000,11864000,-0.19812429,0.20150834,-9.80473
11916000,11916000,-0.191895,0.17815602,-9.806444
11964000,11964000,-0.21416847,0.15330598,-9.776718
12012000,12012000,-0.1514322,0.1591366,-9.797301
12064000,12064000,-0.2020101,0.16952583,-9.82636
12116000,12116000,-0.19166893,0.17822886,-9.794558
12160000,12160000,-0.19092634,0.1639491,-9.777989
12216000,12216000,-0.18291508,0.17555304,-9.771103
12264000,12264000,-0.18867046,0.16260974,-9.815952
12316000,12316000,-0.17791757,0.13503373,-9.802957
12364000,12364000,-0.18063644,0.16343205,-9.803743
12412000,12412000,-0.19899544,0.19206041,-9.763538
12464000,12464000,-0.17585208,0.19832455,-9.806869
12516000,12516000,-0.19691439,0.15954426,-9.78875
12564000,12564000,-0.19351447,0.19844799,-9.77159
12616000,12616000,-0.16952986,0.16498712,-9.79151
12664000,12664000,-0.1816775,0.18527211,-9.803523
12716000,12716000,-0.20218301,0.19051254,-9.784409
12764000,12764000,-0.19396535,0.17701454,-9.786067
12816000,12816000,-0.18684614,0.17328943,-9.780418
12864000,12864000,-0.19078773,0.18212816,-9.788862
12916000,12916000,-0.2060951,0.18189761,-9.78471
12964000,12964000,-0.20251979,0.14242502,-9.806081
13016000,13016000,-0.1898168,0.17792511,-9.7983055
13064000,13064000,-0.1806419,0.16939233,-9.777422
13116000,13116000,-0.19088526,0.17064868,-9.769442
13160000,13160000,-0.18611267,0.16088155,-9.799763
13212000,13212000,-0.18692145,0.19690147,-9.803248
13264000,13264000,-0.17597815,0.17380357,-9.81246
13316000,13316000,-0.18646988,0.15910688,-9.778253
13364000,13364000,-0.18355165,0.16877192,-9.789576
13416000,13416000,-0.16334656,0.20887661,-9.809333
13464000,13464000,-0.17190064,0.19695744,-9.784634
13512000,13512000,-0.16551091,0.15830752,-9.815728
13564000,13564000,-0.17514388,0.18247068,-9.774309
13616000,13616000,-0.18409827,0.14385036,-9.793316
13664000,13664000,-0.17293836,0.19609126,-9.818459
13716000,13716000,-0.20178616,0.15300411,-9.794861
13764000,13764000,-0.20141545,0.17347589,-9.782308
13816000,13816000,-0.20336619,0.15426292,-9.794646
13864000,13864000,-0.19675922,0.16027571,-9.782521
13916000,13916000,-0.17002565,0.14280263,-9.783489
13964000,13964000,-0.18481265,0.16184157,-9.77107
14016000,14016000,-0.21326399,0.1695911,-9.7717
14064000,14064000,-0.16233748,0.1574595,-9.793484
14116000,14116000,-0.2021031,0.17071871,-9.800862
14164000,14164000,-0.19813624,0.18924138,-9.808662
14216000,14216000,-0.17390853,0.16883957,-9.783354
14264000,14264000,-0.18779275,0.14735095,-9.789255
14316000,14316000,-0.1911315,0.17296961,-9.798288
14364000,14364000,-0.19588684,0.15965858,-9.81434
14416000,14416000,-0.18485922,0.17025445,-9.798267
14464000,14464000,-0.15959339,0.14789571,-9.80166
14512000,14512000,-0.16105439,0.15284243,-9.7831745
14564000,14564000,-0.16971987,0.17186971,-9.801031
14612000,14612000,-0.16767907,0.14027025,-9.801546
14664000,14664000,-0.17616935,0.16603097,-9.814894
14716000,14716000,-0.19359246,0.17843725,-9.792521
14764000,14764000,-0.18077654,0.16693318,-9.811708
14816000,14816000,-0.18635505,0.16943821,-9.806527
14864000,14864000,-0.17993791,0.19530174,-9.78831
14912000,14912000,-0.1813961,0.16428639,-9.783133
14960000,14960000,-0.18325935,0.20358807,-9.797513
15016000,15016000,-0.18254106,0.16576602,-9.789797
15060000,15060000,-0.1925573,0.15190682,-9.780232
15112000,15112000,-0.18808906,0.15042067,-9.78953
15164000,15164000,-0.18718612,0.15635024,-9.777281
15216000,15216000,-0.16155566,0.13508618,-9.76365
15264000,15264000,-0.1735528,0.16363022,-9.794584
15312000,15312000,-0.16744456,0.18207209,-9.775719
15364000,15364000,-0.16727969,0.17873326,-9.786309
15416000,15416000,-0.17634885,0.19726054,-9.8029
15464000,15464000,-0.16685,0.16066672,-9.7793045
15516000,15516000,-0.1814768,0.14717697,-9.7908535
15564000,15564000,-0.19125126,0.12795636,-9.804062
15616000,15616000,-0.1959157,0.14391807,-9.769434
15664000,15664000,-0.16043116,0.15683399,-9.809703
15712000,15712000,-0.19898441,0.15730968,-9.791411
15764000,15764000,-0.16135883,0.125413,-9.803417
15816000,15816000,-0.17253828,0.15069324,-9.822578
15864000,15864000,-0.1589173,0.15502602,-9.800407
15916000,15916000,-0.18857184,0.17851977,-9.803223
15960000,15960000,-0.17112324,0.16714919,-9.777987
16016000,16016000,-0.16263272,0.16695479,-9.793652
16060000,16060000,-0.145123,0.18076044,-9.789046
16116000,16116000,-0.18365481,0.17826197,-9.811861
16164000,16164000,-0.15657254,0.16814214,-9.815654
16216000,16216000,-0.18070787,0.16781819,-9.8050995
16264000,16264000,-0.15673415,0.12802723,-9.78487
16316000,16316000,-0.17847613,0.13489076,-9.793748
16364000,16364000,-0.15968916,0.1444797,-9.7807
16416000,16416000,-0.17055088,0.1398421,-9.782791
16464000,16464000,-0.18028283,0.15553908,-9.796206
16516000,16516000,-0.17593428,0.1457138,-9.780786
16564000,16564000,-0.16739716,0.16169381,-9.796381
16616000,16616000,-0.17875367,0.16732188,-9.790671
16660000,16660000,-0.18999042,0.12272301,-9.765934
16712000,16712000,-0.17588267,0.16291769,-9.806044
16764000,16764000,-0.1798495,0.12886721,-9.771828
16816000,16816000,-0.14492342,0.15624432,-9.766011
16864000,16864000,-0.16213213,0.14925572,-9.789859
16916000,16916000,-0.172117,0.15833104,-9.799011
16964000,16964000,-0.17272107,0.1506204,-9.8065605
17016000,17016000,-0.15588002,0.1605042,-9.782168
17064000,17064000,-0.16995749,0.19371922,-9.815942
17116000,17116000,-0.17760186,0.14993232,-9.797407
17164000,17164000,-0.19940582,0.13774392,-9.813982
17216000,17216000,-0.17947085,0.15342999,-9.774481
17264000,17264000,-0.160937,0.16721918,-9.79103
17312000,17312000,-0.18694374,0.18611115,-9.763819
17360000,17360000,-0.14611235,0.17986572,-9.838002
17416000,17416000,-0.15866095,0.16890255,-9.790958
17464000,17464000,-0.16938677,0.17392501,-9.79942
17516000,17516000,-0.20607477,0.15429181,-9.79596
17564000,17564000,-0.13730884,0.15660551,-9.771133
17616000,17616000,-0.17890345,0.12850463,-9.806228
17664000,17664000,-0.18219905,0.17277499,-9.785567
17716000,17716000,-0.15325864,0.15297988,-9.798975
17764000,17764000,-0.17749742,0.14824139,-9.813564
17816000,17816000,-0.15780598,0.15316822,-9.787342
17864000,17864000,-0.1624008,0.15211672,-9.777026
17916000,17916000,-0.16293049,0.14557824,-9.7869625
17964000,17964000,-0.16483007,0.13762166,-9.766454
18016000,18016000,-0.1818713,0.13914141,-9.784267
18064000,18064000,-0.15145215,0.1332829,-9.781336
18116000,18116000,-0.16596195,0.15883434,-9.78757
18164000,18164000,-0.16174427,0.1374605,-9.783828
18216000,18216000,-0.15485805,0.11684875,-9.783047
18264000,18264000,-0.15851854,0.13076627,-9.829468
18316000,18316000,-0.1501838,0.1487507,-9.786183
18364000,18364000,-0.16747457,0.1566182,-9.771401
18416000,18416000,-0.17679462,0.14345571,-9.7690935
18464000,18464000,-0.16828384,0.14823884,-9.785448
18516000,18516000,-0.16956742,0.15712918,-9.766269
18564000,18564000,-0.15207437,0.1349409,-9.779978
18612000,18612000,-0.15402316,0.15022472,-9.813869
18660000,18660000,-0.17302155,0.15498221,-9.794947
18712000,18712000,-0.18150233,0.1422768,-9.796566
18764000,18764000,-0.14346603,0.14158592,-9.793714
18816000,18816000,-0.16121039,0.12249929,-9.801781
18864000,18864000,-0.18293868,0.1460354,-9.775122
18916000,18916000,-0.17209175,0.1609038,-9.774359
18964000,18964000,-0.17386125,0.1454921,-9.790819
19016000,19016000,-0.1553728,0.15923141,-9.778032
19064000,19064000,-0.15742756,0.18545985,-9.8054285
19116000,19116000,-0.15731096,0.15149246,-9.784525
19164000,19164000,-0.17068839,0.16655104,-9.796506
19216000,19216000,-0.18141195,0.19755542,-9.970403
19264000,19264000,-0.124803014,0.19411393,-10.076353
19316000,19316000,-0.16036358,0.11696954,-10.154095
19364000,19364000,-0.15486997,0.07312205,-10.2223425
19416000,19416000,-0.098413475,0.023091003,-10.234141
19464000,19464000,-0.05096955,-0.07270009,-10.220627
19516000,19516000,-0.10248251,0.07063354,-10.160488
19564000,19564000,-0.14522958,0.14650732,-10.290368
19616000,19616000,-0.17355892,0.1395797,-10.372864
19664000,19664000,-0.1349026,0.1384603,-10.498724
19716000,19716000,-0.15400293,0.11790903,-10.629374
19764000,19764000,-0.103280656,0.11873918,-10.702439
19816000,19816000,-0.09248949,0.10682899,-10.7326565
19864000,19864000,-0.09519455,0.10273628,-10.708416
19916000,19916000,-0.049155995,0.08402577,-10.751962
19964000,19964000,-0.052977875,0.070491634,-10.737758
20016000,20016000,-0.082218654,0.0621581,-10.712242
20064000,20064000,-0.07470779,0.09307228,-10.670055
20116000,20116000,-0.08651756,0.077998295,-10.444416
20164000,20164000,-0.10154072,0.10462995,-10.132452
20212000,20212000,-0.08933068,0.07741382,-9.919104
20264000,20264000,-0.11357604,0.09054223,-9.626357
20312000,20312000,-0.1027698,0.06703396,-9.622358
20364000,20364000,-0.09314363,0.11056678,-9.822247
20416000,20416000,-0.11692016,0.09564431,-9.866493
20464000,20464000,-0.101286046,0.089586236,-9.9026375
20516000,20516000,-0.111009896,0.10826844,-9.987773
20564000,20564000,-0.12197479,0.08234453,-9.975753
20616000,20616000,-0.1270498,0.10101627,-9.955019
20660000,20660000,-0.11888398,0.10854831,-9.924585
20716000,20716000,-0.13054441,0.10828122,-9.956499
20764000,20764000,-0.12231768,0.12513205,-9.922296
20816000,20816000,-0.12180343,0.14351308,-9.857147
20864000,20864000,-0.15842289,0.1308915,-9.846103
20916000,20916000,-0.15801106,0.15451849,-9.894366
20964000,20964000,-0.14595754,0.13734104,-9.903187
21016000,21016000,-0.17584665,0.1496945,-9.873636
21064000,21064000,-0.16243623,0.14692019,-9.842151
21116000,21116000,-0.12863693,0.14089793,-9.821169
21164000,21164000,-0.14783806,0.16300116,-9.839049
21212000,21212000,-0.16232753,0.17301194,-9.823462
21264000,21264000,-0.14822017,0.16865326,-9.7834635
21316000,21316000,-0.1496608,0.18866886,-9.790275
21364000,21364000,-0.15482396,0.19327927,-9.787193
21412000,21412000,-0.18638396,0.17163673,-9.742889
21460000,21460000,-0.17972958,0.17811184,-9.783522
21512000,21512000,-0.17745654,0.15351063,-9.748886
21560000,21560000,-0.16895697,0.18041538,-9.737948
21616000,21616000,-0.1923598,0.18038946,-9.708685
21664000,21664000,-0.16258632,0.18413928,-9.695707
21712000,21712000,-0.18247965,0.21939653,-9.70781
21764000,21764000,-0.18891583,0.19922297,-9.73316
21812000,21812000,-0.20767444,0.186908,-9.712251
21864000,21864000,-0.21043321,0.19317853,-9.679297
21916000,21916000,-0.18083772,0.20501134,-9.672756
21964000,21964000,-0.19645824,0.19714184,-9.665427
22016000,22016000,-0.22088453,0.19341275,-9.659352
22064000,22064000,-0.19981723,0.20327236,-9.614534
22112000,22112000,-0.18563607,0.20823188,-9.667944
22160000,22160000,-0.22360843,0.1907933,-9.686545
22216000,22216000,-0.19034863,0.20157774,-9.669092
22264000,22264000,-0.20997722,0.18956868,-9.640611
22316000,22316000,-0.21058999,0.20103562,-9.628483
22364000,22364000,-0.18395388,0.22900406,-9.621347
22416000,22416000,-0.20126086,0.18378298,-9.629075
22460000,22460000,-0.18150957,0.223033,-9.631376
22516000,22516000,-0.1692917,0.19286276,-9.637997
22564000,22564000,-0.19189541,0.21429592,-9.531718
22616000,22616000,-0.18969655,0.20072606,-9.3683195
22664000,22664000,-0.16692045,0.17814805,-9.157767
22716000,22716000,-0.18763974,0.2009314,-8.939948
22764000,22764000,-0.18477803,0.20505267,-8.687644
22816000,22816000,-0.18691076,0.1848461,-8.496822
22864000,22864000,-0.19570483,0.17638725,-8.623785
22912000,22912000,-0.17950928,0.18837908,-8.869117
22964000,22964000,-0.17661016,0.19744873,-9.141097
23016000,23016000,-0.16895576,0.20479506,-9.399778
23060000,23060000,-0.17266639,0.21083723,-9.542053
23116000,23116000,-0.17659897,0.19294462,-9.74001
23164000,23164000,-0.19428578,0.18231466,-9.855516
23216000,23216000,-0.18329391,0.19783509,-9.956672
23264000,23264000,-0.1842436,0.1752565,-10.002119
23316000,23316000,-0.17894582,0.2130733,-10.018391
23364000,23364000,-0.17705715,0.1850475,-9.982557
23416000,23416000,-0.14764446,0.17971161,-9.90818
23464000,23464000,-0.18800807,0.18425265,-9.852002
23512000,23512000,-0.15666687,0.17374295,-9.798489
23564000,23564000,-0.1620801,0.17131758,-9.731928
23612000,23612000,-0.15773898,0.17717668,-9.721187
23660000,23660000,-0.16743356,0.18031853,-9.712428
23712000,23712000,-0.13572025,0.16635095,-9.734569
23764000,23764000,-0.14473847,0.1935324,-9.724013
23816000,23816000,-0.1600711,0.16219848,-9.732916
23860000,23860000,-0.16908486,0.17014343,-9.750441
23916000,23916000,-0.16401276,0.16271913,-9.72756
23960000,23960000,-0.15082434,0.15009543,-9.725662
24016000,24016000,-0.15898576,0.16287306,-9.735087
24064000,24064000,-0.158496,0.15040025,-9.687992
24112000,24112000,-0.16095807,0.14247008,-9.703386
24164000,24164000,-0.14663927,0.15616965,-9.714042
24216000,24216000,-0.13919085,0.16504936,-9.715613
24264000,24264000,-0.15594335,0.13797726,-9.726101
24312000,24312000,-0.15032351,0.16713019,-9.692059
24360000,24360000,-0.16021544,0.1552433,-9.693468
24416000,24416000,-0.15589039,0.13840407,-9.6913185
24464000,24464000,-0.1244606,0.16665825,-9.671981
24516000,24516000,-0.16855764,0.14502989,-9.679072
24560000,24560000,-0.14246409,0.13610515,-9.70795
24616000,24616000,-0.1276896,0.17705701,-9.72251
24664000,24664000,-0.1638507,0.18775551,-9.726331
24716000,24716000,-0.16518381,0.1366532,-9.712683
24760000,24760000,-0.1391441,0.1381191,-9.723175
24816000,24816000,-0.15472376,0.14900684,-9.73839
24864000,24864000,-0.1659434,0.15374863,-9.734402
24912000,24912000,-0.14876409,0.16497412,-9.727708
24964000,24964000,-0.15032174,0.16030414,-9.748471
25016000,25016000,-0.17309716,0.1551609,-9.736179
25064000,25064000,-0.14507931,0.1661989,-9.747879
25116000,25116000,-0.15848728,0.13506055,-9.757433
25160000,25160000,-0.15655081,0.16274516,-9.746107
25216000,25216000,-0.16065137,0.15414843,-9.755373
25264000,25264000,-0.1461069,0.1670009,-9.757435
25316000,25316000,-0.16619468,0.18309602,-9.754166
25364000,25364000,-0.15118133,0.18501589,-9.799254
25416000,25416000,-0.16887473,0.17392652,-9.76468
25464000,25464000,-0.15037775,0.17848362,-9.762474
25516000,25516000,-0.1583725,0.13904057,-9.75945
25564000,25564000,-0.19093199,0.15409103,-9.733853
25616000,25616000,-0.15084983,0.19157946,-9.752647
25664000,25664000,-0.13550575,0.1604247,-9.758659
25716000,25716000,-0.1813364,0.16274633,-9.751353
25764000,25764000,-0.16177507,0.15078557,-9.7565975
25812000,25812000,-0.16623154,0.1850473,-9.738325
25864000,25864000,-0.15772839,0.14486583,-9.764163
25912000,25912000,-0.174038,0.20718235,-9.746647
25960000,25960000,-0.16198766,0.17113903,-9.70961
26016000,26016000,-0.18753463,0.16692628,-9.724074
26060000,26060000,-0.15296376,0.17495006,-9.722308
26116000,26116000,-0.15433806,0.19385742,-9.733892
26160000,26160000,-0.18655355,0.18143211,-9.752312
26212000,26212000,-0.1571728,0.17860202,-9.737778
26260000,26260000,-0.16851456,0.17666946,-9.745539
26312000,26312000,-0.18028827,0.15626495,-9.733202
26360000,26360000,-0.17449403,0.17685823,-9.713356
26412000,26412000,-0.16518226,0.16908553,-9.731861
26460000,26460000,-0.16321908,0.16487713,-9.7442875
26516000,26516000,-0.19336107,0.16531835,-9.746359
26560000,26560000,-0.1629298,0.17180115,-9.754753
26616000,26616000,-0.19614063,0.1828757,-9.7443695
26664000,26664000,-0.18045932,0.18685566,-9.771127
26712000,26712000,-0.20527467,0.19261762,-9.737778
26764000,26764000,-0.18533541,0.18052427,-9.740543
26816000,26816000,-0.17039338,0.19061941,-9.736689
26864000,26864000,-0.18529916,0.16528718,-9.728894
26916000,26916000,-0.19782498,0.18082547,-9.74931
26964000,26964000,-0.18010709,0.18868065,-9.748303
27016000,27016000,-0.18011822,0.18390353,-9.751533
27060000,27060000,-0.17193182,0.15524921,-9.729291
27116000,27116000,-0.16301125,0.17527993,-9.788926
27160000,27160000,-0.16023867,0.19288523,-9.787364
27212000,27212000,-0.17885184,0.2068755,-9.76899
27264000,27264000,-0.16392319,0.18443522,-9.784477
27316000,27316000,-0.18145762,0.19482201,-9.782103
27364000,27364000,-0.15547939,0.19837502,-9.788675
27416000,27416000,-0.13510759,0.19573419,-9.787761
27464000,27464000,-0.18289565,0.19694798,-9.800835
27516000,27516000,-0.19700426,0.18918724,-9.762717
27564000,27564000,-0.17760287,0.17254907,-9.7448435
27616000,27616000,-0.17524545,0.17427866,-9.751894
27664000,27664000,-0.18447132,0.17519192,-9.772657
27712000,27712000,-0.17841816,0.18116939,-9.776239
27764000,27764000,-0.16603008,0.19460675,-9.799677
27816000,27816000,-0.15616468,0.17691863,-9.798628
27860000,27860000,-0.1653567,0.18997744,-9.809443
27912000,27912000,-0.16898382,0.16453484,-9.766185
27960000,27960000,-0.18106455,0.16654599,-9.738131
28016000,28016000,-0.16927327,0.1754129,-9.739316
28064000,28064000,-0.15537897,0.19787107,-9.768895
28112000,28112000,-0.14341486,0.1698808,-9.766624
28160000,28160000,-0.15899116,0.1782141,-9.790794
28212000,28212000,-0.15412615,0.17606425,-9.825966
28264000,28264000,-0.16895932,0.18221411,-9.793826
28316000,28316000,-0.20399588,0.18016179,-9.75614
28364000,28364000,-0.1897587,0.17300895,-9.740814
28416000,28416000,-0.18718898,0.20015368,-9.740365
28464000,28464000,-0.18486106,0.1874289,-9.764066
28516000,28516000,-0.17659234,0.17316194,-9.707563
28564000,28564000,-0.16656016,0.20119016,-9.738973
28616000,28616000,-0.19874471,0.18346937,-9.758215
28660000,28660000,-0.19201264,0.18390396,-9.758334
28712000,28712000,-0.20523319,0.17043649,-9.741617
28760000,28760000,-0.17095736,0.20338091,-9.721374
28816000,28816000,-0.17143741,0.1358817,-9.702882
28864000,28864000,-0.17192115,0.16585697,-9.76325
28912000,28912000,-0.16200973,0.17933285,-9.729851
28960000,28960000,-0.1873582,0.16309035,-9.790448
29016000,29016000,-0.17903945,0.1998458,-9.809747
29064000,29064000,-0.17679119,0.2157037,-9.784336
29116000,29116000,-0.15586427,0.15986349,-9.766547
29164000,29164000,-0.18225776,0.18741892,-9.71907
29216000,29216000,-0.18591188,0.1501787,-9.705489
29260000,29260000,-0.1729738,0.1570332,-9.724048
29316000,29316000,-0.1755435,0.16740155,-9.737489
29360000,29360000,-0.19417644,0.17483824,-9.743526
29416000,29416000,-0.17819041,0.20024262,-9.7839
29464000,29464000,-0.15773813,0.18300478,-9.793005
29516000,29516000,-0.15354085,0.16545944,-9.780077
29560000,29560000,-0.20163658,0.15287197,-9.784821
29612000,29612000,-0.16740575,0.1612446,-9.788676
29660000,29660000,-0.19307342,0.16683516,-9.771994
29712000,29712000,-0.17084087,0.17025957,-9.786212
29760000,29760000,-0.19644772,0.1930197,-9.806096
29816000,29816000,-0.17297836,0.16625717,-9.824368
29864000,29864000,-0.18361628,0.18817344,-9.803177
29916000,29916000,-0.16574311,0.15419573,-9.805357
29960000,29960000,-0.18586713,0.16575795,-9.759834
30016000,30016000,-0.17149869,0.19086951,-9.776306
30064000,30064000,-0.17132898,0.15375489,-9.775006
30112000,30112000,-0.16019136,0.19206665,-9.755734
30160000,30160000,-0.17183872,0.17478304,-9.792347
30212000,30212000,-0.18075716,0.16153729,-9.802344
30264000,30264000,-0.14962156,0.165496,-9.808034
30312000,30312000,-0.20691463,0.1777858,-9.772692
30360000,30360000,-0.18647853,0.16008732,-9.760697
30412000,30412000,-0.20738459,0.15536425,-9.750746
30460000,30460000,-0.1671498,0.16805886,-9.747895
30512000,30512000,-0.20148915,0.14703898,-9.760009
30560000,30560000,-0.1886612,0.14870195,-9.774996
30616000,30616000,-0.19544156,0.16363093,-9.800688
30664000,30664000,-0.20231637,0.17982344,-9.801148
30716000,30716000,-0.15442546,0.19351071,-9.764242
30764000,30764000,-0.19355267,0.17236197,-9.7522135
30812000,30812000,-0.1858164,0.18009049,-9.725475
30864000,30864000,-0.18853931,0.1615678,-9.747859
30912000,30912000,-0.17309351,0.15904416,-9.756765
30960000,30960000,-0.17133652,0.1848099,-9.770453
31012000,31012000,-0.19333363,0.14935066,-9.793465
31064000,31064000,-0.17533363,0.16335338,-9.753244
31116000,31116000,-0.17564736,0.16611387,-9.765066
31164000,31164000,-0.19635013,0.13820998,-9.776581
31216000,31216000,-0.19393222,0.13572837,-9.761454
31264000,31264000,-0.18091765,0.16122316,-9.812275
31316000,31316000,-0.15301166,0.16031057,-9.802429
31360000,31360000,-0.18774611,0.16491972,-9.806475
31416000,31416000,-0.16764152,0.1769159,-9.809399
31464000,31464000,-0.19643253,0.15188318,-9.784883
31516000,31516000,-0.17807752,0.16781208,-9.77086
31564000,31564000,-0.1794506,0.18330476,-9.759282
31616000,31616000,-0.18798862,0.13534681,-9.753452
31664000,31664000,-0.18597671,0.159984,-9.759248
31716000,31716000,-0.188022,0.16798434,-9.782934
31764000,31764000,-0.16791783,0.14303783,-9.792015
31816000,31816000,-0.15978864,0.14621422,-9.799212
31864000,31864000,-0.2105567,0.1478129,-9.808587
31916000,31916000,-0.18406853,0.18015416,-9.75207
31964000,31964000,-0.17684974,0.15485337,-9.7463665
32016000,32016000,-0.16624668,0.15647407,-9.757668
32064000,32064000,-0.18203242,0.17991716,-9.765182
32116000,32116000,-0.19137302,0.16916975,-9.747797
32164000,32164000,-0.14990854,0.14143749,-9.7878685
32216000,32216000,-0.16811961,0.12277094,-9.796609
32264000,32264000,-0.20022672,0.1309804,-9.780813
32316000,32316000,-0.17628044,0.16091079,-9.780644
32364000,32364000,-0.18686774,0.15038316,-9.74737
32416000,32416000,-0.18873438,0.14468366,-9.726084
32464000,32464000,-0.18455218,0.15225725,-9.743919
32516000,32516000,-0.17676866,0.12106179,-9.802307
32564000,32564000,-0.20200624,0.16532822,-9.775651
32612000,32612000,-0.16816048,0.18794668,-9.806456
32660000,32660000,-0.17300646,0.16295458,-9.785251
32716000,32716000,-0.16512465,0.16505924,-9.747362
32764000,32764000,-0.1571641,0.12422337,-9.74612
32816000,32816000,-0.19658923,0.15303381,-9.748232
32864000,32864000,-0.19912699,0.16081275,-9.711271
32916000,32916000,-0.21330279,0.14886613,-9.805294
32964000,32964000,-0.17993923,0.15127242,-9.810176
33016000,33016000,-0.18075436,0.14450203,-9.745977
33064000,33064000,-0.20852241,0.1423865,-9.44944
33116000,33116000,-0.22620493,0.1498466,-9.018591
33164000,33164000,-0.18225327,0.14345193,-8.700593
33216000,33216000,-0.18160868,0.15104845,-8.319898
33264000,33264000,-0.19385365,0.14109014,-8.12801
33312000,33312000,-0.17461336,0.14570302,-7.9044113
33360000,33360000,-0.1721365,0.13626279,-7.785834
33416000,33416000,-0.1898047,0.15235507,-7.6021657
33464000,33464000,-0.1830101,0.14204876,-7.91396
33516000,33516000,-0.1933401,0.1566661,-8.374403
33564000,33564000,-0.19794014,0.12802485,-8.818362
33616000,33616000,-0.21253411,0.14507544,-9.24021
33664000,33664000,-0.18924896,0.1545759,-9.572819
33716000,33716000,-0.19303665,0.14520842,-9.898224
33764000,33764000,-0.19693343,0.13665625,-10.184282
33816000,33816000,-0.17830944,0.17138284,-10.424698
33860000,33860000,-0.21385686,0.16352855,-10.5178995
33916000,33916000,-0.21824208,0.16145672,-10.309406
33964000,33964000,-0.19462892,0.1550126,-10.083505
34016000,34016000,-0.20032538,0.15282992,-9.9193
34064000,34064000,-0.20415398,0.15343812,-9.865605
34112000,34112000,-0.20418988,0.15395471,-9.8169565
34164000,34164000,-0.23007682,0.15479591,-9.770442
34216000,34216000,-0.1970361,0.16181357,-9.781287
34264000,34264000,-0.20091611,0.1596746,-9.789643
34316000,34316000,-0.19591841,0.14455715,-9.74933
34364000,34364000,-0.19845197,0.13809292,-9.712344
34416000,34416000,-0.24248646,0.16108558,-9.68703
34464000,34464000,-0.20128626,0.1661756,-9.706181
34512000,34512000,-0.18414554,0.15681486,-9.730413
34564000,34564000,-0.22112167,0.15601906,-9.744537
34612000,34612000,-0.23218846,0.14191224,-9.744852
34660000,34660000,-0.21142755,0.1649159,-9.762412
34712000,34712000,-0.19113265,0.15029404,-9.75143
34764000,34764000,-0.20985793,0.16815113,-9.735715
34816000,34816000,-0.24340439,0.16580947,-9.72806
34864000,34864000,-0.21695471,0.16057622,-9.70348
34916000,34916000,-0.22038937,0.17940444,-9.746734
34960000,34960000,-0.20073761,0.16608056,-9.7423725
35016000,35016000,-0.20015232,0.16747919,-9.79262
35060000,35060000,-0.20358995,0.16018522,-9.805899
35112000,35112000,-0.19579752,0.1476809,-9.774755
35164000,35164000,-0.2039347,0.1614008,-9.787416
35216000,35216000,-0.20925896,0.17302808,-9.739324
35264000,35264000,-0.23064132,0.15761347,-9.755985
35316000,35316000,-0.20387496,0.16845755,-9.776768
35364000,35364000,-0.21574444,0.16737546,-9.789039
35412000,35412000,-0.19232097,0.15760334,-9.791357
35464000,35464000,-0.21909648,0.15779398,-9.828705
35516000,35516000,-0.1899875,0.14701255,-9.803995
35564000,35564000,-0.20535277,0.13678747,-9.780735
35616000,35616000,-0.20486763,0.16531798,-9.775679
35660000,35660000,-0.2227066,0.16311578,-9.797081
35716000,35716000,-0.19721109,0.14911978,-9.792133
35760000,35760000,-0.18408212,0.16479939,-9.810931
35816000,35816000,-0.18300864,0.16097942,-9.803631
35864000,35864000,-0.217123,0.15034775,-9.826447
35916000,35916000,-0.1978518,0.14719194,-9.799571
35960000,35960000,-0.18443927,0.1418365,-9.825714
36012000,36012000,-0.19969863,0.15903611,-9.787272
36064000,36064000,-0.19364035,0.13438359,-9.803148
36116000,36116000,-0.2184732,0.15340263,-9.801851
36160000,36160000,-0.1976369,0.17561543,-9.816254
36216000,36216000,-0.20935567,0.18218085,-9.80652
36264000,36264000,-0.20095867,0.14710814,-9.823499
36316000,36316000,-0.18864158,0.1625631,-9.803487
36364000,36364000,-0.18993685,0.17852207,-9.7717705
36416000,36416000,-0.20559071,0.18552527,-9.7799
36464000,36464000,-0.21675277,0.16540681,-9.766518
36516000,36516000,-0.17844805,0.14776182,-9.796262
36564000,36564000,-0.1987314,0.17097162,-9.793501
36616000,36616000,-0.19946536,0.16609244,-9.788508
36664000,36664000,-0.21963087,0.16467938,-9.807605
36716000,36716000,-0.21881574,0.1796312,-9.79685
36764000,36764000,-0.21316041,0.15946196,-9.759003
36816000,36816000,-0.18800376,0.17381974,-9.791225
36864000,36864000,-0.1728796,0.19112691,-9.781367
36912000,36912000,-0.17854074,0.15295643,-9.786623
36960000,36960000,-0.20518866,0.17527536,-9.801691
37016000,37016000,-0.18434563,0.17580087,-9.799458
37064000,37064000,-0.19668707,0.16652577,-9.821878
37112000,37112000,0.17385593,0.10823313,27.164425
37164000,37164000,-0.189502,0.16992086,-13.607551
37212000,37212000,-0.2122393,0.17125174,-13.785577
37264000,37264000,-0.17652321,0.17574555,-12.394392
37316000,37316000,-0.1615164,0.18184033,-11.198854
37364000,37364000,-0.19715399,0.19191436,-10.539049
37416000,37416000,-0.20522109,0.17865483,-10.052865
37464000,37464000,-0.1846877,0.16563804,-9.8019
37516000,37516000,-0.19626772,0.15538466,-9.407631
37564000,37564000,-0.19694827,0.18214387,-9.153249
37616000,37616000,-0.17914721,0.17728898,-9.035466
37664000,37664000,-0.18240455,0.16075231,-9.064157
37716000,37716000,-0.20751363,0.14960966,-9.073104
37764000,37764000,-0.19565384,0.1558801,-9.182725
37816000,37816000,-0.18998748,0.170625,-9.29566
37864000,37864000,-0.19116756,0.14155346,-9.254374
37916000,37916000,-0.20083469,0.15779871,-9.058649
37964000,37964000,-0.20098722,0.17997526,-8.890961
38016000,38016000,-0.16509986,0.1775378,-8.845944
38064000,38064000,-0.1927552,0.17139214,-8.918699
38116000,38116000,-0.19337122,0.16788968,-9.046733
38164000,38164000,-0.18603322,0.15970223,-9.171862
38216000,38216000,-0.19780357,0.17395312,-9.297416
38264000,38264000,-0.16409169,0.18956806,-9.315993
38316000,38316000,-0.14468174,0.17076713,-9.093611
38364000,38364000,-0.18873966,0.15235704,-8.955502
38416000,38416000,-0.18286908,0.17371252,-8.945705
38464000,38464000,-0.17032848,0.1817179,-9.032428
38512000,38512000,-0.15540493,0.15277508,-9.138123
38560000,38560000,-0.217965,0.18289207,-9.263108
38616000,38616000,-0.1814381,0.176871,-9.39777
38664000,38664000,-0.1842141,0.15437298,-9.420692
38716000,38716000,-0.18891476,0.17865054,-9.22731
38764000,38764000,-0.16276859,0.17844048,-9.0770035
38816000,38816000,-0.16216074,0.18043008,-9.069105
38864000,38864000,-0.1862523,0.16254352,-9.164457
38916000,38916000,-0.17720513,0.16450298,-9.267628
38964000,38964000,-0.18189013,0.16106865,-9.392633
39012000,39012000,-0.17997873,0.16028026,-9.56152
39064000,39064000,-0.161399,0.16508691,-9.595816
39116000,39116000,-0.18989307,0.16444448,-9.373888
39164000,39164000,-0.19347106,0.17312327,-9.213792
39216000,39216000,-0.13641343,0.17310888,-9.17021
39264000,39264000,-0.16144133,0.15995747,-9.254599
39316000,39316000,-0.18583229,0.17696904,-9.377058
39364000,39364000,-0.16723579,0.18016839,-9.496093
39416000,39416000,-0.16697791,0.17037857,-9.646606
39460000,39460000,-0.18528755,0.17947383,-9.708585
39516000,39516000,-0.17764045,0.19374837,-9.479211
39560000,39560000,-0.13995036,0.16499548,-9.325924
39616000,39616000,-0.13256815,0.15754654,-9.276555
39664000,39664000,-0.15334408,0.18218504,-9.392117
39716000,39716000,-0.1816439,0.18420818,-9.475529
39764000,39764000,-0.15029679,0.17634659,-9.591116
39816000,39816000,-0.312836,0.13536285,-9.768869
39864000,39864000,-0.18831348,0.1773189,-9.84129
39916000,39916000,-0.16706765,0.20539013,-9.786041
39964000,39964000,-0.16946235,0.17140642,-9.779962
40016000,40016000,-0.1967995,0.16397004,-9.783972
40064000,40064000,-0.17853418,0.13637513,-9.793846
40116000,40116000,-0.18397994,0.1664342,-9.797084
40160000,40160000,-0.21601091,0.1475183,-9.776482
40212000,40212000,-0.16774192,0.18582055,-9.78334
40264000,40264000,-0.16558015,0.16177642,-9.768696
40316000,40316000,-0.16956887,0.17567164,-9.787984
40364000,40364000,-0.18694776,0.14824009,-9.800693
40416000,40416000,-0.16270772,0.1499293,-9.774271
40460000,40460000,-0.19460775,0.18531036,-9.797735
40512000,40512000,-0.19632795,0.16273029,-9.796509
40560000,40560000,-0.18003894,0.16684948,-9.761913
40612000,40612000,-0.19308011,0.16592258,-9.779869
40664000,40664000,-0.1461967,0.1933056,-9.814867
40716000,40716000,-0.20778306,0.16355887,-9.786183
40764000,40764000,-0.19995238,0.17755842,-9.775689
40816000,40816000,-0.19652562,0.18431342,-9.817334
40860000,40860000,-0.2159046,0.19063468,-9.796468
40912000,40912000,-0.16987923,0.1545907,-9.802129
40964000,40964000,-0.17779726,0.16983312,-9.772482
41016000,41016000,-0.18506142,0.16141973,-9.794264
41064000,41064000,-0.20248027,0.1613451,-9.799556
41116000,41116000,-0.1894177,0.17565739,-9.764753
41164000,41164000,-0.21287414,0.18834794,-9.776533
41216000,41216000,-0.20325463,0.19406548,-9.780605
41264000,41264000,-0.18145838,0.1903041,-9.786247
41316000,41316000,-0.20057997,0.17762248,-9.797126
41364000,41364000,-0.18091184,0.17164044,-9.781016
41416000,41416000,-0.17983383,0.19089422,-9.783806
41464000,41464000,-0.2046821,0.14572158,-9.78961
41512000,41512000,-0.21016932,0.15643418,-9.790671
41564000,41564000,-0.20133895,0.21409692,-9.7911
41616000,41616000,-0.18884,0.17591418,-9.77648
41664000,41664000,-0.2073604,0.18478024,-9.8016815
41712000,41712000,-0.16761704,0.18904194,-9.791107
41764000,41764000,-0.17704263,0.17250519,-9.766335
41816000,41816000,-0.1893132,0.17681131,-9.780189
41864000,41864000,-0.18472897,0.19279933,-9.769499
41916000,41916000,-0.19015792,0.18696615,-9.794363
41964000,41964000,-0.16516444,0.17498007,-9.782112
42016000,42016000,-0.1855559,0.18135053,-9.799848
42060000,42060000,-0.19646698,0.15962279,-9.7904625
42116000,42116000,-0.18403696,0.18166292,-9.793251
42164000,42164000,-0.19474177,0.17269753,-9.792826
42216000,42216000,-0.16000913,0.1544286,-9.791547
42264000,42264000,-0.18724573,0.16483575,-9.819405
42316000,42316000,-0.21866499,0.17668405,-9.808065
42364000,42364000,-0.1993058,0.20383832,-9.795619
42416000,42416000,-0.1932754,0.16966574,-9.833695
42464000,42464000,-0.20229934,0.18308032,-9.788807
42516000,42516000,-0.19916347,0.18171942,-9.811205
42560000,42560000,-0.17300595,0.18549764,-9.809958
42616000,42616000,-0.17033169,0.1747362,-9.772711
42664000,42664000,-0.19809751,0.17833027,-9.818619
42712000,42712000,-0.20597698,0.17777257,-9.795001
42760000,42760000,-0.17140241,0.17805208,-9.819357
42816000,42816000,-0.18596211,0.18538989,-9.826813
42860000,42860000,-0.17863609,0.15756197,-9.781755
42916000,42916000,-0.1905935,0.16300648,-9.79706
42964000,42964000,-0.16312394,0.17671852,-9.775217
43016000,43016000,-0.20293167,0.1742408,-9.77569
43064000,43064000,-0.2025729,0.17271712,-9.818102
43116000,43116000,-0.18235584,0.16777623,-9.795414
43164000,43164000,-0.20355245,0.14842843,-9.79617
43216000,43216000,-0.18271604,0.17790788,-9.790155
43264000,43264000,-0.20329845,0.18944153,-9.805941
43316000,43316000,-0.17464109,0.14933121,-9.805273
43364000,43364000,-0.18778655,0.16456728,-9.785059
43416000,43416000,-0.14964053,0.16618542,-9.798709
43464000,43464000,-0.1948965,0.15953425,-9.821043
43516000,43516000,-0.19180876,0.16164139,-9.789234
43564000,43564000,-0.19661197,0.19257322,-9.806368
43616000,43616000,-0.1882281,0.16143696,-9.839493
43664000,43664000,-0.1947201,0.14876892,-9.787901
43716000,43716000,-0.18547043,0.1786418,-9.798106
43764000,43764000,-0.18350446,0.1873296,-9.802633
43812000,43812000,-0.17181924,0.17045635,-9.829681
43864000,43864000,-0.17742898,0.18353009,-9.79044
43916000,43916000,-0.19717856,0.18219626,-9.804333
43964000,43964000,-0.21588537,0.17414764,-9.81072
44016000,44016000,-0.19346455,0.20044544,-9.804042
44064000,44064000,-0.21250518,0.17353155,-9.7775545
44116000,44116000,-0.20833312,0.1694703,-9.783889
44160000,44160000,-0.19071996,0.1439796,-9.843264
44216000,44216000,-0.17823151,0.16962092,-9.816618
44264000,44264000,-0.17174941,0.16303223,-9.818148
44312000,44312000,-0.1984663,0.15022305,-9.815398
44360000,44360000,-0.16728441,0.1850353,-9.796535
44412000,44412000,-0.21288107,0.19630718,-9.800999
44460000,44460000,-0.20392789,0.15945509,-9.840715
44516000,44516000,-0.20008075,0.16991511,-9.822206
44564000,44564000,-0.1939607,0.17411321,-9.849268
44616000,44616000,-0.22282413,0.16672015,-9.812301
44664000,44664000,-0.21042395,0.16453457,-9.834871
44716000,44716000,-0.21620084,0.1593492,-9.834528
44764000,44764000,-0.20977475,0.14270903,-9.819368
44816000,44816000,-0.18956,0.1627067,-9.832625
44864000,44864000,-0.21720794,0.15030888,-9.821095
44916000,44916000,-0.17934671,0.19276148,-9.78316
44960000,44960000,-0.19279355,0.1857757,-9.804237
45016000,45016000,-0.19872102,0.17586365,-9.823838
45064000,45064000,-0.19406529,0.14274628,-9.824856
45116000,45116000,-0.19370793,0.1809263,-9.815134
45164000,45164000,-0.20111783,0.1463557,-9.8248625
45216000,45216000,-0.17835416,0.16139828,-9.843199
45264000,45264000,-0.19620436,0.16369404,-9.802314
45316000,45316000,-0.20016904,0.17235304,-9.824257
45364000,45364000,-0.20512736,0.14721489,-9.827724
45416000,45416000,-0.19583952,0.1536436,-9.8355255
45460000,45460000,-0.17035799,0.12815736,-9.817959
45512000,45512000,-0.21212868,0.1475435,-9.825914
45564000,45564000,-0.22131182,0.13901877,-9.832026
45616000,45616000,-0.2182818,0.15851486,-9.847228
45664000,45664000,-0.17510247,0.16526642,-9.85548
45716000,45716000,-0.21597686,0.16259493,-9.819206
45760000,45760000,-0.2111142,0.15231726,-9.810823
45816000,45816000,-0.1818083,0.14948533,-9.803707
45864000,45864000,-0.20991547,0.16065301,-9.853748
45912000,45912000,-0.19000345,0.15121359,-9.8521805
45964000,45964000,-0.2090709,0.13572209,-9.834581
46012000,46012000,-0.18725985,0.1657751,-9.834585
46060000,46060000,-0.19964866,0.14393762,-9.841702
46112000,46112000,-0.21300967,0.13498358,-9.826405
46160000,46160000,-0.20123555,0.14315291,-9.833999
46216000,46216000,-0.18458718,0.13728984,-9.83573
46264000,46264000,-0.18669826,0.13195115,-9.830265
46316000,46316000,-0.17350355,0.16096097,-9.830318
46364000,46364000,-0.21043159,0.17295775,-9.853131
46416000,46416000,-0.17976889,0.14578344,-9.804613
46464000,46464000,-0.19628435,0.16856065,-9.845139
46516000,46516000,-0.20275503,0.14589721,-9.844049
46560000,46560000,-0.17929776,0.1443316,-9.846277
46612000,46612000,-0.20623511,0.12696345,-9.820097
46664000,46664000,-0.17816049,0.12403576,-9.84204
46716000,46716000,-0.16024084,0.12694266,-9.851742
46764000,46764000,-0.21337534,0.13614017,-9.873333
46816000,46816000,-0.23299402,0.12565574,-9.871971
46864000,46864000,-0.22841288,0.15508318,-9.860992
46916000,46916000,-0.18707082,0.1455425,-9.815739
46964000,46964000,-0.21172309,0.124781646,-9.871754
47016000,47016000,-0.20589417,0.15126428,-9.804127
47064000,47064000,-0.21440071,0.16104254,-9.828645
47116000,47116000,-0.2134957,0.13787223,-9.853068
47164000,47164000,-0.19456409,0.15421954,-9.851073
47212000,47212000,-0.17881958,0.13615791,-9.830755
47260000,47260000,-0.2095337,0.15928784,-9.822532
47312000,47312000,-0.20088539,0.14513773,-9.820916
47364000,47364000,-0.20096701,0.18403098,-9.822838
47416000,47416000,-0.1956397,0.17421687,-9.820272
47464000,47464000,-0.218819,0.16372368,-9.86148
47516000,47516000,-0.20459828,0.17194396,-9.828117
47564000,47564000,-0.19858922,0.14249684,-9.827389
47616000,47616000,-0.20582649,0.16744399,-9.815907
47664000,47664000,-0.20652398,0.1569604,-9.85366
47712000,47712000,-0.19450733,0.17551768,-9.821524
47760000,47760000,-0.18279697,0.14195012,-9.833871
47816000,47816000,-0.20172337,0.16257057,-9.84257
