timestamp,roll_body,pitch_body,yaw_body,yaw_sp_move_rate,q_d[0],q_d[1],q_d[2],q_d[3],thrust_body[0],thrust_body[1],thrust_body[2],reset_integral,fw_control_yaw_wheel
3264000,0.0,0.0,6.286852e-05,0.0,1.0,0.0,0.0,3.143426e-05,0.0,0.0,-0.001,0,0
3272000,0.0,0.0,7.220278e-05,0.0,1.0,0.0,0.0,3.610139e-05,0.0,0.0,-0.001,0,0
3312000,0.0,-0.0,1.622617,0.0,0.6885501,0.0,0.0,0.72518885,0.0,0.0,-0.001,0,0
3360000,0.0,-0.0,1.6226314,0.0,0.68854487,0.0,0.0,0.7251938,0.0,0.0,-0.001,0,0
3408000,0.0,-0.0,1.6225909,0.0,0.6885596,0.0,0.0,0.72517973,0.0,0.0,-0.001,0,0
3456000,0.0,-0.0,1.6225743,0.0,0.68856555,0.0,0.0,0.7251742,0.0,0.0,-0.001,0,0
3512000,0.0,-0.0,1.617953,0.0,0.69023937,0.0,0.0,0.7235811,0.0,0.0,-0.001,0,0
3560000,0.0,-0.0,1.618157,0.0,0.6901656,0.0,0.0,0.72365147,0.0,0.0,-0.001,0,0
3616000,0.0,-0.0,1.6186624,0.0,0.6899827,0.0,0.0,0.7238259,0.0,0.0,-0.001,0,0
3656000,0.0,-0.0,1.6191053,0.0,0.6898224,0.0,0.0,0.72397864,0.0,0.0,-0.001,0,0
3712000,0.0,-0.0,1.6197098,0.0,0.6896035,0.0,0.0,0.72418714,0.0,0.0,-0.001,0,0
3760000,0.0,-0.0,1.620181,0.0,0.6894329,0.0,0.0,0.72434956,0.0,0.0,-0.001,0,0
3808000,0.0,-0.0,1.6206886,0.0,0.68924904,0.0,0.0,0.7245245,0.0,0.0,-0.001,0,0
3856000,0.0,-0.0,1.6211177,0.0,0.6890936,0.0,0.0,0.7246724,0.0,0.0,-0.001,0,0
3912000,0.0,-0.0,1.6215913,0.0,0.6889219,0.0,0.0,0.7248356,0.0,0.0,-0.001,0,0
3960000,0.0,-0.0,1.6220645,0.0,0.68875045,0.0,0.0,0.7249985,0.0,0.0,-0.001,0,0
4008000,0.0,-0.0,1.6222707,0.0,0.68867564,0.0,0.0,0.72506964,0.0,0.0,-0.001,0,0
4064000,0.0,-0.0,1.622174,0.0,0.6887107,0.0,0.0,0.72503626,0.0,0.0,-0.001,0,0
4112000,0.0,-0.0,1.6218915,0.0,0.68881315,0.0,0.0,0.724939,0.0,0.0,-0.001,0,0
4160000,0.0,-0.0,1.6216838,0.0,0.68888843,0.0,0.0,0.7248674,0.0,0.0,-0.001,0,0
4208000,0.0,-0.0,1.6220796,0.0,0.68874496,0.0,0.0,0.7250037,0.0,0.0,-0.001,0,0
4256000,0.0,-0.0,1.6230712,0.0,0.68838537,0.0,0.0,0.7253452,0.0,0.0,-0.001,0,0
4312000,0.0,-0.0,1.6241304,0.0,0.6880012,0.0,0.0,0.72570956,0.0,0.0,-0.001,0,0
4360000,0.0,-0.0,1.624905,0.0,0.68772006,0.0,0.0,0.72597593,0.0,0.0,-0.001,0,0
4416000,0.0,-0.0,1.6254836,0.0,0.68750995,0.0,0.0,0.726175,0.0,0.0,-0.001,0,0
4464000,0.0,-0.0,1.6257727,0.0,0.687405,0.0,0.0,0.7262743,0.0,0.0,-0.001,0,0
4512000,0.0,-0.0,1.6261053,0.0,0.68728423,0.0,0.0,0.7263886,0.0,0.0,-0.001,0,0
4560000,0.0,-0.0,1.6264778,0.0,0.6871489,0.0,0.0,0.72651666,0.0,0.0,-0.001,0,0
4616000,0.0,-0.0,1.6267936,0.0,0.6870342,0.0,0.0,0.7266251,0.0,0.0,-0.001,0,0
4656000,0.0,-0.0,1.6268201,0.0,0.6870246,0.0,0.0,0.72663414,0.0,0.0,-0.001,0,0
4712000,0.0,-0.0,1.6266087,0.0,0.68710136,0.0,0.0,0.7265616,0.0,0.0,-0.001,0,0
4760000,0.0,-0.0,1.6263978,0.0,0.68717796,0.0,0.0,0.7264891,0.0,0.0,-0.001,0,0
4816000,0.0,-0.0,1.6261361,0.0,0.687273,0.0,0.0,0.7263992,0.0,0.0,-0.001,0,0
4864000,0.0,-0.0,1.6260096,0.0,0.687319,0.0,0.0,0.72635573,0.0,0.0,-0.001,0,0
4912000,0.0,-0.0,1.626086,0.0,0.68729126,0.0,0.0,0.7263819,0.0,0.0,-0.001,0,0
4960000,0.0,-0.0,1.6264207,0.0,0.6871697,0.0,0.0,0.726497,0.0,0.0,-0.001,0,0
5008000,0.0,-0.0,1.626919,0.0,0.68698865,0.0,0.0,0.7266682,0.0,0.0,-0.001,0,0
5056000,0.0,-0.0,1.627284,0.0,0.686856,0.0,0.0,0.7267935,0.0,0.0,-0.001,0,0
5112000,0.0,-0.0,1.6275246,0.0,0.6867686,0.0,0.0,0.7268761,0.0,0.0,-0.001,0,0
5160000,0.0,-0.0,1.6274815,0.0,0.68678427,0.0,0.0,0.72686136,0.0,0.0,-0.001,0,0
5208000,0.0,-0.0,1.6273668,0.0,0.68682593,0.0,0.0,0.72682196,0.0,0.0,-0.001,0,0
5256000,0.0,-0.0,1.6272516,0.0,0.6868678,0.0,0.0,0.72678244,0.0,0.0,-0.001,0,0
5312000,0.0,-0.0,1.6268742,0.0,0.6870049,0.0,0.0,0.72665274,0.0,0.0,-0.001,0,0
5360000,0.0,-0.0,1.6265337,0.0,0.6871286,0.0,0.0,0.7265359,0.0,0.0,-0.001,0,0
5416000,0.0,-0.0,1.6260593,0.0,0.6873009,0.0,0.0,0.72637284,0.0,0.0,-0.001,0,0
5456000,0.0,-0.0,1.625639,0.0,0.68745357,0.0,0.0,0.72622836,0.0,0.0,-0.001,0,0
5512000,0.0,-0.0,1.6253752,0.0,0.68754935,0.0,0.0,0.7261377,0.0,0.0,-0.001,0,0
5560000,0.0,-0.0,1.6254481,0.0,0.6875229,0.0,0.0,0.7261627,0.0,0.0,-0.001,0,0
5616000,0.0,-0.0,1.6255469,0.0,0.687487,0.0,0.0,0.72619665,0.0,0.0,-0.001,0,0
5656000,0.0,-0.0,1.6255918,0.0,0.68747073,0.0,0.0,0.7262121,0.0,0.0,-0.001,0,0
5712000,0.0,-0.0,1.6257476,0.0,0.68741417,0.0,0.0,0.7262656,0.0,0.0,-0.001,0,0
5760000,0.0,-0.0,1.6259158,0.0,0.6873531,0.0,0.0,0.7263235,0.0,0.0,-0.001,0,0
5808000,0.0,-0.0,1.6259687,0.0,0.6873338,0.0,0.0,0.7263417,0.0,0.0,-0.001,0,0
5856000,0.0,-0.0,1.6258289,0.0,0.6873846,0.0,0.0,0.7262936,0.0,0.0,-0.001,0,0
5912000,0.0,-0.0,1.625594,0.0,0.6874699,0.0,0.0,0.72621286,0.0,0.0,-0.001,0,0
5960000,0.0,-0.0,1.6261022,0.0,0.68728536,0.0,0.0,0.7263875,0.0,0.0,-0.001,0,0
6016000,0.0,-0.0,1.6266948,0.0,0.68707013,0.0,0.0,0.72659117,0.0,0.0,-0.001,0,0
6064000,0.0,-0.0,1.6269815,0.0,0.68696594,0.0,0.0,0.7266896,0.0,0.0,-0.001,0,0
6112000,0.0,-0.0,1.6267054,0.0,0.68706626,0.0,0.0,0.72659475,0.0,0.0,-0.001,0,0
6160000,0.0,-0.0,1.6263679,0.0,0.68718886,0.0,0.0,0.7264788,0.0,0.0,-0.001,0,0
6216000,0.0,-0.0,1.6259718,0.0,0.6873327,0.0,0.0,0.72634274,0.0,0.0,-0.001,0,0
6256000,0.0,-0.0,1.6257635,0.0,0.6874083,0.0,0.0,0.72627115,0.0,0.0,-0.001,0,0
6312000,0.0,-0.0,1.6255127,0.0,0.6874994,0.0,0.0,0.72618496,0.0,0.0,-0.001,0,0
6360000,0.0,-0.0,1.6252311,0.0,0.6876016,0.0,0.0,0.7260882,0.0,0.0,-0.001,0,0
6408000,0.0,-0.0,1.6248208,0.0,0.6877506,0.0,0.0,0.7259471,0.0,0.0,-0.001,0,0
6456000,0.0,-0.0,1.6244398,0.0,0.68788886,0.0,0.0,0.7258161,0.0,0.0,-0.001,0,0
6512000,0.0,-0.0,1.6242529,0.0,0.6879567,0.0,0.0,0.7257518,0.0,0.0,-0.001,0,0
6560000,0.0,-0.0,1.6242882,0.0,0.6879439,0.0,0.0,0.7257639,0.0,0.0,-0.001,0,0
6608000,0.0,-0.0,1.6243881,0.0,0.68790764,0.0,0.0,0.72579825,0.0,0.0,-0.001,0,0
6656000,0.0,-0.0,1.6241846,0.0,0.6879815,0.0,0.0,0.7257282,0.0,0.0,-0.001,0,0
6712000,0.0,-0.0,1.623466,0.0,0.6882422,0.0,0.0,0.725481,0.0,0.0,-0.001,0,0
6760000,0.0,-0.0,1.6228733,0.0,0.6884572,0.0,0.0,0.72527695,0.0,0.0,-0.001,0,0
6808000,0.0,-0.0,1.6226441,0.0,0.6885403,0.0,0.0,0.7251981,0.0,0.0,-0.001,0,0
6864000,0.0,-0.0,1.6225556,0.0,0.68857235,0.0,0.0,0.72516763,0.0,0.0,-0.001,0,0
6912000,0.0,-0.0,1.622701,0.0,0.68851966,0.0,0.0,0.72521776,0.0,0.0,-0.001,0,0
6960000,0.0,-0.0,1.6230507,0.0,0.6883928,0.0,0.0,0.7253381,0.0,0.0,-0.001,0,0
7008000,0.0,-0.0,1.6233867,0.0,0.688271,0.0,0.0,0.72545373,0.0,0.0,-0.001,0,0
7056000,0.0,-0.0,1.623597,0.0,0.6881947,0.0,0.0,0.7255261,0.0,0.0,-0.001,0,0
7112000,0.0,-0.0,1.6232334,0.0,0.68832654,0.0,0.0,0.725401,0.0,0.0,-0.001,0,0
7160000,0.0,-0.0,1.6227115,0.0,0.68851584,0.0,0.0,0.72522134,0.0,0.0,-0.001,0,0
7208000,0.0,-0.0,1.6222887,0.0,0.68866915,0.0,0.0,0.7250757,0.0,0.0,-0.001,0,0
7256000,0.0,-0.0,1.621436,0.0,0.6889782,0.0,0.0,0.72478205,0.0,0.0,-0.001,0,0
7312000,0.0,-0.0,1.6208189,0.0,0.68920183,0.0,0.0,0.7245694,0.0,0.0,-0.001,0,0
7360000,0.0,-0.0,1.62056,0.0,0.6892956,0.0,0.0,0.7244803,0.0,0.0,-0.001,0,0
7408000,0.0,-0.0,1.6201028,0.0,0.68946123,0.0,0.0,0.7243227,0.0,0.0,-0.001,0,0
7456000,0.0,-0.0,1.6197205,0.0,0.68959963,0.0,0.0,0.7241909,0.0,0.0,-0.001,0,0
7512000,0.0,-0.0,1.6192706,0.0,0.68976253,0.0,0.0,0.7240357,0.0,0.0,-0.001,0,0
7560000,0.0,-0.0,1.6186554,0.0,0.6899852,0.0,0.0,0.7238234,0.0,0.0,-0.001,0,0
7616000,0.0,-0.0,1.6182536,0.0,0.6901306,0.0,0.0,0.72368485,0.0,0.0,-0.001,0,0
7656000,0.0,-0.0,1.6180665,0.0,0.6901983,0.0,0.0,0.72362036,0.0,0.0,-0.001,0,0
7712000,0.0,-0.0,1.6178801,0.0,0.6902658,0.0,0.0,0.7235559,0.0,0.0,-0.001,0,0
7760000,0.0,-0.0,1.6175593,0.0,0.69038177,0.0,0.0,0.7234453,0.0,0.0,-0.001,0,0
7808000,0.0,-0.0,1.6172044,0.0,0.69051015,0.0,0.0,0.72332275,0.0,0.0,-0.001,0,0
7856000,0.0,-0.0,1.6168392,0.0,0.69064224,0.0,0.0,0.7231966,0.0,0.0,-0.001,0,0
7912000,0.0,-0.0,1.616671,0.0,0.69070303,0.0,0.0,0.72313845,0.0,0.0,-0.001,0,0
7960000,0.0,-0.0,1.6167293,0.0,0.690682,0.0,0.0,0.7231586,0.0,0.0,-0.001,0,0
8008000,0.0,-0.0,1.6169724,0.0,0.690594,0.0,0.0,0.72324264,0.0,0.0,-0.001,0,0
8056000,0.0,-0.0,1.6171178,0.0,0.6905415,0.0,0.0,0.72329277,0.0,0.0,-0.001,0,0
8112000,0.0,-0.0,1.6172274,0.0,0.6905018,0.0,0.0,0.7233307,0.0,0.0,-0.001,0,0
8160000,0.0,-0.0,1.6172663,0.0,0.6904878,0.0,0.0,0.723344,0.0,0.0,-0.001,0,0
8208000,0.0,-0.0,1.6172719,0.0,0.6904858,0.0,0.0,0.723346,0.0,0.0,-0.001,0,0
8256000,0.0,-0.0,1.6172236,0.0,0.69050324,0.0,0.0,0.72332937,0.0,0.0,-0.001,0,0
8312000,0.0,-0.0,1.6172885,0.0,0.69047976,0.0,0.0,0.7233517,0.0,0.0,-0.001,0,0
8360000,0.0,-0.0,1.6175247,0.0,0.6903943,0.0,0.0,0.7234334,0.0,0.0,-0.001,0,0
8408000,0.0,-0.0,1.617418,0.0,0.6904329,0.0,0.0,0.7233964,0.0,0.0,-0.001,0,0
8456000,0.0,-0.0,1.6173292,0.0,0.69046503,0.0,0.0,0.7233658,0.0,0.0,-0.001,0,0
8512000,0.0,-0.0,1.617232,0.0,0.6905002,0.0,0.0,0.7233323,0.0,0.0,-0.001,0,0
8560000,0.0,-0.0,1.6171533,0.0,0.69052863,0.0,0.0,0.72330517,0.0,0.0,-0.001,0,0
8608000,0.0,-0.0,1.617116,0.0,0.69054216,0.0,0.0,0.72329223,0.0,0.0,-0.001,0,0
8664000,0.0,-0.0,1.6170985,0.0,0.6905485,0.0,0.0,0.72328615,0.0,0.0,-0.001,0,0
8712000,0.0,-0.0,1.6169108,0.0,0.69061637,0.0,0.0,0.72322136,0.0,0.0,-0.001,0,0
8760000,0.0,-0.0,1.6168935,0.0,0.69062257,0.0,0.0,0.72321534,0.0,0.0,-0.001,0,0
8808000,0.0,-0.0,1.6168506,0.0,0.6906381,0.0,0.0,0.7232005,0.0,0.0,-0.001,0,0
8856000,0.0,-0.0,1.6167872,0.0,0.690661,0.0,0.0,0.7231786,0.0,0.0,-0.001,0,0
8912000,0.0,-0.0,1.6167734,0.0,0.690666,0.0,0.0,0.72317386,0.0,0.0,-0.001,0,0
8960000,0.0,-0.0,1.6167839,0.0,0.69066226,0.0,0.0,0.7231775,0.0,0.0,-0.001,0,0
9008000,0.0,-0.0,1.6168551,0.0,0.69063646,0.0,0.0,0.72320217,0.0,0.0,-0.001,0,0
9056000,0.0,-0.0,1.6170236,0.0,0.69057554,0.0,0.0,0.7232603,0.0,0.0,-0.001,0,0
9112000,0.0,-0.0,1.6173899,0.0,0.69044304,0.0,0.0,0.72338676,0.0,0.0,-0.001,0,0
9160000,0.0,-0.0,1.6177195,0.0,0.6903238,0.0,0.0,0.7235006,0.0,0.0,-0.001,0,0
9208000,0.0,-0.0,1.6180502,0.0,0.6902042,0.0,0.0,0.7236147,0.0,0.0,-0.001,0,0
9264000,0.0,-0.0,1.6182177,0.0,0.69014364,0.0,0.0,0.72367245,0.0,0.0,-0.001,0,0
9312000,0.0,-0.0,1.6182501,0.0,0.69013184,0.0,0.0,0.72368366,0.0,0.0,-0.001,0,0
9360000,0.0,-0.0,1.6182698,0.0,0.69012475,0.0,0.0,0.7236904,0.0,0.0,-0.001,0,0
9408000,0.0,-0.0,1.6182735,0.0,0.6901234,0.0,0.0,0.7236917,0.0,0.0,-0.001,0,0
9456000,0.0,-0.0,1.6183814,0.0,0.6900844,0.0,0.0,0.7237289,0.0,0.0,-0.001,0,0
9512000,0.0,-0.0,1.6184571,0.0,0.690057,0.0,0.0,0.7237551,0.0,0.0,-0.001,0,0
9560000,0.0,-0.0,1.618351,0.0,0.69009537,0.0,0.0,0.7237185,0.0,0.0,-0.001,0,0
9608000,0.0,-0.0,1.6183704,0.0,0.69008833,0.0,0.0,0.7237252,0.0,0.0,-0.001,0,0
9656000,0.0,-0.0,1.6185315,0.0,0.6900301,0.0,0.0,0.7237807,0.0,0.0,-0.001,0,0
9712000,0.0,-0.0,1.6189002,0.0,0.6898966,0.0,0.0,0.72390795,0.0,0.0,-0.001,0,0
9760000,0.0,-0.0,1.6191899,0.0,0.68979174,0.0,0.0,0.7240079,0.0,0.0,-0.001,0,0
9808000,0.0,-0.0,1.6193922,0.0,0.68971854,0.0,0.0,0.7240776,0.0,0.0,-0.001,0,0
9856000,0.0,-0.0,1.6195884,0.0,0.6896475,0.0,0.0,0.72414523,0.0,0.0,-0.001,0,0
9912000,0.0,-0.0,1.619708,0.0,0.68960416,0.0,0.0,0.72418654,0.0,0.0,-0.001,0,0
9960000,0.0,-0.0,1.6199962,0.0,0.6894998,0.0,0.0,0.7242859,0.0,0.0,-0.001,0,0
10008000,0.0,-0.0,1.6202642,0.0,0.68940276,0.0,0.0,0.7243782,0.0,0.0,-0.001,0,0
10056000,0.0,-0.0,1.6204494,0.0,0.68933564,0.0,0.0,0.7244421,0.0,0.0,-0.001,0,0
10112000,0.0,-0.0,1.6205927,0.0,0.6892837,0.0,0.0,0.7244915,0.0,0.0,-0.001,0,0
10160000,0.0,-0.0,1.6206496,0.0,0.68926316,0.0,0.0,0.7245111,0.0,0.0,-0.001,0,0
10216000,0.0,-0.0,1.6207465,0.0,0.68922806,0.0,0.0,0.72454447,0.0,0.0,-0.001,0,0
10264000,0.0,-0.0,1.6207496,0.0,0.6892269,0.0,0.0,0.72454554,0.0,0.0,-0.001,0,0
10312000,0.0,-0.0,1.6206646,0.0,0.68925774,0.0,0.0,0.7245162,0.0,0.0,-0.001,0,0
10360000,0.0,-0.0,1.6206125,0.0,0.6892766,0.0,0.0,0.72449833,0.0,0.0,-0.001,0,0
10416000,0.0,-0.0,1.6206445,0.0,0.689265,0.0,0.0,0.7245093,0.0,0.0,-0.001,0,0
10456000,0.0,-0.0,1.6206683,0.0,0.68925637,0.0,0.0,0.7245175,0.0,0.0,-0.001,0,0
10512000,0.0,-0.0,1.6205968,0.0,0.6892823,0.0,0.0,0.7244929,0.0,0.0,-0.001,0,0
10560000,0.0,-0.0,1.6204207,0.0,0.6893461,0.0,0.0,0.72443223,0.0,0.0,-0.001,0,0
10608000,0.0,-0.0,1.6203549,0.0,0.6893699,0.0,0.0,0.7244096,0.0,0.0,-0.001,0,0
10656000,0.0,-0.0,1.6202418,0.0,0.68941087,0.0,0.0,0.7243706,0.0,0.0,-0.001,0,0
10712000,0.0,-0.0,1.6201998,0.0,0.68942606,0.0,0.0,0.72435606,0.0,0.0,-0.001,0,0
10760000,0.0,-0.0,1.620253,0.0,0.6894068,0.0,0.0,0.7243744,0.0,0.0,-0.001,0,0
10808000,0.0,-0.0,1.6203768,0.0,0.68936193,0.0,0.0,0.7244172,0.0,0.0,-0.001,0,0
10856000,0.0,-0.0,1.6204613,0.0,0.68933135,0.0,0.0,0.72444624,0.0,0.0,-0.001,0,0
10912000,0.0,-0.0,1.6204654,0.0,0.68932986,0.0,0.0,0.7244476,0.0,0.0,-0.001,0,0
10960000,0.0,-0.0,1.6205641,0.0,0.6892941,0.0,0.0,0.72448164,0.0,0.0,-0.001,0,0
11008000,0.0,-0.0,1.620609,0.0,0.6892778,0.0,0.0,0.7244971,0.0,0.0,-0.001,0,0
11064000,0.0,-0.0,1.6206923,0.0,0.68924767,0.0,0.0,0.7245258,0.0,0.0,-0.001,0,0
11112000,0.0,-0.0,1.6207676,0.0,0.6892204,0.0,0.0,0.72455174,0.0,0.0,-0.001,0,0
11160000,0.0,-0.0,1.6207556,0.0,0.6892248,0.0,0.0,0.72454756,0.0,0.0,-0.001,0,0
11208000,0.0,-0.0,1.6207707,0.0,0.6892193,0.0,0.0,0.72455287,0.0,0.0,-0.001,0,0
11256000,0.0,-0.0,1.6208255,0.0,0.6891994,0.0,0.0,0.7245718,0.0,0.0,-0.001,0,0
11312000,0.0,-0.0,1.6209868,0.0,0.689141,0.0,0.0,0.72462726,0.0,0.0,-0.001,0,0
11360000,0.0,-0.0,1.6210748,0.0,0.6891091,0.0,0.0,0.72465765,0.0,0.0,-0.001,0,0
11408000,0.0,-0.0,1.6211277,0.0,0.68908995,0.0,0.0,0.72467583,0.0,0.0,-0.001,0,0
11456000,0.0,-0.0,1.6211364,0.0,0.6890868,0.0,0.0,0.7246788,0.0,0.0,-0.001,0,0
11512000,0.0,-0.0,1.6210729,0.0,0.6891098,0.0,0.0,0.72465694,0.0,0.0,-0.001,0,0
11560000,0.0,-0.0,1.6210053,0.0,0.6891343,0.0,0.0,0.72463363,0.0,0.0,-0.001,0,0
11608000,0.0,-0.0,1.6210394,0.0,0.68912196,0.0,0.0,0.7246454,0.0,0.0,-0.001,0,0
11656000,0.0,-0.0,1.6210971,0.0,0.68910104,0.0,0.0,0.7246653,0.0,0.0,-0.001,0,0
11712000,0.0,-0.0,1.6211324,0.0,0.6890882,0.0,0.0,0.72467744,0.0,0.0,-0.001,0,0
11760000,0.0,-0.0,1.6211729,0.0,0.68907356,0.0,0.0,0.7246914,0.0,0.0,-0.001,0,0
11808000,0.0,-0.0,1.621254,0.0,0.6890442,0.0,0.0,0.7247194,0.0,0.0,-0.001,0,0
11856000,0.0,-0.0,1.6213374,0.0,0.68901396,0.0,0.0,0.7247481,0.0,0.0,-0.001,0,0
11912000,0.0,-0.0,1.6212845,0.0,0.68903315,0.0,0.0,0.72472984,0.0,0.0,-0.001,0,0
11960000,0.0,-0.0,1.6212877,0.0,0.68903196,0.0,0.0,0.72473097,0.0,0.0,-0.001,0,0
12008000,0.0,-0.0,1.6212273,0.0,0.68905383,0.0,0.0,0.72471017,0.0,0.0,-0.001,0,0
12056000,0.0,-0.0,1.6212107,0.0,0.68905985,0.0,0.0,0.72470444,0.0,0.0,-0.001,0,0
12112000,0.0,-0.0,1.621237,0.0,0.6890503,0.0,0.0,0.7247135,0.0,0.0,-0.001,0,0
12160000,0.0,-0.0,1.6212434,0.0,0.689048,0.0,0.0,0.72471577,0.0,0.0,-0.001,0,0
12208000,0.0,-0.0,1.6212494,0.0,0.6890458,0.0,0.0,0.7247179,0.0,0.0,-0.001,0,0
12256000,0.0,-0.0,1.6212751,0.0,0.68903655,0.0,0.0,0.7247267,0.0,0.0,-0.001,0,0
12312000,0.0,-0.0,1.6212982,0.0,0.68902814,0.0,0.0,0.7247346,0.0,0.0,-0.001,0,0
12360000,0.0,-0.0,1.6213518,0.0,0.6890087,0.0,0.0,0.72475314,0.0,0.0,-0.001,0,0
12408000,0.0,-0.0,1.6214592,0.0,0.6889698,0.0,0.0,0.72479004,0.0,0.0,-0.001,0,0
12456000,0.0,-0.0,1.6213781,0.0,0.68899924,0.0,0.0,0.72476214,0.0,0.0,-0.001,0,0
12512000,0.0,-0.0,1.6212753,0.0,0.6890364,0.0,0.0,0.7247268,0.0,0.0,-0.001,0,0
12560000,0.0,-0.0,1.6212194,0.0,0.6890567,0.0,0.0,0.7247074,0.0,0.0,-0.001,0,0
12608000,0.0,-0.0,1.62116,0.0,0.6890782,0.0,0.0,0.724687,0.0,0.0,-0.001,0,0
12656000,0.0,-0.0,1.6210088,0.0,0.68913305,0.0,0.0,0.7246348,0.0,0.0,-0.001,0,0
12712000,0.0,-0.0,1.6208915,0.0,0.68917555,0.0,0.0,0.7245944,0.0,0.0,-0.001,0,0
12760000,0.0,-0.0,1.6208787,0.0,0.68918014,0.0,0.0,0.72459006,0.0,0.0,-0.001,0,0
12808000,0.0,-0.0,1.6209236,0.0,0.68916386,0.0,0.0,0.7246055,0.0,0.0,-0.001,0,0
12856000,0.0,-0.0,1.6209127,0.0,0.68916786,0.0,0.0,0.7246018,0.0,0.0,-0.001,0,0
12912000,0.0,-0.0,1.6208447,0.0,0.6891925,0.0,0.0,0.7245784,0.0,0.0,-0.001,0,0
12960000,0.0,-0.0,1.6207954,0.0,0.68921036,0.0,0.0,0.72456133,0.0,0.0,-0.001,0,0
13016000,0.0,-0.0,1.620767,0.0,0.6892206,0.0,0.0,0.7245516,0.0,0.0,-0.001,0,0
13056000,0.0,-0.0,1.6207511,0.0,0.6892264,0.0,0.0,0.7245461,0.0,0.0,-0.001,0,0
13112000,0.0,-0.0,1.6207378,0.0,0.6892312,0.0,0.0,0.7245415,0.0,0.0,-0.001,0,0
13160000,0.0,-0.0,1.620784,0.0,0.6892144,0.0,0.0,0.7245574,0.0,0.0,-0.001,0,0
13208000,0.0,-0.0,1.6207341,0.0,0.6892325,0.0,0.0,0.7245402,0.0,0.0,-0.001,0,0
13256000,0.0,-0.0,1.6206763,0.0,0.68925345,0.0,0.0,0.7245204,0.0,0.0,-0.001,0,0
13312000,0.0,-0.0,1.620596,0.0,0.68928254,0.0,0.0,0.72449267,0.0,0.0,-0.001,0,0
13360000,0.0,-0.0,1.6205851,0.0,0.68928653,0.0,0.0,0.72448885,0.0,0.0,-0.001,0,0
13408000,0.0,-0.0,1.6206967,0.0,0.68924606,0.0,0.0,0.7245274,0.0,0.0,-0.001,0,0
13456000,0.0,-0.0,1.6208085,0.0,0.6892056,0.0,0.0,0.72456586,0.0,0.0,-0.001,0,0
13512000,0.0,-0.0,1.6210034,0.0,0.68913496,0.0,0.0,0.72463304,0.0,0.0,-0.001,0,0
13560000,0.0,-0.0,1.6211014,0.0,0.6890995,0.0,0.0,0.7246667,0.0,0.0,-0.001,0,0
13608000,0.0,-0.0,1.6214635,0.0,0.68896824,0.0,0.0,0.7247915,0.0,0.0,-0.001,0,0
13656000,0.0,-0.0,1.6218421,0.0,0.68883103,0.0,0.0,0.72492194,0.0,0.0,-0.001,0,0
13712000,0.0,-0.0,1.6221505,0.0,0.6887192,0.0,0.0,0.7250282,0.0,0.0,-0.001,0,0
13760000,0.0,-0.0,1.6225948,0.0,0.68855816,0.0,0.0,0.7251811,0.0,0.0,-0.001,0,0
13808000,0.0,-0.0,1.6228006,0.0,0.68848354,0.0,0.0,0.725252,0.0,0.0,-0.001,0,0
13864000,0.0,-0.0,1.6229105,0.0,0.68844366,0.0,0.0,0.7252899,0.0,0.0,-0.001,0,0
13912000,0.0,-0.0,1.622821,0.0,0.68847615,0.0,0.0,0.725259,0.0,0.0,-0.001,0,0
13960000,0.0,-0.0,1.6226869,0.0,0.6885248,0.0,0.0,0.7252128,0.0,0.0,-0.001,0,0
14016000,0.0,-0.0,1.622576,0.0,0.688565,0.0,0.0,0.7251746,0.0,0.0,-0.001,0,0
14064000,0.0,-0.0,1.6225287,0.0,0.6885821,0.0,0.0,0.7251584,0.0,0.0,-0.001,0,0
14112000,0.0,-0.0,1.6224643,0.0,0.6886055,0.0,0.0,0.72513616,0.0,0.0,-0.001,0,0
14160000,0.0,-0.0,1.6223042,0.0,0.68866354,0.0,0.0,0.725081,0.0,0.0,-0.001,0,0
14216000,0.0,-0.0,1.6220067,0.0,0.68877137,0.0,0.0,0.7249786,0.0,0.0,-0.001,0,0
14264000,0.0,-0.0,1.6217557,0.0,0.6888623,0.0,0.0,0.7248922,0.0,0.0,-0.001,0,0
14312000,0.0,-0.0,1.6215068,0.0,0.68895257,0.0,0.0,0.7248064,0.0,0.0,-0.001,0,0
14360000,0.0,-0.0,1.6212285,0.0,0.6890534,0.0,0.0,0.7247106,0.0,0.0,-0.001,0,0
14416000,0.0,-0.0,1.6210077,0.0,0.6891334,0.0,0.0,0.72463447,0.0,0.0,-0.001,0,0
14464000,0.0,-0.0,1.620852,0.0,0.68918985,0.0,0.0,0.7245809,0.0,0.0,-0.001,0,0
14512000,0.0,-0.0,1.6208171,0.0,0.6892025,0.0,0.0,0.72456884,0.0,0.0,-0.001,0,0
14560000,0.0,-0.0,1.6208203,0.0,0.6892013,0.0,0.0,0.7245699,0.0,0.0,-0.001,0,0
14608000,0.0,-0.0,1.6208773,0.0,0.6891807,0.0,0.0,0.7245895,0.0,0.0,-0.001,0,0
14656000,0.0,-0.0,1.6209521,0.0,0.68915355,0.0,0.0,0.72461534,0.0,0.0,-0.001,0,0
14712000,0.0,-0.0,1.6210343,0.0,0.6891238,0.0,0.0,0.72464365,0.0,0.0,-0.001,0,0
14760000,0.0,-0.0,1.6208868,0.0,0.6891772,0.0,0.0,0.7245928,0.0,0.0,-0.001,0,0
14808000,0.0,-0.0,1.6207356,0.0,0.689232,0.0,0.0,0.72454077,0.0,0.0,-0.001,0,0
14856000,0.0,-0.0,1.6206175,0.0,0.6892748,0.0,0.0,0.7245,0.0,0.0,-0.001,0,0
14912000,0.0,-0.0,1.6203347,0.0,0.6893772,0.0,0.0,0.72440255,0.0,0.0,-0.001,0,0
14960000,0.0,-0.0,1.6201333,0.0,0.68945014,0.0,0.0,0.72433317,0.0,0.0,-0.001,0,0
15008000,0.0,-0.0,1.6199338,0.0,0.6895224,0.0,0.0,0.7242644,0.0,0.0,-0.001,0,0
15056000,0.0,-0.0,1.6198986,0.0,0.68953514,0.0,0.0,0.7242522,0.0,0.0,-0.001,0,0
15112000,0.0,-0.0,1.6199638,0.0,0.68951154,0.0,0.0,0.7242747,0.0,0.0,-0.001,0,0
15160000,0.0,-0.0,1.620004,0.0,0.68949693,0.0,0.0,0.7242886,0.0,0.0,-0.001,0,0
15216000,0.0,-0.0,1.6199952,0.0,0.68950015,0.0,0.0,0.7242855,0.0,0.0,-0.001,0,0
15256000,0.0,-0.0,1.6199574,0.0,0.68951386,0.0,0.0,0.72427255,0.0,0.0,-0.001,0,0
15312000,0.0,-0.0,1.619904,0.0,0.6895332,0.0,0.0,0.7242542,0.0,0.0,-0.001,0,0
15360000,0.0,-0.0,1.6198722,0.0,0.68954474,0.0,0.0,0.7242431,0.0,0.0,-0.001,0,0
15408000,0.0,-0.0,1.6198204,0.0,0.68956345,0.0,0.0,0.72422534,0.0,0.0,-0.001,0,0
15456000,0.0,-0.0,1.619698,0.0,0.6896078,0.0,0.0,0.724183,0.0,0.0,-0.001,0,0
15512000,0.0,-0.0,1.6194779,0.0,0.6896875,0.0,0.0,0.7241072,0.0,0.0,-0.001,0,0
15560000,0.0,-0.0,1.619367,0.0,0.68972766,0.0,0.0,0.72406894,0.0,0.0,-0.001,0,0
15608000,0.0,-0.0,1.6194109,0.0,0.68971175,0.0,0.0,0.72408414,0.0,0.0,-0.001,0,0
15656000,0.0,-0.0,1.6194689,0.0,0.68969077,0.0,0.0,0.72410405,0.0,0.0,-0.001,0,0
15712000,0.0,-0.0,1.6195652,0.0,0.68965584,0.0,0.0,0.72413737,0.0,0.0,-0.001,0,0
15760000,0.0,-0.0,1.6195945,0.0,0.6896453,0.0,0.0,0.7241474,0.0,0.0,-0.001,0,0
15808000,0.0006708197,0.0005150305,1.6195223,0.0,0.6896714,4.485001e-05,0.0004204787,0.7241224,0.0,0.0,-0.016246265,0,0
15856000,0.0010784038,0.00017069804,1.6194849,0.0,0.68968487,0.0003100774,0.00044930514,0.7241095,0.0,0.0,-0.022799984,0,0
15912000,0.00076978677,5.8947637e-05,1.6195117,0.0,0.6896752,0.00024410889,0.0002990359,0.72411877,0.0,0.0,-0.031009058,0,0
15960000,0.00064912677,-0.00023552377,1.6195157,0.0,0.6896737,0.00030911659,0.0001538056,0.7241202,0.0,0.0,-0.038743954,0,0
16008000,0.0006902298,-2.0497548e-05,1.6194608,0.0,0.6896936,0.00024544468,0.00024282956,0.7241012,0.0,0.0,-0.046792906,0,0
16056000,0.0006834957,9.834018e-05,1.6194912,0.0,0.68968266,0.00020009292,0.00028137537,0.7241117,0.0,0.0,-0.05523468,0,0
16112000,0.00074068975,0.00021777343,1.6194093,0.0,0.6897123,0.00017658832,0.00034326105,0.7240834,0.0,0.0,-0.06545862,0,0
16160000,0.00072360074,0.00026916267,1.6193472,0.0,0.68973476,0.00015210107,0.00035479132,0.7240621,0.0,0.0,-0.074887626,0,0
16216000,0.0008418325,8.108056e-05,1.619255,0.0,0.68976814,0.00026098225,0.00033271947,0.7240303,0.0,0.0,-0.086333334,0,0
16264000,0.0012585227,0.0005687438,1.6191157,0.0,0.68981856,0.00022819603,0.000651739,0.723982,0.0,0.0,-0.096522,0,0
16312000,0.0013798679,0.00069292897,1.6189852,0.0,0.6898658,0.00022514335,0.0007384828,0.7239368,0.0,0.0,-0.10714663,0,0
16360000,0.001489733,0.0004060568,1.6188408,0.0,0.68991804,0.00036692715,0.0006792723,0.723887,0.0,0.0,-0.11843472,0,0
16408000,0.001759464,0.0004920851,1.6187273,0.0,0.68995905,0.00042888173,0.00080655166,0.72384787,0.0,0.0,-0.13009384,0,0
16456000,0.0014798903,0.000559751,1.6186935,0.0,0.6899714,0.00030795689,0.00072870526,0.72383624,0.0,0.0,-0.14218473,0,0
16512000,0.001413162,0.00071159634,1.6186564,0.0,0.6899848,0.00022999503,0.0007569354,0.7238235,0.0,0.0,-0.15678905,0,0
16560000,0.0015038769,0.0006929427,1.6186811,0.0,0.68997586,0.00026803225,0.000783334,0.72383195,0.0,0.0,-0.16985887,0,0
16608000,0.0014468525,0.00064032356,1.6187438,0.0,0.68995315,0.00026737995,0.0007445514,0.72385365,0.0,0.0,-0.18328255,0,0
16656000,0.0018585302,0.00049127906,1.6188521,0.0,0.68991387,0.0004632967,0.00084215694,0.7238909,0.0,0.0,-0.19703595,0,0
16712000,0.001745377,0.0005399264,1.618828,0.0,0.68992263,0.00040666576,0.00081797794,0.72388256,0.0,0.0,-0.21351165,0,0
16760000,0.0020433594,0.00068836566,1.6186966,0.0,0.6899702,0.00045579617,0.0009770058,0.723837,0.0,0.0,-0.22822371,0,0
16808000,0.0019869644,0.0005860965,1.6185603,0.0,0.6900194,0.00047341667,0.000921282,0.7237902,0.0,0.0,-0.2434871,0,0
16856000,0.002019567,0.0008994068,1.6184716,0.0,0.6900516,0.00037132553,0.0010411592,0.72375935,0.0,0.0,-0.2590425,0,0
16912000,0.0017796544,0.0008756361,1.6184705,0.0,0.69005203,0.00029715203,0.00094613805,0.723759,0.0,0.0,-0.2777544,0,0
16960000,0.0021632737,0.0007519698,1.6184713,0.0,0.6900517,0.00047426266,0.0010422941,0.7237592,0.0,0.0,-0.29428458,0,0
17008000,0.0025635639,0.0006793357,1.6183956,0.0,0.690079,0.0006387019,0.001162066,0.72373295,0.0,0.0,-0.3112322,0,0
17056000,0.0023416176,0.0009767984,1.6183487,0.0,0.690096,0.00045450754,0.0011843768,0.72371674,0.0,0.0,-0.32801133,0,0
17112000,0.0022449978,0.00045298564,1.618312,0.0,0.6901092,0.000610733,0.0009686625,0.7237043,0.0,0.0,-0.33422616,0,0
17160000,0.0028127385,0.00056031346,1.6182241,0.0,0.69014084,0.000767851,0.0012111008,0.72367376,0.0,0.0,-0.33836153,0,0
17216000,0.0028011512,0.0006156314,1.6181415,0.0,0.69017076,0.00074388715,0.0012259658,0.72364515,0.0,0.0,-0.34442848,0,0
17264000,0.0027224529,0.0004665289,1.6180252,0.0,0.69021285,0.0007707448,0.0011459934,0.72360504,0.0,0.0,-0.34882414,0,0
17312000,0.0026376322,0.0002761369,1.6178839,0.0,0.69026387,0.00081043114,0.0010495421,0.7235566,0.0,0.0,-0.35586962,0,0
17360000,0.0025826378,0.00035343185,1.617742,0.0,0.6903153,0.0007635623,0.0010562693,0.7235076,0.0,0.0,-0.3604662,0,0
17416000,0.0026218733,0.0005275818,1.6175996,0.0,0.69036686,0.0007141856,0.0011305212,0.72345823,0.0,0.0,-0.36690238,0,0
17456000,0.0024617058,0.0003726825,1.6174695,0.0,0.6904139,0.0007149964,0.0010190689,0.7234136,0.0,0.0,-0.37159857,0,0
17512000,0.0026951283,-8.9754845e-05,1.6173844,0.0,0.6904444,0.0009628823,0.0009438218,0.7233842,0.0,0.0,-0.379156,0,0
17560000,0.0024352074,0.00017388053,1.617174,0.0,0.6905207,0.00077789597,0.0009407413,0.7233116,0.0,0.0,-0.38413182,0,0
17616000,0.0029700997,1.9614906e-06,1.61697,0.0,0.6905942,0.0010248583,0.0010747269,0.723241,0.0,0.0,-0.39082187,0,0
17656000,0.0024149616,9.6021366e-05,1.6168737,0.0,0.6906293,0.00079920026,0.00090641767,0.72320795,0.0,0.0,-0.3960232,0,0
17712000,0.002537182,-3.312325e-06,1.6166927,0.0,0.6906947,0.00087740715,0.00091623235,0.72314537,0.0,0.0,-0.4045259,0,0
17760000,0.0028854033,-0.0001382088,1.6166035,0.0,0.69072664,0.0010464836,0.0009955069,0.7231145,0.0,0.0,-0.41020885,0,0
17808000,0.0028879254,6.7392546e-05,1.6165396,0.0,0.6907499,0.0009730521,0.0010673949,0.7230923,0.0,0.0,-0.4170444,0,0
17856000,0.0024839377,-0.000170118,1.6165377,0.0,0.69075066,0.00091939676,0.00083930354,0.72309196,0.0,0.0,-0.42274106,0,0
17912000,0.002473022,-0.00028818063,1.6165988,0.0,0.6907285,0.00095828756,0.0007946104,0.7231132,0.0,0.0,-0.4319446,0,0
17960000,0.0026211166,-0.00040385747,1.6166157,0.0,0.6907223,0.001051251,0.000808213,0.7231189,0.0,0.0,-0.43806446,0,0
18008000,0.0025604677,-0.0004888155,1.616636,0.0,0.6907149,0.001061015,0.0007569545,0.72312605,0.0,0.0,-0.4452503,0,0
18056000,0.002553429,-0.0001910904,1.6166823,0.0,0.6906983,0.00095091783,0.00085725315,0.72314185,0.0,0.0,-0.45178357,0,0
18112000,0.002760657,-9.0407724e-05,1.6166945,0.0,0.69069386,0.0009860742,0.0009669574,0.7231461,0.0,0.0,-0.46198264,0,0
18160000,0.0031433883,-0.00011615984,1.6167449,0.0,0.69067544,0.0011275327,0.0010964776,0.72316325,0.0,0.0,-0.4685745,0,0
18216000,0.0036039297,-7.428326e-05,1.6168016,0.0,0.69065464,0.001271397,0.0012774987,0.7231826,0.0,0.0,-0.47665974,0,0
18256000,0.0035210429,-6.268378e-06,1.6167612,0.0,0.69066936,0.0012182061,0.0012709904,0.7231687,0.0,0.0,-0.4829655,0,0
18312000,0.0032865508,0.00021596122,1.6165726,0.0,0.69073784,0.001056992,0.0012628454,0.7231034,0.0,0.0,-0.4935373,0,0
18360000,0.0030881562,6.361808e-06,1.6164339,0.0,0.690788,0.0010643314,0.0011186526,0.7230558,0.0,0.0,-0.50083154,0,0
18408000,0.003361885,-0.00015042054,1.6162363,0.0,0.69085914,0.0012156718,0.0011633416,0.72298753,0.0,0.0,-0.5087789,0,0
18456000,0.0033819168,-8.2121616e-05,1.6161485,0.0,0.6908909,0.0011979543,0.0011941228,0.7229571,0.0,0.0,-0.5161553,0,0
18512000,0.0036692226,-8.645978e-05,1.6160606,0.0,0.6909225,0.0012988278,0.001296422,0.7229265,0.0,0.0,-0.5277783,0,0
18560000,0.004326885,0.00033640405,1.6160724,0.0,0.6909181,0.0013731649,0.0016802336,0.7229298,0.0,0.0,-0.5356084,0,0
18608000,0.0043478273,0.00022518412,1.61612,0.0,0.6909008,0.0014205626,0.0016494157,0.72294635,0.0,0.0,-0.5438039,0,0
18656000,0.00419195,0.00026562618,1.6162372,0.0,0.69085854,0.0013520019,0.0016071199,0.722987,0.0,0.0,-0.5515731,0,0
18712000,0.0046033952,-0.00016744711,1.6162783,0.0,0.6908431,0.0016506473,0.0016062927,0.72300106,0.0,0.0,-0.5638729,0,0
18760000,0.004552603,0.00012751883,1.6163167,0.0,0.69082946,0.0015264398,0.0016898481,0.72301424,0.0,0.0,-0.571914,0,0
18808000,0.005025887,0.000113527385,1.6162946,0.0,0.6908371,0.0016949973,0.0018560918,0.7230062,0.0,0.0,-0.60608137,0,0
18856000,0.0051118312,-0.00046313688,1.616245,0.0,0.6908544,0.0019331917,0.0016879225,0.72298944,0.0,0.0,-0.6144388,0,0
18912000,0.0054491158,-0.00083999924,1.6160822,0.0,0.6909125,0.0021860693,0.0016794926,0.72293323,0.0,0.0,-0.6275439,0,0
18960000,0.005428721,-0.0008300762,1.616,0.0,0.69094217,0.002175506,0.0016754593,0.7229048,0.0,0.0,-0.6362197,0,0
19008000,0.0055934293,-0.00065062236,1.6159303,0.0,0.6909674,0.0021676063,0.0017969139,0.7228804,0.0,0.0,-0.64516616,0,0
19056000,0.0049584107,-0.00057355384,1.6158364,0.0,0.69100213,0.0019204371,0.0015939287,0.72284853,0.0,0.0,-0.6537541,0,0
19112000,0.0049725627,-0.00043408424,1.6157601,0.0,0.6910298,0.0018749816,0.0016471585,0.722822,0.0,0.0,-0.66758966,0,0
19160000,0.005024737,-0.000379017,1.6155788,0.0,0.69109535,0.0018732597,0.0016848719,0.7227592,0.0,0.0,-0.67666644,0,0
19208000,0.0042667943,-0.00052147545,1.6154625,0.0,0.69113785,0.0016629149,0.001361644,0.72271985,0.0,0.0,-0.6849742,0,0
19264000,0.0031817448,-9.643267e-05,1.6152643,0.0,0.69121057,0.0011344724,0.0011163198,0.7226517,0.0,0.0,-0.6923643,0,0
19312000,0.002867989,-9.121665e-06,1.6150445,0.0,0.6912902,0.0009946027,0.0010330176,0.72257584,0.0,0.0,-0.7026672,0,0
19360000,0.0019115914,-0.0002032427,1.6150999,0.0,0.69127053,0.00073414476,0.00062040583,0.7225954,0.0,0.0,-0.7080976,0,0
19408000,0.00017862432,-0.00029547024,1.6158341,0.0,0.6910056,0.00016850544,-3.7526555e-05,0.7228494,0.0,0.0,-0.71311885,0,0
19456000,-0.0015423197,-0.00060254877,1.6173863,0.0,0.6904443,-0.00031450545,-0.0007658589,0.7233851,0.0,0.0,-0.71797633,0,0
19512000,-0.0059754406,-0.0034609477,1.6201649,0.0,0.68943834,-0.000806392,-0.0033571809,0.72433615,0.0,0.0,-0.7282126,0,0
19560000,-0.015028439,-0.010424244,1.62213,0.0,0.68872625,-0.0013963499,-0.009037452,0.7249638,0.0,0.0,-0.73384416,0,0
19608000,-0.023429507,-0.018561853,1.6234287,0.0,0.68825775,-0.0013297567,-0.01488524,0.72531235,0.0,0.0,-0.7385514,0,0
19664000,-0.03185452,-0.02727448,1.6240393,0.0,0.6880406,-0.0010623313,-0.020937908,0.7253692,0.0,0.0,-0.7415763,0,0
19712000,-0.037499517,-0.033402964,1.6240675,0.0,0.68803436,-0.0007803552,-0.025092242,0.7252436,0.0,0.0,-0.7490233,0,0
19760000,-0.04186019,-0.037812527,1.6238918,0.0,0.6881012,-0.0006830314,-0.028189173,0.7250666,0.0,0.0,-0.75004834,0,0
19808000,-0.04450997,-0.04041276,1.6235857,0.0,0.6882141,-0.000655914,-0.030043472,0.72488505,0.0,0.0,-0.750701,0,0
19856000,-0.045889396,-0.042115383,1.6233548,0.0,0.6882993,-0.0005165483,-0.031128665,0.7247583,0.0,0.0,-0.75023794,0,0
19912000,-0.046848502,-0.042304594,1.6231586,0.0,0.6883703,-0.00078109186,-0.0315412,0.724673,0.0,0.0,-0.7547131,0,0
19960000,-0.047305956,-0.04196481,1.6230348,0.0,0.6884145,-0.0010637254,-0.031590056,0.72462857,0.0,0.0,-0.75367016,0,0
20008000,-0.047987245,-0.042047333,1.6229832,0.0,0.6884329,-0.0012691276,-0.031865243,0.72459865,0.0,0.0,-0.7518497,0,0
20064000,-0.048527204,-0.042257473,1.6229081,0.0,0.68846005,-0.0013799891,-0.03213307,0.7245608,0.0,0.0,-0.7401263,0,0
20112000,-0.048954092,-0.042759344,1.6228477,0.0,0.6884824,-0.0013459247,-0.03246025,0.72452503,0.0,0.0,-0.73068804,0,0
20160000,-0.04981581,-0.04313459,1.6227652,0.0,0.68851227,-0.0015078459,-0.032901384,0.72447646,0.0,0.0,-0.7210864,0,0
20208000,-0.05017964,-0.044205286,1.6226324,0.0,0.6885618,-0.0012470704,-0.033401262,0.72440696,0.0,0.0,-0.7078559,0,0
20256000,-0.0519943,-0.045460913,1.6224937,0.0,0.68861276,-0.0014189436,-0.034490187,0.7243072,0.0,0.0,-0.70749056,0,0
20312000,-0.053340998,-0.04588946,1.6222277,0.0,0.6887087,-0.0017319203,-0.03512502,0.7241847,0.0,0.0,-0.7192643,0,0
20360000,-0.05436944,-0.046337742,1.6220093,0.0,0.6887877,-0.0019274504,-0.03565136,0.7240834,0.0,0.0,-0.72275674,0,0
20408000,-0.054640505,-0.046002157,1.6218141,0.0,0.68885744,-0.0021459234,-0.035633866,0.7240174,0.0,0.0,-0.72192186,0,0
20464000,-0.05401174,-0.045526158,1.6216356,0.0,0.6889218,-0.0021050265,-0.035242323,0.7239753,0.0,0.0,-0.7215226,0,0
20512000,-0.053534385,-0.0452789,1.6215203,0.0,0.68896353,-0.0020322222,-0.034984346,0.7239483,0.0,0.0,-0.7271437,0,0
20560000,-0.05280481,-0.044688016,1.6214112,0.0,0.68900263,-0.0019969102,-0.034516856,0.72393364,0.0,0.0,-0.72632504,0,0
20608000,-0.052245606,-0.04463999,1.621297,0.0,0.6890444,-0.0018236242,-0.034297805,0.7239048,0.0,0.0,-0.72288907,0,0
20656000,-0.0519792,-0.0444464,1.6211456,0.0,0.68909913,-0.0018045745,-0.03413463,0.72386044,0.0,0.0,-0.7213212,0,0
20712000,-0.051644996,-0.044140548,1.6210169,0.0,0.68914545,-0.0018024262,-0.033908308,0.7238269,0.0,0.0,-0.7250961,0,0
20760000,-0.05100634,-0.04364432,1.620906,0.0,0.6891853,-0.0017640074,-0.033506278,0.7238078,0.0,0.0,-0.7239178,0,0
20808000,-0.05033734,-0.04327337,1.6207985,0.0,0.6892242,-0.001669648,-0.033136394,0.7237881,0.0,0.0,-0.7204942,0,0
20856000,-0.049495164,-0.04219401,1.6206369,0.0,0.6892815,-0.0017730652,-0.032459922,0.7237638,0.0,0.0,-0.7197889,0,0
20912000,-0.048078455,-0.0416359,1.6205198,0.0,0.6893242,-0.0014888411,-0.031755004,0.7237552,0.0,0.0,-0.7239933,0,0
20960000,-0.04684769,-0.040596265,1.6203547,0.0,0.68938327,-0.0014437769,-0.030951532,0.7237338,0.0,0.0,-0.72314644,0,0
21016000,-0.04573504,-0.039826114,1.6201992,0.0,0.6894392,-0.0013415538,-0.030283581,0.723709,0.0,0.0,-0.7186629,0,0
21064000,-0.044971682,-0.03909285,1.6199919,0.0,0.6895137,-0.0013470615,-0.02975468,0.72366,0.0,0.0,-0.717103,0,0
21112000,-0.043945365,-0.03778355,1.6197375,0.0,0.6896046,-0.0014710531,-0.02893215,0.72360647,0.0,0.0,-0.721598,0,0
21160000,-0.04329886,-0.037015554,1.6194704,0.0,0.6897006,-0.0015300156,-0.028433453,0.7235346,0.0,0.0,-0.72052485,0,0
21208000,-0.0423766,-0.036197517,1.6192399,0.0,0.6897835,-0.0015113453,-0.02781776,0.7234795,0.0,0.0,-0.7170378,0,0
21256000,-0.04117418,-0.03524193,1.6190202,0.0,0.6898625,-0.0014455387,-0.027053315,0.7234334,0.0,0.0,-0.7159693,0,0
21312000,-0.039837275,-0.034118004,1.6189648,0.0,0.689882,-0.0013919498,-0.0261823,0.72344697,0.0,0.0,-0.72015154,0,0
21360000,-0.038533125,-0.03310386,1.6189895,0.0,0.6898726,-0.0013088592,-0.025360985,0.7234853,0.0,0.0,-0.71923727,0,0
21408000,-0.03705408,-0.03221444,1.619064,0.0,0.6898455,-0.0011197058,-0.024519386,0.7235404,0.0,0.0,-0.71608204,0,0
21456000,-0.036666997,-0.031461585,1.6191025,0.0,0.6898309,-0.0012582431,-0.024119856,0.7235676,0.0,0.0,-0.7145829,0,0
21512000,-0.03570326,-0.030663969,1.6192085,0.0,0.6897922,-0.0012133132,-0.0234963,0.72362494,0.0,0.0,-0.717956,0,0
21560000,-0.034762803,-0.029754758,1.6192344,0.0,0.6897823,-0.0012177929,-0.022842636,0.72365534,0.0,0.0,-0.7168984,0,0
21608000,-0.03370638,-0.02906803,1.6190553,0.0,0.689847,-0.0011040327,-0.022223568,0.7236131,0.0,0.0,-0.713617,0,0
21656000,-0.03290342,-0.028215036,1.6189195,0.0,0.68989563,-0.0011373074,-0.021638902,0.7235845,0.0,0.0,-0.712922,0,0
21712000,-0.03187994,-0.027218485,1.618686,0.0,0.6899796,-0.0011474044,-0.02092488,0.72352535,0.0,0.0,-0.7167024,0,0
21760000,-0.030659746,-0.026758393,1.618584,0.0,0.6900166,-0.00089400023,-0.020324752,0.7235075,0.0,0.0,-0.71584964,0,0
21808000,-0.029387267,-0.026468506,1.6184704,0.0,0.690058,-0.00056101667,-0.019764416,0.7234839,0.0,0.0,-0.71292484,0,0
21856000,-0.028988382,-0.025726361,1.6184485,0.0,0.69006544,-0.0006921655,-0.019364158,0.72348756,0.0,0.0,-0.71165663,0,0
21912000,-0.028299473,-0.024904016,1.6183754,0.0,0.69009143,-0.0007527423,-0.01883129,0.72347677,0.0,0.0,-0.71496505,0,0
21960000,-0.027497442,-0.024671225,1.6182681,0.0,0.69013035,-0.00056123384,-0.018460838,0.7234494,0.0,0.0,-0.7140988,0,0
22008000,-0.026402574,-0.024197351,1.6181935,0.0,0.6901573,-0.00035556877,-0.017901316,0.7234379,0.0,0.0,-0.7111762,0,0
22056000,-0.025540803,-0.02339383,1.6181552,0.0,0.6901708,-0.00034925668,-0.0173124,0.7234393,0.0,0.0,-0.71049136,0,0
22112000,-0.024352135,-0.022365198,1.6181009,0.0,0.6901901,-0.000311698,-0.016527563,0.72343934,0.0,0.0,-0.71403867,0,0
22160000,-0.023471966,-0.022002291,1.6179913,0.0,0.69022965,-0.00014014103,-0.016083978,0.72341156,0.0,0.0,-0.7132591,0,0
22208000,-0.02271708,-0.021568198,1.6178348,0.0,0.6902861,-3.7897214e-05,-0.015661152,0.72336704,0.0,0.0,-0.7102068,0,0
22256000,-0.022267237,-0.021550765,1.6164258,0.0,0.69079554,0.00010014074,-0.015492511,0.7228842,0.0,0.0,-0.7091061,0,0
22312000,-0.021599924,-0.020828983,1.6182836,0.0,0.6901235,8.36232e-05,-0.015002001,0.723536,0.0,0.0,-0.71217877,0,0
22360000,-0.021269085,-0.020333437,1.6196717,0.0,0.689621,2.868362e-05,-0.014711344,0.724021,0.0,0.0,-0.7114798,0,0
22416000,-0.020287348,-0.019750789,1.6206996,0.0,0.6892485,0.00016350303,-0.014155001,0.72438675,0.0,0.0,-0.7080674,0,0
22456000,-0.019746564,-0.019151771,1.620998,0.0,0.68914026,0.00013491901,-0.013752716,0.72449744,0.0,0.0,-0.70784765,0,0
22512000,-0.019051632,-0.01864421,1.6210921,0.0,0.689106,0.00019110327,-0.013326111,0.72453797,0.0,0.0,-0.7061051,0,0
22560000,-0.01834183,-0.018333368,1.620903,0.0,0.6891743,0.00032181558,-0.012961921,0.7244796,0.0,0.0,-0.6980198,0,0
22616000,-0.017535254,-0.017642984,1.6206181,0.0,0.6892773,0.00034785565,-0.012431936,0.72439086,0.0,0.0,-0.6864824,0,0
22656000,-0.01685044,-0.016941378,1.6203818,0.0,0.68936265,0.00032830157,-0.011942174,0.7243179,0.0,0.0,-0.6782433,0,0
22712000,-0.016877597,-0.016296826,1.6201162,0.0,0.6894587,8.392198e-05,-0.011729888,0.72422993,0.0,0.0,-0.6640414,0,0
22760000,-0.016434945,-0.015565919,1.620208,0.0,0.6894253,-2.7671855e-05,-0.011317668,0.7242683,0.0,0.0,-0.65684307,0,0
22808000,-0.016183103,-0.015372837,1.6203562,0.0,0.6893715,-9.9620775e-06,-0.011159919,0.724322,0.0,0.0,-0.66080314,0,0
22856000,-0.015792979,-0.015316999,1.6205375,0.0,0.68930584,0.00010528125,-0.010999379,0.72438693,0.0,0.0,-0.6715512,0,0
22912000,-0.015310102,-0.015363509,1.6206769,0.0,0.68925536,0.00028930834,-0.01084049,0.72443736,0.0,0.0,-0.68375844,0,0
22960000,-0.014863089,-0.014927104,1.6207126,0.0,0.6892423,0.0002854588,-0.010528188,0.7244544,0.0,0.0,-0.6924346,0,0
23016000,-0.014029741,-0.013875489,1.62074,0.0,0.68923205,0.00019181962,-0.009863955,0.7244735,0.0,0.0,-0.7010613,0,0
23056000,-0.013311688,-0.013258902,1.6207316,0.0,0.68923503,0.00021586141,-0.009391383,0.72447693,0.0,0.0,-0.7060743,0,0
23112000,-0.01217128,-0.012546268,1.620844,0.0,0.6891941,0.00035119182,-0.008732697,0.7245241,0.0,0.0,-0.71341693,0,0
23160000,-0.0116860485,-0.012335925,1.6207825,0.0,0.68921626,0.00044193506,-0.008484451,0.72450584,0.0,0.0,-0.7169841,0,0
23216000,-0.011167117,-0.011905463,1.6207246,0.0,0.6892371,0.00046457988,-0.00814815,0.72448987,0.0,0.0,-0.7200203,0,0
23256000,-0.010753138,-0.0115451,1.6207436,0.0,0.68923014,0.00047677182,-0.007874004,0.7244995,0.0,0.0,-0.7200247,0,0
23312000,-0.010793858,-0.011491488,1.6207458,-0.0006078271,0.68922937,0.00044332483,-0.007870279,0.72450036,0.0,0.0,-0.7180906,0,0
23360000,-0.010413526,-0.011211366,1.6207458,-0.00050250255,0.6892293,0.00047291323,-0.0076359757,0.724503,0.0,0.0,-0.7148702,0,0
23408000,-0.0102547305,-0.010983234,1.6207458,-0.00057698425,0.68922925,0.00044499032,-0.007499839,0.7245044,0.0,0.0,-0.712517,0,0
23456000,-0.010502596,-0.010527909,1.6207458,-0.00047700416,0.6892293,0.00019462084,-0.007432727,0.7245051,0.0,0.0,-0.71002257,0,0
23512000,-0.0104232095,-0.010419403,1.6207458,-0.00023473133,0.68922925,0.00018267038,-0.0073665786,0.7245059,0.0,0.0,-0.7088422,0,0
23560000,-0.010275081,-0.010446355,1.6207458,-0.000194057,0.68922925,0.00024348147,-0.007322206,0.7245063,0.0,0.0,-0.70803237,0,0
23608000,-0.010752516,-0.009930263,1.6207458,-0.0002228204,0.6892292,-0.000108014385,-0.0073173153,0.7245064,0.0,0.0,-0.707998,0,0
23656000,-0.010863615,-0.010072447,1.6207458,-0.00018420999,0.68922925,-9.479237e-05,-0.0074065565,0.7245055,0.0,0.0,-0.70789665,0,0
23712000,-0.010808181,-0.009655946,1.6207458,-9.0648806e-05,0.68922913,-0.00022657531,-0.0072429515,0.7245072,0.0,0.0,-0.70849806,0,0
23760000,-0.010863324,-0.009802841,1.6207458,-7.494115e-05,0.68922913,-0.00019236261,-0.007313547,0.72450644,0.0,0.0,-0.7084004,0,0
23808000,-0.010717596,-0.009756396,1.6207458,-8.604905e-05,0.68922913,-0.00015896843,-0.0072447523,0.7245072,0.0,0.0,-0.7083722,0,0
23856000,-0.011177486,-0.009869008,1.6207458,-7.113843e-05,0.68922913,-0.00027665676,-0.007450153,0.72450507,0.0,0.0,-0.70712453,0,0
23912000,-0.011097624,-0.0099167405,1.6207458,-3.5006862e-05,0.68922913,-0.00023184317,-0.007437672,0.72450525,0.0,0.0,-0.7069887,0,0
23960000,-0.0110666985,-0.009873063,1.6207458,-2.8940858e-05,0.68922913,-0.00023700901,-0.0074114176,0.7245055,0.0,0.0,-0.7065281,0,0
24008000,-0.011539647,-0.0101194475,1.6207458,-3.323052e-05,0.6892292,-0.0003107357,-0.0076676477,0.72450274,0.0,0.0,-0.7062072,0,0
24064000,-0.01120466,-0.010177652,1.6207458,-2.747232e-05,0.68922925,-0.0001742085,-0.0075663542,0.7245039,0.0,0.0,-0.70611876,0,0
24112000,-0.011324086,-0.010377357,1.6207458,-1.3518991e-05,0.68922925,-0.00014301788,-0.007678434,0.7245027,0.0,0.0,-0.7074376,0,0
24160000,-0.011411754,-0.010611835,1.6207458,-1.1176415e-05,0.6892293,-8.8284396e-05,-0.007790991,0.72450143,0.0,0.0,-0.70746726,0,0
24208000,-0.012273826,-0.011141952,1.6207458,-1.2833e-05,0.68922937,-0.00019332024,-0.00828595,0.72449577,0.0,0.0,-0.7073107,0,0
24256000,-0.013931904,-0.012534476,1.6207458,-1.0609292e-05,0.68922967,-0.00026024663,-0.009366425,0.7244824,0.0,0.0,-0.7060494,0,0
24312000,-0.015134103,-0.0136671,1.6207458,-5.2207797e-06,0.68922997,-0.00026422561,-0.0101921875,0.7244709,0.0,0.0,-0.70575964,0,0
24360000,-0.01604468,-0.014434505,1.6207458,-4.316121e-06,0.68923014,-0.00030001544,-0.010786457,0.72446215,0.0,0.0,-0.70527184,0,0
24408000,-0.016088175,-0.015109574,1.6207458,-4.9558626e-06,0.6892304,-7.044607e-05,-0.011034822,0.7244582,0.0,0.0,-0.7051293,0,0
24464000,-0.016817918,-0.015131643,1.6207458,-4.097108e-06,0.6892303,-0.00031393187,-0.01130676,0.724454,0.0,0.0,-0.70528877,0,0
24512000,-0.0168129,-0.015690295,1.6207458,-2.0161665e-06,0.6892305,-0.000109820125,-0.011497437,0.7244509,0.0,0.0,-0.7064719,0,0
24560000,-0.016670736,-0.015632913,1.6207458,-1.6668041e-06,0.6892305,-8.1615486e-05,-0.0114261685,0.724452,0.0,0.0,-0.7068974,0,0
24608000,-0.017161584,-0.015813835,1.6207458,-1.9138606e-06,0.68923056,-0.00018522728,-0.011666306,0.72444814,0.0,0.0,-0.7067365,0,0
24664000,-0.018180048,-0.017054873,1.6207458,-1.582226e-06,0.689231,-8.661303e-05,-0.012462831,0.7244345,0.0,0.0,-0.70589453,0,0
24712000,-0.018292775,-0.01757316,1.6207458,-7.786054e-07,0.6892311,6.229864e-05,-0.012682241,0.72443056,0.0,0.0,-0.7067595,0,0
24760000,-0.018307174,-0.018040475,1.6207458,-6.4368834e-07,0.6892312,0.00022663207,-0.012848476,0.7244276,0.0,0.0,-0.7068172,0,0
24808000,-0.018427014,-0.018119877,1.6207458,-7.390968e-07,0.6892313,0.00021409853,-0.012919241,0.7244262,0.0,0.0,-0.7064735,0,0
24864000,-0.018423647,-0.018683732,1.6207458,-6.110258e-07,0.68923134,0.00041952674,-0.013112298,0.7244225,0.0,0.0,-0.7065012,0,0
24912000,-0.01844438,-0.018822309,1.6207458,-3.0068273e-07,0.68923134,0.0004625836,-0.013167556,0.72442144,0.0,0.0,-0.70780814,0,0
24960000,-0.018423064,-0.018789308,1.6207458,-2.4858028e-07,0.68923134,0.00045797447,-0.013148466,0.72442186,0.0,0.0,-0.7080526,0,0
25008000,-0.0185295,-0.018865354,1.6207458,-2.8542524e-07,0.6892314,0.00044884472,-0.013213219,0.7244206,0.0,0.0,-0.7073886,0,0
25056000,-0.018430328,-0.019467983,1.6207458,-2.3596662e-07,0.6892314,0.0007013369,-0.0133849345,0.72441727,0.0,0.0,-0.7072223,0,0
25112000,-0.018393027,-0.0197915,1.6207458,-1.16117995e-07,0.68923134,0.00083139056,-0.013482892,0.72441536,0.0,0.0,-0.7081434,0,0
25160000,-0.01841896,-0.020270674,1.6207458,-9.599702e-08,0.6892313,0.0009960443,-0.013657385,0.7244119,0.0,0.0,-0.70818204,0,0
25216000,-0.018311726,-0.020431887,1.6207458,-1.10225834e-07,0.6892312,0.0010914013,-0.01367409,0.7244116,0.0,0.0,-0.70694745,0,0
25256000,-0.018256377,-0.02033236,1.6207458,-9.1125855e-08,0.6892312,0.0010744202,-0.013619749,0.7244126,0.0,0.0,-0.7070027,0,0
25312000,-0.01827034,-0.020401804,1.6207458,-4.4842572e-08,0.6892312,0.0010947653,-0.0136487335,0.7244121,0.0,0.0,-0.7085594,0,0
25360000,-0.018055089,-0.01999917,1.6207458,-3.7072233e-08,0.68923116,0.0010230816,-0.01343204,0.7244164,0.0,0.0,-0.70850956,0,0
25408000,-0.018008929,-0.020277323,1.6207458,-4.2567134e-08,0.6892311,0.0011397566,-0.013511159,0.72441465,0.0,0.0,-0.70715034,0,0
25456000,-0.018380787,-0.019745585,1.6207458,-3.5191086e-08,0.68923134,0.00081897597,-0.013462639,0.7244157,0.0,0.0,-0.7065827,0,0
25512000,-0.0180366,-0.019259905,1.6207458,-1.7317356e-08,0.6892313,0.00076163985,-0.01317063,0.72442126,0.0,0.0,-0.70779926,0,0
25560000,-0.018114917,-0.01947004,1.6207458,-1.4316598e-08,0.6892313,0.00081077666,-0.013271398,0.7244194,0.0,0.0,-0.7077834,0,0
25608000,-0.01825105,-0.0192095,1.6207458,-1.6438626e-08,0.68923134,0.0006694772,-0.013230937,0.72442025,0.0,0.0,-0.70643836,0,0
25656000,-0.018595815,-0.018777778,1.6207458,-1.3590133e-08,0.6892314,0.00039426648,-0.013207066,0.7244207,0.0,0.0,-0.70632863,0,0
25712000,-0.018169928,-0.019021673,1.6207458,-6.687636e-09,0.6892313,0.0006293878,-0.013136838,0.72442204,0.0,0.0,-0.7082085,0,0
25760000,-0.018067716,-0.018458785,1.6207458,-5.5287996e-09,0.6892312,0.00046069533,-0.0129058715,0.7244264,0.0,0.0,-0.7083127,0,0
25808000,-0.018191002,-0.018463671,1.6207458,-6.348287e-09,0.6892313,0.00041997808,-0.0129522085,0.72442555,0.0,0.0,-0.70717084,0,0
25856000,-0.018201098,-0.019284675,1.6207458,-5.2482525e-09,0.6892313,0.0007139246,-0.013238747,0.7244201,0.0,0.0,-0.7060757,0,0
25912000,-0.019061875,-0.01956398,1.6207458,-2.5826385e-09,0.6892316,0.0005184717,-0.013646761,0.7244124,0.0,0.0,-0.7067428,0,0
25960000,-0.019012552,-0.01969685,1.6207458,-2.1351179e-09,0.6892316,0.00058360386,-0.013674676,0.7244118,0.0,0.0,-0.7064829,0,0
26008000,-0.019314578,-0.019826338,1.6207458,-2.4515883e-09,0.68923163,0.0005264312,-0.013828686,0.7244088,0.0,0.0,-0.7054025,0,0
26056000,-0.019310419,-0.02002188,1.6207458,-2.0267759e-09,0.6892317,0.0005987033,-0.013894553,0.7244075,0.0,0.0,-0.70570904,0,0
26112000,-0.019047964,-0.019279873,1.6207458,-9.973662e-10,0.6892316,0.00042034138,-0.013543834,0.7244144,0.0,0.0,-0.7073774,0,0
26160000,-0.01915013,-0.019314691,1.6207458,-8.2454216e-10,0.6892316,0.0003977465,-0.013592836,0.7244135,0.0,0.0,-0.707652,0,0
26208000,-0.01880651,-0.019207543,1.6207458,-9.46757e-10,0.6892315,0.0004773472,-0.013431457,0.7244165,0.0,0.0,-0.7067379,0,0
26256000,-0.017684354,-0.01932025,1.6207458,-7.8270257e-10,0.6892311,0.0009048907,-0.013063834,0.7244232,0.0,0.0,-0.70576495,0,0
26312000,-0.016879622,-0.019684847,1.6207458,-3.8516404e-10,0.68923056,0.0013142957,-0.012897973,0.7244261,0.0,0.0,-0.7060988,0,0
26360000,-0.016587656,-0.019572308,1.6207458,-3.1842265e-10,0.6892304,0.0013741428,-0.012753444,0.72442865,0.0,0.0,-0.7061052,0,0
26408000,-0.016301798,-0.019532217,1.6207458,-3.6561976e-10,0.6892302,0.0014581295,-0.012636086,0.7244308,0.0,0.0,-0.7056601,0,0
26456000,-0.016069062,-0.019814583,1.6207458,-3.0226502e-10,0.6892299,0.0016406268,-0.01264908,0.7244305,0.0,0.0,-0.70603365,0,0
26512000,-0.01618812,-0.01973255,1.6207458,-1.4874307e-10,0.68923,0.0015698798,-0.01266394,0.7244303,0.0,0.0,-0.7071784,0,0
26560000,-0.0162325,-0.01959897,1.6207458,-1.2296882e-10,0.68923014,0.0015061923,-0.012633986,0.72443086,0.0,0.0,-0.70748144,0,0
26608000,-0.016487932,-0.01910266,1.6207458,-1.4119543e-10,0.6892305,0.0012383697,-0.0125555005,0.72443223,0.0,0.0,-0.707074,0,0
26656000,-0.016710356,-0.018526193,1.6207458,-1.1672902e-10,0.68923074,0.0009528821,-0.0124374395,0.7244345,0.0,0.0,-0.7063216,0,0
26712000,-0.01687102,-0.018121954,1.6207458,-5.7441756e-11,0.68923086,0.0007510702,-0.012356351,0.724436,0.0,0.0,-0.7061531,0,0
26760000,-0.016968511,-0.01802078,1.6207458,-4.748822e-11,0.6892309,0.00068082206,-0.012356803,0.72443604,0.0,0.0,-0.705817,0,0
26808000,-0.017069634,-0.017473675,1.6207458,-5.4526994e-11,0.6892309,0.00044777352,-0.012204922,0.72443885,0.0,0.0,-0.7058298,0,0
26856000,-0.017256698,-0.017340614,1.6207458,-4.507853e-11,0.689231,0.00033510162,-0.012226829,0.7244385,0.0,0.0,-0.7063209,0,0
26912000,-0.017135916,-0.01738812,1.6207458,-2.2182919e-11,0.6892309,0.00039393638,-0.012199451,0.72443897,0.0,0.0,-0.706942,0,0
26960000,-0.0175599,-0.01728367,1.6207458,-1.8339054e-11,0.689231,0.00020998543,-0.012317036,0.724437,0.0,0.0,-0.70730823,0,0
27016000,-0.017499847,-0.0172272,1.6207458,-2.1057297e-11,0.689231,0.0002102246,-0.012275827,0.7244377,0.0,0.0,-0.70757216,0,0
27056000,-0.017412545,-0.01736014,1.6207458,-1.740848e-11,0.689231,0.00028847,-0.012290011,0.7244374,0.0,0.0,-0.7075301,0,0
27112000,-0.017123763,-0.017369233,1.6207458,-8.566626e-12,0.6892309,0.00039128185,-0.012188542,0.72443914,0.0,0.0,-0.70756257,0,0
27160000,-0.017346764,-0.01710823,1.6207458,-7.0821972e-12,0.6892309,0.0002198793,-0.012179384,0.7244393,0.0,0.0,-0.70743775,0,0
27208000,-0.017618617,-0.016990317,1.6207458,-8.131932e-12,0.6892309,8.3476785e-05,-0.0122372275,0.7244384,0.0,0.0,-0.70761836,0,0
27256000,-0.01810546,-0.01718615,1.6207458,-6.722827e-12,0.689231,-1.3350339e-05,-0.012481047,0.72443426,0.0,0.0,-0.70786816,0,0
27312000,-0.017921627,-0.017555263,1.6207458,-3.3082695e-12,0.6892311,0.0001837205,-0.012541639,0.724433,0.0,0.0,-0.7083893,0,0
27360000,-0.018288553,-0.01733163,1.6207458,-2.7350112e-12,0.68923104,-2.3744144e-05,-0.012597492,0.7244321,0.0,0.0,-0.7086278,0,0
27408000,-0.018138612,-0.016849577,1.6207458,-3.1403987e-12,0.68923086,-0.00014670714,-0.012377085,0.7244361,0.0,0.0,-0.7088002,0,0
27456000,-0.017477397,-0.016540734,1.6207458,-2.5962292e-12,0.6892308,-3.0726733e-05,-0.012031164,0.724442,0.0,0.0,-0.7079184,0,0
27512000,-0.01775602,-0.016561141,1.6207458,-1.2775912e-12,0.6892308,-0.000119350436,-0.01213912,0.7244401,0.0,0.0,-0.7073175,0,0
27560000,-0.017593537,-0.016340705,1.6207458,-1.0562097e-12,0.6892307,-0.0001432142,-0.012004311,0.7244425,0.0,0.0,-0.7074553,0,0
27608000,-0.017605126,-0.016295336,1.6207458,-1.2127627e-12,0.6892307,-0.00016364442,-0.011992876,0.72444266,0.0,0.0,-0.7077511,0,0
27656000,-0.017881619,-0.01604725,1.6207458,-1.0026148e-12,0.68923056,-0.00034880213,-0.012007547,0.72444254,0.0,0.0,-0.70817906,0,0
27712000,-0.017756736,-0.016185328,1.6207458,-4.933817e-13,0.6892306,-0.0002557429,-0.012009887,0.7244425,0.0,0.0,-0.7084712,0,0
27760000,-0.017832046,-0.016113428,1.6207458,-4.078883e-13,0.68923056,-0.00030774373,-0.012012393,0.7244424,0.0,0.0,-0.70871174,0,0
27808000,-0.017767582,-0.016002972,1.6207458,-4.683461e-13,0.68923056,-0.00032554442,-0.011950982,0.7244434,0.0,0.0,-0.70861936,0,0
27856000,-0.017292492,-0.015261989,1.6207458,-3.8719088e-13,0.68923026,-0.000430257,-0.011523576,0.7244506,0.0,0.0,-0.70767075,0,0
27912000,-0.016597213,-0.014940758,1.6207458,-1.9053468e-13,0.68923026,-0.00030702568,-0.011161042,0.7244563,0.0,0.0,-0.7069678,0,0
27960000,-0.016433742,-0.015021489,1.6207458,-1.5751875e-13,0.6892303,-0.00022144422,-0.011129645,0.7244568,0.0,0.0,-0.70689756,0,0
28008000,-0.016457967,-0.014722116,1.6207458,-1.8086642e-13,0.68923014,-0.00033824806,-0.011035265,0.7244584,0.0,0.0,-0.70728016,0,0
28064000,-0.016571386,-0.014409343,1.6207458,-1.495258e-13,0.68923,-0.00049064116,-0.010968577,0.7244594,0.0,0.0,-0.7075583,0,0
28112000,-0.016538288,-0.014075283,1.6207458,-7.35809e-14,0.68922985,-0.0006002565,-0.0108414795,0.72446144,0.0,0.0,-0.70802295,0,0
28160000,-0.016765753,-0.014341548,1.6207458,-6.083076e-14,0.6892299,-0.00058218313,-0.011015623,0.7244587,0.0,0.0,-0.70853823,0,0
28208000,-0.016602766,-0.014352423,1.6207458,-6.984719e-14,0.68922997,-0.00052207604,-0.010960331,0.7244596,0.0,0.0,-0.7084559,0,0
28256000,-0.016806703,-0.015195185,1.6207458,-5.774404e-14,0.6892303,-0.00028704808,-0.011324593,0.72445375,0.0,0.0,-0.7071633,0,0
28312000,-0.016645096,-0.015905723,1.6207458,-2.8415553e-14,0.6892306,2.6051415e-05,-0.0115108825,0.7244506,0.0,0.0,-0.7063629,0,0
28360000,-0.01678158,-0.016359273,1.6207458,-2.3491693e-14,0.68923074,0.00014332499,-0.0117166,0.7244471,0.0,0.0,-0.70610416,0,0
28408000,-0.01690897,-0.016716177,1.6207458,-2.697367e-14,0.6892308,0.00022871987,-0.011885719,0.7244444,0.0,0.0,-0.7059899,0,0
28456000,-0.017330851,-0.016910654,1.6207458,-2.2299659e-14,0.68923086,0.00015378634,-0.012105543,0.7244407,0.0,0.0,-0.70623654,0,0
28512000,-0.017423533,-0.016868241,1.6207458,-1.097355e-14,0.68923086,0.00010648248,-0.012124501,0.7244404,0.0,0.0,-0.70681036,0,0
28560000,-0.017783767,-0.016895182,1.6207458,-9.072048e-15,0.68923086,-7.900753e-06,-0.012264268,0.724438,0.0,0.0,-0.7074772,0,0
28608000,-0.01744981,-0.016876424,1.6207458,-1.04167206e-14,0.68923086,0.000100390374,-0.012136838,0.7244402,0.0,0.0,-0.7076634,0,0
28656000,-0.01722296,-0.016995983,1.6207458,-8.611707e-15,0.6892309,0.00022188049,-0.012095865,0.72444075,0.0,0.0,-0.706627,0,0
28712000,-0.016565284,-0.017251432,1.6207458,-4.237778e-15,0.6892308,0.0005410679,-0.011945659,0.72444314,0.0,0.0,-0.7059287,0,0
28760000,-0.016450977,-0.017083544,1.6207458,-3.5034536e-15,0.68923074,0.0005196378,-0.011846405,0.7244449,0.0,0.0,-0.7060034,0,0
28808000,-0.01621897,-0.017334936,1.6207458,-4.022741e-15,0.6892307,0.00069066347,-0.011848989,0.7244448,0.0,0.0,-0.7064133,0,0
28864000,-0.015988188,-0.01690432,1.6207458,-3.3256786e-15,0.6892306,0.0006141956,-0.011617018,0.7244486,0.0,0.0,-0.7068361,0,0
28912000,-0.016510297,-0.017005201,1.6207458,-1.6365498e-15,0.68923074,0.00047081444,-0.011840898,0.72444504,0.0,0.0,-0.7075865,0,0
28960000,-0.016394984,-0.017154675,1.6207458,-1.3529677e-15,0.68923074,0.0005647026,-0.011850634,0.72444487,0.0,0.0,-0.7080522,0,0
29008000,-0.016684698,-0.01721234,1.6207458,-1.5535067e-15,0.6892308,0.0004857545,-0.011975444,0.7244427,0.0,0.0,-0.70814484,0,0
29056000,-0.016764538,-0.016846871,1.6207458,-1.2843144e-15,0.6892308,0.00032584093,-0.011878436,0.7244444,0.0,0.0,-0.7063153,0,0
29112000,-0.01639807,-0.016800549,1.6207458,-6.3200474e-16,0.68923074,0.00043535023,-0.01172973,0.72444695,0.0,0.0,-0.7050424,0,0
29160000,-0.016553551,-0.017448181,1.6207458,-5.224907e-16,0.6892308,0.00061638653,-0.012009202,0.7244421,0.0,0.0,-0.7047849,0,0
29216000,-0.015863422,-0.017623715,1.6207458,-5.99935e-16,0.6892305,0.0009178067,-0.0118197035,0.7244451,0.0,0.0,-0.7052181,0,0
29256000,-0.015824666,-0.017645014,1.6207458,-4.9597797e-16,0.6892305,0.0009388774,-0.011813004,0.7244453,0.0,0.0,-0.70566064,0,0
29312000,-0.015906844,-0.017266367,1.6207458,-2.4406828e-16,0.68923056,0.00077338575,-0.011712302,0.724447,0.0,0.0,-0.70647997,0,0
29360000,-0.016233789,-0.01763825,1.6207458,-2.0177602e-16,0.6892307,0.0007954373,-0.011958865,0.7244429,0.0,0.0,-0.7075076,0,0
29408000,-0.016944073,-0.017605623,1.6207458,-2.3168358e-16,0.6892309,0.0005388436,-0.012204905,0.7244388,0.0,0.0,-0.70782,0,0
29456000,-0.01701987,-0.017188955,1.6207458,-1.9153735e-16,0.68923086,0.00036177735,-0.012088793,0.7244408,0.0,0.0,-0.7073663,0,0
29512000,-0.016812734,-0.016670523,1.6207458,-9.425457e-17,0.6892308,0.00024534564,-0.01183513,0.7244451,0.0,0.0,-0.7070596,0,0
29560000,-0.016741388,-0.01720925,1.6207458,-7.7922095e-17,0.6892308,0.00046509795,-0.011994914,0.72444236,0.0,0.0,-0.7072842,0,0
29608000,-0.0168524,-0.017020183,1.6207458,-8.9471826e-17,0.6892308,0.00035834793,-0.011969979,0.7244429,0.0,0.0,-0.70761174,0,0
29656000,-0.016727826,-0.017456232,1.6207458,-7.396811e-17,0.68923086,0.0005592448,-0.012075101,0.724441,0.0,0.0,-0.7081566,0,0
29712000,-0.0170023,-0.01718901,1.6207458,-3.639934e-17,0.68923086,0.00036785123,-0.012082448,0.72444093,0.0,0.0,-0.70871145,0,0
29760000,-0.017492225,-0.017594395,1.6207458,-3.0092043e-17,0.68923104,0.0003458751,-0.012399589,0.72443545,0.0,0.0,-0.709092,0,0
29808000,-0.017185034,-0.017927844,1.6207458,-3.455233e-17,0.689231,0.0005725363,-0.012403211,0.72443527,0.0,0.0,-0.7090652,0,0
29856000,-0.017318677,-0.017681157,1.6207458,-2.8565088e-17,0.689231,0.0004371128,-0.012366619,0.72443604,0.0,0.0,-0.7080596,0,0
29912000,-0.017146138,-0.018027984,1.6207458,-1.4056737e-17,0.689231,0.00062221836,-0.012423625,0.72443485,0.0,0.0,-0.70708734,0,0
29960000,-0.01704422,-0.017939229,1.6207458,-1.1620979e-17,0.689231,0.00062518707,-0.012356125,0.72443616,0.0,0.0,-0.7070184,0,0
30016000,-0.017291572,-0.017971667,1.6207458,-1.3343458e-17,0.689231,0.00055169733,-0.012456899,0.72443444,0.0,0.0,-0.70734894,0,0
30056000,-0.016987765,-0.017879691,1.6207458,-1.1031298e-17,0.6892309,0.0006230731,-0.012315164,0.7244368,0.0,0.0,-0.70741934,0,0
30112000,-0.017026268,-0.01778949,1.6207458,-5.4284464e-18,0.689231,0.00057712785,-0.01229803,0.7244371,0.0,0.0,-0.7079403,0,0
30160000,-0.016791949,-0.017984333,1.6207458,-4.487803e-18,0.68923086,0.0007284631,-0.012280291,0.72443736,0.0,0.0,-0.70821613,0,0
30208000,-0.01657842,-0.017970273,1.6207458,-5.152992e-18,0.6892308,0.0007969553,-0.012198103,0.72443867,0.0,0.0,-0.7081993,0,0
30256000,-0.016489202,-0.016951969,1.6207458,-4.2600794e-18,0.6892308,0.0004587991,-0.011814916,0.7244454,0.0,0.0,-0.70688426,0,0
30312000,-0.016651751,-0.016624624,1.6207458,-2.0963635e-18,0.68923074,0.0002841961,-0.011761004,0.72444636,0.0,0.0,-0.70607346,0,0
30360000,-0.016339364,-0.016416917,1.6207458,-1.7331047e-18,0.6892307,0.00031660113,-0.01157628,0.72444946,0.0,0.0,-0.7060444,0,0
30408000,-0.016381752,-0.01665975,1.6207458,-1.9899881e-18,0.68923074,0.00038996583,-0.011675305,0.7244478,0.0,0.0,-0.70631224,0,0
30456000,-0.016228968,-0.016293544,1.6207458,-1.6451619e-18,0.6892306,0.00030995166,-0.0114937825,0.7244508,0.0,0.0,-0.7069634,0,0
30512000,-0.016052049,-0.01657252,1.6207458,-8.0957593e-19,0.6892306,0.00047198674,-0.011525822,0.72445023,0.0,0.0,-0.70769745,0,0
30560000,-0.016251596,-0.016857615,1.6207458,-6.692923e-19,0.6892307,0.0005065003,-0.011696338,0.72444737,0.0,0.0,-0.7082543,0,0
30608000,-0.016236475,-0.016751615,1.6207458,-7.6849587e-19,0.6892307,0.00047331024,-0.011654337,0.7244481,0.0,0.0,-0.7084659,0,0
30656000,-0.016677566,-0.016627438,1.6207458,-6.3533055e-19,0.68923074,0.00027631831,-0.011771325,0.72444624,0.0,0.0,-0.70705175,0,0
30712000,-0.01659293,-0.016597353,1.6207458,-3.1264297e-19,0.68923074,0.00029458586,-0.011730299,0.72444695,0.0,0.0,-0.70595235,0,0
30760000,-0.016976437,-0.016597446,1.6207458,-2.5846807e-19,0.6892308,0.00016245664,-0.011869246,0.7244447,0.0,0.0,-0.70568204,0,0
30808000,-0.017378662,-0.016744433,1.6207458,-2.967786e-19,0.6892308,7.70935e-05,-0.0120655885,0.7244414,0.0,0.0,-0.7059171,0,0
30856000,-0.01724418,-0.016708966,1.6207458,-2.4535268e-19,0.6892308,0.000110589615,-0.012004658,0.7244424,0.0,0.0,-0.70651704,0,0
30912000,-0.017162204,-0.016966227,1.6207458,-1.2073682e-19,0.68923086,0.00023203786,-0.012063605,0.72444135,0.0,0.0,-0.7070161,0,0
30960000,-0.017322043,-0.017150646,1.6207458,-9.9815484e-20,0.689231,0.0002437653,-0.012185046,0.72443914,0.0,0.0,-0.70747274,0,0
31008000,-0.017035373,-0.017387489,1.6207458,-1.146103e-19,0.6892309,0.00042835675,-0.012162814,0.72443956,0.0,0.0,-0.70776683,0,0
31056000,-0.016991533,-0.016379416,1.6207458,-9.475057e-20,0.68923074,7.826909e-05,-0.011799591,0.7244458,0.0,0.0,-0.70732003,0,0
31112000,-0.016788607,-0.016289975,1.6207458,-4.662628e-20,0.6892307,0.0001157987,-0.011695267,0.72444755,0.0,0.0,-0.70691234,0,0
31160000,-0.016487665,-0.016464662,1.6207458,-3.8546856e-20,0.68923074,0.0002827915,-0.0116464505,0.7244483,0.0,0.0,-0.7069485,0,0
31208000,-0.016233018,-0.016662199,1.6207458,-4.4260334e-20,0.6892307,0.00044210991,-0.011622275,0.7244487,0.0,0.0,-0.70721817,0,0
31264000,-0.016318845,-0.016739188,1.6207458,-3.6590884e-20,0.6892307,0.00044042285,-0.011679891,0.72444767,0.0,0.0,-0.7077792,0,0
31312000,-0.016096653,-0.01674776,1.6207458,-1.800619e-20,0.6892306,0.0005200993,-0.011602361,0.7244489,0.0,0.0,-0.70822537,0,0
31360000,-0.016159745,-0.016994867,1.6207458,-1.488607e-20,0.6892307,0.0005878766,-0.011710359,0.72444713,0.0,0.0,-0.7084639,0,0
31408000,-0.016551608,-0.017125875,1.6207458,-1.7092506e-20,0.6892308,0.000500294,-0.011897443,0.72444403,0.0,0.0,-0.7086563,0,0
31456000,-0.016398437,-0.017078228,1.6207458,-1.4130709e-20,0.68923074,0.00053581834,-0.011825542,0.7244452,0.0,0.0,-0.7073654,0,0
31512000,-0.016274512,-0.016853187,1.6207458,-6.953651e-21,0.6892307,0.00049700035,-0.011703113,0.7244473,0.0,0.0,-0.70651907,0,0
31560000,-0.016666353,-0.016852282,1.6207458,-5.74872e-21,0.6892308,0.00036163686,-0.011844736,0.7244449,0.0,0.0,-0.7065097,0,0
31608000,-0.016438685,-0.016856574,1.6207458,-6.6008035e-21,0.68923074,0.00044164908,-0.011763747,0.7244463,0.0,0.0,-0.70653445,0,0
31656000,-0.016650718,-0.016917141,1.6207458,-5.457013e-21,0.6892308,0.00039052183,-0.011861419,0.7244447,0.0,0.0,-0.7070117,0,0
31712000,-0.016619882,-0.017419273,1.6207458,-2.6853688e-21,0.6892308,0.00058305525,-0.012023267,0.7244418,0.0,0.0,-0.70765465,0,0
