timestamp,timestamp_sample,states[0],states[1],states[2],states[3],states[4],states[5],states[6],states[7],states[8],states[9],states[10],states[11],states[12],states[13],states[14],states[15],states[16],states[17],states[18],states[19],states[20],states[21],states[22],states[23],covariances[0],covariances[1],covariances[2],covariances[3],covariances[4],covariances[5],covariances[6],covariances[7],covariances[8],covariances[9],covariances[10],covariances[11],covariances[12],covariances[13],covariances[14],covariances[15],covariances[16],covariances[17],covariances[18],covariances[19],covariances[20],covariances[21],covariances[22],covariances[23],n_states
3264000,3184000,0.999869,-0.011272163,-0.011614352,-6.984445e-05,0.0005544558,-0.00092228735,-0.021320507,2.8138236e-05,-1.4101464e-05,-0.0015512304,0.0,0.0,0.0,0.0,0.0,0.0,0.0,0.0,0.0,0.0,0.0,0.0,0.0,0.0,6.6754353e-07,0.002548336,0.0025489484,0.00021288265,25.020855,25.020851,10.000214,100.43325,100.43325,100.17326,9.99992e-07,1.0000002e-06,9.844548e-07,4.0000004e-06,4.0000004e-06,4.0000004e-06,0.0,0.0,0.0,0.0,0.0,0.0,0.0,0.0,24
3272000,3192000,0.99986875,-0.011282956,-0.0116322525,-7.137469e-05,5.82097e-11,-1.1641942e-10,-3.7252903e-09,-7.469526e-05,0.00015736088,0.0014618589,-5.0102333e-10,-3.059231e-10,1.1570756e-11,-8.705213e-11,-4.631989e-13,-8.998178e-09,0.0,0.0,0.0,0.0,0.0,0.0,0.0,0.0,6.705404e-07,0.0025532406,0.0025538679,0.000115693154,1.9073486e-06,1.9073486e-06,1e-06,100.000114,100.000114,100.0,9.99986e-07,9.999958e-07,9.815315e-07,4e-06,4e-06,3.9999986e-06,0.0,0.0,0.0,0.0,0.0,0.0,0.0,0.0,24
3280000,3200000,0.99986833,-0.011292067,-0.0116577605,-6.6398505e-05,0.000107370026,-0.00027536054,-0.0009955689,-7.426578e-05,0.00015625943,0.0014578765,-5.0102333e-10,-3.059231e-10,1.1570756e-11,-8.705213e-11,-4.631989e-13,-8.998178e-09,0.0,0.0,0.0,0.0,0.0,0.0,0.0,0.0,6.746235e-07,0.0025609846,0.0025616183,7.9849124e-05,8.2933904e-05,8.294036e-05,1.755226e-05,100.000114,100.000114,100.0,9.999842e-07,9.999958e-07,9.781113e-07,4e-06,4e-06,3.9999986e-06,0.0,0.0,0.0,0.0,0.0,0.0,0.0,0.0,24
3288000,3208000,0.68856484,0.00069025275,-0.016234396,0.72499275,0.00032631034,-0.000587938,-0.0020979643,-7.253106e-05,0.00015280623,0.0014455024,-5.0102333e-10,-3.059231e-10,1.1570756e-11,-8.705213e-11,-4.631989e-13,-8.998178e-09,0.20048796,0.0111609055,0.4322699,0.0,0.0,0.0,0.0,0.0,6.776344e-07,0.0025632817,0.002569869,7.0110924e-05,0.00030159322,0.00030100194,4.2054733e-05,100.000114,100.000114,100.0,9.999352e-07,9.999959e-07,9.755126e-07,4.0000004e-06,4.0000004e-06,3.999999e-06,0.0,0.0,0.0,0.0,0.0,0.0,0.0,0.0,24
3296000,3216000,0.68856883,0.0006978789,-0.01624889,0.72498864,0.00071309047,-0.00027552352,-0.0031200424,-6.8373454e-05,0.00014935239,0.0014246304,-5.0102333e-10,-3.059231e-10,1.1570756e-11,-8.705213e-11,-4.631989e-13,-8.998178e-09,0.20048796,0.0111609055,0.4322699,0.0,0.0,0.0,0.0,0.0,8.08716e-07,0.0025648489,0.0025759733,6.24624e-05,0.00056055636,0.00055860897,7.4508105e-05,100.000114,100.000114,100.0,9.999058e-07,9.999959e-07,9.701282e-07,4.0000004e-06,4.0000004e-06,3.999999e-06,0.0,0.0,0.0,0.0,0.0,0.0,0.0,0.0,24
3304000,3224000,0.6885751,0.00070710154,-0.016264848,0.7249823,0.0012212931,0.00014307513,-0.004410073,-6.063592e-05,0.0001488226,0.0013945099,-5.0102333e-10,-3.059231e-10,1.1570756e-11,-8.705213e-11,-4.631989e-13,-8.998178e-09,0.20048796,0.0111609055,0.4322699,0.0,0.0,0.0,0.0,0.0,1.1876132e-06,0.0025679227,0.002582577,5.6414603e-05,0.0009586517,0.00095487735,0.00011491999,100.000114,100.000114,100.0,9.99889e-07,9.999959e-07,9.613486e-07,4.0000004e-06,4.0000004e-06,3.999999e-06,0.0,0.0,0.0,0.0,0.0,0.0,0.0,0.0,24
3312000,3232000,0.68858016,0.00071128,-0.01629073,0.72497696,0.0015353424,0.00048440497,-0.005562514,-4.9609378e-05,0.00015133251,0.0013546196,-5.0102333e-10,-3.059231e-10,1.1570756e-11,-8.705213e-11,-4.631989e-13,-8.998178e-09,0.20048796,0.0111609055,0.4322699,0.0,0.0,0.0,0.0,0.0,1.8032483e-06,0.0025722429,0.0025896812,5.1500858e-05,0.0014945782,0.0014886084,0.00016328073,100.000114,100.000114,100.0,9.998804e-07,9.999959e-07,9.487632e-07,4.0000004e-06,4.0000004e-06,3.999999e-06,0.0,0.0,0.0,0.0,0.0,0.0,0.0,0.0,24
3320000,3240000,0.6885787,0.0007166422,-0.016309805,0.72497785,0.0017756469,0.00091661606,-0.006537117,-3.6365418e-05,0.0001569366,0.0013062211,-5.0102333e-10,-3.059231e-10,1.1570756e-11,-8.705213e-11,-4.631989e-13,-8.998178e-09,0.20048796,0.0111609055,0.4322699,0.0,0.0,0.0,0.0,0.0,2.6362904e-06,0.002577649,0.0025972852,4.7419086e-05,0.0021676961,0.0021592975,0.00021959502,100.000114,100.000114,100.0,9.998768e-07,9.999959e-07,9.3214777e-07,4.0000004e-06,4.0000004e-06,3.999999e-06,0.0,0.0,0.0,0.0,0.0,0.0,0.0,0.0,24
3328000,3248000,0.68857723,0.0007221983,-0.01633641,0.7249787,0.002000856,0.001070488,-0.007605262,-2.1259406e-05,0.00016488502,0.0012496517,-5.0102333e-10,-3.059231e-10,1.1570756e-11,-8.705213e-11,-4.631989e-13,-8.998178e-09,0.20048796,0.0111609055,0.4322699,0.0,0.0,0.0,0.0,0.0,3.663633e-06,0.0025840185,0.0026053886,4.3963773e-05,0.0029805442,0.0029694205,0.00028385472,100.000114,100.000114,100.0,9.998759e-07,9.999959e-07,9.1146194e-07,4.000001e-06,4.000001e-06,3.9999995e-06,0.0,0.0,0.0,0.0,0.0,0.0,0.0,0.0,24
3336000,3256000,0.6885789,0.0007271083,-0.016349845,0.7249767,0.0021733812,0.0011720296,-0.008690275,-4.5624565e-06,0.0001738551,0.0011844696,-5.0102333e-10,-3.059231e-10,1.1570756e-11,-8.705213e-11,-4.631989e-13,-8.998178e-09,0.20048796,0.0111609055,0.4322699,0.0,0.0,0.0,0.0,0.0,4.8536867e-06,0.0025912698,0.0026139917,4.0992403e-05,0.0039332006,0.003919156,0.0003560627,100.00011,100.000114,100.0,9.998759e-07,9.999959e-07,8.868434e-07,4.000001e-06,4.000001e-06,3.9999995e-06,0.0,0.0,0.0,0.0,0.0,0.0,0.0,0.0,24
3344000,3264000,0.6885775,0.0007314089,-0.016371584,0.72497755,0.0026434665,0.0014223785,-0.009429932,1.4704936e-05,0.00018423272,0.0011119887,-5.0102333e-10,-3.059231e-10,1.1570756e-11,-8.705213e-11,-4.631989e-13,-8.998178e-09,0.20048796,0.0111609055,0.4322699,0.0,0.0,0.0,0.0,0.0,6.1740934e-06,0.002599329,0.0026230947,3.8401304e-05,0.005021409,0.00500449,0.00043624578,100.0001,100.00011,100.0,9.998755e-07,9.999959e-07,8.58594e-07,4.000001e-06,4.000001e-06,3.9999995e-06,0.0,0.0,0.0,0.0,0.0,0.0,0.0,0.0,24
3352000,3272000,0.688576,0.00074138545,-0.016394308,0.72497845,0.0027941428,0.0017193638,-0.010271229,3.6455374e-05,0.0001967997,0.001033184,-5.0102333e-10,-3.059231e-10,1.1570756e-11,-8.705213e-11,-4.631989e-13,-8.998178e-09,0.20048796,0.0111609055,0.4322699,0.0,0.0,0.0,0.0,0.0,7.587576e-06,0.0026081405,0.0026326964,3.6115693e-05,0.006251001,0.0062310286,0.00052436756,100.00009,100.0001,100.0,9.998738e-07,9.999959e-07,8.271547e-07,4.000001e-06,4.000001e-06,3.9999995e-06,0.0,0.0,0.0,0.0,0.0,0.0,0.0,0.0,24
3360000,3280000,0.6885812,0.0007515283,-0.016403088,0.7249734,0.0030582612,0.001998051,-0.01138372,5.9864993e-05,0.00021166935,0.0009465642,-5.0102333e-10,-3.059231e-10,1.1570756e-11,-8.705213e-11,-4.631989e-13,-8.998178e-09,0.20048796,0.0111609055,0.4322699,0.0,0.0,0.0,0.0,0.0,9.055516e-06,0.0026176583,0.002642798,3.4080116e-05,0.007626189,0.0076031354,0.0006204515,100.00009,100.0001,100.0,9.998702e-07,9.999959e-07,7.9307165e-07,4.000001e-06,4.000001e-06,3.9999995e-06,0.0,0.0,0.0,0.0,0.0,0.0,0.0,0.0,24
3368000,3288000,0.6885856,0.000759936,-0.016418314,0.7249689,0.0034922943,0.002184567,-0.012595497,8.6067215e-05,0.00022839982,0.00085064734,-5.0102333e-10,-3.059231e-10,1.1570756e-11,-8.705213e-11,-4.631989e-13,-8.998178e-09,0.20048796,0.0111609055,0.4322699,0.0,0.0,0.0,0.0,0.0,1.0543575e-05,0.0026278372,0.0026533995,3.225109e-05,0.0091459155,0.009119771,0.00072449987,100.00009,100.0001,100.0,9.998641e-07,9.999959e-07,7.5695846e-07,4.0000014e-06,4.0000014e-06,4e-06,0.0,0.0,0.0,0.0,0.0,0.0,0.0,0.0,24
3376000,3296000,0.6885819,0.00077421276,-0.016448835,0.7249716,0.003898827,0.0023577036,-0.013540007,0.0001156317,0.0002465689,0.00074610533,-5.0102333e-10,-3.059231e-10,1.1570756e-11,-8.705213e-11,-4.631989e-13,-8.998178e-09,0.20048796,0.0111609055,0.4322699,0.0,0.0,0.0,0.0,0.0,1.2019618e-05,0.002638639,0.0026644997,3.059572e-05,0.010803936,0.01077465,0.0008365035,100.00009,100.0001,100.0,9.998557e-07,9.99996e-07,7.194553e-07,4.0000014e-06,4.0000014e-06,4e-06,0.0,0.0,0.0,0.0,0.0,0.0,0.0,0.0,24
3384000,3304000,0.68858194,0.00079180975,-0.016458929,0.7249713,0.0040446324,0.0025237082,-0.014581434,0.00014740555,0.00026609455,0.00063361955,-5.0102333e-10,-3.059231e-10,1.1570756e-11,-8.705213e-11,-4.631989e-13,-8.998178e-09,0.20048796,0.0111609055,0.4322699,0.0,0.0,0.0,0.0,0.0,1.3452045e-05,0.0026500358,0.002676099,2.909069e-05,0.012607795,0.012575154,0.0009564414,100.00009,100.0001,100.0,9.998447e-07,9.99996e-07,6.8118993e-07,4.0000014e-06,4.0000014e-06,4e-06,0.0,0.0,0.0,0.0,0.0,0.0,0.0,0.0,24
3392000,3312000,0.688581,0.00082056795,-0.016478907,0.7249717,0.004107672,0.0026793187,-0.015797451,0.00018001476,0.00028690667,0.000512104,-5.0102333e-10,-3.059231e-10,1.1570756e-11,-8.705213e-11,-4.631989e-13,-8.998178e-09,0.20048796,0.0111609055,0.4322699,0.0,0.0,0.0,0.0,0.0,1.4819759e-05,0.0026620002,0.0026881972,2.771433e-05,0.014560743,0.01452461,0.0010843268,100.00009,100.0001,100.0,9.998312e-07,9.99996e-07,6.427494e-07,4.0000014e-06,4.0000014e-06,4e-06,0.0,0.0,0.0,0.0,0.0,0.0,0.0,0.0,24
3400000,3320000,0.68857795,0.00083197607,-0.016500087,0.72497416,0.004458014,0.0028703308,-0.016853191,0.0002142775,0.00030910526,0.00038150145,-5.0102333e-10,-3.059231e-10,1.1570756e-11,-8.705213e-11,-4.631989e-13,-8.998178e-09,0.20048796,0.0111609055,0.4322699,0.0,0.0,0.0,0.0,0.0,1.610336e-05,0.0026745074,0.0027007964,2.6450742e-05,0.016656011,0.016616587,0.0012201986,100.00009,100.0001,100.0,9.998155e-07,9.99996e-07,6.0465715e-07,4.0000014e-06,4.0000014e-06,4e-06,0.0,0.0,0.0,0.0,0.0,0.0,0.0,0.0,24
3408000,3328000,0.68857753,0.0008445283,-0.016509788,0.72497433,0.004656586,0.0030060427,-0.017832227,0.0002507359,0.00033261077,0.00024275976,-5.0102333e-10,-3.059231e-10,1.1570756e-11,-8.705213e-11,-4.631989e-13,-8.998178e-09,0.20048796,0.0111609055,0.4322699,0.0,0.0,0.0,0.0,0.0,1.728927e-05,0.002687541,0.0027138952,2.5288004e-05,0.018895943,0.01885302,0.00136401,100.00009,100.0001,100.0,9.997979e-07,9.99996e-07,5.6735655e-07,4.000002e-06,4.000002e-06,4.0000004e-06,0.0,0.0,0.0,0.0,0.0,0.0,0.0,0.0,24
3416000,3336000,0.68857425,0.0008632361,-0.016526867,0.7249771,0.0048935087,0.0032749898,-0.019128151,0.00028893628,0.0003577349,9.491824e-05,-5.0102333e-10,-3.059231e-10,1.1570756e-11,-8.705213e-11,-4.631989e-13,-8.998178e-09,0.20048796,0.0111609055,0.4322699,0.0,0.0,0.0,0.0,0.0,1.8371009e-05,0.0027010867,0.0027274927,2.4214063e-05,0.021292573,0.021246219,0.0015157936,100.0001,100.00011,100.0,9.997786e-07,9.99996e-07,5.312076e-07,4.000002e-06,4.000002e-06,4.0000004e-06,0.0,0.0,0.0,0.0,0.0,0.0,0.0,0.0,24
3424000,3344000,0.6885704,0.00086381775,-0.016542902,0.7249803,0.0047467193,0.0036304733,-0.020147562,0.0003274972,0.00038535678,-6.218461e-05,-5.0102333e-10,-3.059231e-10,1.1570756e-11,-8.705213e-11,-4.631989e-13,-8.998178e-09,0.20048796,0.0111609055,0.4322699,0.0,0.0,0.0,0.0,0.0,1.9343555e-05,0.002715133,0.002741591,2.3220106e-05,0.023830095,0.023779932,0.0016755023,100.000114,100.00012,100.0,9.997583e-07,9.99996e-07,4.96487e-07,4.000002e-06,4.000002e-06,4.0000004e-06,0.0,0.0,0.0,0.0,0.0,0.0,0.0,0.0,24
3432000,3352000,0.6885726,0.0008807182,-0.01655814,0.72497785,0.0050879493,0.0038516633,-0.021203034,0.00036683588,0.00041528532,-0.000227587,-5.0102333e-10,-3.059231e-10,1.1570756e-11,-8.705213e-11,-4.631989e-13,-8.998178e-09,0.20048796,0.0111609055,0.4322699,0.0,0.0,0.0,0.0,0.0,2.020738e-05,0.0027296732,0.0027561877,2.229871e-05,0.0265185,0.026464898,0.0018432124,100.00013,100.00014,100.0,9.99737e-07,9.99996e-07,4.6339207e-07,4.000002e-06,4.000002e-06,4.0000004e-06,0.0,0.0,0.0,0.0,0.0,0.0,0.0,0.0,24
3440000,3360000,0.6885705,0.0008931206,-0.016578017,0.72497934,0.0053259823,0.0040223096,-0.022017762,0.0004084916,0.00044678123,-0.0004004702,-5.0102333e-10,-3.059231e-10,1.1570756e-11,-8.705213e-11,-4.631989e-13,-8.998178e-09,0.20048796,0.0111609055,0.4322699,0.0,0.0,0.0,0.0,0.0,2.0964955e-05,0.0027447012,0.002771284,2.1442316e-05,0.029349336,0.029292112,0.0020188668,100.00015,100.00016,100.0,9.997151e-07,9.99996e-07,4.3205168e-07,4.000002e-06,4.000002e-06,4.0000004e-06,0.0,0.0,0.0,0.0,0.0,0.0,0.0,0.0,24
3448000,3368000,0.68857396,0.00090197905,-0.016587054,0.7249758,0.005252278,0.0043855677,-0.022820026,4.656613e-10,4.947651e-10,-0.0002952641,-5.0736326e-10,-3.2442765e-10,1.023305e-11,-4.878277e-11,-3.0290034e-11,-9.024029e-09,0.20048796,0.0111609055,0.4322699,0.0,0.0,0.0,0.0,0.0,2.1619577e-05,0.0027602098,0.0027868769,2.0646095e-05,0.032330565,0.032269448,0.0022024636,9.918213e-05,9.918213e-05,50.0,9.996926e-07,9.999959e-07,4.0253485e-07,4.0000014e-06,4.0000014e-06,4e-06,0.0,0.0,0.0,0.0,0.0,0.0,0.0,0.0,24
3456000,3376000,0.6885737,0.00092158775,-0.016607122,0.7249756,0.0053694374,0.0048069814,-0.023712568,4.248733e-05,3.6770693e-05,-0.00048139447,-5.0736326e-10,-3.2442765e-10,1.023305e-11,-4.878277e-11,-3.0290034e-11,-9.024029e-09,0.20048796,0.0111609055,0.4322699,0.0,0.0,0.0,0.0,0.0,2.2179265e-05,0.0027762046,0.0028029715,1.9903264e-05,0.035467364,0.035402603,0.0023940518,0.00010222491,0.00010221918,50.0,9.996701e-07,9.999959e-07,3.7486257e-07,4.000002e-06,4.000002e-06,4.0000004e-06,0.0,0.0,0.0,0.0,0.0,0.0,0.0,0.0,24
3464000,3384000,0.6885747,0.0009315903,-0.016633462,0.7249741,0.005835192,0.0050875153,-0.024586923,8.7305845e-05,7.634868e-05,-0.00067459245,-5.0736326e-10,-3.2442765e-10,1.023305e-11,-4.878277e-11,-3.0290034e-11,-9.024029e-09,0.20048796,0.0111609055,0.4322699,0.0,0.0,0.0,0.0,0.0,2.2649896e-05,0.0027926818,0.0028195665,1.9209348e-05,0.03875706,0.03868903,0.0025936307,0.00011191261,0.00011188904,50.0,9.996477e-07,9.999959e-07,3.4901802e-07,4.000002e-06,4.000002e-06,4.0000004e-06,0.0,0.0,0.0,0.0,0.0,0.0,0.0,0.0,24
3472000,3392000,0.68857336,0.00094761956,-0.016647218,0.724975,0.0061689815,0.0052450662,-0.02546256,0.00013532254,0.00011767901,-0.00087479036,-5.0736326e-10,-3.2442765e-10,1.023305e-11,-4.878277e-11,-3.0290034e-11,-9.024029e-09,0.20048796,0.0111609055,0.4322699,0.0,0.0,0.0,0.0,0.0,2.3037897e-05,0.00280964,0.0028366607,1.8561428e-05,0.04220147,0.04212986,0.002801143,0.00012911232,0.00012905803,50.0,9.996254e-07,9.999959e-07,3.249541e-07,4.000002e-06,4.000002e-06,4.0000004e-06,0.0,0.0,0.0,0.0,0.0,0.0,0.0,0.0,24
3480000,3400000,0.68862087,0.0010329837,-0.0146581335,0.7249726,1.6823762e-07,-3.1501433e-05,-5.0308183e-05,-3.9108876e-05,-2.7734055e-05,0.000931137,-3.603971e-06,-8.511349e-06,-2.8911822e-08,-7.647605e-06,4.9961254e-06,-0.00090996607,0.20048796,0.0111609055,0.4322699,0.0,0.0,0.0,0.0,0.0,2.2847033e-05,0.00020085124,0.00020076579,1.7510287e-05,1e-06,2.1234155e-06,1.7825514e-06,9.9218625e-05,9.921999e-05,49.999985,9.425683e-07,9.4298804e-07,3.0168195e-07,3.7973628e-06,3.7977823e-06,4.184767e-07,0.0,0.0,0.0,0.0,0.0,0.0,0.0,0.0,24
3488000,3408000,0.6886219,0.0010511017,-0.014675435,0.7249713,9.094122e-05,-0.00016703425,-0.00022551417,-3.8744438e-05,-2.8528199e-05,0.00093003374,-3.603971e-06,-8.511349e-06,-2.8911822e-08,-7.647605e-06,4.9961254e-06,-0.00090996607,0.20048796,0.0111609055,0.4322699,0.0,0.0,0.0,0.0,0.0,2.4788766e-05,0.00020794214,0.00020785091,1.789468e-05,1.39637705e-05,1.5178204e-05,1.3691424e-05,9.921939e-05,9.9221616e-05,49.999985,9.4256825e-07,9.42988e-07,3.0168198e-07,3.797363e-06,3.7977825e-06,4.1847684e-07,0.0,0.0,0.0,0.0,0.0,0.0,0.0,0.0,24
3496000,3416000,0.6900538,0.0010271976,-0.014683831,0.7236084,0.00029389875,-0.00021051525,-0.00049111247,-3.7205078e-05,-3.0038396e-05,0.00092716725,-3.603971e-06,-8.511349e-06,-2.8911822e-08,-7.647605e-06,4.9961254e-06,-0.00090996607,0.20358746,0.011333446,0.43205366,0.0,0.0,0.0,0.0,0.0,0.0012007712,0.0002159885,0.00021540982,0.0010882871,3.023746e-05,3.1546864e-05,2.6393118e-05,9.921986e-05,9.9223194e-05,49.999985,9.4256825e-07,9.42988e-07,3.0168198e-07,3.797363e-06,3.7977825e-06,4.184769e-07,0.0,0.0,0.0,0.0,0.0,0.0,0.0,0.0,24
3504000,3424000,0.69005686,0.0010362614,-0.014700614,0.72360516,0.0003249048,-0.0002866106,-0.000692375,-3.4729863e-05,-3.20269e-05,0.0009224333,-3.603971e-06,-8.511349e-06,-2.8911822e-08,-7.647605e-06,4.9961254e-06,-0.00090996607,0.20358746,0.011333446,0.43205366,0.0,0.0,0.0,0.0,0.0,0.0012008025,0.00021623053,0.00021565061,0.0010883354,5.1356725e-05,5.2672767e-05,3.9887957e-05,9.922291e-05,9.922764e-05,49.999985,9.425683e-07,9.4298804e-07,3.0168198e-07,3.797363e-06,3.7977825e-06,4.18477e-07,0.0,0.0,0.0,0.0,0.0,0.0,0.0,0.0,24
3512000,3432000,0.6900559,0.0010498693,-0.014721806,0.7236056,0.00050464564,-0.00030686337,-0.0009842142,-3.1411662e-05,-3.4400797e-05,0.00091572694,-3.603971e-06,-8.511349e-06,-2.8911822e-08,-7.647605e-06,4.9961254e-06,-0.00090996607,0.20358746,0.011333446,0.43205366,0.0,0.0,0.0,0.0,0.0,0.0012009247,0.00021694433,0.00021636272,0.0010884431,9.0974616e-05,9.2300616e-05,5.4176493e-05,9.923331e-05,9.9239674e-05,49.999985,9.425683e-07,9.4298804e-07,3.0168198e-07,3.7973632e-06,3.7977827e-06,4.1847707e-07,0.0,0.0,0.0,0.0,0.0,0.0,0.0,0.0,24
3520000,3440000,0.6900514,0.0010540035,-0.014728156,0.72360975,0.0006186144,-0.00013557557,-0.0012861118,-2.6918622e-05,-3.6170553e-05,0.0009066456,-3.603971e-06,-8.511349e-06,-2.8911822e-08,-7.647605e-06,4.9961254e-06,-0.00090996607,0.20358746,0.011333446,0.43205366,0.0,0.0,0.0,0.0,0.0,0.0012011382,0.00021812857,0.00021754621,0.0010886113,0.00014908596,0.00015042516,6.925913e-05,9.925827e-05,9.926652e-05,49.999985,9.425683e-07,9.4298804e-07,3.01682e-07,3.7973632e-06,3.7977827e-06,4.1847713e-07,0.0,0.0,0.0,0.0,0.0,0.0,0.0,0.0,24
3528000,3448000,0.6900515,0.001058265,-0.014735999,0.7236095,0.00065243803,-4.2076717e-05,-0.0014511272,-2.1834412e-05,-3.6881163e-05,0.00089569663,-3.603971e-06,-8.511349e-06,-2.8911822e-08,-7.647605e-06,4.9961254e-06,-0.00090996607,0.20358746,0.011333446,0.43205366,0.0,0.0,0.0,0.0,0.0,0.0012014164,0.00021978437,0.00021920103,0.0010888657,0.00022563954,0.0002269927,8.513628e-05,9.931007e-05,9.9320445e-05,49.999985,9.425683e-07,9.4298804e-07,3.01682e-07,3.7973632e-06,3.7977827e-06,4.184772e-07,0.0,0.0,0.0,0.0,0.0,0.0,0.0,0.0,24
3536000,3456000,0.6900496,0.0010655144,-0.01474452,0.7236111,0.0006496713,-0.00010273958,-0.0018059835,-1.6625974e-05,-3.7460428e-05,0.0008826682,-3.603971e-06,-8.511349e-06,-2.8911822e-08,-7.647605e-06,4.9961254e-06,-0.00090996607,0.20358746,0.011333446,0.43205366,0.0,0.0,0.0,0.0,0.0,0.0012017797,0.00022191166,0.00022132717,0.0010891857,0.00032086522,0.00032223295,0.00010180834,9.940594e-05,9.941868e-05,49.999985,9.425683e-07,9.4298804e-07,3.01682e-07,3.7973634e-06,3.797783e-06,4.184773e-07,0.0,0.0,0.0,0.0,0.0,0.0,0.0,0.0,24
3544000,3464000,0.6900445,0.0010774488,-0.014762722,0.72361565,0.00050537137,-5.013455e-06,-0.0021539181,-1.2005803e-05,-3.789144e-05,0.0008668286,-3.603971e-06,-8.511349e-06,-2.8911822e-08,-7.647605e-06,4.9961254e-06,-0.00090996607,0.20358746,0.011333446,0.43205366,0.0,0.0,0.0,0.0,0.0,0.0012022314,0.00022451107,0.0002239246,0.0010895674,0.0004347743,0.00043615507,0.00011927574,9.956809e-05,9.958345e-05,49.999985,9.425683e-07,9.4298804e-07,3.0168204e-07,3.7973634e-06,3.797783e-06,4.1847736e-07,0.0,0.0,0.0,0.0,0.0,0.0,0.0,0.0,24
3552000,3472000,0.6900431,0.0010912872,-0.014794429,0.7236163,0.00037760066,0.00019977041,-0.0025459155,-8.473915e-06,-3.711241e-05,0.0008480293,-3.603971e-06,-8.511349e-06,-2.8911822e-08,-7.647605e-06,4.9961254e-06,-0.00090996607,0.20358746,0.011333446,0.43205366,0.0,0.0,0.0,0.0,0.0,0.0012027497,0.00022758284,0.00022699329,0.0010900323,0.00056754507,0.00056894094,0.00013753904,9.9823665e-05,9.98419e-05,49.999985,9.425683e-07,9.4298804e-07,3.0168204e-07,3.7973634e-06,3.797783e-06,4.1847744e-07,0.0,0.0,0.0,0.0,0.0,0.0,0.0,0.0,24
3560000,3480000,0.6897266,0.0011102963,-0.01481701,0.7239174,0.00031189978,0.00031909792,-0.0026453736,-5.7171496e-06,-3.5026358e-05,0.0008272641,-3.6066326e-06,-8.513325e-06,-2.6090063e-07,-7.63911e-06,5.0048893e-06,-0.000909966,0.20358746,0.011333446,0.43205366,0.0,0.0,0.0,0.0,0.0,0.0010933735,0.00023108005,0.00023053309,0.0009910428,0.00071898114,0.00072039507,0.00015659857,0.00010020474,0.0001002261,49.999985,9.4256836e-07,9.429881e-07,3.0162343e-07,3.7973637e-06,3.7977832e-06,4.184775e-07,0.0,0.0,0.0,0.0,0.0,0.0,0.0,0.0,24
3568000,3488000,0.6897268,0.0011194195,-0.014839016,0.72391677,0.0004038147,0.0003223764,-0.0028440058,-2.8542916e-06,-3.2460463e-05,0.0008053066,-3.6066326e-06,-8.513325e-06,-2.6090063e-07,-7.63911e-06,5.0048893e-06,-0.000909966,0.20358746,0.011333446,0.43205366,0.0,0.0,0.0,0.0,0.0,0.001093988,0.00023509396,0.00023454447,0.0009916031,0.00088965514,0.00089109363,0.00017645468,0.000100748155,0.0001007729,49.999985,9.4256836e-07,9.429881e-07,3.0162343e-07,3.7973637e-06,3.7977832e-06,4.1847758e-07,0.0,0.0,0.0,0.0,0.0,0.0,0.0,0.0,24
3576000,3496000,0.6897244,0.0011261532,-0.014858062,0.7239187,0.0002968425,0.00035044414,-0.0031453297,-5.166271e-08,-2.976918e-05,0.00078134926,-3.6066326e-06,-8.513325e-06,-2.6090063e-07,-7.63911e-06,5.0048893e-06,-0.000909966,0.20358746,0.011333446,0.43205366,0.0,0.0,0.0,0.0,0.0,0.0010946892,0.00023957915,0.0002390272,0.0009922276,0.0010798516,0.0010813096,0.00019710777,0.000101495745,0.00010152415,49.999985,9.4256836e-07,9.429881e-07,3.0162346e-07,3.7973637e-06,3.7977832e-06,4.1847764e-07,0.0,0.0,0.0,0.0,0.0,0.0,0.0,0.0,24
3584000,3504000,0.68972737,0.0011348139,-0.0148744155,0.7239155,0.000341444,0.0002451275,-0.0036900938,2.5014836e-06,-2.7386894e-05,0.00075400755,-3.6066326e-06,-8.513325e-06,-2.6090063e-07,-7.63911e-06,5.0048893e-06,-0.000909966,0.20358746,0.011333446,0.43205366,0.0,0.0,0.0,0.0,0.0,0.0010954544,0.00024453565,0.00024398125,0.0009929391,0.0012901108,0.0012915948,0.00021855821,0.000102494334,0.00010252666,49.999985,9.4256836e-07,9.429881e-07,3.0162346e-07,3.7973637e-06,3.7977832e-06,4.1847773e-07,0.0,0.0,0.0,0.0,0.0,0.0,0.0,0.0,24
3592000,3512000,0.6897215,0.0011401144,-0.014884072,0.7239208,0.00033056756,0.00015602648,-0.0041098446,5.18953e-06,-2.5782278e-05,0.0007228078,-3.6066326e-06,-8.513325e-06,-2.6090063e-07,-7.63911e-06,5.0048893e-06,-0.000909966,0.20358746,0.011333446,0.43205366,0.0,0.0,0.0,0.0,0.0,0.001096324,0.0002499632,0.00024940667,0.0009936974,0.0015202085,0.001521718,0.00024080649,0.00010379585,0.000103832375,49.999985,9.4256836e-07,9.429881e-07,3.0162346e-07,3.797364e-06,3.7977834e-06,4.1847778e-07,0.0,0.0,0.0,0.0,0.0,0.0,0.0,0.0,24
3600000,3520000,0.6897133,0.0011471806,-0.014906492,0.7239282,0.00040624358,0.00015790694,-0.0044528916,8.136774e-06,-2.4526544e-05,0.0006885568,-3.6066326e-06,-8.513325e-06,-2.6090063e-07,-7.63911e-06,5.0048893e-06,-0.000909966,0.20358746,0.011333446,0.43205366,0.0,0.0,0.0,0.0,0.0,0.0010972788,0.00025586292,0.00025530337,0.0009945204,0.0017705197,0.0017720617,0.00026385306,0.000105457,0.00010549801,49.999985,9.4256836e-07,9.429881e-07,3.016235e-07,3.797364e-06,3.7977834e-06,4.1847787e-07,0.0,0.0,0.0,0.0,0.0,0.0,0.0,0.0,24
3608000,3528000,0.68971467,0.0011602843,-0.014921216,0.7239266,0.00035309859,0.0003375495,-0.004730925,1.1174143e-05,-2.2544718e-05,0.00065182155,-3.6066326e-06,-8.513325e-06,-2.6090063e-07,-7.63911e-06,5.0048893e-06,-0.000909966,0.20358746,0.011333446,0.43205366,0.0,0.0,0.0,0.0,0.0,0.0010982859,0.00026223372,0.0002616714,0.0009954424,0.0020414072,0.00204298,0.00028769823,0.00010753954,0.000107585314,49.999985,9.4256836e-07,9.429881e-07,3.016235e-07,3.797364e-06,3.7977834e-06,4.1847792e-07,0.0,0.0,0.0,0.0,0.0,0.0,0.0,0.0,24
3616000,3536000,0.6897197,0.0011702084,-0.014926214,0.7239218,0.0005353431,0.00046661243,-0.0049039647,1.472791e-05,-1.932807e-05,0.00061328197,-3.6066326e-06,-8.513325e-06,-2.6090063e-07,-7.63911e-06,5.0048893e-06,-0.000909966,0.20358746,0.011333446,0.43205366,0.0,0.0,0.0,0.0,0.0,0.0010993624,0.00026907536,0.0002685108,0.0009964464,0.0023331572,0.0023347756,0.00031234248,0.000110110275,0.00011016111,49.999985,9.425684e-07,9.4298815e-07,3.016235e-07,3.7973641e-06,3.7977836e-06,4.18478e-07,0.0,0.0,0.0,0.0,0.0,0.0,0.0,0.0,24
3624000,3544000,0.6897208,0.0011782503,-0.014934646,0.7239205,0.0004457744,0.00055592146,-0.005326256,1.865238e-05,-1.5237934e-05,0.0005723611,-3.6066326e-06,-8.513325e-06,-2.6090063e-07,-7.63911e-06,5.0048893e-06,-0.000909966,0.20358746,0.011333446,0.43205366,0.0,0.0,0.0,0.0,0.0,0.0011005286,0.00027638863,0.0002758215,0.000997511,0.002647027,0.0026486763,0.00033778587,0.00011324108,0.00011329729,49.999985,9.425684e-07,9.4298815e-07,3.016235e-07,3.7973641e-06,3.7977836e-06,4.1847807e-07,0.0,0.0,0.0,0.0,0.0,0.0,0.0,0.0,24
3632000,3552000,0.6894033,0.0011880422,-0.014948667,0.7242226,0.0003844061,0.000667304,-0.005741628,2.1965521e-05,-1.0358565e-05,0.00052808947,-3.612697e-06,-8.51768e-06,-7.654338e-07,-7.6206247e-06,5.02398e-06,-0.0009099659,0.20358746,0.011333446,0.43205366,0.0,0.0,0.0,0.0,0.0,0.0010089913,0.00028413587,0.00028360327,0.0009146279,0.0029829557,0.0029846393,0.00036402902,0.000117009615,0.000117071504,49.999985,9.4256836e-07,9.4298815e-07,3.013794e-07,3.797364e-06,3.7977832e-06,4.1847815e-07,0.0,0.0,0.0,0.0,0.0,0.0,0.0,0.0,24
3640000,3560000,0.68939966,0.0011891898,-0.014956501,0.7242258,0.0005792695,0.0007841009,-0.005968891,2.5820224e-05,-4.5529455e-06,0.00048124738,-3.612697e-06,-8.51768e-06,-7.654338e-07,-7.6206247e-06,5.02398e-06,-0.0009099659,0.20358746,0.011333446,0.43205366,0.0,0.0,0.0,0.0,0.0,0.0010102199,0.000292392,0.00029185665,0.0009157239,0.0033409426,0.003342681,0.00039107245,0.000121498575,0.000121566474,49.999985,9.4256836e-07,9.4298815e-07,3.013794e-07,3.7973641e-06,3.7977834e-06,4.184782e-07,0.0,0.0,0.0,0.0,0.0,0.0,0.0,0.0,24
3648000,3568000,0.6893959,0.0012006204,-0.0149689745,0.7242291,0.0007053958,0.0010077939,-0.0061172247,3.0958887e-05,2.6146345e-06,0.00043290292,-3.612697e-06,-8.51768e-06,-7.654338e-07,-7.6206247e-06,5.02398e-06,-0.0009099659,0.20358746,0.011333446,0.43205366,0.0,0.0,0.0,0.0,0.0,0.001011528,0.0003011199,0.00030058128,0.000916891,0.003721763,0.0037235564,0.00041891652,0.00012679571,0.00012686994,49.999985,9.4256836e-07,9.4298815e-07,3.013794e-07,3.7973641e-06,3.7977834e-06,4.184783e-07,0.0,0.0,0.0,0.0,0.0,0.0,0.0,0.0,24
3656000,3576000,0.6893951,0.0012123007,-0.014971281,0.72422975,0.0007117096,0.001027637,-0.00630359,1.5819976e-05,4.643418e-06,0.00025191007,-3.764925e-06,-8.543541e-06,-7.594345e-07,-7.353706e-06,3.9410197e-06,-0.00090999284,0.20358746,0.011333446,0.43205366,0.0,0.0,0.0,0.0,0.0,0.0010129024,0.0002893604,0.0002888211,0.00091813656,0.003546859,0.0035477334,0.00044756063,5.7080513e-05,5.7095414e-05,33.33333,9.3880607e-07,9.3922216e-07,3.013678e-07,3.6010163e-06,3.6013805e-06,4.1831325e-07,0.0,0.0,0.0,0.0,0.0,0.0,0.0,0.0,24
3664000,3584000,0.6893935,0.0012301139,-0.014994833,0.72423077,0.0009231197,0.00079240976,-0.006540321,2.2359294e-05,1.1923606e-05,0.00020053441,-3.764925e-06,-8.543541e-06,-7.594345e-07,-7.353706e-06,3.9410197e-06,-0.00090999284,0.20358746,0.011333446,0.43205366,0.0,0.0,0.0,0.0,0.0,0.0010143624,0.00029875053,0.00029820684,0.0009194523,0.0039185407,0.003919428,0.00047700602,6.032441e-05,6.034133e-05,33.33333,9.3880607e-07,9.3922216e-07,3.0136783e-07,3.6010165e-06,3.6013807e-06,4.183133e-07,0.0,0.0,0.0,0.0,0.0,0.0,0.0,0.0,24
3672000,3592000,0.6893969,0.0012536478,-0.0150171025,0.7242271,0.00083039014,0.0007210532,-0.0068259016,2.9373334e-05,1.7977458e-05,0.00014706951,-3.764925e-06,-8.543541e-06,-7.594345e-07,-7.353706e-06,3.9410197e-06,-0.00090999284,0.20358746,0.011333446,0.43205366,0.0,0.0,0.0,0.0,0.0,0.0010158885,0.0003086102,0.00030806204,0.00092085253,0.004312357,0.0043132375,0.00050725264,6.4381435e-05,6.44005e-05,33.33333,9.388061e-07,9.392222e-07,3.0136783e-07,3.6010165e-06,3.6013807e-06,4.183134e-07,0.0,0.0,0.0,0.0,0.0,0.0,0.0,0.0,24
3680000,3600000,0.68939924,0.001266173,-0.015037002,0.72422445,0.000650523,0.00073906255,-0.0070334077,3.5296987e-05,2.3817922e-05,9.1632275e-05,-3.764925e-06,-8.543541e-06,-7.594345e-07,-7.353706e-06,3.9410197e-06,-0.00090999284,0.20358746,0.011333446,0.43205366,0.0,0.0,0.0,0.0,0.0,0.0010174966,0.0003189393,0.0003183867,0.0009223217,0.0047285566,0.0047294255,0.0005383011,6.9347516e-05,6.936884e-05,33.33333,9.388061e-07,9.392222e-07,3.0136783e-07,3.6010165e-06,3.6013807e-06,4.1831345e-07,0.0,0.0,0.0,0.0,0.0,0.0,0.0,0.0,24
3688000,3608000,0.68939936,0.0012657556,-0.015037574,0.7242243,0.0005099297,0.0006715811,-0.0070323483,3.5638885e-05,2.380623e-05,4.391649e-05,-4.025138e-06,-8.830136e-06,-7.558994e-07,-6.1599985e-06,2.9560854e-06,-0.00091194914,0.20358746,0.011333446,0.43205366,0.0,0.0,0.0,0.0,0.0,0.0010191851,0.00031100542,0.00031045056,0.0009238556,0.004576434,0.0045771133,0.00056213903,7.2468414e-05,7.24901e-05,33.33333,9.312904e-07,9.317029e-07,3.0135354e-07,3.4708212e-06,3.4711557e-06,4.1529609e-07,0.0,0.0,0.0,0.0,0.0,0.0,0.0,0.0,24
3696000,3616000,0.6893992,0.0012712649,-0.015050692,0.72422427,0.00043568737,0.00070706644,-0.0072767884,3.9421353e-05,2.932082e-05,-1.3320056e-05,-4.025138e-06,-8.830136e-06,-7.558994e-07,-6.1599985e-06,2.9560854e-06,-0.00091194914,0.20358746,0.011333446,0.43205366,0.0,0.0,0.0,0.0,0.0,0.0010209581,0.00032189634,0.00032133714,0.0009254612,0.0049883947,0.004989066,0.00059448386,7.8749676e-05,7.8773446e-05,33.33333,9.312904e-07,9.317029e-07,3.0135354e-07,3.4708214e-06,3.4711559e-06,4.1529617e-07,0.0,0.0,0.0,0.0,0.0,0.0,0.0,0.0,24
3704000,3624000,0.68928283,0.0012894,-0.01506367,0.7243346,0.0002583968,0.00069569587,-0.0074945185,4.2200303e-05,3.491431e-05,-7.2405455e-05,-4.028985e-06,-8.832577e-06,-1.0624615e-06,-6.1499113e-06,2.9675e-06,-0.000911949,0.20358746,0.011333446,0.43205366,0.0,0.0,0.0,0.0,0.0,0.00094242196,0.00033322116,0.000332689,0.00085439306,0.0054225405,0.0054231943,0.0006276255,8.611882e-05,8.614474e-05,33.33333,9.3129034e-07,9.3170286e-07,3.0082418e-07,3.4708207e-06,3.4711552e-06,4.1529623e-07,0.0,0.0,0.0,0.0,0.0,0.0,0.0,0.0,24
3712000,3632000,0.6892851,0.0013059261,-0.015078382,0.72433215,0.00011419371,0.000846492,-0.007639736,4.3690667e-05,4.108306e-05,-0.00013294248,-4.028985e-06,-8.832577e-06,-1.0624615e-06,-6.1499113e-06,2.9675e-06,-0.000911949,0.20358746,0.011333446,0.43205366,0.0,0.0,0.0,0.0,0.0,0.00094419817,0.0003450438,0.00034450684,0.00085601205,0.0058794282,0.0058800722,0.0006615647,9.4680705e-05,9.470884e-05,33.33333,9.3129034e-07,9.3170286e-07,3.0082418e-07,3.4708207e-06,3.4711552e-06,4.1529628e-07,0.0,0.0,0.0,0.0,0.0,0.0,0.0,0.0,24
3720000,3640000,0.68928427,0.0013264803,-0.015091108,0.72433263,0.00019057904,0.00091134023,-0.007585421,4.4909757e-05,4.811439e-05,-0.00019384312,-4.028985e-06,-8.832577e-06,-1.0624615e-06,-6.1499113e-06,2.9675e-06,-0.000911949,0.20358746,0.011333446,0.43205366,0.0,0.0,0.0,0.0,0.0,0.00094606105,0.00035733217,0.00035679038,0.00085769483,0.006359272,0.0063599236,0.0006963016,0.000104545434,0.00010457585,33.33333,9.3129034e-07,9.3170286e-07,3.008242e-07,3.470821e-06,3.4711554e-06,4.1529637e-07,0.0,0.0,0.0,0.0,0.0,0.0,0.0,0.0,24
3728000,3648000,0.6892841,0.0013424997,-0.015117878,0.7243322,9.686017e-05,0.0011660595,-0.0076342598,4.6059515e-05,5.642399e-05,-0.00025472185,-4.028985e-06,-8.832577e-06,-1.0624615e-06,-6.1499113e-06,2.9675e-06,-0.000911949,0.20358746,0.011333446,0.43205366,0.0,0.0,0.0,0.0,0.0,0.0009480006,0.0003700871,0.00036953948,0.0008594507,0.006864074,0.006864724,0.0007318366,0.00011582813,0.00011586089,33.33333,9.3129034e-07,9.3170286e-07,3.008242e-07,3.470821e-06,3.4711554e-06,4.1529643e-07,0.0,0.0,0.0,0.0,0.0,0.0,0.0,0.0,24
3736000,3656000,0.6892809,0.0013585772,-0.015134476,0.72433484,0.00016727758,0.0013190595,-0.007930562,4.7116067e-05,6.636447e-05,-0.00031698114,-4.028985e-06,-8.832577e-06,-1.0624615e-06,-6.1499113e-06,2.9675e-06,-0.000911949,0.20358746,0.011333446,0.43205366,0.0,0.0,0.0,0.0,0.0,0.0009500269,0.00038330728,0.0003827543,0.00086127064,0.0073954263,0.007396088,0.0007681699,0.0001286506,0.00012868576,33.33333,9.312904e-07,9.317029e-07,3.008242e-07,3.470821e-06,3.4711554e-06,4.1529648e-07,0.0,0.0,0.0,0.0,0.0,0.0,0.0,0.0,24
3744000,3664000,0.6892793,0.0013820461,-0.015144102,0.7243361,0.00032502232,0.0014264109,-0.008187018,4.908527e-05,7.7346354e-05,-0.00038145145,-4.028985e-06,-8.832577e-06,-1.0624615e-06,-6.1499113e-06,2.9675e-06,-0.000911949,0.20358746,0.011333446,0.43205366,0.0,0.0,0.0,0.0,0.0,0.0009521288,0.00039699295,0.00039643483,0.00086316565,0.007952994,0.007953676,0.00080530177,0.00014314138,0.00014317903,33.33333,9.312904e-07,9.317029e-07,3.008242e-07,3.470821e-06,3.4711554e-06,4.1529654e-07,0.0,0.0,0.0,0.0,0.0,0.0,0.0,0.0,24
3752000,3672000,0.68928,0.0014068682,-0.015160845,0.7243351,0.00048678386,0.001599344,-0.008397758,5.2332492e-05,8.944937e-05,-0.00044779055,-4.028985e-06,-8.832577e-06,-1.0624615e-06,-6.1499113e-06,2.9675e-06,-0.000911949,0.20358746,0.011333446,0.43205366,0.0,0.0,0.0,0.0,0.0,0.000954304,0.0004111448,0.00041058095,0.0008651376,0.008537642,0.0085383495,0.0008432328,0.0001594342,0.00015947444,33.33333,9.312904e-07,9.317029e-07,3.0082424e-07,3.4708212e-06,3.4711557e-06,4.1529663e-07,0.0,0.0,0.0,0.0,0.0,0.0,0.0,0.0,24
3760000,3680000,0.68928725,0.001425379,-0.015175845,0.7243278,0.0006147421,0.0015684477,-0.008593917,5.6738598e-05,0.00010212054,-0.00051575725,-4.028985e-06,-8.832577e-06,-1.0624615e-06,-6.1499113e-06,2.9675e-06,-0.000911949,0.20358746,0.011333446,0.43205366,0.0,0.0,0.0,0.0,0.0,0.0009565418,0.0004257624,0.0004251928,0.00086719735,0.009150461,0.009151186,0.0008819624,0.00017766908,0.000177712,33.33333,9.312904e-07,9.317029e-07,3.0082424e-07,3.4708212e-06,3.4711557e-06,4.1529668e-07,0.0,0.0,0.0,0.0,0.0,0.0,0.0,0.0,24
3768000,3688000,0.6889747,0.0014489851,-0.015185531,0.72462493,0.0006756864,0.0016062498,-0.008736017,6.1958955e-05,0.00011462183,-0.0005850782,-4.04321e-06,-8.840852e-06,-2.1380338e-06,-6.1148166e-06,3.0066858e-06,-0.00091194874,0.20358746,0.011333446,0.43205366,0.0,0.0,0.0,0.0,0.0,0.00088795053,0.00044081855,0.00044026985,0.0008051097,0.009792206,0.00979294,0.00092149165,0.00019799273,0.00019803841,33.33333,9.3129023e-07,9.3170286e-07,2.999864e-07,3.4708203e-06,3.4711545e-06,4.1529674e-07,0.0,0.0,0.0,0.0,0.0,0.0,0.0,0.0,24
3776000,3696000,0.6889739,0.0014635095,-0.015198358,0.72462535,0.0007038092,0.0018864438,-0.008843251,6.747694e-05,0.0001285926,-0.00065539527,-4.04321e-06,-8.840852e-06,-2.1380338e-06,-6.1148166e-06,3.0066858e-06,-0.00091194874,0.20358746,0.011333446,0.43205366,0.0,0.0,0.0,0.0,0.0,0.00089019036,0.0004563676,0.00045581305,0.0008071316,0.010463971,0.010464722,0.0009618214,0.00022055843,0.00022060698,33.33333,9.3129023e-07,9.3170286e-07,2.999864e-07,3.4708205e-06,3.4711547e-06,4.152968e-07,0.0,0.0,0.0,0.0,0.0,0.0,0.0,0.0,24
3784000,3704000,0.6889778,0.0014767372,-0.015215727,0.72462124,0.0007808856,0.0019213672,-0.00908868,7.341572e-05,0.00014382384,-0.000727123,-4.04321e-06,-8.840852e-06,-2.1380338e-06,-6.1148166e-06,3.0066858e-06,-0.00091194874,0.20358746,0.011333446,0.43205366,0.0,0.0,0.0,0.0,0.0,0.00089249824,0.00047238273,0.00047182187,0.0008092352,0.011167901,0.011168667,0.0010029505,0.00024552652,0.00024557803,33.33333,9.3129023e-07,9.3170286e-07,2.9998643e-07,3.4708205e-06,3.4711547e-06,4.1529688e-07,0.0,0.0,0.0,0.0,0.0,0.0,0.0,0.0,24
3792000,3712000,0.6889758,0.0014899364,-0.015236867,0.7246226,0.00072655256,0.0018543547,-0.00941959,7.9445475e-05,0.00015892673,-0.0008011561,-4.04321e-06,-8.840852e-06,-2.1380338e-06,-6.1148166e-06,3.0066858e-06,-0.00091194874,0.20358746,0.011333446,0.43205366,0.0,0.0,0.0,0.0,0.0,0.0008948982,0.00048886385,0.0004882963,0.00081139663,0.011904865,0.0119056245,0.0010448791,0.00027306587,0.00027312044,33.33333,9.3129023e-07,9.3170286e-07,2.9998643e-07,3.4708205e-06,3.4711547e-06,4.1529694e-07,0.0,0.0,0.0,0.0,0.0,0.0,0.0,0.0,24
3800000,3720000,0.6889707,0.0015101929,-0.015256698,0.724627,0.0007064922,0.0020402905,-0.009441063,8.517766e-05,0.00017450532,-0.0008765987,-4.04321e-06,-8.840852e-06,-2.1380338e-06,-6.1148166e-06,3.0066858e-06,-0.00091194874,0.20358746,0.011333446,0.43205366,0.0,0.0,0.0,0.0,0.0,0.00089738437,0.0005058107,0.0005052364,0.00081362185,0.012673249,0.012674016,0.0010876096,0.0003033528,0.0003034105,33.33333,9.312903e-07,9.317029e-07,2.9998643e-07,3.4708205e-06,3.4711547e-06,4.15297e-07,0.0,0.0,0.0,0.0,0.0,0.0,0.0,0.0,24
3808000,3728000,0.68896836,0.0015213743,-0.015272982,0.72462887,0.00046716782,0.0021994445,-0.009442478,8.9872294e-05,0.00019146426,-0.00095213286,-4.04321e-06,-8.840852e-06,-2.1380338e-06,-6.1148166e-06,3.0066858e-06,-0.00091194874,0.20358746,0.011333446,0.43205366,0.0,0.0,0.0,0.0,0.0,0.0008999429,0.0005232232,0.0005226422,0.0008159247,0.013476084,0.013476824,0.0011311403,0.00033656813,0.00033662902,33.33333,9.312903e-07,9.317029e-07,2.9998643e-07,3.4708207e-06,3.471155e-06,4.1529705e-07,0.0,0.0,0.0,0.0,0.0,0.0,0.0,0.0,24
3816000,3736000,0.6889663,0.0015232527,-0.015278949,0.7246307,0.00047026866,0.0023862587,-0.009614974,9.362204e-05,0.00020980707,-0.0010283627,-4.04321e-06,-8.840852e-06,-2.1380338e-06,-6.1148166e-06,3.0066858e-06,-0.00091194874,0.20358746,0.011333446,0.43205366,0.0,0.0,0.0,0.0,0.0,0.0009025802,0.000541101,0.00054051395,0.00081829913,0.0143160615,0.01431681,0.0011754731,0.00037290278,0.00037296693,33.33333,9.312903e-07,9.317029e-07,2.9998645e-07,3.4708207e-06,3.471155e-06,4.152971e-07,0.0,0.0,0.0,0.0,0.0,0.0,0.0,0.0,24
3824000,3744000,0.68896717,0.0015335524,-0.015287708,0.7246297,0.00052192155,0.002541902,-0.009728909,9.75908e-05,0.0002295197,-0.0011057382,-4.04321e-06,-8.840852e-06,-2.1380338e-06,-6.1148166e-06,3.0066858e-06,-0.00091194874,0.20358746,0.011333446,0.43205366,0.0,0.0,0.0,0.0,0.0,0.0009052894,0.00055944483,0.0005588512,0.0008207516,0.015192684,0.015193447,0.0012206074,0.00041255783,0.00041262532,33.333332,9.312903e-07,9.317029e-07,2.9998645e-07,3.4708207e-06,3.471155e-06,4.1529717e-07,0.0,0.0,0.0,0.0,0.0,0.0,0.0,0.0,24
3832000,3752000,0.688968,0.0015428254,-0.015300631,0.7246286,0.00035748282,0.002571903,-0.00975325,0.00010110842,0.00024997492,-0.0011836669,-4.04321e-06,-8.840852e-06,-2.1380338e-06,-6.1148166e-06,3.0066858e-06,-0.00091194874,0.20358746,0.011333446,0.43205366,0.0,0.0,0.0,0.0,0.0,0.0009080772,0.0005782546,0.00057765417,0.0008232751,0.016106876,0.016107613,0.0012665422,0.00045574096,0.0004558119,33.33334,9.312903e-07,9.317029e-07,2.9998645e-07,3.4708207e-06,3.471155e-06,4.1529722e-07,0.0,0.0,0.0,0.0,0.0,0.0,0.0,0.0,24
3840000,3760000,0.68887943,0.0015502159,-0.0153171,0.7247125,0.00035503393,0.00278129,-0.009869901,0.00010400911,0.00027123615,-0.0012621604,-4.048902e-06,-8.84403e-06,-2.5461857e-06,-6.10161e-06,3.0213569e-06,-0.0009119486,0.20358746,0.011333446,0.43205366,0.0,0.0,0.0,0.0,0.0,0.0008467478,0.00059750763,0.000596922,0.0007677702,0.017061511,0.017062241,0.0013132805,0.0005026682,0.0005027425,33.333347,9.3129006e-07,9.3170286e-07,2.987262e-07,3.4708196e-06,3.4711536e-06,4.152973e-07,0.0,0.0,0.0,0.0,0.0,0.0,0.0,0.0,24
3848000,3768000,0.68888324,0.00155955,-0.015330004,0.7247086,0.0003034766,0.0028598914,-0.010291629,0.00010664315,0.00029380087,-0.0013428065,-4.048902e-06,-8.84403e-06,-2.5461857e-06,-6.10161e-06,3.0213569e-06,-0.0009119486,0.20358746,0.011333446,0.43205366,0.0,0.0,0.0,0.0,0.0,0.00084948115,0.0006172491,0.0006166562,0.00077025534,0.018060103,0.018060822,0.0013608201,0.00055356685,0.00055364467,33.333355,9.3129006e-07,9.3170286e-07,2.987262e-07,3.4708196e-06,3.4711536e-06,4.1529736e-07,0.0,0.0,0.0,0.0,0.0,0.0,0.0,0.0,24
3856000,3776000,0.6888829,0.0015656662,-0.01533847,0.7247088,0.00048885355,0.003126183,-0.010545343,0.00010981247,0.00031774517,-0.0014261544,-4.048902e-06,-8.84403e-06,-2.5461857e-06,-6.10161e-06,3.0213569e-06,-0.0009119486,0.20358746,0.011333446,0.43205366,0.0,0.0,0.0,0.0,0.0,0.00085230236,0.0006374562,0.0006368562,0.00077280216,0.019099606,0.019100362,0.0014091644,0.00060867687,0.0006087583,33.333363,9.3129006e-07,9.3170286e-07,2.9872623e-07,3.4708196e-06,3.4711536e-06,4.1529742e-07,0.0,0.0,0.0,0.0,0.0,0.0,0.0,0.0,24
3864000,3784000,0.6888863,0.0014888981,-0.01518084,0.72470903,-6.6943925e-05,0.0017321011,-0.010509716,1.4777723e-05,4.4680957e-05,-0.0011356184,-5.578349e-06,-1.2436175e-05,-2.5614993e-06,4.522075e-06,-8.8069567e-07,-0.0009122528,0.20358746,0.011333446,0.43205366,0.0,0.0,0.0,0.0,0.0,0.0008551296,0.0004369416,0.00043640798,0.0007754191,0.004449574,0.004450176,0.0014582925,8.698332e-05,8.698471e-05,25.000021,8.4183034e-07,8.422125e-07,2.9859436e-07,2.7185476e-06,2.7186377e-06,4.146649e-07,0.0,0.0,0.0,0.0,0.0,0.0,0.0,0.0,24
3872000,3792000,0.688888,0.001504407,-0.015197242,0.72470695,-0.00014804734,0.0019342193,-0.010628305,1.3917757e-05,5.934624e-05,-0.0012201705,-5.578349e-06,-1.2436175e-05,-2.5614993e-06,4.522075e-06,-8.8069567e-07,-0.0009122528,0.20358746,0.011333446,0.43205366,0.0,0.0,0.0,0.0,0.0,0.00085810106,0.00045360977,0.0004530687,0.0007781121,0.004763447,0.004764103,0.0015082398,9.5497395e-05,9.5498435e-05,25.000025,8.418304e-07,8.4221256e-07,2.9859436e-07,2.7185479e-06,2.718638e-06,4.1466495e-07,0.0,0.0,0.0,0.0,0.0,0.0,0.0,0.0,24
3880000,3800000,0.6888813,0.0015135929,-0.015223981,0.7247128,-7.303187e-05,0.0020391787,-0.010587417,1.303344e-05,7.5239834e-05,-0.0013050335,-5.578349e-06,-1.2436175e-05,-2.5614993e-06,4.522075e-06,-8.8069567e-07,-0.0009122528,0.20358746,0.011333446,0.43205366,0.0,0.0,0.0,0.0,0.0,0.00086116936,0.00047069942,0.0004701502,0.000780857,0.005096703,0.005097422,0.0015589903,0.00010498028,0.00010498104,25.000029,8.418304e-07,8.4221256e-07,2.9859436e-07,2.7185479e-06,2.718638e-06,4.14665e-07,0.0,0.0,0.0,0.0,0.0,0.0,0.0,0.0,24
3888000,3808000,0.6888843,0.0015233695,-0.01523637,0.72470963,3.9525214e-05,0.0020011268,-0.010787994,1.2899413e-05,9.140106e-05,-0.0013905352,-5.578349e-06,-1.2436175e-05,-2.5614993e-06,4.522075e-06,-8.8069567e-07,-0.0009122528,0.20358746,0.011333446,0.43205366,0.0,0.0,0.0,0.0,0.0,0.00086429506,0.0004882095,0.0004876528,0.0007836943,0.00545192,0.0054527074,0.001610544,0.000115508454,0.00011550902,25.000032,8.418304e-07,8.4221256e-07,2.985944e-07,2.7185479e-06,2.718638e-06,4.1466507e-07,0.0,0.0,0.0,0.0,0.0,0.0,0.0,0.0,24
3896000,3816000,0.6888928,0.0015122098,-0.015212341,0.72470206,0.00015667116,0.0019333895,-0.0103960065,1.11596e-05,7.502934e-05,-0.0014017482,-5.8312794e-06,-1.4258035e-05,-2.572883e-06,5.0956346e-06,-7.8501694e-07,-0.00091784017,0.20358746,0.011333446,0.43205366,0.0,0.0,0.0,0.0,0.0,0.00086748035,0.00047864308,0.000478091,0.0007866125,0.0050873067,0.0050879605,0.0015965299,0.000116734715,0.0001167354,25.000034,8.101009e-07,8.104693e-07,2.9856875e-07,2.7138005e-06,2.7139051e-06,4.0363216e-07,0.0,0.0,0.0,0.0,0.0,0.0,0.0,0.0,24
3904000,3824000,0.68860906,0.0015124818,-0.015226961,0.72497135,0.00032426757,0.0019221527,-0.010564095,1.311712e-05,9.0310496e-05,-0.001485592,-5.8543133e-06,-1.4260229e-05,-4.1008484e-06,5.121405e-06,-7.392029e-07,-0.0009178394,0.20358746,0.011333446,0.43205366,0.0,0.0,0.0,0.0,0.0,0.0008119626,0.0004960311,0.0004954931,0.0007363657,0.0054384423,0.0054391553,0.0016479685,0.00012796835,0.00012796887,25.000038,8.101005e-07,8.104693e-07,2.9691202e-07,2.7138e-06,2.7139035e-06,4.036322e-07,0.0,0.0,0.0,0.0,0.0,0.0,0.0,0.0,24
3912000,3832000,0.68860745,0.0015225568,-0.01523,0.72497284,0.00041227325,0.0018795002,-0.010685734,1.6063284e-05,0.00010551711,-0.0015705914,-5.8543133e-06,-1.4260229e-05,-4.1008484e-06,5.121405e-06,-7.392029e-07,-0.0009178394,0.20358746,0.011333446,0.43205366,0.0,0.0,0.0,0.0,0.0,0.00081510865,0.0005138459,0.00051330077,0.00073919917,0.0058113886,0.0058121597,0.0017001891,0.00014033292,0.00014033339,25.000042,8.101005e-07,8.104693e-07,2.9691202e-07,2.7138e-06,2.7139035e-06,4.0363227e-07,0.0,0.0,0.0,0.0,0.0,0.0,0.0,0.0,24
3920000,3840000,0.68860483,0.0015363784,-0.015247628,0.7249749,0.00048665647,0.0022188935,-0.010653824,1.9659004e-05,0.000121910685,-0.0016559496,-5.8543133e-06,-1.4260229e-05,-4.1008484e-06,5.121405e-06,-7.392029e-07,-0.0009178394,0.20358746,0.011333446,0.43205366,0.0,0.0,0.0,0.0,0.0,0.0008183345,0.0005320664,0.0005315132,0.000742101,0.006206704,0.0062075327,0.0017531931,0.00015391431,0.00015391484,25.000048,8.101005e-07,8.104693e-07,2.9691205e-07,2.7138e-06,2.7139035e-06,4.0363233e-07,0.0,0.0,0.0,0.0,0.0,0.0,0.0,0.0,24
3928000,3848000,0.688605,0.001544095,-0.015260129,0.7249744,0.00041309933,0.0025486108,-0.0108253285,2.3258028e-05,0.0001409807,-0.0017418662,-5.8543133e-06,-1.4260229e-05,-4.1008484e-06,5.121405e-06,-7.392029e-07,-0.0009178394,0.20358746,0.011333446,0.43205366,0.0,0.0,0.0,0.0,0.0,0.0008216327,0.0005506919,0.00055013085,0.0007450791,0.006627192,0.006628068,0.0018069795,0.00016880335,0.00016880405,25.000055,8.101005e-07,8.104693e-07,2.9691205e-07,2.7138003e-06,2.7139038e-06,4.0363238e-07,0.0,0.0,0.0,0.0,0.0,0.0,0.0,0.0,24
3936000,3856000,0.6885983,0.0015520289,-0.015272252,0.72498053,0.00029519878,0.002902125,-0.010986708,2.609122e-05,0.00016278365,-0.0018291144,-5.8543133e-06,-1.4260229e-05,-4.1008484e-06,5.121405e-06,-7.392029e-07,-0.0009178394,0.20358746,0.011333446,0.43205366,0.0,0.0,0.0,0.0,0.0,0.0008250237,0.0005697227,0.0005691535,0.0007481128,0.0070730443,0.007073963,0.0018615492,0.00018509798,0.000185099,25.000063,8.101005e-07,8.104693e-07,2.9691205e-07,2.7138003e-06,2.7139038e-06,4.0363244e-07,0.0,0.0,0.0,0.0,0.0,0.0,0.0,0.0,24
3944000,3864000,0.6885928,0.0015554476,-0.015283731,0.72498554,0.00029833234,0.0029863478,-0.01118508,2.8465345e-05,0.00018633754,-0.0019178016,-5.8543133e-06,-1.4260229e-05,-4.1008484e-06,5.121405e-06,-7.392029e-07,-0.0009178394,0.20358746,0.011333446,0.43205366,0.0,0.0,0.0,0.0,0.0,0.0008284904,0.00058915856,0.00058858126,0.00075121934,0.007545712,0.0075466842,0.0019169009,0.00020290144,0.00020290291,25.00007,8.101006e-07,8.104694e-07,2.9691205e-07,2.7138003e-06,2.7139038e-06,4.036325e-07,0.0,0.0,0.0,0.0,0.0,0.0,0.0,0.0,24
3952000,3872000,0.6885929,0.0015684646,-0.015297581,0.7249851,0.0004695866,0.0028956458,-0.011642434,3.153702e-05,0.00020986551,-0.0020091117,-5.8543133e-06,-1.4260229e-05,-4.1008484e-06,5.121405e-06,-7.392029e-07,-0.0009178394,0.20358746,0.011333446,0.43205366,0.0,0.0,0.0,0.0,0.0,0.0008320233,0.0006089998,0.0006084139,0.00075440825,0.008047826,0.008048868,0.0019730353,0.00022232355,0.00022232562,25.000078,8.101006e-07,8.104694e-07,2.9691205e-07,2.7138003e-06,2.7139038e-06,4.0363255e-07,0.0,0.0,0.0,0.0,0.0,0.0,0.0,0.0,24
3960000,3880000,0.6885906,0.0015920674,-0.015314924,0.7249869,0.0005000713,0.003077563,-0.012004033,3.541565e-05,0.00023375834,-0.0021036975,-5.8543133e-06,-1.4260229e-05,-4.1008484e-06,5.121405e-06,-7.392029e-07,-0.0009178394,0.20358746,0.011333446,0.43205366,0.0,0.0,0.0,0.0,0.0,0.00083563954,0.0006292464,0.0006286514,0.00075766223,0.008578599,0.008579697,0.0020299545,0.00024348209,0.00024348494,25.000086,8.101006e-07,8.104694e-07,2.9691208e-07,2.7138005e-06,2.713904e-06,4.036326e-07,0.0,0.0,0.0,0.0,0.0,0.0,0.0,0.0,24
3968000,3888000,0.68858075,0.0016005991,-0.015323995,0.724996,0.00042974972,0.0035003482,-0.012279436,3.9134935e-05,0.00026007,-0.0022008314,-5.8543133e-06,-1.4260229e-05,-4.1008484e-06,5.121405e-06,-7.392029e-07,-0.0009178394,0.20358746,0.011333446,0.43205366,0.0,0.0,0.0,0.0,0.0,0.0008393501,0.0006498978,0.0006492943,0.0007609704,0.009139285,0.009140425,0.0020876592,0.00026649993,0.00026650375,25.000093,8.101006e-07,8.104694e-07,2.9691208e-07,2.7138005e-06,2.713904e-06,4.0363267e-07,0.0,0.0,0.0,0.0,0.0,0.0,0.0,0.0,24
3976000,3896000,0.6888412,0.0015999052,-0.0153394155,0.72474825,0.00055812846,0.003646273,-0.012595445,4.3051758e-05,0.00028899199,-0.0023003253,-5.8278542e-06,-1.4257931e-05,-2.4443752e-06,5.094006e-06,-7.8717864e-07,-0.0009178402,0.20358746,0.011333446,0.43205366,0.0,0.0,0.0,0.0,0.0,0.0007879283,0.0006709351,0.0006703414,0.00071440055,0.009732032,0.009733231,0.0021461465,0.00029150702,0.0002915119,25.000101,8.101e-07,8.104694e-07,2.9474324e-07,2.7137999e-06,2.7139022e-06,4.0363273e-07,0.0,0.0,0.0,0.0,0.0,0.0,0.0,0.0,24
3984000,3904000,0.68883926,0.0016081821,-0.0153473485,0.72474986,0.00071514654,0.0039040474,-0.012947639,4.8144528e-05,0.00031919233,-0.09740192,-5.8278824e-06,-1.4257943e-05,-2.4443789e-06,5.0945628e-06,-7.8761866e-07,-0.00091781834,0.20358746,0.011333446,0.43205366,0.0,0.0,0.0,0.0,0.0,0.0007915255,0.0006923969,0.00069179444,0.0007176409,0.010358197,0.010359461,0.0022054126,0.0003186416,0.00031864786,8.221487,8.101e-07,8.104694e-07,2.9474324e-07,2.7137999e-06,2.7139022e-06,4.036319e-07,0.0,0.0,0.0,0.0,0.0,0.0,0.0,0.0,24
3992000,3912000,0.6888428,0.0016176904,-0.015354861,0.72474635,0.00079220254,0.004084822,-0.013185538,5.4173925e-05,0.0003511478,-0.09750645,-5.8278824e-06,-1.4257943e-05,-2.4443789e-06,5.0945628e-06,-7.8761866e-07,-0.00091781834,0.20358746,0.011333446,0.43205366,0.0,0.0,0.0,0.0,0.0,0.0007951892,0.0007142639,0.0007136525,0.0007209621,0.011017975,0.011019299,0.002265469,0.00034804977,0.00034805763,8.221491,8.101e-07,8.104694e-07,2.9474327e-07,2.7138e-06,2.7139024e-06,4.0363196e-07,0.0,0.0,0.0,0.0,0.0,0.0,0.0,0.0,24
4000000,3920000,0.68883926,0.0016357745,-0.0153648,0.7247495,0.00063334545,0.004204283,-0.013251357,5.9876118e-05,0.00038430424,-0.097612195,-5.8278824e-06,-1.4257943e-05,-2.4443789e-06,5.0945628e-06,-7.8761866e-07,-0.00091781834,0.20358746,0.011333446,0.43205366,0.0,0.0,0.0,0.0,0.0,0.0007989449,0.00073653617,0.00073591544,0.0007243388,0.011712105,0.011713458,0.0023263078,0.00037988444,0.00037989413,8.221495,8.101e-07,8.104694e-07,2.9474327e-07,2.7138e-06,2.7139024e-06,4.0363201e-07,0.0,0.0,0.0,0.0,0.0,0.0,0.0,0.0,24
4008000,3928000,0.6888325,0.0016531327,-0.015378521,0.7247555,0.0003304357,0.0042440128,-0.013373777,6.373124e-05,0.00041809742,-0.09771869,-5.8278824e-06,-1.4257943e-05,-2.4443789e-06,5.0945628e-06,-7.8761866e-07,-0.00091781834,0.20358746,0.011333446,0.43205366,0.0,0.0,0.0,0.0,0.0,0.00080278463,0.00075921376,0.0007585833,0.0007277789,0.012443914,0.012445278,0.0023879302,0.00041430604,0.00041431776,8.2214985,8.101e-07,8.104694e-07,2.9474327e-07,2.7138e-06,2.7139024e-06,4.0363207e-07,0.0,0.0,0.0,0.0,0.0,0.0,0.0,0.0,24
4016000,3936000,0.6888285,0.0016757395,-0.015389085,0.72475904,0.00037367747,0.0042329747,-0.013681844,6.654769e-05,0.00045200536,-0.09782691,-5.8278824e-06,-1.4257943e-05,-2.4443789e-06,5.0945628e-06,-7.8761866e-07,-0.00091781834,0.20358746,0.011333446,0.43205366,0.0,0.0,0.0,0.0,0.0,0.00080669654,0.00078229647,0.0007816562,0.0007312943,0.013216214,0.01321763,0.0024503383,0.00045148574,0.0004514997,8.221502,8.1010006e-07,8.1046943e-07,2.9474327e-07,2.7138e-06,2.7139024e-06,4.0363213e-07,0.0,0.0,0.0,0.0,0.0,0.0,0.0,0.0,24
4024000,3944000,0.68882495,0.001696712,-0.015394409,0.72476226,0.0005457507,0.0044247983,-0.013838023,7.0225404e-05,0.00048663645,-0.097936995,-5.8278824e-06,-1.4257943e-05,-2.4443789e-06,5.0945628e-06,-7.8761866e-07,-0.00091781834,0.20358746,0.011333446,0.43205366,0.0,0.0,0.0,0.0,0.0,0.0008106852,0.0008057841,0.0008051343,0.00073488033,0.014027272,0.014028753,0.002513535,0.00049160555,0.000491622,8.221507,8.1010006e-07,8.1046943e-07,2.9474327e-07,2.7138e-06,2.7139024e-06,4.0363219e-07,0.0,0.0,0.0,0.0,0.0,0.0,0.0,0.0,24
4032000,3952000,0.68882203,0.0016972652,-0.015396479,0.724765,0.00052671914,0.0044576274,-0.0139003545,7.451529e-05,0.00052216614,-0.09804795,-5.8278824e-06,-1.4257943e-05,-2.4443789e-06,5.0945628e-06,-7.8761866e-07,-0.00091781834,0.20358746,0.011333446,0.43205366,0.0,0.0,0.0,0.0,0.0,0.0008147498,0.00082967686,0.0008290179,0.0007385376,0.0148790125,0.014880533,0.0025775142,0.0005348531,0.0005348723,8.221513,8.1010006e-07,8.1046943e-07,2.947433e-07,2.7138003e-06,2.7139026e-06,4.0363224e-07,0.0,0.0,0.0,0.0,0.0,0.0,0.0,0.0,24
4040000,3960000,0.6889668,0.0017037073,-0.015412115,0.7246271,0.0004096821,0.00451698,-0.014124248,7.824628e-05,0.00055840524,-0.05433829,-5.8113465e-06,-1.425676e-05,-1.457284e-06,5.077763e-06,-8.152647e-07,-0.00091783755,0.20358746,0.011333446,0.43205366,0.0,0.0,0.0,0.0,0.0,0.0007667475,0.0008539582,0.0008533051,0.00069510326,0.015775807,0.015777335,0.002642273,0.000581426,0.0005814479,4.919694,8.100993e-07,8.1046943e-07,2.9212904e-07,2.7137996e-06,2.7139006e-06,4.036317e-07,0.0,0.0,0.0,0.0,0.0,0.0,0.0,0.0,24
4048000,3968000,0.6889619,0.001718996,-0.015432645,0.72463125,0.00045992812,0.0045943987,-0.014101304,8.172472e-05,0.00059485075,-0.054451194,-5.8113465e-06,-1.425676e-05,-1.457284e-06,5.077763e-06,-8.152647e-07,-0.00091783755,0.20358746,0.011333446,0.43205366,0.0,0.0,0.0,0.0,0.0,0.0007707018,0.00087866205,0.00087799807,0.0006986554,0.016714508,0.016716078,0.0027078243,0.0006315356,0.00063156075,4.9196978,8.100993e-07,8.1046943e-07,2.9212904e-07,2.7137996e-06,2.7139006e-06,4.0363176e-07,0.0,0.0,0.0,0.0,0.0,0.0,0.0,0.0,24
4056000,3976000,0.6889544,0.0017306369,-0.0154453525,0.72463804,0.00043616066,0.0047512283,-0.014402859,8.5309075e-05,0.0006322333,-0.05456521,-5.8113465e-06,-1.425676e-05,-1.457284e-06,5.077763e-06,-8.152647e-07,-0.00091783755,0.20358746,0.011333446,0.43205366,0.0,0.0,0.0,0.0,0.0,0.0007747383,0.0009037708,0.0009030963,0.00070227147,0.017703623,0.017705219,0.0027741627,0.0006853976,0.00068542623,4.919702,8.100993e-07,8.1046943e-07,2.9212904e-07,2.7137996e-06,2.7139006e-06,4.0363182e-07,0.0,0.0,0.0,0.0,0.0,0.0,0.0,0.0,24
4064000,3984000,0.6889547,0.0017393712,-0.015455856,0.72463757,0.00045967737,0.004835915,-0.014704615,8.8892426e-05,0.0006705818,-0.05468164,-5.8113465e-06,-1.425676e-05,-1.457284e-06,5.077763e-06,-8.152647e-07,-0.00091783755,0.20358746,0.011333446,0.43205366,0.0,0.0,0.0,0.0,0.0,0.00077883626,0.0009292847,0.0009285996,0.00070597226,0.018741004,0.018742632,0.0028412861,0.0007432474,0.0007432798,4.919707,8.100993e-07,8.1046943e-07,2.9212904e-07,2.7137999e-06,2.7139008e-06,4.0363187e-07,0.0,0.0,0.0,0.0,0.0,0.0,0.0,0.0,24
4072000,3992000,0.6889607,0.0015027802,-0.015112735,0.7246396,2.4292509e-05,0.0020505618,-0.014885457,1.0200954e-05,7.839239e-05,-0.05480029,-7.8468365e-06,-2.487989e-05,-1.5108474e-06,8.6194e-06,-1.0158449e-06,-0.0009179217,0.20358746,0.011333446,0.43205366,0.0,0.0,0.0,0.0,0.0,0.0007828986,0.0006261677,0.0006256286,0.0007097313,0.004665389,0.004665681,0.002909171,8.895423e-05,8.895469e-05,4.919712,6.034166e-07,6.03714e-07,2.91966e-07,2.6915618e-06,2.6917132e-06,4.036132e-07,0.0,0.0,0.0,0.0,0.0,0.0,0.0,0.0,24
4080000,4000000,0.68896216,0.0015081007,-0.015126765,0.7246379,-6.634718e-05,0.0022010007,-0.015107885,1.0032736e-05,9.539864e-05,-0.054920264,-7.8468365e-06,-2.487989e-05,-1.5108474e-06,8.6194e-06,-1.0158449e-06,-0.0009179217,0.20358746,0.011333446,0.43205366,0.0,0.0,0.0,0.0,0.0,0.00078714447,0.00064419204,0.0006436452,0.00071357255,0.0050556455,0.0050559235,0.0029778664,9.649701e-05,9.649767e-05,4.919718,6.034166e-07,6.03714e-07,2.91966e-07,2.6915618e-06,2.6917132e-06,4.0361326e-07,0.0,0.0,0.0,0.0,0.0,0.0,0.0,0.0,24
4088000,4008000,0.6889609,0.0015155614,-0.015138475,0.7246389,-0.00023104483,0.0022252605,-0.015338838,8.843168e-06,0.000113103684,-0.05504205,-7.8468365e-06,-2.487989e-05,-1.5108474e-06,8.6194e-06,-1.0158449e-06,-0.0009179217,0.20358746,0.011333446,0.43205366,0.0,0.0,0.0,0.0,0.0,0.0007914726,0.00066251797,0.00066196336,0.0007174776,0.0054720263,0.005472284,0.003047348,0.00010498433,0.00010498522,4.919724,6.0341665e-07,6.0371406e-07,2.91966e-07,2.6915618e-06,2.6917132e-06,4.036133e-07,0.0,0.0,0.0,0.0,0.0,0.0,0.0,0.0,24
4096000,4016000,0.68895894,0.0015255316,-0.0151459705,0.7246406,-6.520818e-05,0.0022580256,-0.015328005,7.6581555e-06,0.00013103682,-0.055164717,-7.8468365e-06,-2.487989e-05,-1.5108474e-06,8.6194e-06,-1.0158449e-06,-0.0009179217,0.20358746,0.011333446,0.43205366,0.0,0.0,0.0,0.0,0.0,0.0007958792,0.00068114564,0.0006805833,0.0007214504,0.0059140516,0.0059143095,0.003117617,0.00011450899,0.000114510156,4.9197307,6.0341665e-07,6.0371406e-07,2.91966e-07,2.691562e-06,2.6917135e-06,4.0361337e-07,0.0,0.0,0.0,0.0,0.0,0.0,0.0,0.0,24
4104000,4024000,0.6889573,0.0014649618,-0.015093394,0.72464335,-1.3435281e-05,0.0019319091,-0.0141770635,7.656788e-06,0.00011777545,-0.06982858,-7.9517995e-06,-2.7349826e-05,-1.5240688e-06,6.8385148e-06,-6.4385847e-07,-0.00092886895,0.20358746,0.011333446,0.43205366,0.0,0.0,0.0,0.0,0.0,0.00080033985,0.0006354951,0.00063494657,0.0007254876,0.005505463,0.005505647,0.002953239,0.000115992145,0.00011599315,3.5100567,5.4598786e-07,5.4626776e-07,2.9193083e-07,2.669985e-06,2.6701089e-06,3.813144e-07,0.0,0.0,0.0,0.0,0.0,0.0,0.0,0.0,24
4112000,4032000,0.68896437,0.0014654789,-0.015099566,0.7246365,7.290992e-05,0.0019060579,-0.0143011045,7.894072e-06,0.0001331357,-0.06994249,-7.950037e-06,-2.735061e-05,-1.4160113e-06,6.8368718e-06,-6.4664937e-07,-0.000928869,0.20358746,0.011333446,0.43205366,0.0,0.0,0.0,0.0,0.0,0.00075450004,0.0006527674,0.00065222965,0.0006839741,0.0059385845,0.005938755,0.0030204768,0.00012625511,0.00012625633,3.5100617,5.45987e-07,5.462676e-07,2.8875672e-07,2.6699843e-06,2.6701068e-06,3.8131446e-07,0.0,0.0,0.0,0.0,0.0,0.0,0.0,0.0,24
4120000,4040000,0.6889663,0.0014736275,-0.015107371,0.7246345,5.576881e-05,0.0019830843,-0.014285013,8.408787e-06,0.00014869227,-0.07005683,-7.950037e-06,-2.735061e-05,-1.4160113e-06,6.8368718e-06,-6.4664937e-07,-0.000928869,0.20358746,0.011333446,0.43205366,0.0,0.0,0.0,0.0,0.0,0.0007588381,0.00067033124,0.000669786,0.00068789977,0.006397678,0.006397827,0.0030884577,0.00013766963,0.00013767112,3.5100672,5.45987e-07,5.462676e-07,2.8875672e-07,2.6699843e-06,2.6701068e-06,3.8131452e-07,0.0,0.0,0.0,0.0,0.0,0.0,0.0,0.0,24
4128000,4048000,0.6889678,0.0014855899,-0.015102637,0.72463304,-9.008108e-05,0.0019920613,-0.0144351125,8.271538e-06,0.00016459286,-0.070171714,-7.950037e-06,-2.735061e-05,-1.4160113e-06,6.8368718e-06,-6.4664937e-07,-0.000928869,0.20358746,0.011333446,0.43205366,0.0,0.0,0.0,0.0,0.0,0.00076325296,0.0006881677,0.0006876156,0.0006918933,0.0068858215,0.0068859365,0.003157181,0.00015033799,0.00015033975,3.5100737,5.45987e-07,5.462676e-07,2.8875672e-07,2.6699845e-06,2.670107e-06,3.8131455e-07,0.0,0.0,0.0,0.0,0.0,0.0,0.0,0.0,24
4136000,4056000,0.6889729,0.0014870723,-0.015112846,0.72462803,6.147863e-05,0.0020282327,-0.01467891,8.157128e-06,0.00018067403,-0.07028817,-7.950037e-06,-2.735061e-05,-1.4160113e-06,6.8368718e-06,-6.4664937e-07,-0.000928869,0.20358746,0.011333446,0.43205366,0.0,0.0,0.0,0.0,0.0,0.00076773635,0.0007062779,0.00070571795,0.0006959622,0.007403754,0.007403857,0.003226648,0.00016437026,0.00016437228,3.5100806,5.45987e-07,5.462676e-07,2.8875672e-07,2.6699845e-06,2.670107e-06,3.813146e-07,0.0,0.0,0.0,0.0,0.0,0.0,0.0,0.0,24
4144000,4064000,0.68897325,0.001495248,-0.015123638,0.7246275,0.0001364394,0.002011576,-0.014996611,8.9488e-06,0.00019683327,-0.07040687,-7.950037e-06,-2.735061e-05,-1.4160113e-06,6.8368718e-06,-6.4664937e-07,-0.000928869,0.20358746,0.011333446,0.43205366,0.0,0.0,0.0,0.0,0.0,0.000772305,0.00072466105,0.0007240932,0.0007000905,0.007952548,0.00795263,0.0032968582,0.00017988312,0.00017988542,3.510088,5.45987e-07,5.462676e-07,2.8875675e-07,2.6699845e-06,2.670107e-06,3.8131466e-07,0.0,0.0,0.0,0.0,0.0,0.0,0.0,0.0,24
4152000,4072000,0.6889773,0.001512129,-0.015133063,0.7246233,0.00014997466,0.0019592517,-0.015042596,1.0094456e-05,0.00021271658,-0.070527025,-7.950037e-06,-2.735061e-05,-1.4160113e-06,6.8368718e-06,-6.4664937e-07,-0.000928869,0.20358746,0.011333446,0.43205366,0.0,0.0,0.0,0.0,0.0,0.0007769422,0.0007433173,0.0007427413,0.0007042948,0.008530539,0.008530593,0.0033678117,0.0001970004,0.00019700298,3.5100958,5.45987e-07,5.462676e-07,2.8875675e-07,2.6699845e-06,2.670107e-06,3.8131472e-07,0.0,0.0,0.0,0.0,0.0,0.0,0.0,0.0,24
4160000,4080000,0.6889866,0.001512564,-0.01514364,0.72461426,1.8564378e-05,0.0019663875,-0.015184229,1.0768686e-05,0.00022841933,-0.06502016,-7.9500305e-06,-2.7350601e-05,-1.4160099e-06,6.8366953e-06,-6.465027e-07,-0.00092887634,0.20358746,0.011333446,0.43205366,0.0,0.0,0.0,0.0,0.0,0.0007816444,0.0007622466,0.0007616626,0.0007085782,0.009141795,0.009141799,0.0034394925,0.00021585077,0.00021585364,2.7283306,5.45987e-07,5.462676e-07,2.8875675e-07,2.6699845e-06,2.670107e-06,3.8131344e-07,0.0,0.0,0.0,0.0,0.0,0.0,0.0,0.0,24
