timestamp,timestamp_sample,time_last_fuse,device_id,observation,observation_variance,innovation,innovation_variance,test_ratio,estimator_instance,fusion_enabled,innovation_rejected,fused
3160000,3131000,0,0,1.618809,0.0,-1.6193056,0.0,0.0,0,0,0,0
3288000,3201838,3208000,0,1.6377511,0.0,-1.6381528,0.0,inf,0,0,1,0
3352000,3270939,3208000,0,1.595338,0.0,0.026682615,0.0,inf,0,0,1,0
3424000,3340288,3208000,0,1.6261345,0.0,-0.0041081905,0.0,inf,0,0,1,0
3496000,3411115,3416000,0,1.6246,0.0,-0.007293582,0.100117624,7.8600366e-05,0,1,0,1
3560000,3477897,3480000,0,1.627602,0.0,-0.009539485,0.09911463,0.00013582055,0,1,0,1
3632000,3545254,3552000,0,1.6290926,0.0,-0.010126233,0.098340444,0.0001542471,0,1,0,1
3704000,3616559,3624000,0,1.6239866,0.0,-0.0041656494,0.09773836,2.6263568e-05,0,1,0,1
3768000,3683371,3688000,0,1.631718,0.0,-0.011587858,0.097251065,0.00020425153,0,1,0,1
3840000,3753646,3760000,0,1.6245733,0.0,-0.0035786629,0.09688527,1.955407e-05,0,1,0,1
3904000,3823470,3824000,0,1.6328717,0.0,-0.011666179,0.09657941,0.0002084616,0,1,0,1
3976000,3891944,3896000,0,1.611041,0.0,0.01104176,0.096367605,0.00018715393,0,1,0,1
4040000,3959553,3960000,0,1.6153994,0.0,0.0059872866,0.09618195,5.513404e-05,0,1,0,1
4112000,4031620,4032000,0,1.6204706,0.0,0.0005944967,0.09607548,5.441764e-07,0,1,0,1
4184000,4103627,4104000,0,1.674182,0.0,-0.053246975,0.09600938,0.0043684724,0,1,0,1
4256000,4174958,4176000,0,1.6231208,0.0,0.0012645721,0.09597642,2.4647677e-06,0,1,0,1
4328000,4247689,4248000,0,1.6341838,0.0,-0.00973618,0.09597038,0.00014611451,0,1,0,1
4400000,4319010,4320000,0,1.621283,0.0,0.0038671494,0.095986016,2.3047683e-05,0,1,0,1
4472000,4391741,4392000,0,1.6395097,0.0,-0.014508367,0.0960185,0.00032429144,0,1,0,1
4544000,4463415,4464000,0,1.6233047,0.0,0.0027760267,0.09606351,1.1867033e-05,0,1,0,1
4616000,4535784,4536000,0,1.6176977,0.0,0.00834918,0.09611744,0.000107284955,0,1,0,1
4688000,4607088,4608000,0,1.6151596,0.0,0.010616899,0.096176915,0.00017337155,0,1,0,1
4760000,4679820,4680000,0,1.6271015,0.0,-0.0018209219,0.096239015,5.09665e-06,0,1,0,1
4832000,4750755,4752000,0,1.6253883,0.0,0.00015211105,0.096301384,3.554204e-08,0,1,0,1
4904000,4823850,4824000,0,1.6406679,0.0,-0.01510036,0.09636189,0.00035004402,0,1,0,1
4976000,4893691,4896000,0,1.63039,0.0,-0.0037093163,0.09641874,2.1109581e-05,0,1,0,1
5048000,4967874,4968000,0,1.6248105,0.0,0.0022289753,0.09647072,7.61848e-06,0,1,0,1
5120000,5039165,5040000,0,1.6182066,0.0,0.008822441,0.09651668,0.00011929672,0,1,0,1
5192000,5111895,5112000,0,1.6250483,0.0,0.0014449358,0.09655591,3.1986858e-06,0,1,0,1
5264000,5183183,5184000,0,1.61429,0.0,0.012185454,0.09658785,0.00022741247,0,1,0,1
5336000,5255913,5256000,0,1.6153152,0.0,0.010433316,0.09661221,0.00016667332,0,1,0,1
5408000,5327199,5328000,0,1.6145267,0.0,0.010516763,0.09662889,0.00016932088,0,1,0,1
5480000,5399927,5400000,0,1.6350276,0.0,-0.010577321,0.09663796,0.00017126041,0,1,0,1
5552000,5470847,5472000,0,1.6225433,0.0,0.0027786493,0.09663956,1.1818596e-05,0,1,0,1
5624000,5543939,5544000,0,1.6267172,0.0,-0.0015153885,0.09663403,3.5153714e-06,0,1,0,1
5696000,5614858,5616000,0,1.6304147,0.0,-0.0050120354,0.09662172,3.8459784e-05,0,1,0,1
5768000,5687950,5688000,0,1.6173122,0.0,0.008450508,0.09660302,0.00010935239,0,1,0,1
5840000,5758502,5760000,0,1.6205969,0.0,0.004589677,0.09657842,3.226543e-05,0,1,0,1
5912000,5831958,5832000,0,1.6535677,0.0,-0.028644562,0.09654836,0.0012571665,0,1,0,1
5984000,5902145,5904000,0,1.6188002,0.0,0.008126497,0.09651337,0.00010122148,0,1,0,1
6056000,5975965,5976000,0,1.6086309,0.0,0.017856479,0.096473865,0.00048891717,0,1,0,1
6128000,6046515,6048000,0,1.6246166,0.0,0.00078845024,0.09643036,9.5364805e-07,0,1,0,1
6200000,6119971,6120000,0,1.6198424,0.0,0.00554502,0.09638329,4.7190857e-05,0,1,0,1
6272000,6190885,6192000,0,1.6191065,0.0,0.0059129,0.09633309,5.3688214e-05,0,1,0,1
6344000,6263976,6264000,0,1.6105688,0.0,0.014101982,0.096280165,0.00030554616,0,1,0,1
6416000,6334888,6336000,0,1.6239425,0.0,-0.00012409687,0.09622489,2.367487e-08,0,1,0,1
6488000,6407980,6408000,0,1.6289833,0.0,-0.0051289797,0.09616763,4.0465635e-05,0,1,0,1
6560000,6478528,6480000,0,1.6245589,0.0,-0.00037062168,0.09610872,2.1142299e-07,0,1,0,1
6632000,6551983,6552000,0,1.5901297,0.0,0.03403938,0.096048415,0.0017845404,0,1,0,1
6704000,6622895,6624000,0,1.6228077,0.0,-0.00078451633,0.095987014,9.485164e-07,0,1,0,1
6776000,6695986,6696000,0,1.6311905,0.0,-0.009105325,0.09592479,0.00012785372,0,1,0,1
6848000,6766897,6768000,0,1.6230197,0.0,-0.0004388094,0.09586193,2.971386e-07,0,1,0,1
6920000,6839989,6840000,0,1.6397014,0.0,-0.017130017,0.09579866,0.0004531161,0,1,0,1
6992000,6910535,6912000,0,1.619235,0.0,0.0044164658,0.09573514,3.0139197e-05,0,1,0,1
7064000,6983991,6984000,0,1.6018946,0.0,0.021460056,0.09567153,0.0007120858,0,1,0,1
7136000,7054901,7056000,0,1.6174036,0.0,0.004589081,0.09560796,3.2584474e-05,0,1,0,1
7208000,7127992,7128000,0,1.5952033,0.0,0.026349664,0.09554456,0.0010749729,0,1,0,1
7280000,7198902,7200000,0,1.6334643,0.0,-0.013544798,0.09548144,0.00028423624,0,1,0,1
7352000,7271994,7272000,0,1.5974737,0.0,0.02309072,0.09541875,0.00082659844,0,1,0,1
7424000,7341813,7344000,0,1.6211971,0.0,-0.0020234585,0.095356435,6.351728e-06,0,1,0,1
7496000,7415995,7416000,0,1.5984101,0.0,0.020786285,0.095294744,0.00067071524,0,1,0,1
7568000,7487268,7488000,0,1.6280303,0.0,-0.010156035,0.09523365,0.00016021801,0,1,0,1
7640000,7559996,7560000,0,1.6096841,0.0,0.00849247,0.09517317,0.000112100315,0,1,0,1
7712000,7630541,7632000,0,1.6088731,0.0,0.008624673,0.09511344,0.000115690236,0,1,0,1
7784000,7703996,7704000,0,1.6094282,0.0,0.0074601173,0.095054455,8.661083e-05,0,1,0,1
7856000,7773815,7776000,0,1.6259689,0.0,-0.009607673,0.094996214,0.00014374191,0,1,0,1
7928000,7847997,7848000,0,1.631879,0.0,-0.015168905,0.094938815,0.0003585238,0,1,0,1
8000000,7919634,7920000,0,1.6174979,0.0,-0.00019645691,0.094882235,6.017319e-08,0,1,0,1
8072000,7991998,7992000,0,1.6208851,0.0,-0.0037323236,0.09482646,2.1731135e-05,0,1,0,1
8144000,8062543,8064000,0,1.6180373,0.0,-0.00086283684,0.09477155,1.1620713e-06,0,1,0,1
8216000,8135998,8136000,0,1.6179008,0.0,-0.00085401535,0.09471748,1.139081e-06,0,1,0,1
8288000,8207635,8208000,0,1.6375725,0.0,-0.020620227,0.09466425,0.0006644376,0,1,0,1
8360000,8279999,8280000,0,1.6011366,0.0,0.016667485,0.09461189,0.00043435793,0,1,0,1
8432000,8351635,8352000,0,1.6238016,0.0,-0.0068991184,0.09456039,7.4461415e-05,0,1,0,1
8504000,8423999,8424000,0,1.6134654,0.0,0.0035675764,0.09450974,1.992156e-05,0,1,0,1
8576000,8495271,8496000,0,1.6252073,0.0,-0.0084337,0.09445995,0.000111388894,0,1,0,1
8648000,8567999,8568000,0,1.605468,0.0,0.011612296,0.09441099,0.00021128419,0,1,0,1
8720000,8639271,8640000,0,1.6278292,0.0,-0.011380792,0.09436289,0.00020304722,0,1,0,1
8792000,8711999,8712000,0,1.614215,0.0,0.002614379,0.09431561,1.0720298e-05,0,1,0,1
8864000,8783636,8784000,0,1.6200267,0.0,-0.0034332275,0.09426915,1.8496474e-05,0,1,0,1
8936000,8856000,8856000,0,1.6224107,0.0,-0.005806327,0.0942235,5.2929416e-05,0,1,0,1
9008000,8928000,8928000,0,1.628893,0.0,-0.012137532,0.09417864,0.00023139914,0,1,0,1
9080000,9000000,9000000,0,1.6366115,0.0,-0.019387364,0.09413457,0.0005906657,0,1,0,1
9152000,9070909,9072000,0,1.6249764,0.0,-0.0070124865,0.09409128,7.73122e-05,0,1,0,1
9224000,9140000,9144000,0,1.6111097,0.0,0.0070769787,0.09404874,7.87764e-05,0,1,0,1
9296000,9209600,9216000,0,1.6236125,0.0,-0.005844474,0.09400695,5.3750715e-05,0,1,0,1
9360000,9280000,9280000,0,1.6166412,0.0,0.0013139248,0.09395133,2.7182627e-06,0,1,0,1
9432000,9348000,9352000,0,1.6318761,0.0,-0.014003515,0.093911916,0.00030889208,0,1,0,1
9504000,9418666,9424000,0,1.6050564,0.0,0.0134295225,0.09387315,0.0002842059,0,1,0,1
9576000,9491111,9496000,0,1.6325349,0.0,-0.014667511,0.09383502,0.00033915736,0,1,0,1
9640000,9558000,9560000,0,1.6398315,0.0,-0.021460295,0.09378415,0.0007264325,0,1,0,1
9712000,9627600,9632000,0,1.621619,0.0,-0.0024049282,0.093748085,9.126309e-06,0,1,0,1
9784000,9698000,9704000,0,1.626591,0.0,-0.0073519945,0.09371259,8.532293e-05,0,1,0,1
9848000,9767111,9768000,0,1.6202725,0.0,-0.00080776215,0.09366506,1.0304874e-06,0,1,0,1
9920000,9834000,9840000,0,1.6432112,0.0,-0.023818135,0.0936314,0.0008962875,0,1,0,1
9992000,9906000,9912000,0,1.6204903,0.0,-0.00016593933,0.09359825,4.3519538e-08,0,1,0,1
10064000,9978000,9984000,0,1.625407,0.0,-0.005099654,0.09356559,4.111674e-05,0,1,0,1
10136000,10050000,10056000,0,1.6247145,0.0,-0.004259348,0.09353341,2.8692793e-05,0,1,0,1
10208000,10122000,10128000,0,1.617699,0.0,0.002824068,0.09350172,1.2617813e-05,0,1,0,1
10272000,10192000,10192000,0,1.6211513,0.0,-0.00079238415,0.0934593,9.938077e-07,0,1,0,1
10344000,10264000,10264000,0,1.6244242,0.0,-0.0040689707,0.09342917,2.6214402e-05,0,1,0,1
10416000,10330666,10336000,0,1.6182259,0.0,0.0021578074,0.09339947,7.3745286e-06,0,1,0,1
10488000,10402666,10408000,0,1.6090668,0.0,0.0112348795,0.0933702,0.00019997785,0,1,0,1
10552000,10469500,10472000,0,1.6276245,0.0,-0.007722497,0.09333094,9.452425e-05,0,1,0,1
10624000,10541000,10544000,0,1.6146263,0.0,0.0054872036,0.09330305,4.77375e-05,0,1,0,1
10696000,10613000,10616000,0,1.6308827,0.0,-0.011004686,0.09327554,0.00019206177,0,1,0,1
10768000,10685000,10688000,0,1.6199013,0.0,0.0002887249,0.093248405,1.3224535e-07,0,1,0,1
10840000,10757000,10760000,0,1.6202687,0.0,-0.00014722347,0.09322164,3.439464e-08,0,1,0,1
10912000,10828000,10832000,0,1.6294467,0.0,-0.00927794,0.09319525,0.00013663522,0,1,0,1
10976000,10894857,10896000,0,1.6221627,0.0,-0.0017007589,0.093159854,4.5931442e-06,0,1,0,1
11048000,10967200,10968000,0,1.6194162,0.0,0.0010484457,0.09313464,1.7459588e-06,0,1,0,1
11120000,11034000,11040000,0,1.6243798,0.0,-0.003991008,0.09310977,2.5305982e-05,0,1,0,1
11184000,11104000,11104000,0,1.6296139,0.0,-0.009066582,0.09307634,0.00013064753,0,1,0,1
11264000,11176666,11184000,0,1.6200166,0.0,0.00076162815,0.09306129,9.2208353e-07,0,1,0,1
11328000,11248000,11248000,0,1.6252995,0.0,-0.004654169,0.093028784,3.4444533e-05,0,1,0,1
11408000,11320666,11328000,0,1.6136174,0.0,0.007256031,0.093014054,8.373423e-05,0,1,0,1
11472000,11392000,11392000,0,1.622276,0.0,-0.0016731024,0.092982434,4.453459e-06,0,1,0,1
11544000,11460000,11464000,0,1.6250943,0.0,-0.0043934584,0.092959836,3.0716452e-05,0,1,0,1
11616000,11530285,11536000,0,1.625914,0.0,-0.005120039,0.09293753,4.172619e-05,0,1,0,1
11680000,11597000,11600000,0,1.61768,0.0,0.0032590628,0.09290758,1.6911716e-05,0,1,0,1
11744000,11664000,11664000,0,1.6353368,0.0,-0.014493585,0.09287841,0.00033457248,0,1,0,1
11816000,11735200,11736000,0,1.6129719,0.0,0.0082730055,0.09285764,0.0001090341,0,1,0,1
11888000,11802000,11808000,0,1.6253508,0.0,-0.004433036,0.09283712,3.1313684e-05,0,1,0,1
11960000,11873333,11880000,0,1.6179539,0.0,0.0030874014,0.09281683,1.5191925e-05,0,1,0,1
12024000,11940000,11944000,0,1.6183501,0.0,0.0025416613,0.09278946,1.02988815e-05,0,1,0,1
12096000,12010285,12016000,0,1.6277966,0.0,-0.0070443153,0.09276997,7.912678e-05,0,1,0,1
12160000,12078000,12080000,0,1.6225941,0.0,-0.0015860796,0.09274361,4.012539e-06,0,1,0,1
12232000,12149000,12152000,0,1.6208878,0.0,0.00018453598,0.09272487,5.432744e-08,0,1,0,1
12304000,12221000,12224000,0,1.6245031,0.0,-0.0034948587,0.09270633,1.9489611e-05,0,1,0,1
12376000,12292500,12296000,0,1.6202235,0.0,0.0008791685,0.092688,1.2335992e-06,0,1,0,1
12448000,12365000,12368000,0,1.6058016,0.0,0.0152801275,0.09266986,0.00037270808,0,1,0,1
12520000,12437000,12440000,0,1.6284379,0.0,-0.007803321,0.09265192,9.72205e-05,0,1,0,1
12584000,12504000,12504000,0,1.6146845,0.0,0.006197214,0.09262767,6.133461e-05,0,1,0,1
12656000,12573777,12576000,0,1.6142894,0.0,0.0064669847,0.092610374,6.6803215e-05,0,1,0,1
12728000,12642000,12648000,0,1.6317796,0.0,-0.011305928,0.09259328,0.00020421436,0,1,0,1
12800000,12713200,12720000,0,1.6161135,0.0,0.0046492815,0.092576355,3.4540208e-05,0,1,0,1
12864000,12780000,12784000,0,1.6127113,0.0,0.007882476,0.092553474,9.930838e-05,0,1,0,1
12936000,12850545,12856000,0,1.6296294,0.0,-0.009260654,0.09253716,0.00013709467,0,1,0,1
13000000,12920000,12920000,0,1.6150223,0.0,0.0056004524,0.092515044,5.015188e-05,0,1,0,1
13072000,12989600,12992000,0,1.6239562,0.0,-0.003545761,0.0924993,2.0106378e-05,0,1,0,1
13144000,13062000,13064000,0,1.613561,0.0,0.0069303513,0.09248372,7.682428e-05,0,1,0,1
13216000,13134000,13136000,0,1.6159357,0.0,0.0043821335,0.09246829,3.072074e-05,0,1,0,1
13288000,13206000,13208000,0,1.6305249,0.0,-0.010326624,0.09245301,0.00017062749,0,1,0,1
13360000,13276800,13280000,0,1.626908,0.0,-0.006437063,0.092437886,6.630998e-05,0,1,0,1
13424000,13344000,13344000,0,1.6317146,0.0,-0.011152029,0.092417374,0.00019907078,0,1,0,1
13496000,13414545,13416000,0,1.6166202,0.0,0.004257202,0.09240276,2.9014624e-05,0,1,0,1
13568000,13488000,13488000,0,1.6668918,0.0,-0.046155334,0.09238829,0.0034109883,0,1,0,1
13640000,13560000,13560000,0,1.6237171,0.0,-0.0017379522,0.09237395,4.8370384e-06,0,1,0,1
13712000,13632000,13632000,0,1.6517165,0.0,-0.029640079,0.09235975,0.0014071141,0,1,0,1
13784000,13702909,13704000,0,1.6158451,0.0,0.006945491,0.09234569,7.727564e-05,0,1,0,1
13856000,13776000,13776000,0,1.6048355,0.0,0.017802477,0.09233177,0.00050776533,0,1,0,1
13928000,13848000,13848000,0,1.6192024,0.0,0.0029255152,0.09231798,1.371424e-05,0,1,0,1
14000000,13920000,13920000,0,1.6237497,0.0,-0.0016964674,0.092304334,4.6123505e-06,0,1,0,1
14072000,13991636,13992000,0,1.6133841,0.0,0.008768678,0.09229081,0.00012324324,0,1,0,1
14144000,14064000,14064000,0,1.5967928,0.0,0.025186539,0.09227743,0.001016939,0,1,0,1
14216000,14134909,14136000,0,1.620319,0.0,0.0010336637,0.09226417,1.7130848e-06,0,1,0,1
14288000,14204000,14208000,0,1.5982875,0.0,0.023019433,0.09225104,0.0008497111,0,1,0,1
14360000,14272800,14280000,0,1.6211306,0.0,-0.000426054,0.092238046,2.9112033e-07,0,1,0,1
14424000,14340000,14344000,0,1.621167,0.0,-0.00052273273,0.09222055,4.3831366e-07,0,1,0,1
14496000,14411272,14416000,0,1.6188213,0.0,0.0018047094,0.09220798,5.225158e-06,0,1,0,1
14568000,14484000,14488000,0,1.6307157,0.0,-0.010204792,0.09219552,0.00016709053,0,1,0,1
14640000,14554909,14560000,0,1.6187533,0.0,0.002022028,0.09218318,6.56109e-06,0,1,0,1
14704000,14624000,14624000,0,1.5973547,0.0,0.023346186,0.09216655,0.00087480625,0,1,0,1
14776000,14693600,14696000,0,1.6224031,0.0,-0.0021998882,0.0921546,7.768507e-06,0,1,0,1
14848000,14764000,14768000,0,1.6001347,0.0,0.020145416,0.09214276,0.0006515453,0,1,0,1
14912000,14831555,14832000,0,1.6110752,0.0,0.008737564,0.09212678,0.00012258806,0,1,0,1
14984000,14902666,14904000,0,1.624725,0.0,-0.005172372,0.092115305,4.296364e-05,0,1,0,1
15056000,14975111,14976000,0,1.6268284,0.0,-0.0071692467,0.09210393,8.2550985e-05,0,1,0,1
15128000,15045333,15048000,0,1.6178851,0.0,0.001934886,0.092092656,6.0136636e-06,0,1,0,1
15200000,15112500,15120000,0,1.6149756,0.0,0.0048161745,0.09208148,3.7263657e-05,0,1,0,1
15264000,15180000,15184000,0,1.6213762,0.0,-0.0017002821,0.0920664,4.64509e-06,0,1,0,1
15336000,15250222,15256000,0,1.6129988,0.0,0.0066287518,0.09205556,7.06101e-05,0,1,0,1
15400000,15318000,15320000,0,1.604553,0.0,0.014887452,0.09204089,0.00035621593,0,1,0,1
15472000,15388800,15392000,0,1.6045716,0.0,0.014546156,0.092030354,0.00034010946,0,1,0,1
15536000,15456000,15456000,0,1.6464187,0.0,-0.027596593,0.092016086,0.0012243357,0,1,0,1
15608000,15527272,15528000,0,1.6117676,0.0,0.007661581,0.09200587,9.437883e-05,0,1,0,1
15680000,15600000,15600000,0,1.6182474,0.0,0.0009919405,0.09199574,1.5821836e-06,0,1,0,1
15752000,15670909,15672000,0,1.6135238,0.0,0.0057212114,0.091985695,5.263917e-05,0,1,0,1
15824000,15744000,15744000,0,1.6234525,0.0,-0.004282117,0.09197571,2.9491526e-05,0,1,0,1
15896000,15814909,15816000,0,1.618467,0.0,0.00075662136,0.091965824,9.208398e-07,0,1,0,1
15968000,15888000,15888000,0,1.6248245,0.0,-0.0056040287,0.09195603,5.0521227e-05,0,1,0,1
16040000,15959272,15960000,0,1.6068968,0.0,0.012461066,0.09194629,0.00024982137,0,1,0,1
16112000,16032000,16032000,0,1.6232551,0.0,-0.0042204857,0.09193665,2.8660881e-05,0,1,0,1
16184000,16102545,16104000,0,1.6086,0.0,0.010498285,0.09192708,0.0001773563,0,1,0,1
16256000,16176000,16176000,0,1.6040528,0.0,0.014806032,0.09191759,0.00035280286,0,1,0,1
16328000,16246545,16248000,0,1.615378,0.0,0.0030667782,0.09190818,1.5137841e-05,0,1,0,1
16400000,16320000,16320000,0,1.6233132,0.0,-0.0049265623,0.09189885,3.9068906e-05,0,1,0,1
16472000,16388727,16392000,0,1.612957,0.0,0.0055277348,0.091889605,4.9190516e-05,0,1,0,1
16544000,16464000,16464000,0,1.6333861,0.0,-0.01503253,0.091880426,0.00036382664,0,1,0,1
16616000,16534545,16536000,0,1.6214483,0.0,-0.0027685165,0.09187132,1.2341491e-05,0,1,0,1
16688000,16604000,16608000,0,1.5927237,0.0,0.025980473,0.0918623,0.0010869513,0,1,0,1
16760000,16672800,16680000,0,1.6143874,0.0,0.0037914515,0.09185335,2.3150978e-05,0,1,0,1
16824000,16744000,16744000,0,1.6252937,0.0,-0.0072470903,0.091841295,8.4594605e-05,0,1,0,1
16896000,16811111,16816000,0,1.615117,0.0,0.003088832,0.09183259,1.536898e-05,0,1,0,1
16968000,16882666,16888000,0,1.6085861,0.0,0.009600759,0.09182396,0.00014849385,0,1,0,1
17040000,16954666,16960000,0,1.6166054,0.0,0.0014021397,0.09181539,3.1675274e-06,0,1,0,1
17104000,17022000,17024000,0,1.6113901,0.0,0.006587863,0.091803834,6.993292e-05,0,1,0,1
17176000,17094000,17096000,0,1.6201795,0.0,-0.002310872,0.091795504,8.605652e-06,0,1,0,1
17248000,17166000,17168000,0,1.5922999,0.0,0.02557528,0.091787234,0.001054173,0,1,0,1
17320000,17236800,17240000,0,1.6213531,0.0,-0.003987074,0.09177903,2.562232e-05,0,1,0,1
17384000,17304000,17304000,0,1.6054512,0.0,0.011960626,0.09176795,0.00023060571,0,1,0,1
17456000,17374909,17376000,0,1.6196094,0.0,-0.0024585724,0.09175994,9.744649e-06,0,1,0,1
17528000,17448000,17448000,0,1.5921139,0.0,0.025025487,0.09175202,0.0010097242,0,1,0,1
17600000,17519272,17520000,0,1.6188226,0.0,-0.0022066832,0.09174415,7.851541e-06,0,1,0,1
17672000,17592000,17592000,0,1.6014888,0.0,0.015070915,0.09173634,0.00036626146,0,1,0,1
17744000,17662909,17664000,0,1.615087,0.0,0.0011570454,0.09172859,2.158984e-06,0,1,0,1
17816000,17736000,17736000,0,1.6282744,0.0,-0.012095928,0.09172089,0.00023597364,0,1,0,1
17888000,17806181,17808000,0,1.6161034,0.0,0.00035095215,0.09171326,1.9866303e-07,0,1,0,1
17960000,17880000,17880000,0,1.6215535,0.0,-0.005114436,0.09170569,4.2194184e-05,0,1,0,1
18032000,17951636,17952000,0,1.618037,0.0,-0.0015403032,0.091698185,3.8274106e-06,0,1,0,1
18104000,18024000,18024000,0,1.6200265,0.0,-0.0035452843,0.09169072,2.0278232e-05,0,1,0,1
18176000,18095636,18096000,0,1.619716,0.0,-0.0031811,0.09168332,1.6327422e-05,0,1,0,1
18248000,18164000,18168000,0,1.593713,0.0,0.02286458,0.09167597,0.0008435762,0,1,0,1
18320000,18233200,18240000,0,1.60903,0.0,0.007128477,0.09166868,8.200227e-05,0,1,0,1
18384000,18304000,18304000,0,1.609481,0.0,0.006461382,0.091658875,6.7379784e-05,0,1,0,1
18456000,18371555,18376000,0,1.6161342,0.0,-0.00033032894,0.09165177,1.761188e-07,0,1,0,1
18528000,18444000,18448000,0,1.6286752,0.0,-0.012893558,0.09164472,0.00026834372,0,1,0,1
18600000,18515111,18520000,0,1.6168363,0.0,-0.0008132458,0.091637716,1.0676348e-06,0,1,0,1
18672000,18586666,18592000,0,1.6163934,0.0,-0.00036168098,0.09163076,2.1118517e-07,0,1,0,1
18744000,18658666,18664000,0,1.6140035,0.0,0.002059698,0.09162386,6.8493905e-06,0,1,0,1
18816000,18730666,18736000,0,1.6102499,0.0,0.0057635307,0.091617025,5.3635755e-05,0,1,0,1
18888000,18803111,18808000,0,1.6130815,0.0,0.0028179884,0.09161023,1.2822944e-05,0,1,0,1
18960000,18874666,18880000,0,1.6082212,0.0,0.007585883,0.09160349,9.2929506e-05,0,1,0,1
19032000,18945777,18952000,0,1.6113596,0.0,0.004204154,0.091596775,2.8545022e-05,0,1,0,1
19104000,19018666,19024000,0,1.609626,0.0,0.0058403015,0.09159013,5.509031e-05,0,1,0,1
19176000,19090222,19096000,0,1.6124097,0.0,0.0029524565,0.09158354,1.4080008e-05,0,1,0,1
19240000,19158000,19160000,0,1.6034374,0.0,0.011757374,0.09157467,0.0002233051,0,1,0,1
19312000,19229600,19232000,0,1.6114998,0.0,0.003373742,0.09156824,1.8387906e-05,0,1,0,1
19384000,19302000,19304000,0,1.6074592,0.0,0.007294178,0.09156188,8.595899e-05,0,1,0,1
19456000,19374000,19376000,0,1.6215243,0.0,-0.0064194202,0.09155565,6.658246e-05,0,1,0,1
19528000,19444000,19448000,0,1.614015,0.0,0.0030725002,0.09154931,1.5253944e-05,0,1,0,1
19592000,19511555,19512000,0,1.6288127,0.0,-0.008636236,0.091540925,0.00012052775,0,1,0,1
19664000,19582666,19584000,0,1.620762,0.0,0.002220869,0.09153519,7.97097e-06,0,1,0,1
19736000,19654222,19656000,0,1.6204065,0.0,0.00367105,0.09152936,2.1780786e-05,0,1,0,1
19808000,19726666,19728000,0,1.6204816,0.0,0.0021264553,0.0915235,7.3085844e-06,0,1,0,1
19880000,19794000,19800000,0,1.62245,0.0,0.00060737133,0.09151643,5.962973e-07,0,1,0,1
19952000,19866000,19872000,0,1.6348356,0.0,-0.011608243,0.09150994,0.0002178302,0,1,0,1
20024000,19937500,19944000,0,1.6282026,0.0,-0.0049563646,0.091503866,3.9713705e-05,0,1,0,1
20096000,20009000,20016000,0,1.6330165,0.0,-0.009999037,0.09149788,0.00016164365,0,1,0,1
20160000,20076000,20080000,0,1.6213831,0.0,0.0015023947,0.09148993,3.6496242e-06,0,1,0,1
20232000,20146400,20152000,0,1.6149997,0.0,0.0074449778,0.09148354,8.962666e-05,0,1,0,1
20304000,20218857,20224000,0,1.6216764,0.0,0.0007417202,0.091478065,8.8964475e-07,0,1,0,1
20376000,20290400,20296000,0,1.6229683,0.0,-0.00081682205,0.091472425,1.0789915e-06,0,1,0,1
20440000,20358000,20360000,0,1.6147974,0.0,0.0071644783,0.09146479,8.301729e-05,0,1,0,1
20512000,20428666,20432000,0,1.6314139,0.0,-0.009775758,0.09145928,0.00015457043,0,1,0,1
20584000,20501333,20504000,0,1.6255763,0.0,-0.0039231777,0.09145381,2.4895882e-05,0,1,0,1
20656000,20572000,20576000,0,1.6246463,0.0,-0.0031062365,0.09144832,1.5607977e-05,0,1,0,1
20720000,20639200,20640000,0,1.6271605,0.0,-0.005826831,0.09144096,5.4925928e-05,0,1,0,1
20792000,20710285,20712000,0,1.6148381,0.0,0.006335616,0.09143562,6.4940505e-05,0,1,0,1
20864000,20778000,20784000,0,1.6188874,0.0,0.0019507408,0.091430314,6.1569026e-06,0,1,0,1
20936000,20849000,20856000,0,1.6166569,0.0,0.0039104223,0.09142504,2.4742043e-05,0,1,0,1
21000000,20916000,20920000,0,1.6013391,0.0,0.019072175,0.09141791,0.000588603,0,1,0,1
21072000,20986222,20992000,0,1.6172199,0.0,0.0027825832,0.09141249,1.25298e-05,0,1,0,1
21136000,21054000,21056000,0,1.6051654,0.0,0.014627099,0.0914055,0.00034625607,0,1,0,1
21208000,21124400,21128000,0,1.6189253,0.0,0.00041520596,0.091400445,2.79018e-07,0,1,0,1
21272000,21192000,21192000,0,1.6593524,0.0,-0.04020059,0.09139358,0.0026157878,0,1,0,1
21344000,21261454,21264000,0,1.614749,0.0,0.004827976,0.09138863,3.7730402e-05,0,1,0,1
21416000,21336000,21336000,0,1.6495811,0.0,-0.030256987,0.0913829,0.0014819712,0,1,0,1
21488000,21406545,21408000,0,1.6203206,0.0,-0.0006483793,0.09137802,6.8056545e-07,0,1,0,1
21560000,21480000,21480000,0,1.5971154,0.0,0.02231431,0.09137316,0.00080612354,0,1,0,1
21632000,21549818,21552000,0,1.6193894,0.0,-0.0004130602,0.091368325,2.762386e-07,0,1,0,1
21704000,21620000,21624000,0,1.6216325,0.0,-0.0028303862,0.09136355,1.2970949e-05,0,1,0,1
21768000,21688000,21688000,0,1.6233377,0.0,-0.0045814514,0.091357045,3.3987362e-05,0,1,0,1
21840000,21756000,21760000,0,1.6066784,0.0,0.011999249,0.09135131,0.0002331561,0,1,0,1
21912000,21827272,21832000,0,1.6258538,0.0,-0.007474065,0.091346644,9.046373e-05,0,1,0,1
21984000,21900000,21904000,0,1.6230061,0.0,-0.004559517,0.091342025,3.366824e-05,0,1,0,1
22056000,21970545,21976000,0,1.6162717,0.0,0.002067566,0.09133745,6.9234598e-06,0,1,0,1
22120000,22040000,22040000,0,1.6027946,0.0,0.015404105,0.09133119,0.00038433255,0,1,0,1
22192000,22109200,22112000,0,1.6212528,0.0,-0.00336802,0.0913267,1.8374052e-05,0,1,0,1
22256000,22176000,22176000,0,1.6659087,0.0,-0.04935062,0.10131969,0.0035558606,0,1,0,1
22328000,22247636,22248000,0,1.6128988,0.0,0.0090584755,0.100055136,0.00012131771,0,1,0,1
22400000,22320000,22320000,0,1.6247301,0.0,-0.00375247,0.09904493,2.103079e-05,0,1,0,1
22472000,22391272,22392000,0,1.6140492,0.0,0.007219076,0.098219305,7.849098e-05,0,1,0,1
22544000,22464000,22464000,0,1.6195308,0.0,0.00094401836,0.09753196,1.3516594e-06,0,1,0,1
22616000,22534545,22536000,0,1.6141123,0.0,0.0062451363,0.09695086,5.950939e-05,0,1,0,1
22688000,22608000,22608000,0,1.6347021,0.0,-0.015198708,0.096453294,0.0003542824,0,1,0,1
22760000,22678545,22680000,0,1.6238165,0.0,-0.0033035278,0.096022196,1.6812708e-05,0,1,0,1
22832000,22752000,22752000,0,1.6212192,0.0,-0.0005646944,0.095645264,4.931929e-07,0,1,0,1
22904000,22823272,22824000,0,1.6184617,0.0,0.0023729801,0.09531283,8.739573e-06,0,1,0,1
22976000,22896000,22896000,0,1.6256477,0.0,-0.005010009,0.095017575,3.9077466e-05,0,1,0,1
23048000,22967272,22968000,0,1.62638,0.0,-0.005482435,0.09475355,4.6925063e-05,0,1,0,1
23120000,23040000,23040000,0,1.6118131,0.0,0.009269714,0.094516106,0.00013448697,0,1,0,1
23192000,23110909,23112000,0,1.6293709,0.0,-0.008772612,0.094301425,0.000120723795,0,1,0,1
23264000,23184000,23184000,0,1.6117305,0.0,0.009032965,0.094106466,0.00012826096,0,1,0,1
23336000,23254909,23256000,0,1.6224743,0.0,-0.0021345615,0.0939285,7.1758495e-06,0,1,0,1
23408000,23328000,23328000,0,1.6240001,0.0,-0.0035512447,0.093765475,1.9896266e-05,0,1,0,1
23480000,23399636,23400000,0,1.6294513,0.0,-0.008938551,0.09361549,0.00012625246,0,1,0,1
23552000,23472000,23472000,0,1.6141623,0.0,0.0065965652,0.09347728,6.886254e-05,0,1,0,1
23624000,23543272,23544000,0,1.6249634,0.0,-0.0044327974,0.0933494,3.1138494e-05,0,1,0,1
23696000,23616000,23616000,0,1.645967,0.0,-0.025301576,0.093230754,0.0010157557,0,1,0,1
23768000,23688000,23688000,0,1.6233603,0.0,-0.0018404722,0.09312038,5.3810513e-06,0,1,0,1
23840000,23760000,23760000,0,1.6394439,0.0,-0.017858505,0.09301732,0.0005072006,0,1,0,1
23912000,23831272,23832000,0,1.6137294,0.0,0.008438945,0.09292115,0.000113374415,0,1,0,1
23984000,23904000,23904000,0,1.6063933,0.0,0.015476823,0.09283109,0.00038170122,0,1,0,1
24056000,23974909,23976000,0,1.6279738,0.0,-0.006718874,0.092746586,7.2002644e-05,0,1,0,1
24128000,24048000,24048000,0,1.6393282,0.0,-0.01806438,0.09266714,0.0005209232,0,1,0,1
24200000,24119272,24120000,0,1.6200213,0.0,0.0015819073,0.09259232,3.997978e-06,0,1,0,1
24272000,24192000,24192000,0,1.6179532,0.0,0.0035123825,0.09252163,1.972485e-05,0,1,0,1
24344000,24262545,24264000,0,1.6136776,0.0,0.0075341463,0.09245497,9.0822025e-05,0,1,0,1
24416000,24336000,24336000,0,1.5968275,0.0,0.024055362,0.09239191,0.0009264952,0,1,0,1
24488000,24407272,24408000,0,1.6166623,0.0,0.0035108328,0.09233216,1.9747888e-05,0,1,0,1
24560000,24480000,24480000,0,1.5935228,0.0,0.026506066,0.092275485,0.001126309,0,1,0,1
24632000,24551636,24552000,0,1.621334,0.0,-0.0019677877,0.0922216,6.211224e-06,0,1,0,1
24704000,24624000,24624000,0,1.5927827,0.0,0.026617885,0.09217043,0.0011371266,0,1,0,1
24776000,24695636,24696000,0,1.6106056,0.0,0.008222938,0.09212174,0.000108578846,0,1,0,1
24848000,24768000,24768000,0,1.6305687,0.0,-0.011769533,0.092075326,0.00022255049,0,1,0,1
24920000,24838545,24840000,0,1.6199926,0.0,-0.0006864071,0.09203107,7.5732515e-07,0,1,0,1
24992000,24912000,24912000,0,1.6495676,0.0,-0.030087829,0.091988824,0.0014557941,0,1,0,1
25064000,24984000,24984000,0,1.6107699,0.0,0.00966835,0.09194845,0.00015038816,0,1,0,1
25136000,25056000,25056000,0,1.6224034,0.0,-0.0023312569,0.09190989,8.747245e-06,0,1,0,1
25208000,25127272,25128000,0,1.6128019,0.0,0.0075497627,0.09187295,9.177667e-05,0,1,0,1
25280000,25200000,25200000,0,1.6303548,0.0,-0.009938598,0.09183757,0.00015910476,0,1,0,1
25352000,25272000,25272000,0,1.6203426,0.0,0.00038063526,0.09180366,2.334594e-07,0,1,0,1
25424000,25344000,25344000,0,1.6141684,0.0,0.0066034794,0.09177112,7.028991e-05,0,1,0,1
25496000,25415636,25416000,0,1.624814,0.0,-0.0041924715,0.0917399,2.8342318e-05,0,1,0,1
25568000,25488000,25488000,0,1.6248659,0.0,-0.0042598248,0.091709934,2.9269846e-05,0,1,0,1
25640000,25558545,25560000,0,1.6158551,0.0,0.0047256947,0.09168113,3.6033354e-05,0,1,0,1
25712000,25632000,25632000,0,1.6241875,0.0,-0.0037679672,0.091653444,2.2914943e-05,0,1,0,1
25784000,25703636,25704000,0,1.6227125,0.0,-0.0021779537,0.09162681,7.658225e-06,0,1,0,1
25856000,25776000,25776000,0,1.6276214,0.0,-0.0071032047,0.09160112,8.148192e-05,0,1,0,1
25928000,25847272,25848000,0,1.6232529,0.0,-0.0026956797,0.09157642,1.1738329e-05,0,1,0,1
26000000,25920000,25920000,0,1.6262634,0.0,-0.00573647,0.091552645,5.3170643e-05,0,1,0,1
26072000,25990545,25992000,0,1.6155058,0.0,0.00506866,0.09152972,4.1521926e-05,0,1,0,1
26144000,26064000,26064000,0,1.633616,0.0,-0.013046622,0.09150762,0.0002751644,0,1,0,1
26216000,26134909,26136000,0,1.6204319,0.0,0.00033724308,0.09148625,1.839008e-07,0,1,0,1
26288000,26208000,26208000,0,1.6242924,0.0,-0.003509283,0.091465674,1.991737e-05,0,1,0,1
26360000,26278545,26280000,0,1.6173202,0.0,0.0034281015,0.09144582,1.9010646e-05,0,1,0,1
26432000,26352000,26352000,0,1.6271002,0.0,-0.0064917803,0.09142663,6.818805e-05,0,1,0,1
26504000,26422909,26424000,0,1.6123691,0.0,0.00836575,0.09140811,0.00011326048,0,1,0,1
26576000,26496000,26496000,0,1.6263555,0.0,-0.005797267,0.091390185,5.440018e-05,0,1,0,1
26648000,26567272,26568000,0,1.6198013,0.0,0.00073957443,0.09137283,8.855234e-07,0,1,0,1
26720000,26640000,26640000,0,1.636141,0.0,-0.015647292,0.09135609,0.0003964553,0,1,0,1
26792000,26710181,26712000,0,1.6210965,0.0,-0.00035119057,0.09133991,1.9974618e-07,0,1,0,1
26864000,26784000,26784000,0,1.6487025,0.0,-0.0279001,0.09132425,0.0012608946,0,1,0,1
26936000,26854545,26856000,0,1.6211109,0.0,4.720688e-05,0.0913091,3.6103547e-09,0,1,0,1
27008000,26928000,26928000,0,1.6130884,0.0,0.008020997,0.09129442,0.00010424754,0,1,0,1
27080000,27000000,27000000,0,1.6255155,0.0,-0.00461936,0.0912802,3.4581226e-05,0,1,0,1
27152000,27072000,27072000,0,1.6198,0.0,0.0014179945,0.091266446,3.259052e-06,0,1,0,1
27224000,27143272,27144000,0,1.6139169,0.0,0.0072374344,0.091253124,8.491313e-05,0,1,0,1
27296000,27216000,27216000,0,1.617716,0.0,0.0031836033,0.09124022,1.6432548e-05,0,1,0,1
27368000,27287636,27288000,0,1.6233478,0.0,-0.002552271,0.09122772,1.0562825e-05,0,1,0,1
27440000,27360000,27360000,0,1.6167064,0.0,0.004107833,0.091215596,2.7365904e-05,0,1,0,1
27512000,27430545,27432000,0,1.6232361,0.0,-0.0025184155,0.09120385,1.0287146e-05,0,1,0,1
27584000,27504000,27504000,0,1.6570258,0.0,-0.036292434,0.09119247,0.0021366165,0,1,0,1
27656000,27575272,27576000,0,1.6199358,0.0,0.0012544394,0.091181435,2.5529732e-06,0,1,0,1
27728000,27648000,27648000,0,1.6228356,0.0,-0.0016447306,0.09117073,4.3892214e-06,0,1,0,1
27800000,27718909,27720000,0,1.6049087,0.0,0.016370535,0.09116036,0.00043488364,0,1,0,1
27872000,27792000,27792000,0,1.6380883,0.0,-0.017028332,0.09115029,0.00047058656,0,1,0,1
27944000,27862181,27864000,0,1.622071,0.0,-0.0009073019,0.09114053,1.3361199e-06,0,1,0,1
28016000,27936000,27936000,0,1.6347724,0.0,-0.0137012005,0.09113106,0.00030472226,0,1,0,1
28088000,28006909,28008000,0,1.6096021,0.0,0.011546135,0.091121875,0.00021642329,0,1,0,1
28160000,28076000,28080000,0,1.6027334,0.0,0.018253088,0.09111297,0.0005409359,0,1,0,1
28232000,28145200,28152000,0,1.6177185,0.0,0.0030052662,0.09110433,1.4664939e-05,0,1,0,1
28296000,28216000,28216000,0,1.6032708,0.0,0.017323613,0.09109538,0.00048734213,0,1,0,1
28376000,28288400,28296000,0,1.6215938,0.0,-0.0013545752,0.09108781,2.9798837e-06,0,1,0,1
28440000,28360000,28360000,0,1.6181086,0.0,0.0021396875,0.09107933,7.435912e-06,0,1,0,1
28512000,28432000,28432000,0,1.6058375,0.0,0.014396548,0.09107167,0.00033665632,0,1,0,1
28584000,28504000,28504000,0,1.6296989,0.0,-0.00957787,0.091064245,0.0001490196,0,1,0,1
28656000,28571111,28576000,0,1.6154839,0.0,0.004900813,0.09105703,3.9019e-05,0,1,0,1
28728000,28642666,28648000,0,1.6301231,0.0,-0.009698033,0.09105003,0.00015280607,0,1,0,1
28792000,28709500,28712000,0,1.6176649,0.0,0.0028871298,0.091042645,1.3543817e-05,0,1,0,1
28864000,28781000,28784000,0,1.6099726,0.0,0.010599732,0.09103605,0.00018257013,0,1,0,1
28928000,28848000,28848000,0,1.6170524,0.0,0.0031245947,0.09102911,1.5865744e-05,0,1,0,1
29000000,28919200,28920000,0,1.6234856,0.0,-0.003249526,0.091022894,1.7161005e-05,0,1,0,1
29072000,28990285,28992000,0,1.6175157,0.0,0.0028465986,0.09101688,1.3169943e-05,0,1,0,1
29144000,29058000,29064000,0,1.6277755,0.0,-0.0073981285,0.09101104,8.896169e-05,0,1,0,1
29216000,29129000,29136000,0,1.6104299,0.0,0.010010958,0.09100538,0.00016290617,0,1,0,1
29280000,29196000,29200000,0,1.6168531,0.0,0.0034451485,0.09099925,1.9294406e-05,0,1,0,1
29352000,29267111,29272000,0,1.6130794,0.0,0.00725019,0.090993926,8.545544e-05,0,1,0,1
29416000,29334000,29336000,0,1.618514,0.0,0.0016955137,0.090988114,4.673813e-06,0,1,0,1
29488000,29406000,29408000,0,1.6157205,0.0,0.004537463,0.0909831,3.3474866e-05,0,1,0,1
29560000,29478000,29480000,0,1.645438,0.0,-0.025156379,0.09097824,0.0010289922,0,1,0,1
29632000,29548800,29552000,0,1.6236025,0.0,-0.0030591488,0.090973526,1.5217367e-05,0,1,0,1
29696000,29616000,29616000,0,1.6422877,0.0,-0.021704435,0.09096831,0.0007660555,0,1,0,1
29768000,29686909,29688000,0,1.6163676,0.0,0.0044523478,0.09096388,3.223759e-05,0,1,0,1
29840000,29760000,29760000,0,1.640051,0.0,-0.019291162,0.090959586,0.00060523173,0,1,0,1
29912000,29831636,29832000,0,1.6212376,0.0,-0.00020813942,0.09095543,7.0458505e-08,0,1,0,1
29984000,29904000,29904000,0,1.6333479,0.0,-0.0122971535,0.0909514,0.0002459536,0,1,0,1
30056000,29974545,29976000,0,1.6268673,0.0,-0.005736947,0.09094749,5.3533342e-05,0,1,0,1
30128000,30044000,30048000,0,1.6195555,0.0,0.001537919,0.09094371,3.847226e-06,0,1,0,1
30200000,30112800,30120000,0,1.6191733,0.0,0.0017744303,0.09094004,5.121723e-06,0,1,0,1
30264000,30184000,30184000,0,1.6184626,0.0,0.002408266,0.0909358,9.434684e-06,0,1,0,1
30336000,30251111,30256000,0,1.6162621,0.0,0.004564166,0.09093236,3.3888922e-05,0,1,0,1
30400000,30318000,30320000,0,1.6201068,0.0,0.000567317,0.09092834,5.236073e-07,0,1,0,1
30472000,30389200,30392000,0,1.6229404,0.0,-0.0024061203,0.09092512,9.418985e-06,0,1,0,1
30536000,30456000,30456000,0,1.6173744,0.0,0.0031865835,0.090921305,1.6521075e-05,0,1,0,1
30608000,30525818,30528000,0,1.6215742,0.0,-0.0010557175,0.0909183,1.8134161e-06,0,1,0,1
30680000,30600000,30600000,0,1.6227465,0.0,-0.0023019314,0.09091539,8.621854e-06,0,1,0,1
30752000,30672000,30672000,0,1.6189324,0.0,0.0014122725,0.09091257,3.245386e-06,0,1,0,1
30824000,30744000,30744000,0,1.6220217,0.0,-0.0016776323,0.09090986,4.5796883e-06,0,1,0,1
30896000,30816000,30816000,0,1.6115441,0.0,0.00887692,0.09090724,0.000128227,0,1,0,1
30968000,30888000,30888000,0,1.6146857,0.0,0.005940914,0.09090465,5.743463e-05,0,1,0,1
31040000,30959636,30960000,0,1.6231312,0.0,-0.002511263,0.0909022,1.026274e-05,0,1,0,1
31112000,31032000,31032000,0,1.6011174,0.0,0.019573212,0.09089984,0.0006234683,0,1,0,1
31184000,31103272,31104000,0,1.6242691,0.0,-0.0038177967,0.09089755,2.372066e-05,0,1,0,1
31256000,31176000,31176000,0,1.6133152,0.0,0.007155061,0.09089535,8.331791e-05,0,1,0,1
31328000,31247272,31248000,0,1.624652,0.0,-0.0042597055,0.09089322,2.9531197e-05,0,1,0,1
31400000,31320000,31320000,0,1.6369747,0.0,-0.016530037,0.09089117,0.0004447125,0,1,0,1
31472000,31390545,31392000,0,1.6137826,0.0,0.006610155,0.09088924,7.111549e-05,0,1,0,1
31544000,31464000,31464000,0,1.602677,0.0,0.017714024,0.09088733,0.0005107219,0,1,0,1
31616000,31534545,31536000,0,1.6202592,0.0,-2.3722649e-05,0.09088549,9.1597824e-10,0,1,0,1
31688000,31608000,31608000,0,1.602298,0.0,0.01793158,0.090883724,0.00052336464,0,1,0,1
31760000,31678545,31680000,0,1.6192186,0.0,0.0009049177,0.090882026,1.3328876e-06,0,1,0,1
31832000,31752000,31752000,0,1.6125474,0.0,0.007613778,0.09088039,9.4359064e-05,0,1,0,1
31904000,31822181,31824000,0,1.6214207,0.0,-0.0012222528,0.090878814,2.4317158e-06,0,1,0,1
31976000,31896000,31896000,0,1.6071116,0.0,0.013215065,0.09087729,0.00028427364,0,1,0,1
32048000,31966909,31968000,0,1.6228135,0.0,-0.0025929213,0.09087584,1.0944189e-05,0,1,0,1
32120000,32040000,32040000,0,1.5990556,0.0,0.02117312,0.09087445,0.000729762,0,1,0,1
32192000,32111272,32112000,0,1.6174005,0.0,0.0029416084,0.090873055,1.40860075e-05,0,1,0,1
32264000,32184000,32184000,0,1.6424454,0.0,-0.022191525,0.09087176,0.00080167566,0,1,0,1
32336000,32254909,32256000,0,1.612993,0.0,0.0075058937,0.09087054,9.171389e-05,0,1,0,1
32408000,32328000,32328000,0,1.5746068,0.0,0.045574665,0.09086941,0.0033812912,0,1,0,1
32480000,32400000,32400000,0,1.629251,0.0,-0.00944078,0.09086827,0.00014509646,0,1,0,1
32552000,32472000,32472000,0,1.652391,0.0,-0.032352686,0.09086719,0.0017039896,0,1,0,1
32624000,32543636,32544000,0,1.6213435,0.0,-0.000916481,0.09086615,1.3674082e-06,0,1,0,1
32696000,32616000,32616000,0,1.5914752,0.0,0.029085755,0.090865165,0.0013772622,0,1,0,1
32768000,32687636,32688000,0,1.6282339,0.0,-0.0078446865,0.09086422,0.000100187055,0,1,0,1
32840000,32760000,32760000,0,1.6187153,0.0,0.0017778873,0.090863325,5.1460406e-06,0,1,0,1
32912000,32830909,32832000,0,1.6298351,0.0,-0.00940752,0.09086245,0.00014408515,0,1,0,1
32984000,32904000,32904000,0,1.6286056,0.0,-0.008135557,0.09086164,0.00010775747,0,1,0,1
33056000,32974545,32976000,0,1.6278166,0.0,-0.0072191954,0.09086085,8.485044e-05,0,1,0,1
33128000,33048000,33048000,0,1.602071,0.0,0.018625736,0.090860106,0.000564816,0,1,0,1
33200000,33119636,33120000,0,1.6250249,0.0,-0.0045695305,0.090859406,3.3995904e-05,0,1,0,1
33272000,33192000,33192000,0,1.5960364,0.0,0.024385333,0.09085875,0.00096815295,0,1,0,1
33344000,33262909,33264000,0,1.6260928,0.0,-0.00602293,0.09085811,5.906161e-05,0,1,0,1
33416000,33336000,33336000,0,1.6407046,0.0,-0.020652056,0.09085751,0.000694415,0,1,0,1
33488000,33406909,33408000,0,1.6201744,0.0,0.000113487244,0.090856954,2.0969557e-08,0,1,0,1
33560000,33480000,33480000,0,1.6357079,0.0,-0.015332818,0.09085642,0.00038277337,0,1,0,1
33632000,33550909,33552000,0,1.6187534,0.0,0.0017468929,0.09085592,4.9685846e-06,0,1,0,1
33704000,33624000,33624000,0,1.6473628,0.0,-0.026857018,0.09085544,0.0011744053,0,1,0,1
33776000,33694181,33696000,0,1.6264534,0.0,-0.005713105,0.09085499,5.3143358e-05,0,1,0,1
33848000,33768000,33768000,0,1.6210103,0.0,-0.00029814243,0.09085456,1.4472855e-07,0,1,0,1
33920000,33840000,33840000,0,1.6252569,0.0,-0.004531741,0.090854175,3.343787e-05,0,1,0,1
33992000,33912000,33912000,0,1.6648864,0.0,-0.044114828,0.0908538,0.0031686877,0,1,0,1
34064000,33984000,33984000,0,1.6180012,0.0,0.0031602383,0.09085347,1.626116e-05,0,1,0,1
34136000,34056000,34056000,0,1.6055683,0.0,0.01548171,0.09085315,0.00039025748,0,1,0,1
34208000,34126909,34128000,0,1.6152226,0.0,0.005690694,0.09085284,5.2728483e-05,0,1,0,1
34280000,34200000,34200000,0,1.6202568,0.0,0.0005135536,0.090852566,4.2942543e-07,0,1,0,1
34352000,34271636,34272000,0,1.6198533,0.0,0.00088500977,0.09085231,1.2753034e-06,0,1,0,1
34424000,34344000,34344000,0,1.6564132,0.0,-0.035813928,0.090852074,0.002088442,0,1,0,1
34496000,34416000,34416000,0,1.6152642,0.0,0.0055634975,0.09085186,5.0398237e-05,0,1,0,1
34568000,34488000,34488000,0,1.6269982,0.0,-0.0062345266,0.090851665,6.3288884e-05,0,1,0,1
34640000,34558909,34560000,0,1.6181929,0.0,0.0025514364,0.090851486,1.0599633e-05,0,1,0,1
34712000,34632000,34632000,0,1.6017057,0.0,0.018984199,0.09085132,0.00058682234,0,1,0,1
34784000,34703272,34704000,0,1.6384721,0.0,-0.018008709,0.09085118,0.00052806566,0,1,0,1
34856000,34776000,34776000,0,1.6273609,0.0,-0.006759405,0.09085105,7.439442e-05,0,1,0,1
34928000,34846909,34848000,0,1.6242746,0.0,-0.0036822557,0.09085094,2.2077596e-05,0,1,0,1
35000000,34920000,34920000,0,1.6398209,0.0,-0.019229054,0.09085084,0.0006020607,0,1,0,1
35072000,34991272,34992000,0,1.6171037,0.0,0.0037122965,0.090850756,2.243934e-05,0,1,0,1
35144000,35064000,35064000,0,1.6243954,0.0,-0.0036503077,0.09085067,2.1696223e-05,0,1,0,1
35216000,35133818,35136000,0,1.6284649,0.0,-0.007742405,0.090850614,9.7606164e-05,0,1,0,1
35288000,35208000,35208000,0,1.6273928,0.0,-0.00663352,0.09085057,7.164961e-05,0,1,0,1
35360000,35279636,35280000,0,1.6170892,0.0,0.003662467,0.090850525,2.1841042e-05,0,1,0,1
35432000,35352000,35352000,0,1.6430473,0.0,-0.022364497,0.09085049,0.00081441243,0,1,0,1
35504000,35422181,35424000,0,1.6268011,0.0,-0.0059856176,0.090850465,5.8337006e-05,0,1,0,1
35576000,35496000,35496000,0,1.628676,0.0,-0.007750511,0.09085046,9.781082e-05,0,1,0,1
35648000,35566545,35568000,0,1.6157349,0.0,0.005183816,0.09085046,4.3754768e-05,0,1,0,1
35720000,35640000,35640000,0,1.6377305,0.0,-0.01661849,0.09085043,0.00044968614,0,1,0,1
35792000,35710545,35712000,0,1.6175064,0.0,0.0038003922,0.09085045,2.3517063e-05,0,1,0,1
35864000,35784000,35784000,0,1.6222042,0.0,-0.0010054111,0.09085046,1.6459385e-06,0,1,0,1
35936000,35854909,35856000,0,1.6269828,0.0,-0.0059245825,0.09085048,5.7153346e-05,0,1,0,1
36008000,35928000,35928000,0,1.6514256,0.0,-0.030391693,0.09085052,0.001503958,0,1,0,1
36080000,35998909,36000000,0,1.6298236,0.0,-0.008473635,0.09085055,0.00011691366,0,1,0,1
36152000,36072000,36072000,0,1.6165009,0.0,0.0048037767,0.09085059,3.757433e-05,0,1,0,1
36224000,36142545,36144000,0,1.6190474,0.0,0.0020896196,0.09085062,7.1098425e-06,0,1,0,1
36296000,36216000,36216000,0,1.6019204,0.0,0.019090295,0.09085068,0.000593404,0,1,0,1
36368000,36287272,36288000,0,1.632142,0.0,-0.011390686,0.090850726,0.00021126363,0,1,0,1
36440000,36360000,36360000,0,1.6311996,0.0,-0.010347486,0.090850785,0.00017433891,0,1,0,1
36512000,36430545,36432000,0,1.6250368,0.0,-0.0040631294,0.09085085,2.6881013e-05,0,1,0,1
36584000,36504000,36504000,0,1.5924389,0.0,0.028547645,0.090850905,0.0013269808,0,1,0,1
36656000,36574909,36576000,0,1.624682,0.0,-0.004027486,0.09085096,2.6411426e-05,0,1,0,1
36728000,36648000,36648000,0,1.6328549,0.0,-0.012216449,0.09085101,0.00024300408,0,1,0,1
36800000,36718909,36720000,0,1.6220094,0.0,-0.0013478994,0.090851076,2.958273e-06,0,1,0,1
36872000,36792000,36792000,0,1.600685,0.0,0.020021677,0.090851136,0.00065271545,0,1,0,1
36944000,36862545,36864000,0,1.6294379,0.0,-0.00883317,0.0908512,0.00012704449,0,1,0,1
37016000,36936000,36936000,0,1.6530017,0.0,-0.032335877,0.09085125,0.0017025183,0,1,0,1
37088000,37006181,37008000,0,1.6269796,0.0,-0.0060036182,0.09085131,5.8687867e-05,0,1,0,1
37160000,37080000,37080000,0,1.6180815,0.0,0.002952814,0.09085138,1.4196916e-05,0,1,0,1
37232000,37150545,37152000,0,1.6226696,0.0,-0.0017368793,0.09085144,4.912028e-06,0,1,0,1
37304000,37224000,37224000,0,1.632891,0.0,-0.011887312,0.0908515,0.00023008515,0,1,0,1
37376000,37295272,37296000,0,1.6195209,0.0,0.0015883446,0.09085156,4.1078106e-06,0,1,0,1
37448000,37368000,37368000,0,1.631237,0.0,-0.010195136,0.0908516,0.0001692415,0,1,0,1
37520000,37438909,37440000,0,1.6134892,0.0,0.007582307,0.09085166,9.361021e-05,0,1,0,1
37592000,37512000,37512000,0,1.6350917,0.0,-0.014074683,0.09085171,0.00032255033,0,1,0,1
37664000,37582545,37584000,0,1.6262662,0.0,-0.0051463842,0.090851754,4.312454e-05,0,1,0,1
37736000,37656000,37656000,0,1.6322976,0.0,-0.011231422,0.0908518,0.00020539475,0,1,0,1
37808000,37726909,37728000,0,1.6215318,0.0,-0.00034332275,0.090851836,1.9192203e-07,0,1,0,1
37880000,37800000,37800000,0,1.6025168,0.0,0.018609285,0.09085186,0.0005638699,0,1,0,1
37952000,37870909,37872000,0,1.6292493,0.0,-0.008387923,0.090851896,0.00011455875,0,1,0,1
38024000,37944000,37944000,0,1.6271107,0.0,-0.0061916113,0.09085192,6.2420404e-05,0,1,0,1
38096000,38014909,38016000,0,1.6162314,0.0,0.0046435595,0.09085194,3.5109217e-05,0,1,0,1
38168000,38088000,38088000,0,1.621668,0.0,-0.0008634329,0.09085196,1.2138812e-06,0,1,0,1
38240000,38159272,38160000,0,1.6251467,0.0,-0.004388213,0.09085198,3.1354106e-05,0,1,0,1
38312000,38232000,38232000,0,1.624727,0.0,-0.004000187,0.09085199,2.6054302e-05,0,1,0,1
38384000,38303636,38304000,0,1.6163709,0.0,0.0044567585,0.090851985,3.2341275e-05,0,1,0,1
38456000,38376000,38376000,0,1.621792,0.0,-0.0010091066,0.090851985,1.6580326e-06,0,1,0,1
38528000,38446545,38448000,0,1.6243367,0.0,-0.0035794973,0.09085198,2.0862342e-05,0,1,0,1
38600000,38520000,38520000,0,1.5935956,0.0,0.027164817,0.09085198,0.0012015243,0,1,0,1
38672000,38591272,38592000,0,1.631007,0.0,-0.0105804205,0.09085195,0.0001822741,0,1,0,1
38744000,38664000,38664000,0,1.6162761,0.0,0.0042642355,0.09085192,2.9607489e-05,0,1,0,1
38816000,38734545,38736000,0,1.6232843,0.0,-0.002774477,0.09085188,1.253377e-05,0,1,0,1
38888000,38808000,38808000,0,1.6227108,0.0,-0.0021739006,0.09085184,7.694829e-06,0,1,0,1
38960000,38878909,38880000,0,1.6277301,0.0,-0.0072119236,0.0908518,8.4688036e-05,0,1,0,1
39032000,38952000,38952000,0,1.6365299,0.0,-0.015902638,0.09085175,0.00041177357,0,1,0,1
39104000,39024000,39024000,0,1.6212435,0.0,-0.00047004223,0.09085169,3.5974446e-07,0,1,0,1
39176000,39096000,39096000,0,1.6308814,0.0,-0.010064006,0.09085162,0.00016491585,0,1,0,1
39248000,39167636,39168000,0,1.635564,0.0,-0.014551759,0.09085155,0.00034478787,0,1,0,1
39320000,39240000,39240000,0,1.6038102,0.0,0.017378688,0.09085146,0.0004917625,0,1,0,1
39392000,39310545,39312000,0,1.6165161,0.0,0.0044960976,0.090851374,3.2914955e-05,0,1,0,1
39464000,39384000,39384000,0,1.6055853,0.0,0.015055776,0.09085143,0.0003690862,0,1,0,1
39536000,39454181,39456000,0,1.630881,0.0,-0.010449529,0.09085132,0.00017779335,0,1,0,1
39608000,39528000,39528000,0,1.5797259,0.0,0.0407238,0.09085121,0.0027003451,0,1,0,1
39680000,39599272,39600000,0,1.6263053,0.0,-0.0062663555,0.09085108,6.393716e-05,0,1,0,1
39752000,39672000,39672000,0,1.6083424,0.0,0.011770844,0.09085096,0.00022559997,0,1,0,1
39824000,39742909,39744000,0,1.6232466,0.0,-0.0030314922,0.09085069,1.4963668e-05,0,1,0,1
39896000,39816000,39816000,0,1.6576058,0.0,-0.037624717,0.09085068,0.0023050038,0,1,0,1
39968000,39886181,39888000,0,1.6328362,0.0,-0.0125103,0.090850525,0.00025483634,0,1,0,1
40040000,39960000,39960000,0,1.6233726,0.0,-0.00288558,0.09085036,1.3557916e-05,0,1,0,1
40112000,40029454,40032000,0,1.6256555,0.0,-0.0051927567,0.09085019,4.390596e-05,0,1,0,1
40184000,40104000,40104000,0,1.5876905,0.0,0.03287685,0.09085002,0.0017599838,0,1,0,1
40256000,40174545,40176000,0,1.6308484,0.0,-0.010536313,0.090849765,0.0001807619,0,1,0,1
40328000,40248000,40248000,0,1.6412933,0.0,-0.020833135,0.09084957,0.00070670753,0,1,0,1
40400000,40318909,40320000,0,1.6401218,0.0,-0.019373298,0.09084938,0.0006111369,0,1,0,1
40472000,40392000,40392000,0,1.6389493,0.0,-0.018021703,0.09084916,0.00052883977,0,1,0,1
40544000,40464000,40464000,0,1.6319624,0.0,-0.0108606815,0.090848945,0.00019206473,0,1,0,1
40616000,40536000,40536000,0,1.6438215,0.0,-0.022639632,0.090848655,0.0008345909,0,1,0,1
40688000,40608000,40608000,0,1.6252989,0.0,-0.0039613247,0.09084842,2.5551528e-05,0,1,0,1
40760000,40680000,40680000,0,1.6424283,0.0,-0.021115065,0.09084818,0.0007259755,0,1,0,1
40832000,40750909,40752000,0,1.6319028,0.0,-0.010379791,0.09084793,0.00017543473,0,1,0,1
40904000,40824000,40824000,0,1.6414028,0.0,-0.019867897,0.09084767,0.00064275187,0,1,0,1
40976000,40896000,40896000,0,1.6246302,0.0,-0.002896309,0.09084741,1.3659367e-05,0,1,0,1
41048000,40968000,40968000,0,1.6097153,0.0,0.012018919,0.09084709,0.00023521941,0,1,0,1
41120000,41038909,41040000,0,1.6238844,0.0,-0.0022640228,0.090846814,8.346517e-06,0,1,0,1
41192000,41112000,41112000,0,1.6317725,0.0,-0.010143757,0.090846516,0.00016754935,0,1,0,1
41264000,41182181,41184000,0,1.6257204,0.0,-0.004000187,0.09084622,2.605596e-05,0,1,0,1
41336000,41256000,41256000,0,1.6121962,0.0,0.009598017,0.090845905,0.00015000682,0,1,0,1
41408000,41325818,41328000,0,1.6393356,0.0,-0.017591596,0.090845585,0.00050391816,0,1,0,1
41480000,41400000,41400000,0,1.6287874,0.0,-0.006914258,0.09084523,7.784709e-05,0,1,0,1
41552000,41470545,41472000,0,1.6354681,0.0,-0.013559103,0.0908449,0.00029937443,0,1,0,1
41624000,41544000,41544000,0,1.6483278,0.0,-0.026329756,0.09084456,0.0011288808,0,1,0,1
41696000,41614181,41616000,0,1.6322672,0.0,-0.009958148,0.09084421,0.00016147796,0,1,0,1
41768000,41688000,41688000,0,1.6038041,0.0,0.018540144,0.09084385,0.00055973703,0,1,0,1
41840000,41759636,41760000,0,1.6247463,0.0,-0.0025868416,0.09084346,1.0896809e-05,0,1,0,1
41912000,41832000,41832000,0,1.6181794,0.0,0.004049182,0.09084309,2.6699065e-05,0,1,0,1
41984000,41902909,41904000,0,1.6278247,0.0,-0.0057252645,0.0908427,5.3377036e-05,0,1,0,1
42056000,41976000,41976000,0,1.5927913,0.0,0.029328704,0.09084231,0.0014007188,0,1,0,1
42128000,42047272,42048000,0,1.6309532,0.0,-0.009082556,0.09084191,0.00013433315,0,1,0,1
42200000,42120000,42120000,0,1.6161265,0.0,0.005741477,0.090841495,5.3680476e-05,0,1,0,1
42272000,42192000,42192000,0,1.6257493,0.0,-0.003938079,0.09084108,2.5254565e-05,0,1,0,1
42344000,42264000,42264000,0,1.6405189,0.0,-0.01854992,0.090840645,0.00056034717,0,1,0,1
42416000,42336000,42336000,0,1.6330682,0.0,-0.010987401,0.09084021,0.00019659169,0,1,0,1
42488000,42408000,42408000,0,1.6169175,0.0,0.005317211,0.09083977,4.604104e-05,0,1,0,1
42560000,42479272,42480000,0,1.6198281,0.0,0.0023354292,0.09083933,8.882043e-06,0,1,0,1
42632000,42552000,42552000,0,1.6293838,0.0,-0.007219076,0.090838864,8.486818e-05,0,1,0,1
42704000,42622909,42624000,0,1.6201491,0.0,0.0021413565,0.090838395,7.46727e-06,0,1,0,1
42776000,42696000,42696000,0,1.6369796,0.0,-0.014707923,0.090837926,0.00035228068,0,1,0,1
42848000,42767636,42768000,0,1.6190331,0.0,0.003393054,0.09083744,1.874865e-05,0,1,0,1
42920000,42840000,42840000,0,1.598438,0.0,0.023893356,0.09083695,0.0009297049,0,1,0,1
42992000,42910909,42912000,0,1.6280503,0.0,-0.0059616566,0.09083646,5.787981e-05,0,1,0,1
43064000,42984000,42984000,0,1.6511347,0.0,-0.02903366,0.09083595,0.0013727744,0,1,0,1
43136000,43055272,43056000,0,1.6280148,0.0,-0.0056432486,0.090835445,5.186285e-05,0,1,0,1
43208000,43128000,43128000,0,1.5928005,0.0,0.029635549,0.09083492,0.0014302977,0,1,0,1
43280000,43199636,43200000,0,1.6338543,0.0,-0.0116734505,0.0908344,0.00022192257,0,1,0,1
43352000,43272000,43272000,0,1.6554323,0.0,-0.03308177,0.09083386,0.0017823094,0,1,0,1
43424000,43342181,43344000,0,1.6242574,0.0,-0.0015896559,0.09083332,4.115422e-06,0,1,0,1
43496000,43416000,43416000,0,1.6026024,0.0,0.020150423,0.09083277,0.00066127046,0,1,0,1
43568000,43487272,43488000,0,1.6360191,0.0,-0.013504386,0.09083222,0.00029700456,0,1,0,1
43640000,43560000,43560000,0,1.5985309,0.0,0.02414763,0.09083165,0.0009496535,0,1,0,1
43712000,43630545,43632000,0,1.6274635,0.0,-0.005052209,0.090831086,4.1570136e-05,0,1,0,1
43784000,43704000,43704000,0,1.6742996,0.0,-0.05177164,0.09083051,0.004365213,0,1,0,1
43856000,43774545,43776000,0,1.6210625,0.0,0.002011776,0.09082993,6.5914896e-06,0,1,0,1
43928000,43848000,43848000,0,1.6003672,0.0,0.022738338,0.090829335,0.0008420631,0,1,0,1
44000000,43919636,43920000,0,1.6410304,0.0,-0.018205285,0.09082874,0.00053979026,0,1,0,1
44072000,43992000,43992000,0,1.631022,0.0,-0.00799799,0.090828136,0.00010418247,0,1,0,1
44144000,44064000,44064000,0,1.632493,0.0,-0.009390831,0.090827525,0.00014362959,0,1,0,1
44216000,44136000,44136000,0,1.6333315,0.0,-0.010229707,0.090826906,0.0001704375,0,1,0,1
44288000,44206909,44208000,0,1.6299027,0.0,-0.0066860914,0.09082628,7.280923e-05,0,1,0,1
44360000,44280000,44280000,0,1.6169981,0.0,0.006290078,0.090825655,6.44402e-05,0,1,0,1
44432000,44350545,44352000,0,1.6287205,0.0,-0.005450368,0.090825014,4.838375e-05,0,1,0,1
44504000,44424000,44424000,0,1.6232002,0.0,9.4652176e-05,0.09082437,1.459191e-08,0,1,0,1
44576000,44494181,44496000,0,1.6263063,0.0,-0.0030083656,0.09082372,1.4740605e-05,0,1,0,1
44648000,44568000,44568000,0,1.6224952,0.0,0.0008368492,0.09082307,1.1406479e-06,0,1,0,1
44720000,44638909,44640000,0,1.6282977,0.0,-0.0049681664,0.090822406,4.020246e-05,0,1,0,1
44792000,44712000,44712000,0,1.663133,0.0,-0.0397017,0.090821736,0.0025673306,0,1,0,1
44864000,44782909,44784000,0,1.6291999,0.0,-0.0053863525,0.090821065,4.725593e-05,0,1,0,1
44936000,44856000,44856000,0,1.634898,0.0,-0.011086941,0.09082039,0.00020021356,0,1,0,1
45008000,44926909,44928000,0,1.6207641,0.0,0.0032203197,0.0908197,1.689162e-05,0,1,0,1
45080000,45000000,45000000,0,1.6390609,0.0,-0.015058637,0.090819,0.00036935837,0,1,0,1
45152000,45070909,45072000,0,1.6352813,0.0,-0.011149526,0.090818316,0.00020248491,0,1,0,1
45224000,45144000,45144000,0,1.6592479,0.0,-0.03495109,0.09081761,0.0019897788,0,1,0,1
45296000,45216000,45216000,0,1.6299461,0.0,-0.005368471,0.0908169,4.6944846e-05,0,1,0,1
45368000,45288000,45288000,0,1.6466007,0.0,-0.021983862,0.09081619,0.00078722346,0,1,0,1
45440000,45358545,45360000,0,1.6311257,0.0,-0.006317377,0.09081547,6.500805e-05,0,1,0,1
45512000,45432000,45432000,0,1.6008077,0.0,0.024065018,0.09081475,0.00094334234,0,1,0,1
45584000,45503636,45504000,0,1.6275347,0.0,-0.002886057,0.09081401,1.35678265e-05,0,1,0,1
45656000,45576000,45576000,0,1.6239815,0.0,0.0007122755,0.09081328,8.2641844e-07,0,1,0,1
45728000,45646909,45648000,0,1.6262298,0.0,-0.00151968,0.09081254,3.7619395e-06,0,1,0,1
45800000,45720000,45720000,0,1.6311173,0.0,-0.006375432,0.0908118,6.6211025e-05,0,1,0,1
45872000,45790909,45792000,0,1.6241593,0.0,0.0006715059,0.090811044,7.3453816e-07,0,1,0,1
45944000,45864000,45864000,0,1.600418,0.0,0.024405599,0.0908103,0.0009702802,0,1,0,1
46016000,45934909,45936000,0,1.6274166,0.0,-0.0027512312,0.09080953,1.233037e-05,0,1,0,1
46088000,46008000,46008000,0,1.6244526,0.0,0.00020837784,0.090808764,7.073407e-08,0,1,0,1
46160000,46079272,46080000,0,1.6223121,0.0,0.0024079084,0.090808,9.445158e-06,0,1,0,1
46232000,46152000,46152000,0,1.6004983,0.0,0.024153829,0.09080722,0.0009503967,0,1,0,1
46304000,46222909,46224000,0,1.6265944,0.0,-0.0022201538,0.09080645,8.029765e-06,0,1,0,1
46376000,46296000,46296000,0,1.6094531,0.0,0.014986753,0.090805665,0.0003658942,0,1,0,1
46448000,46366545,46368000,0,1.625091,0.0,-0.00079882145,0.09080488,1.0395456e-06,0,1,0,1
46520000,46440000,46440000,0,1.6131266,0.0,0.011192679,0.090804085,0.00020408734,0,1,0,1
46592000,46512000,46512000,0,1.6304767,0.0,-0.006253004,0.090803295,6.36985e-05,0,1,0,1
46664000,46584000,46584000,0,1.6323204,0.0,-0.008007526,0.09080249,0.00010446056,0,1,0,1
46736000,46655272,46656000,0,1.630567,0.0,-0.006198287,0.090801686,6.258969e-05,0,1,0,1
46808000,46728000,46728000,0,1.6566515,0.0,-0.03220296,0.09080088,0.001689487,0,1,0,1
46880000,46799272,46800000,0,1.6367455,0.0,-0.012003064,0.09080007,0.00023472072,0,1,0,1
46952000,46872000,46872000,0,1.6134917,0.0,0.011419177,0.09079925,0.00021244216,0,1,0,1
47024000,46943272,46944000,0,1.6261353,0.0,-0.0013180971,0.09079842,2.8305437e-06,0,1,0,1
47096000,47016000,47016000,0,1.6206526,0.0,0.0042057037,0.0907976,2.8817502e-05,0,1,0,1
47168000,47087272,47088000,0,1.6319122,0.0,-0.0070866346,0.090796776,8.182066e-05,0,1,0,1
47240000,47160000,47160000,0,1.6414913,0.0,-0.016574383,0.09079595,0.00044757064,0,1,0,1
47312000,47232000,47232000,0,1.6259536,0.0,-0.00091564655,0.090795115,1.3659871e-06,0,1,0,1
47384000,47304000,47304000,0,1.5983263,0.0,0.026702523,0.09079428,0.0011617147,0,1,0,1
47456000,47374909,47376000,0,1.6318464,0.0,-0.0070949793,0.09079343,8.201649e-05,0,1,0,1
47528000,47448000,47448000,0,1.6212133,0.0,0.0035250187,0.09079259,2.0245374e-05,0,1,0,1
47600000,47519636,47520000,0,1.6268634,0.0,-0.0021699667,0.09079174,7.672081e-06,0,1,0,1
47672000,47592000,47592000,0,1.6147653,0.0,0.009993553,0.09079089,0.00016272375,0,1,0,1
47744000,47662909,47664000,0,1.6323643,0.0,-0.007717252,0.09079003,9.703771e-05,0,1,0,1
47816000,47732000,47736000,0,1.6336923,0.0,-0.008956552,0.09078918,0.00013070763,0,1,0,1
