timestamp,timestamp_sample,ref_timestamp,ref_lat,ref_lon,x,y,z,delta_xy[0],delta_xy[1],delta_z,vx,vy,vz,z_deriv,delta_vxy[0],delta_vxy[1],delta_vz,ax,ay,az,heading,delta_heading,ref_alt,dist_bottom,eph,epv,evh,evv,vxy_max,vz_max,hagl_min,hagl_max,xy_valid,z_valid,v_xy_valid,v_z_valid,xy_reset_counter,z_reset_counter,vxy_reset_counter,vz_reset_counter,heading_reset_counter,heading_good_for_control,xy_global,z_global,dist_bottom_valid,dist_bottom_sensor_bitfield,dead_reckoning
3688000,3688000,0,nan,nan,0.0018915025,-0.0021857503,-0.0073482753,-3.1109433e-08,4.019123e-09,0.0,0.006745504,-0.0063074827,-0.024212506,-0.01909015,-5.1849056e-06,6.6985376e-07,0.0017844737,0.012230186,0.0036981944,-0.017467884,-3.0238165e-05,0.0,nan,0.10739145,0.011183025,5.7735023,0.075189605,0.023713585,inf,inf,inf,inf,0,0,0,0,1,1,1,1,0,0,0,0,0,0,1
4192000,4192000,0,nan,nan,0.0022246763,-0.00036539361,-0.048053153,-3.1109433e-08,4.019123e-09,0.0,0.007064738,0.0005211005,-0.018492157,-0.047874223,-5.1849056e-06,6.6985376e-07,0.0017844737,0.051123116,0.019597718,-0.034483146,-3.230183e-05,0.0,nan,0.1,0.023145791,1.6517755,0.11035428,0.061110087,inf,inf,inf,inf,0,1,0,1,1,1,1,1,0,0,0,0,0,0,1
4688000,4688000,4204000,47.3977508,8.5456073,0.0019989484,-0.0001911026,-0.059909213,-3.1109433e-08,4.019123e-09,0.0,0.0053107035,-0.0035601067,-0.020499503,-0.040811703,-5.1849056e-06,6.6985376e-07,0.0017844737,0.023530154,-0.031275034,-0.024686566,0.0001915837,0.0,488.03537,0.10747926,0.027533665,0.99076337,0.107607596,0.08706539,inf,inf,inf,inf,0,1,0,1,1,1,1,1,0,0,1,1,0,0,1
5184000,5184000,4204000,47.3977508,8.5456073,0.0006078214,-0.0010861423,-0.057966143,-3.1109433e-08,4.019123e-09,0.0,0.002043357,-0.0028919557,-0.01855625,-0.021466931,-5.1849056e-06,6.6985376e-07,0.0017844737,0.012327945,-0.01620638,0.0030398367,-0.00011909257,0.0,488.03537,0.112434894,0.015536006,0.75625783,0.06301056,0.09025157,inf,inf,inf,inf,0,1,0,1,1,1,1,1,0,0,1,1,0,0,1
5688000,5688000,4204000,47.3977508,8.5456073,-0.0002007936,0.001007024,-0.052794028,-3.1109433e-08,4.019123e-09,0.0,0.00036018094,0.0032356973,-0.014818636,-0.0062927534,-5.1849056e-06,6.6985376e-07,0.0017844737,0.0286478,-1.2136296e-05,-0.00071339303,-1.0881011e-05,0.0,488.03537,0.10914339,0.019277567,0.6474761,0.0646617,0.09461103,inf,inf,inf,inf,0,1,0,1,1,1,1,1,0,0,1,1,0,0,1
6192000,6192000,4204000,47.3977508,8.5456073,-0.0005314408,0.0010830902,-0.050003264,-3.1109433e-08,4.019123e-09,0.0,-0.0010440191,0.0009486393,-0.011816757,0.0001637855,-5.1849056e-06,6.6985376e-07,0.0017844737,-0.009502865,-0.017615354,-0.030848196,-7.606223e-05,0.0,488.03537,0.10559882,0.012916912,0.568382,0.04586613,0.08617047,inf,inf,inf,inf,0,1,0,1,1,1,1,1,0,0,1,1,0,0,1
6688000,6688000,4204000,47.3977508,8.5456073,-0.0021621983,0.0008107609,-0.046640914,-3.1109433e-08,4.019123e-09,0.0,-0.0055225017,0.0029614954,-0.007828559,0.0050447057,-5.1849056e-06,6.6985376e-07,0.0017844737,0.024707928,0.0046672355,0.0047115604,3.51585e-05,0.0,488.03537,0.101415485,0.01558551,0.51987123,0.04939865,0.08592629,inf,inf,inf,inf,0,1,0,1,1,1,1,1,0,0,1,1,0,0,1
7184000,7184000,4204000,47.3977508,8.5456073,-0.001929469,0.0026066173,-0.043254424,-3.1109433e-08,4.019123e-09,0.0,-0.0023528577,0.009161284,-0.0024360404,0.009458372,-5.1849056e-06,6.6985376e-07,0.0017844737,0.022086851,-0.0022789899,-0.034983266,-0.0002058996,0.0,488.03537,0.10181021,0.018567277,0.4833865,0.052778345,0.085151084,inf,inf,inf,inf,0,1,0,1,1,1,1,1,0,0,1,1,0,0,1
7688000,7688000,4204000,47.3977508,8.5456073,-0.00022299791,0.003210164,-0.038442902,-3.1109433e-08,4.019123e-09,0.0,0.0004283569,0.0060067694,0.0006654096,0.011450484,-5.1849056e-06,6.6985376e-07,0.0017844737,-0.017990809,-0.009063441,0.023405066,-0.00045910495,0.0,488.03537,0.1,0.013533257,0.44978175,0.04253973,0.078008264,inf,inf,inf,inf,0,1,0,1,1,1,1,1,0,0,1,1,0,0,1
8184000,8184000,4204000,47.3977508,8.5456073,-0.00027833198,0.0013675855,-0.039910372,-3.1109433e-08,4.019123e-09,0.0,-0.0026288591,0.0025982305,-0.001715037,0.003607387,-5.1849056e-06,6.6985376e-07,0.0017844737,0.026653199,0.007437207,-0.0440143,-0.0006509331,0.0,488.03537,0.1,0.016180448,0.42749625,0.046330553,0.0778735,inf,inf,inf,inf,0,1,0,1,1,1,1,1,0,0,1,1,0,0,1
8688000,8688000,4204000,47.3977508,8.5456073,-0.00059551006,0.00016443826,-0.064131856,-3.1109433e-08,4.019123e-09,-0.022775888,-0.00055385154,0.0017449714,0.0008656024,0.0034473576,-5.1849056e-06,6.6985376e-07,0.0017844737,-0.004061352,-0.014787058,0.029128043,-0.00064118893,0.0,488.03537,0.1,0.0120839765,0.9271919,0.03829901,0.072956994,inf,inf,inf,inf,0,1,0,1,1,2,1,1,0,0,1,1,0,0,1
9184000,9184000,4204000,47.3977508,8.5456073,0.0009380629,0.0006278769,-0.06438632,-3.1109433e-08,4.019123e-09,-0.022775888,0.004014041,0.0039144047,0.0013570467,0.0019916066,-5.1849056e-06,6.6985376e-07,0.0017844737,-0.010073373,0.02379858,-0.0027595086,-0.0006820378,0.0,488.03537,0.1,0.014430207,0.5963884,0.042126022,0.07391463,inf,inf,inf,inf,0,1,0,1,1,2,1,1,0,0,1,1,0,0,1
9688000,9688000,4204000,47.3977508,8.5456073,0.0019905686,0.00097130286,-0.06339783,-3.1109433e-08,4.019123e-09,-0.022775888,0.0050167385,0.003673322,0.0032435781,0.0042515136,-5.1849056e-06,6.6985376e-07,0.0017844737,-0.0015038385,0.015246929,0.026416963,-0.00047603634,0.0,488.03537,0.10118404,0.0109865405,0.47063515,0.035452142,0.07526019,inf,inf,inf,inf,0,1,0,1,1,2,1,1,0,0,1,1,0,0,1
10184000,10184000,4204000,47.3977508,8.5456073,0.0013748062,0.00039825452,-0.057167135,-3.1109433e-08,4.019123e-09,-0.022775888,0.0008983426,0.00015496803,0.0066963346,0.010484698,-5.1849056e-06,6.6985376e-07,0.0017844737,0.005111811,-0.0023638129,0.007490627,-0.00063321495,0.0,488.03537,0.1,0.01302123,0.40520704,0.03895693,0.07170282,inf,inf,inf,inf,0,1,0,1,1,2,1,1,0,0,1,1,0,0,1
10688000,10688000,4204000,47.3977508,8.5456073,-0.0004968157,-0.0012252639,-0.05526246,-3.1109433e-08,4.019123e-09,-0.022775888,-0.0010763909,-0.0037990995,0.008387629,0.0096933395,-5.1849056e-06,6.6985376e-07,0.0017844737,0.008317874,-0.038572527,0.036693174,-0.0007125184,0.0,488.03537,0.1,0.015762687,0.3401349,0.04303358,0.07325329,inf,inf,inf,inf,0,1,0,1,1,2,1,1,0,0,1,1,0,0,1
11192000,11192000,4204000,47.3977508,8.5456073,-0.001003428,-0.002457596,-0.052525666,-3.1109433e-08,4.019123e-09,-0.022775888,-0.0031664525,-0.0052882885,0.01359099,0.012359301,-5.1849056e-06,6.6985376e-07,0.0017844737,-0.029097687,-0.01764459,0.032554377,-0.0006816482,0.0,488.03537,0.1,0.012044859,0.31561098,0.036718115,0.07027795,inf,inf,inf,inf,0,1,0,1,1,2,1,1,0,0,1,1,0,0,1
11688000,11688000,4204000,47.3977508,8.5456073,-0.0016597401,-0.0028664055,-0.050308824,-3.1109433e-08,4.019123e-09,-0.022775888,-0.004905405,-0.0053581167,0.017860783,0.0129436795,-5.1849056e-06,6.6985376e-07,0.0017844737,-0.0003196619,0.011327908,0.012743286,-0.0006233034,0.0,488.03537,0.1,0.014316874,0.2969437,0.04037895,0.071890615,inf,inf,inf,inf,0,1,0,1,1,2,1,1,0,0,1,1,0,0,1
12184000,12184000,4204000,47.3977508,8.5456073,-0.0023208647,-0.0015216406,-0.050389197,-3.1109433e-08,4.019123e-09,-0.022775888,-0.0051322086,-0.0023304592,0.015862336,0.00692168,-5.1849056e-06,6.6985376e-07,0.0017844737,-0.01925355,0.004188943,0.00338722,-0.00067148486,0.0,488.03537,0.1,0.010860143,0.28407508,0.03427758,0.07357229,inf,inf,inf,inf,0,1,0,1,1,2,1,1,0,0,1,1,0,0,1
12688000,12688000,4204000,47.3977508,8.5456073,-0.0011925264,0.00023449895,-0.05247704,-3.1109433e-08,4.019123e-09,-0.022775888,-0.00047066016,0.004419604,0.015245578,0.0027374919,-5.1849056e-06,6.6985376e-07,0.0017844737,-0.011735682,0.021649087,-0.0027846543,-0.00063669746,0.0,488.03537,0.1,0.013052627,0.2625583,0.038053054,0.07057809,inf,inf,inf,inf,0,1,0,1,1,2,1,1,0,0,1,1,0,0,1
13184000,13184000,4204000,47.3977508,8.5456073,0.00026293733,0.002460924,-0.05414345,-3.1109433e-08,4.019123e-09,-0.022775888,0.0013737096,0.0053447317,0.015165783,0.0010223069,-5.1849056e-06,6.6985376e-07,0.0017844737,0.018295016,0.011876457,0.016362404,-0.00061730685,0.0,488.03537,0.1,0.015480511,0.2555533,0.04160579,0.072292246,inf,inf,inf,inf,0,1,0,1,1,2,1,1,0,0,1,1,0,0,1
13688000,13688000,4204000,47.3977508,8.5456073,0.001585824,0.0024562913,-0.05510217,-3.1109433e-08,4.019123e-09,-0.022775888,0.004868397,0.003703645,0.012351687,-0.001708447,-5.1849056e-06,6.6985376e-07,0.0017844737,-0.0016124249,0.013779281,0.0016521661,-0.00055370695,0.0,488.03537,0.1,0.011933698,0.24900319,0.03589739,0.06966291,inf,inf,inf,inf,0,1,0,1,1,2,1,1,0,0,1,1,0,0,1
14184000,14184000,4204000,47.3977508,8.5456073,0.0015488288,0.0005240762,-0.05694339,-3.1109433e-08,4.019123e-09,-0.022775888,0.0027587134,-0.0011828056,0.010894477,-0.0029928293,-5.1849056e-06,6.6985376e-07,0.0017844737,0.009107854,0.0029351357,-0.015329569,-0.000474772,0.0,488.03537,0.1,0.014153519,0.24559534,0.039462462,0.07143308,inf,inf,inf,inf,0,1,0,1,1,2,1,1,0,0,1,1,0,0,1
14688000,14688000,4204000,47.3977508,8.5456073,0.0014749074,-0.0009934234,-0.056538187,-3.1109433e-08,4.019123e-09,-0.022775888,0.003933385,-0.0020582683,0.008130036,-0.0034005423,-5.1849056e-06,6.6985376e-07,0.0017844737,-0.013315104,0.019021899,0.013447366,-0.000574851,0.0,488.03537,0.1,0.010982789,0.23630127,0.034119546,0.073053315,inf,inf,inf,inf,0,1,0,1,1,2,1,1,0,0,1,1,0,0,1
15192000,15192000,4204000,47.3977508,8.5456073,0.0011886013,-0.0004903427,-0.05774216,-3.1109433e-08,4.019123e-09,-0.022775888,0.0015633333,-8.073635e-05,0.0079371985,-0.0027324082,-5.1849056e-06,6.6985376e-07,0.0017844737,-0.010251067,-0.008368835,-0.046510246,-0.00047098153,0.0,488.03537,0.1,0.013179434,0.23278624,0.037798285,0.070508204,inf,inf,inf,inf,0,1,0,1,1,2,1,1,0,0,1,1,0,0,1
15688000,15688000,4204000,47.3977508,8.5456073,0.0008705888,-0.00016822602,-0.05889782,-3.1109433e-08,4.019123e-09,-0.022775888,0.00066873233,-0.00078732736,0.0091596255,-0.0014135232,-5.1849056e-06,6.6985376e-07,0.0017844737,0.019354977,0.002128523,0.012137926,-0.00037030928,0.0,488.03537,0.1,0.015602873,0.23227148,0.041267935,0.07232651,inf,inf,inf,inf,0,1,0,1,1,2,1,1,0,0,1,1,0,0,1
16184000,16184000,4204000,47.3977508,8.5456073,3.9783867e-05,-0.0009513944,-0.058792554,-3.1109433e-08,4.019123e-09,-0.022775888,0.0005434629,-0.002878849,0.009546943,-0.00013547402,-5.1849056e-06,6.6985376e-07,0.0017844737,0.022190025,-0.017787663,-0.0049434598,-0.0002829196,0.0,488.03537,0.1,0.011876704,0.22888455,0.03548201,0.069572024,inf,inf,inf,inf,0,1,0,1,1,2,1,1,0,0,1,1,0,0,1
16688000,16688000,4204000,47.3977508,8.5456073,-0.00032801204,-0.0019063985,-0.0582334,-3.1109433e-08,4.019123e-09,-0.022775888,-0.0014396242,-0.0049799737,0.013303367,0.0035366672,-5.1849056e-06,6.6985376e-07,0.0017844737,-0.010335294,-0.02482232,0.02397131,-0.00023240515,0.0,488.03537,0.1,0.014324358,0.22381318,0.04569257,0.071246505,inf,inf,inf,inf,0,1,0,1,1,2,1,1,0,0,1,1,0,0,1
17192000,17192000,4204000,47.3977508,8.5456073,-0.0010027618,-0.0040554525,-0.053684644,-3.1109433e-08,4.019123e-09,-0.022775888,-0.0017061617,-0.008365079,0.016670424,0.008731845,-5.1849056e-06,6.6985376e-07,0.0017844737,-0.0045268387,-0.022442922,0.02042297,-5.46875e-05,0.0,488.03537,0.10043584,0.06563969,0.23228337,0.20509909,0.08252378,inf,inf,inf,inf,0,1,0,1,1,2,1,1,0,0,1,1,0,0,1
17688000,17688000,4204000,47.3977508,8.5456073,-0.002323008,-0.008225318,-0.04638406,-3.1109433e-08,4.019123e-09,-0.022775888,-0.0044944827,-0.00893148,0.017903458,0.011807609,-5.1849056e-06,6.6985376e-07,0.0017844737,-0.026914813,-0.0050557572,0.02212636,-0.0001399648,0.0,488.03537,0.10015541,0.20495126,0.2455018,0.3749647,0.09373467,inf,inf,inf,inf,0,1,0,1,1,2,1,1,0,0,1,1,0,0,1
18192000,18192000,4204000,47.3977508,8.5456073,-0.0038255628,-0.013710891,-0.037904147,-3.1109433e-08,4.019123e-09,-0.022775888,-0.0010007769,-0.014512153,0.02379536,0.01861194,-5.1849056e-06,6.6985376e-07,0.0017844737,0.012121002,-0.010468749,0.012044794,2.503683e-05,0.0,488.03537,0.1,0.43467855,0.26390007,0.5483439,0.10484817,inf,inf,inf,inf,0,1,0,1,1,2,1,1,0,0,1,1,0,0,1
18688000,18688000,4204000,47.3977508,8.5456073,-0.003731004,-0.022517871,-0.027891511,-3.1109433e-08,4.019123e-09,-0.022775888,0.0009721251,-0.02171601,0.029006617,0.023379361,-5.1849056e-06,6.6985376e-07,0.0017844737,0.003522422,-0.030406546,0.041973773,0.00020701777,0.0,488.03537,0.1,0.74495244,0.2745674,0.7178159,0.1128346,inf,inf,inf,inf,0,1,0,1,1,2,1,1,0,0,1,1,0,0,1
19184000,19184000,4204000,47.3977508,8.5456073,-0.004430463,-0.03453294,-0.018079909,-3.1109433e-08,4.019123e-09,-0.022775888,-0.0016634103,-0.027765324,0.031180779,0.02313945,-5.1849056e-06,6.6985376e-07,0.0017844737,-0.013335491,0.016549557,-0.092213035,9.9813755e-05,0.0,488.03537,0.1,1.1362823,0.29727775,0.88507956,0.1213532,inf,inf,inf,inf,0,1,0,1,1,2,1,1,0,0,1,1,0,0,1
19688000,19688000,4204000,47.3977508,8.5456073,-0.013939693,-0.030059949,-0.05352669,-3.1109433e-08,4.019123e-09,-0.022775888,-0.09522274,0.10379842,-0.17876828,-0.18938777,-5.1849056e-06,6.6985376e-07,0.0017844737,-0.5637538,0.5691396,-0.74753535,0.0093295565,0.0,488.03537,0.13675411,1.6012286,0.32061592,1.0487835,0.12813243,inf,inf,inf,inf,0,1,0,1,1,2,1,1,0,0,1,1,0,0,1
20192000,20192000,4204000,47.3977508,8.5456073,-0.09339662,0.054991174,-0.2632614,-3.1109433e-08,4.019123e-09,-0.022775888,-0.15471655,0.16493417,-0.5831761,-0.5960644,-5.1849056e-06,6.6985376e-07,0.0017844737,0.105075166,-0.10833115,-0.16255116,0.007917167,0.0,488.03537,0.34648883,2.134774,0.34470242,1.2125514,0.13350898,inf,inf,inf,inf,0,1,0,1,1,2,1,1,0,0,1,1,0,0,1
20688000,20688000,4204000,47.3977508,8.5456073,-0.1515648,0.11390779,-0.56584835,-3.1109433e-08,4.019123e-09,-0.022775888,-0.07882688,0.058722667,-0.61321473,-0.6306487,-5.1849056e-06,6.6985376e-07,0.0017844737,0.19626589,-0.24323502,-0.12570804,0.0067126774,0.0,488.03537,0.64907575,2.6984494,0.343535,1.3418561,0.13217157,inf,inf,inf,inf,0,1,0,1,1,2,1,1,0,0,1,1,0,0,1
21192000,21192000,4204000,47.3977508,8.5456073,-0.15460965,0.10274598,-0.8985686,-3.1109433e-08,4.019123e-09,-0.022775888,0.019286145,-0.06908036,-0.64742976,-0.6677706,-5.1849056e-06,6.6985376e-07,0.0017844737,0.1467667,-0.20103927,0.002578832,0.005654233,0.0,488.03537,0.98179597,3.200441,0.36180085,1.4135361,0.1352823,inf,inf,inf,inf,0,1,0,1,1,2,1,1,0,0,1,1,0,0,1
21688000,21688000,4204000,47.3977508,8.5456073,-0.11213459,0.036225013,-1.233537,-3.1109433e-08,4.019123e-09,-0.022775888,0.08302352,-0.1555687,-0.6322332,-0.6569451,-5.1849056e-06,6.6985376e-07,0.0017844737,0.0964977,-0.10900711,0.07133278,0.004782533,0.0,488.03537,1.3167644,3.7078307,0.3750008,1.4745607,0.13668568,inf,inf,inf,inf,0,1,0,1,1,2,1,1,0,0,1,1,0,0,1
22184000,22184000,4204000,47.3977508,8.5456073,-0.050139952,-0.05376293,-1.5512793,-3.1109433e-08,4.019123e-09,-0.022775888,0.10654376,-0.1942044,-0.5777979,-0.60511947,-5.1849056e-06,6.6985376e-07,0.0017844737,0.008250979,-0.05920653,0.13161357,0.0042506983,0.0,488.03537,1.6345067,3.989875,0.38794658,1.443138,0.13769187,inf,inf,inf,inf,0,1,0,1,1,2,1,1,0,0,1,1,0,0,1
22688000,22688000,4204000,47.3977508,8.5456073,0.007958693,-0.13493873,-1.8426684,-3.1109433e-08,4.019123e-09,-0.022775888,0.1058031,-0.19160742,-0.4536927,-0.48660848,-5.1849056e-06,6.6985376e-07,0.0017844737,0.0006487243,0.0644513,0.79934573,0.003963878,0.0,488.03537,1.9258958,4.3387566,0.37052906,1.437218,0.13154392,inf,inf,inf,inf,0,1,0,1,1,2,1,1,0,0,1,1,0,0,1
23192000,23192000,4204000,47.3977508,8.5456073,0.047305033,-0.18725193,-1.9834667,-3.1109433e-08,4.019123e-09,-0.022775888,0.08319245,-0.15932652,-0.13050489,-0.16942118,-5.1849056e-06,6.6985376e-07,0.0017844737,-0.063474245,0.048313346,-0.1272438,0.0038010094,0.0,488.03537,2.0666943,4.61379,0.38034025,1.4049301,0.132427,inf,inf,inf,inf,0,1,0,1,1,2,1,1,0,0,1,1,0,0,1
23688000,23688000,4204000,47.3977508,8.5456073,0.06206724,-0.20106207,-2.0893288,-3.1109433e-08,4.019123e-09,-0.022775888,0.04892021,-0.10804063,-0.1674085,-0.20920871,-5.1849056e-06,6.6985376e-07,0.0017844737,-0.052009393,0.08431799,0.043016855,0.0037711975,0.0,488.03537,2.1725562,4.563358,0.3882357,1.2967781,0.13319401,inf,inf,inf,inf,0,1,0,1,1,2,1,1,0,0,1,1,0,0,1
24184000,24184000,4204000,47.3977508,8.5456073,0.056697708,-0.18865678,-2.1836326,-3.1109433e-08,4.019123e-09,-0.022775888,0.011397869,-0.06750171,-0.13117324,-0.1706464,-5.1849056e-06,6.6985376e-07,0.0017844737,-0.09238617,0.04852605,0.09744055,0.0033402985,0.0,488.03537,2.26686,4.694028,0.39550132,1.2495731,0.13423191,inf,inf,inf,inf,0,1,0,1,1,2,1,1,0,0,1,1,0,0,1
24688000,24688000,4204000,47.3977508,8.5456073,0.03483348,-0.16138768,-2.2648268,-3.1109433e-08,4.019123e-09,-0.022775888,-0.0071274415,-0.04955454,-0.08765493,-0.13130642,-5.1849056e-06,6.6985376e-07,0.0017844737,0.038886912,-0.015486977,0.08146557,0.003223079,0.0,488.03537,2.3480542,4.5433264,0.37304574,1.1383349,0.12902564,inf,inf,inf,inf,0,1,0,1,1,2,1,1,0,0,1,1,0,0,1
25184000,25184000,4204000,47.3977508,8.5456073,0.017782005,-0.1392125,-2.3248904,-3.1109433e-08,4.019123e-09,-0.022775888,0.0009924334,-0.05336108,-0.059781816,-0.105110206,-5.1849056e-06,6.6985376e-07,0.0017844737,0.029666144,-0.014944394,0.024862586,0.0050211777,0.0,488.03537,2.4081178,4.602763,0.37980813,1.0911553,0.13074817,inf,inf,inf,inf,0,1,0,1,1,2,1,1,0,0,1,1,0,0,1
25688000,25688000,4204000,47.3977508,8.5456073,0.013474001,-0.12810856,-2.3746033,-3.1109433e-08,4.019123e-09,-0.022775888,0.017986048,-0.05669766,-0.042430703,-0.08790432,-5.1849056e-06,6.6985376e-07,0.0017844737,0.016179197,0.00077173166,0.02239458,0.005228163,0.0,488.03537,2.4578307,4.649437,0.38521725,1.0467807,0.1323252,inf,inf,inf,inf,0,1,0,1,1,2,1,1,0,0,1,1,0,0,1
26184000,26184000,4204000,47.3977508,8.5456073,0.017119354,-0.12043023,-2.4150155,-3.1109433e-08,4.019123e-09,-0.022775888,0.026745383,-0.056801055,-0.01650129,-0.06311056,-5.1849056e-06,6.6985376e-07,0.0017844737,0.013864919,-0.019643586,0.06612483,0.005374528,0.0,488.03537,2.4982429,4.4416184,0.39216053,0.9561229,0.1343129,inf,inf,inf,inf,0,1,0,1,1,2,1,1,0,0,1,1,0,0,1
26688000,26688000,4204000,47.3977508,8.5456073,0.025692075,-0.117948025,-2.4459798,-3.1109433e-08,4.019123e-09,-0.022775888,0.03612843,-0.05495158,0.008473331,-0.04218575,-5.1849056e-06,6.6985376e-07,0.0017844737,0.075434,0.0056391577,0.06610806,0.0052933535,0.0,488.03537,2.5292072,4.464069,0.37061793,0.9208577,0.1301816,inf,inf,inf,inf,0,1,0,1,1,2,1,1,0,0,1,1,0,0,1
27184000,27184000,4204000,47.3977508,8.5456073,0.03504811,-0.11316056,-2.4680412,-3.1109433e-08,4.019123e-09,-0.022775888,0.035592757,-0.045829363,0.025898876,-0.02948646,-5.1849056e-06,6.6985376e-07,0.0017844737,0.018464547,0.02290189,0.02447795,0.005192492,0.0,488.03537,2.5512686,4.264755,0.37780315,0.84957653,0.1323429,inf,inf,inf,inf,0,1,0,1,1,2,1,1,0,0,1,1,0,0,1
27688000,27688000,4204000,47.3977508,8.5456073,0.04198616,-0.106686935,-2.480798,-3.1109433e-08,4.019123e-09,-0.022775888,0.030024868,-0.038798075,0.034695238,-0.01951749,-5.1849056e-06,6.6985376e-07,0.0017844737,-0.007341688,-0.016132908,0.018137505,0.005349156,0.0,488.03537,2.5640254,4.277609,0.38603818,0.8244714,0.13466917,inf,inf,inf,inf,0,1,0,1,1,2,1,1,0,0,1,1,0,0,1
28184000,28184000,4204000,47.3977508,8.5456073,0.04413271,-0.101281025,-2.4901052,-3.1109433e-08,4.019123e-09,-0.022775888,0.01915928,-0.032422263,0.042344265,-0.011276428,-5.1849056e-06,6.6985376e-07,0.0017844737,-0.02557918,0.009556708,0.04102755,0.0051763924,0.0,488.03537,2.5733325,4.2799416,0.39127985,0.8022409,0.13623571,inf,inf,inf,inf,0,1,0,1,1,2,1,1,0,0,1,1,0,0,1
28688000,28688000,4204000,47.3977508,8.5456073,0.038336385,-0.092281096,-2.5045881,-3.1109433e-08,4.019123e-09,-0.022775888,0.004781203,-0.02403688,0.056184288,-0.005979759,-5.1849056e-06,6.6985376e-07,0.0017844737,0.011228533,0.01353702,0.04038121,0.0056402236,0.0,488.03537,2.5878155,4.1057715,0.37039503,0.7549188,0.13201563,inf,inf,inf,inf,0,1,0,1,1,2,1,1,0,0,1,1,0,0,1
29184000,29184000,4204000,47.3977508,8.5456073,0.030318271,-0.08364932,-2.5113966,-3.1109433e-08,4.019123e-09,-0.022775888,5.635062e-05,-0.016714247,0.07268258,0.003950039,-5.1849056e-06,6.6985376e-07,0.0017844737,-0.025101282,-0.0046065394,0.10736193,0.0061464277,0.0,488.03537,2.594624,4.1087146,0.37805346,0.7420582,0.13402401,inf,inf,inf,inf,0,1,0,1,1,2,1,1,0,0,1,1,0,0,1
29688000,29688000,4204000,47.3977508,8.5456073,0.022025662,-0.07422131,-2.5104418,-3.1109433e-08,4.019123e-09,-0.022775888,-0.0048505566,-0.01374991,0.08489546,0.012434632,-5.1849056e-06,6.6985376e-07,0.0017844737,-0.0010600341,-0.015198922,0.01950655,0.006605186,0.0,488.03537,2.5936692,3.9541779,0.3845261,0.70885223,0.13567115,inf,inf,inf,inf,0,1,0,1,1,2,1,1,0,0,1,1,0,0,1
30192000,30192000,4204000,47.3977508,8.5456073,0.01233331,-0.06612945,-2.5090456,-3.1109433e-08,4.019123e-09,-0.022775888,-0.01158217,-0.014300714,0.08010077,0.0070441794,-5.1849056e-06,6.6985376e-07,0.0017844737,0.01880685,-0.025383413,-0.011344439,0.006659265,0.0,488.03537,2.592273,3.9657507,0.3933105,0.7053558,0.13772286,inf,inf,inf,inf,0,1,0,1,1,2,1,1,0,0,1,1,0,0,1
30688000,30688000,4204000,47.3977508,8.5456073,0.0023117443,-0.061938953,-2.5172904,-3.1109433e-08,4.019123e-09,-0.022775888,-0.019972883,-0.015560109,0.08317645,0.0016312569,-5.1849056e-06,6.6985376e-07,0.0017844737,-0.018386634,-0.002725559,0.024193896,0.0063889567,0.0,488.03537,2.6005177,3.973243,0.3715093,0.70436996,0.1329443,inf,inf,inf,inf,0,1,0,1,1,2,1,1,0,0,1,1,0,0,1
31184000,31184000,4204000,47.3977508,8.5456073,-0.010333341,-0.05782697,-2.5235302,-3.1109433e-08,4.019123e-09,-0.022775888,-0.029232027,-0.016019313,0.09021679,0.0017444645,-5.1849056e-06,6.6985376e-07,0.0017844737,-0.032395136,-0.03415458,0.04445668,0.0068019656,0.0,488.03537,2.6067576,3.836685,0.37933162,0.68655777,0.13475396,inf,inf,inf,inf,0,1,0,1,1,2,1,1,0,0,1,1,0,0,1
31688000,31688000,4204000,47.3977508,8.5456073,-0.026382575,-0.057045758,-2.5255165,-3.1109433e-08,4.019123e-09,-0.022775888,-0.040441148,-0.018943014,0.08916937,0.00019546482,-5.1849056e-06,6.6985376e-07,0.0017844737,-0.026162028,0.0068219667,0.05946401,0.0072985888,0.0,488.03537,2.608744,3.855711,0.38577202,0.69342434,0.13618127,inf,inf,inf,inf,0,1,0,1,1,2,1,1,0,0,1,1,0,0,1
32192000,32192000,4204000,47.3977508,8.5456073,-0.04436479,-0.057913512,-2.5261467,-3.1109433e-08,4.019123e-09,-0.022775888,-0.05119461,-0.022578405,0.09240356,0.004615745,-5.1849056e-06,6.6985376e-07,0.0017844737,-0.021707935,-0.053455874,0.020902602,0.007893844,0.0,488.03537,2.609374,3.7413847,0.39452052,0.6850917,0.1380688,inf,inf,inf,inf,0,1,0,1,1,2,1,1,0,0,1,1,0,0,1
32688000,32688000,4204000,47.3977508,8.5456073,-0.06447072,-0.06240691,-2.5368378,-3.1109433e-08,4.019123e-09,-0.022775888,-0.061337575,-0.03025164,0.09421718,-0.0024802054,-5.1849056e-06,6.6985376e-07,0.0017844737,-0.02980868,-0.033340953,0.040624287,0.008746485,0.0,488.03537,2.6200652,3.763551,0.37240225,0.6969454,0.1330925,inf,inf,inf,inf,0,1,0,1,1,2,1,1,0,0,1,1,0,0,1
33192000,33192000,4204000,47.3977508,8.5456073,-0.0870713,-0.06975809,-2.5341825,-3.1109433e-08,4.019123e-09,-0.022775888,-0.074798524,-0.034070306,0.22229598,0.121733494,-5.1849056e-06,6.6985376e-07,0.0017844737,-0.01565233,0.035216708,1.3024285,0.008967925,0.0,488.03537,2.61741,3.6648412,0.38095367,0.6947039,0.1349992,inf,inf,inf,inf,0,1,0,1,1,2,1,1,0,0,1,1,0,0,1
33688000,33688000,4204000,47.3977508,8.5456073,-0.11186863,-0.075710334,-2.2674482,-3.1109433e-08,4.019123e-09,-0.022775888,-0.08373741,-0.03961536,0.9145794,0.81555045,-5.1849056e-06,6.6985376e-07,0.0017844737,-0.053538937,-0.047129665,0.014584511,0.009315533,0.0,488.03537,2.3506756,3.6946805,0.3886234,0.7034648,0.13665946,inf,inf,inf,inf,0,1,0,1,1,2,1,1,0,0,1,1,0,0,1
34184000,34184000,4204000,47.3977508,8.5456073,-0.13472643,-0.08948875,-1.909898,-3.1109433e-08,4.019123e-09,-0.022775888,-0.08834569,-0.059505716,0.7632391,0.667571,-5.1849056e-06,6.6985376e-07,0.0017844737,-0.064238,0.011760988,0.014353543,0.009248708,0.0,488.03537,1.9931254,3.7285144,0.39377236,0.7226456,0.1377118,inf,inf,inf,inf,0,1,0,1,1,2,1,1,0,0,1,1,0,0,1
34688000,34688000,4204000,47.3977508,8.5456073,-0.15873218,-0.10723321,-1.5786197,-3.1109433e-08,4.019123e-09,-0.022775888,-0.10231499,-0.06659807,0.7817608,0.6800476,-5.1849056e-06,6.6985376e-07,0.0017844737,-0.05658589,-0.037731018,0.027419997,0.009027264,0.0,488.03537,1.6618471,3.6467347,0.37426624,0.72642845,0.13332073,inf,inf,inf,inf,0,1,0,1,1,2,1,1,0,0,1,1,0,0,1
35184000,35184000,4204000,47.3977508,8.5456073,-0.18699124,-0.124229185,-1.2377001,-3.1109433e-08,4.019123e-09,-0.022775888,-0.119183406,-0.07203491,0.79239625,0.69108254,-5.1849056e-06,6.6985376e-07,0.0017844737,-0.048392173,-0.018121805,0.024519859,0.009161671,0.0,488.03537,1.3209275,3.6905625,0.37953565,0.7465265,0.13451055,inf,inf,inf,inf,0,1,0,1,1,2,1,1,0,0,1,1,0,0,1
35688000,35688000,4204000,47.3977508,8.5456073,-0.22134617,-0.14255236,-0.8848399,-3.1109433e-08,4.019123e-09,-0.022775888,-0.13786162,-0.07864062,0.790363,0.6932379,-5.1849056e-06,6.6985376e-07,0.0017844737,-0.05715743,-0.02560063,0.02930965,0.009092664,0.0,488.03537,0.9680673,3.619987,0.3879351,0.75201327,0.13638125,inf,inf,inf,inf,0,1,0,1,1,2,1,1,0,0,1,1,0,0,1
36184000,36184000,4204000,47.3977508,8.5456073,-0.25637403,-0.16122845,-0.5367436,-3.1109433e-08,4.019123e-09,-0.022775888,-0.15774053,-0.0915457,0.7798736,0.68992966,-5.1849056e-06,6.6985376e-07,0.0017844737,-0.072612405,-0.036000576,-0.027874483,0.008806214,0.0,488.03537,0.619971,3.6728477,0.3930471,0.77325886,0.13747817,inf,inf,inf,inf,0,1,0,1,1,2,1,1,0,0,1,1,0,0,1
36688000,36688000,4204000,47.3977508,8.5456073,-0.30006698,-0.18368834,-0.1918815,-3.1109433e-08,4.019123e-09,-0.022775888,-0.18410021,-0.10056488,0.77296484,0.6836291,-5.1849056e-06,6.6985376e-07,0.0017844737,-0.055683292,-0.0025737097,0.0103591,0.008763509,0.0,488.03537,0.2751089,3.7359772,0.37372363,0.7955611,0.13319306,inf,inf,inf,inf,0,1,0,1,1,2,1,1,0,0,1,1,0,0,1
37184000,37184000,4204000,47.3977508,8.5456073,-0.34710473,-0.20553797,0.19125162,-3.1109433e-08,4.019123e-09,-0.022775888,-0.20471518,-0.10642955,1.1166997,1.0318888,-5.1849056e-06,6.6985376e-07,0.0017844737,0.009252165,-0.13574074,-4.2756553,0.009005896,0.0,488.03537,0.1,3.6708157,0.3789773,0.79470044,0.13440748,inf,inf,inf,inf,0,1,0,1,1,2,1,1,0,0,1,1,0,0,1
37688000,37688000,4204000,47.3977508,8.5456073,-0.39309123,-0.2324798,0.50234807,-3.1109433e-08,4.019123e-09,-0.022775888,-0.22097409,-0.12693898,0.792466,0.68329525,-5.1849056e-06,6.6985376e-07,0.0017844737,-0.07863485,-0.016799778,0.7396284,0.009015405,0.0,488.03537,0.1,3.7407105,0.3858054,0.8209258,0.12650497,inf,inf,inf,inf,0,1,0,1,1,2,1,1,0,0,1,1,0,0,1
38184000,38184000,4204000,47.3977508,8.5456073,-0.4412524,-0.2606058,0.7952406,-3.1109433e-08,4.019123e-09,-0.022775888,-0.24162664,-0.13748884,1.112262,0.90718126,-5.1849056e-06,6.6985376e-07,0.0017844737,-0.057037123,-0.026304098,0.53379774,0.008873367,0.0,488.03537,0.1,3.678229,0.38707727,0.8179076,0.12029223,inf,inf,inf,inf,0,1,0,1,1,2,1,1,0,0,1,1,0,0,1
38688000,38688000,4204000,47.3977508,8.5456073,-0.48350942,-0.28582254,1.088643,-3.1109433e-08,4.019123e-09,-0.022775888,-0.26534152,-0.15152104,1.3500034,0.9683944,-5.1849056e-06,6.6985376e-07,0.0017844737,-0.080436446,-0.048347995,0.5153231,0.008982535,0.0,488.03537,0.1,3.7511854,0.36411753,0.8338127,0.11245409,inf,inf,inf,inf,0,1,0,1,1,2,1,1,0,0,1,1,0,0,1
39192000,39192000,4204000,47.3977508,8.5456073,-0.53267723,-0.31350112,1.4295961,-3.1109433e-08,4.019123e-09,-0.022775888,-0.28916076,-0.15915577,1.5262977,0.9917417,-5.1849056e-06,6.6985376e-07,0.0017844737,-0.060039446,-0.0155859,0.6404286,0.009292667,0.0,488.03537,0.1,3.8265839,0.36488023,0.8499874,0.11195424,inf,inf,inf,inf,0,1,0,1,1,2,1,1,0,0,1,1,0,0,1
39688000,39688000,4204000,47.3977508,8.5456073,-0.57497793,-0.33343357,1.8121233,-3.1109433e-08,4.019123e-09,-0.022775888,-0.29713112,-0.155249,1.6353098,1.0015105,-5.1849056e-06,6.6985376e-07,0.0017844737,-0.043478332,0.002183733,0.34919566,0.009321177,0.0,488.03537,0.1,3.7607028,0.36695275,0.8444674,0.11368945,inf,inf,inf,inf,0,1,0,1,1,2,1,1,0,0,1,1,0,0,1
40192000,40192000,4204000,47.3977508,8.5456073,-0.5878451,-0.33884048,1.9674561,-3.1109433e-08,4.019123e-09,-0.022775888,-0.23833545,-0.13205911,0.9888747,0.30296904,-5.1849056e-06,6.6985376e-07,0.0017844737,-0.033805784,0.0011337105,0.015171244,0.009683259,0.0,488.03537,0.1,3.838003,0.36811176,0.86714697,0.11141162,inf,inf,inf,inf,0,1,0,1,1,2,1,1,0,0,1,1,0,0,1
40688000,40688000,4204000,47.3977508,8.5456073,-0.5880759,-0.3392557,1.9672521,-3.1109433e-08,4.019123e-09,-0.022775888,-0.23064634,-0.12907478,0.90686417,0.13844207,-5.1849056e-06,6.6985376e-07,0.0017844737,-0.025571337,-0.038033698,0.03754161,0.009882235,0.0,488.03537,0.1,3.7708626,0.34806526,0.8599528,0.10428853,inf,inf,inf,inf,0,1,0,1,1,2,1,1,0,0,1,1,0,0,1
41184000,41184000,4204000,47.3977508,8.5456073,-0.58082163,-0.33414245,1.9637668,-3.1109433e-08,4.019123e-09,-0.022775888,-0.2278558,-0.12339578,0.8339869,0.035093818,-5.1849056e-06,6.6985376e-07,0.0017844737,-0.04973511,-0.005798312,0.07082894,0.009926404,0.0,488.03537,0.10889864,3.8421657,0.3505127,0.872764,0.10323156,inf,inf,inf,inf,0,1,0,1,1,2,1,1,0,0,1,1,0,0,1
41688000,41688000,4204000,47.3977508,8.5456073,-0.5772155,-0.3284185,1.9624723,-3.1109433e-08,4.019123e-09,-0.022775888,-0.22126296,-0.11332732,0.76902056,-0.019768352,-5.1849056e-06,6.6985376e-07,0.0017844737,-0.019821351,-0.019790618,0.030862166,0.010071594,0.0,488.03537,0.119861245,3.9199607,0.35180587,0.8854019,0.104118235,inf,inf,inf,inf,0,1,0,1,1,2,1,1,0,0,1,1,0,0,1
42184000,42184000,4204000,47.3977508,8.5456073,-0.56563336,-0.3160232,1.9580226,-3.1109433e-08,4.019123e-09,-0.022775888,-0.20868395,-0.10250202,0.7106678,-0.04380347,-5.1849056e-06,6.6985376e-07,0.0017844737,-0.03402766,0.0023846512,0.052169893,0.010069009,0.0,488.03537,0.12431097,3.8445973,0.3547515,0.87314737,0.1070234,inf,inf,inf,inf,0,1,0,1,1,2,1,1,0,0,1,1,0,0,1
42688000,42688000,4204000,47.3977508,8.5456073,-0.5494142,-0.30031276,1.8850114,-3.1109433e-08,4.019123e-09,-0.022775888,-0.19643193,-0.0917384,0.6383992,-0.12777665,-5.1849056e-06,6.6985376e-07,0.0017844737,0.004830275,0.008214352,0.0446327,0.010390746,0.0,488.03537,0.19732213,3.9191487,0.33731496,0.8833887,0.108150735,inf,inf,inf,inf,0,1,0,1,1,2,1,1,0,0,1,1,0,0,1
43192000,43192000,4204000,47.3977508,8.5456073,-0.53276545,-0.2829842,1.8182933,-3.1109433e-08,4.019123e-09,-0.022775888,-0.18531485,-0.08157362,0.5742614,-0.17490582,-5.1849056e-06,6.6985376e-07,0.0017844737,-0.034417648,-0.019470854,0.043522563,0.010471446,0.0,488.03537,0.26404023,3.844145,0.34337232,0.86923456,0.11369809,inf,inf,inf,inf,0,1,0,1,1,2,1,1,0,0,1,1,0,0,1
43688000,43688000,4204000,47.3977508,8.5456073,-0.51042944,-0.26330933,1.759732,-3.1109433e-08,4.019123e-09,-0.022775888,-0.17069092,-0.07171508,0.5131794,-0.19599673,-5.1849056e-06,6.6985376e-07,0.0017844737,-0.036388967,0.01645043,0.012203119,0.010781528,0.0,488.03537,0.32260156,3.909054,0.34869105,0.87654936,0.119279414,inf,inf,inf,inf,0,1,0,1,1,2,1,1,0,0,1,1,0,0,1
44184000,44184000,4204000,47.3977508,8.5456073,-0.4914643,-0.2445054,1.7014519,-3.1109433e-08,4.019123e-09,-0.022775888,-0.16157633,-0.058334585,0.45522675,-0.19922933,-5.1849056e-06,6.6985376e-07,0.0017844737,-0.026828768,0.0077218423,0.017269513,0.010907808,0.0,488.03537,0.38088167,3.9733648,0.35737684,0.8831727,0.12527525,inf,inf,inf,inf,0,1,0,1,1,2,1,1,0,0,1,1,0,0,1
44688000,44688000,4204000,47.3977508,8.5456073,-0.4665916,-0.22163424,1.5750031,-3.1109433e-08,4.019123e-09,-0.022775888,-0.15142702,-0.048381854,0.377489,-0.27377614,-5.1849056e-06,6.6985376e-07,0.0017844737,-0.0018050049,0.013168726,0.0051241363,0.011103657,0.0,488.03537,0.5073304,3.890302,0.34489864,0.86621857,0.12687065,inf,inf,inf,inf,0,1,0,1,1,2,1,1,0,0,1,1,0,0,1
45192000,45192000,4204000,47.3977508,8.5456073,-0.10431074,-0.060786076,1.2745576,-3.1109433e-08,4.019123e-09,-0.022775888,-0.046185847,-0.008809796,0.2185874,-0.546454,-5.1849056e-06,6.6985376e-07,0.0017844737,0.004535628,0.026372042,0.025095416,0.0113459155,0.0,488.03537,0.1,0.030855384,0.3075888,0.1992071,0.09838634,inf,inf,inf,inf,0,1,0,1,1,2,1,1,0,0,1,1,0,0,1
45688000,45688000,4204000,47.3977508,8.5456073,0.057982992,0.028961187,0.9596337,-3.1109433e-08,4.019123e-09,-0.022775888,0.010904702,0.008758347,0.067412525,-0.67594945,-5.1849056e-06,6.6985376e-07,0.0017844737,-0.004956062,8.422648e-05,-0.054274682,0.011411183,0.0,488.03537,0.17107308,0.013519721,0.29039532,0.078066655,0.08704783,inf,inf,inf,inf,0,1,0,1,1,2,1,1,0,0,1,1,0,0,1
46192000,46192000,4204000,47.3977508,8.5456073,0.07514313,0.036327086,0.80477357,-3.1109433e-08,4.019123e-09,-0.022775888,0.017247492,0.005166178,-0.004829697,-0.5660996,-5.1849056e-06,6.6985376e-07,0.0017844737,-0.020330407,-0.012437012,-0.017683951,0.011454205,0.0,488.03537,0.23629189,0.017127212,0.2734784,0.0652064,0.07606587,inf,inf,inf,inf,0,1,0,1,1,2,1,1,0,0,1,1,0,0,1
46688000,46688000,4204000,47.3977508,8.5456073,0.065050974,0.02970781,0.7128891,-3.1109433e-08,4.019123e-09,-0.022775888,0.014831599,0.00023639103,-0.038247462,-0.4381824,-5.1849056e-06,6.6985376e-07,0.0017844737,0.019932862,0.00089556846,-0.025411135,0.011517466,0.0,488.03537,0.20683259,0.018941704,0.2580709,0.054843307,0.074416965,inf,inf,inf,inf,0,1,0,1,1,2,1,1,0,0,1,1,0,0,1
47184000,47184000,4204000,47.3977508,8.5456073,0.051245548,0.023185931,0.6585084,-3.1109433e-08,4.019123e-09,-0.022775888,0.008676614,0.0016713229,-0.06118234,-0.333232,-5.1849056e-06,6.6985376e-07,0.0017844737,0.014068587,0.0023924075,-0.0058235596,0.011646318,0.0,488.03537,0.21641606,0.012673434,0.25360614,0.038736023,0.07480624,inf,inf,inf,inf,0,1,0,1,1,2,1,1,0,0,1,1,0,0,1
47688000,47688000,4204000,47.3977508,8.5456073,0.039243877,0.02023226,0.62500215,-3.1109433e-08,4.019123e-09,-0.022775888,0.003822342,0.0076669618,-0.0660373,-0.24187943,-5.1849056e-06,6.6985376e-07,0.0017844737,-0.0029934451,0.026162945,-0.0015962868,0.011559067,0.0,488.03537,0.21498245,0.01487935,0.24673279,0.040752508,0.07139803,inf,inf,inf,inf,0,1,0,1,1,2,1,1,0,0,1,1,0,0,1
