timestamp,timestamp_sample,time_last_fuse,device_id,observation[0],observation[1],observation_variance[0],observation_variance[1],innovation[0],innovation[1],innovation_variance[0],innovation_variance[1],test_ratio[0],test_ratio[1],estimator_instance,fusion_enabled,innovation_rejected,fused
3408000,3289097,0,0,0.0,0.0,1.0,1.0,0.0002507359,0.00033261077,101.00009,101.0001,2.4898392e-11,4.381379e-11,0,1,0,0
3808000,3689454,0,0,0.0,0.0,1.0,1.0,8.9872294e-05,0.00019146426,1.0003365,1.0003366,3.2297245e-10,1.4658492e-09,0,1,0,0
4208000,4089670,0,0,0.0,0.0,1.0,1.0,2.1052838e-05,0.00033973574,1.0003736,1.0003736,1.7722258e-11,4.6150905e-09,0,1,0,0
4608000,4489800,0,0,0.0,0.0075268387,1.0,1.0,9.033692e-05,-0.007384815,1.0002832,1.0002832,3.2633796e-10,2.1808019e-06,0,1,0,0
5008000,4885879,0,0,0.0,0.0075268387,1.0,1.0,0.0002269722,-0.0076412885,1.0001856,1.0001856,2.0602728e-09,2.335138e-06,0,1,0,0
5408000,5289927,0,0,0.0,0.0075268387,1.0,1.0,-0.00015187496,-0.0075301817,1.0001367,1.0001367,9.2251407e-10,2.2678355e-06,0,1,0,0
5808000,5689956,0,0,0.0,0.0075268387,1.0,1.0,-0.0002657447,-0.007547193,1.0001099,1.0001099,2.824499e-09,2.2781546e-06,0,1,0,0
6208000,6089974,0,0,0.0,0.0075268387,1.0,1.0,-5.0479364e-05,-0.007535233,1.0000932,1.0000932,1.0191714e-10,2.2709778e-06,0,1,0,0
6608000,6489984,0,0,0.0,0.0075268387,1.0,1.0,-4.2794e-05,-0.007901068,1.0000817,1.0000817,7.3247075e-11,2.496871e-06,0,1,0,0
7008000,6889991,0,0,0.0,0.0075268387,1.0,1.0,-0.00031792556,-0.007844759,1.0000738,1.0000738,4.042768e-09,2.4614283e-06,0,1,0,0
7408000,7289995,0,0,0.0,0.0075268387,1.0,1.0,-0.00064339925,-0.007594887,1.0000666,1.0000666,1.65574e-08,2.3071389e-06,0,1,0,0
7808000,7689997,0,0,0.0,0.0075268387,1.0,1.0,-0.0010689338,-0.0073815268,1.0001649,1.0001649,4.5697238e-08,2.1791182e-06,0,1,0,0
8208000,8089998,0,0,0.0,0.0075268387,1.0,1.0,-0.0003335539,-0.0077562183,1.0001482,1.0001482,4.449669e-09,2.4060005e-06,0,1,0,0
8608000,8489999,8528000,0,0.0,0.0075268387,1.0,1.0,-0.00013157337,-0.007882905,1.0001342,1.0001342,6.9236916e-10,2.485274e-06,0,1,0,0
9016000,8894000,8936000,0,0.0,0.0075268387,1.0,1.0,-0.008696295,0.000398044,2.015022,2.015022,1.5012354e-06,3.1451575e-09,0,1,0,1
9408000,9290000,9328000,0,0.0,0.0075268387,1.0,1.0,-0.0046858094,0.0006448063,1.5179276,1.5179276,5.785996e-07,1.0956389e-08,0,1,0,1
9808000,9690000,9728000,0,0.0,0.0075268387,1.0,1.0,-0.004641423,-0.005461381,1.3539084,1.3539084,6.364628e-07,8.812023e-07,0,1,0,1
10208000,10090000,10128000,0,0.0,0.015053677,1.0,1.0,-0.010895464,-0.008570262,1.2736397,1.2736397,3.7282484e-06,2.306756e-06,0,1,0,1
10608000,10490000,10528000,0,0.0,0.0075268387,1.0,1.0,-0.0043023224,0.0039463914,1.2270217,1.2270218,6.034116e-07,5.0770103e-07,0,1,0,1
11008000,10890000,10928000,0,0.0,0.0075268387,1.0,1.0,-0.0041156732,0.004303551,1.197364,1.1973642,5.6586856e-07,6.1871066e-07,0,1,0,1
11408000,11290000,11328000,0,0.0,0.0075268387,1.0,1.0,-0.0007453829,-0.0019951505,1.1775357,1.177536,1.8873168e-08,1.3521881e-07,0,1,0,1
11808000,11690000,11728000,0,-0.011119492,0.0075268387,1.0,1.0,0.013997606,-0.0019633174,1.1639634,1.1639642,6.733303e-06,1.3246508e-07,0,1,0,1
12216000,12094000,12136000,0,0.0,0.0075268387,1.0,1.0,0.0011288504,-0.0023146006,1.1550679,1.1550691,4.4129116e-08,1.8552574e-07,0,1,0,1
12608000,12490000,12528000,0,0.0,0.0075268387,1.0,1.0,0.001366434,-0.0022507259,1.1481215,1.1481228,6.505033e-08,1.7648868e-07,0,1,0,1
13008000,12890000,12928000,0,0.0,0.0075268387,1.0,1.0,-0.0032512734,0.0014630738,1.1437684,1.1437699,3.6968245e-07,7.486069e-08,0,1,0,1
13408000,13290000,13328000,0,0.0,0.0075268387,1.0,1.0,0.00039367948,0.0014683534,1.1408252,1.1408267,5.4340856e-09,7.559647e-08,0,1,0,1
13808000,13690000,13728000,0,0.0,0.015053677,1.0,1.0,-0.011629879,-0.00547528,1.1388317,1.1388333,4.7506255e-06,1.0529615e-06,0,1,0,1
14208000,14090000,14128000,0,0.0,0.0,1.0,1.0,-0.014282692,0.010178161,1.1374643,1.1374657,7.1736863e-06,3.6430094e-06,0,1,0,1
14608000,14490000,14528000,0,0.0,0.0075268387,1.0,1.0,-0.008757561,0.001853867,1.1365045,1.1365058,2.699325e-06,1.2096102e-07,0,1,0,1
15008000,14890000,14928000,0,0.0,0.0075268387,1.0,1.0,-0.0036957294,-0.0019594748,1.1358076,1.1358086,4.8101157e-07,1.352179e-07,0,1,0,1
15408000,15290000,15328000,0,0.0,0.0075268387,1.0,1.0,0.004974732,-0.001634635,1.1352763,1.1352774,8.719625e-07,9.414551e-08,0,1,0,1
15808000,15690000,15728000,0,0.0,0.0,1.0,1.0,0.00031922414,0.0022610365,1.1348518,1.1348528,3.591801e-09,1.8019205e-07,0,1,0,1
16208000,16090000,16128000,0,0.0,0.0,1.0,1.0,0.0008397999,0.0024956798,1.1344954,1.1344962,2.486617e-08,2.1960118e-07,0,1,0,1
16608000,16490000,16528000,0,0.0,0.0075268387,1.0,1.0,0.0014609991,-0.0009834389,1.1341803,1.134181,7.5279694e-08,3.4109267e-08,0,1,0,1
17008000,16890000,16928000,0,0.0,0.0075268387,1.0,1.0,0.0017917043,-0.0009688698,1.1338905,1.1338913,1.13245655e-07,3.311459e-08,0,1,0,1
17408000,17290000,17328000,0,0.0,0.0075268387,1.0,1.0,0.0023702483,-0.0008888142,1.1336163,1.133617,1.9823557e-07,2.7875048e-08,0,1,0,1
17808000,17690000,17728000,0,0.0,0.0075268387,1.0,1.0,0.0020140032,-0.00087414356,1.1333517,1.1333524,1.43158e-07,2.6968733e-08,0,1,0,1
18208000,18090000,18128000,0,0.0,0.0075268387,1.0,1.0,-0.0015728243,-0.004285001,1.1330903,1.1330909,8.732848e-08,6.481823e-07,0,1,0,1
18608000,18490000,18528000,0,0.0,0.0,1.0,1.0,-0.00013856927,0.004408204,1.1328307,1.1328312,6.779987e-10,6.8614855e-07,0,1,0,1
19008000,18890000,18928000,0,0.0,0.0075268387,1.0,1.0,0.0013023826,-0.0032228897,1.1325719,1.1325725,5.990614e-08,3.6684688e-07,0,1,0,1
19408000,19290000,19328000,0,0.0,0.0075268387,1.0,1.0,-0.0025330072,-0.0027229819,1.1323174,1.132318,2.2665465e-07,2.6192748e-07,0,1,0,1
19808000,19690000,19728000,0,-0.022238987,0.0,1.0,1.0,0.004747685,-0.0077104275,1.1321081,1.1321084,7.9640853e-07,2.1005299e-06,0,1,0,1
20208000,20090000,20128000,0,-0.10007543,-0.06774155,1.0,1.0,0.020929255,-0.0016475618,1.1319536,1.1319538,1.5478858e-05,9.592122e-08,0,1,0,1
20608000,20490000,20528000,0,-0.18903138,-0.12795626,1.0,1.0,0.023452297,0.00036157668,1.131721,1.1317213,1.9439782e-05,4.620844e-09,0,1,0,1
21008000,20890000,20928000,0,-0.23350935,-0.16559047,1.0,1.0,0.025964066,-0.0013852715,1.1314893,1.1314895,2.3831697e-05,6.7838975e-08,0,1,0,1
21408000,21290000,21328000,0,-0.23350935,-0.16559047,1.0,1.0,0.017300203,-0.0024056286,1.1312479,1.1312482,1.05828985e-05,2.0462525e-07,0,1,0,1
21808000,21686000,21728000,0,-0.21127036,-0.14300995,1.0,1.0,0.010075569,-0.0069198012,1.1309993,1.1309999,3.5903504e-06,1.6934979e-06,0,1,0,1
22208000,22090000,22128000,0,-0.17791188,-0.12042942,1.0,1.0,0.010211498,-0.0011706948,1.1307458,1.1307467,3.6887047e-06,4.8482175e-08,0,1,0,1
22608000,22490000,22528000,0,-0.122314416,-0.082795225,1.0,1.0,-0.0050449744,-0.0065182373,1.1300695,1.1300706,9.008921e-07,1.5038854e-06,0,1,0,1
23008000,22890000,22928000,0,-0.08895594,-0.04516103,1.0,1.0,0.00405515,-0.005932074,1.1301966,1.1301972,5.819958e-07,1.2454288e-06,0,1,0,1
23408000,23290000,23328000,0,-0.05559746,-0.022580516,1.0,1.0,0.014270667,0.0050398298,1.1314712,1.1314713,7.1995446e-06,8.9794185e-07,0,1,0,1
23808000,23690000,23728000,0,-0.033358477,-0.0075268387,1.0,1.0,0.016022535,0.0131552415,1.1329877,1.1329873,9.063527e-06,6.109879e-06,0,1,0,1
24208000,24090000,24128000,0,-0.022238987,0.0,1.0,1.0,0.018240126,0.01974136,1.1340258,1.1340252,1.173526e-05,1.3746478e-05,0,1,0,1
24608000,24490000,24528000,0,-0.022238987,-0.015053677,1.0,1.0,0.0062687546,0.02217496,1.1346011,1.1346005,1.3854132e-06,1.7335751e-05,0,1,0,1
25008000,24890000,24928000,0,-0.022238987,-0.022580516,1.0,1.0,0.0013565626,0.014345516,1.1348706,1.13487,6.486244e-08,7.2534767e-06,0,1,0,1
25408000,25290000,25328000,0,-0.033358477,-0.030107355,1.0,1.0,0.013567068,0.009789396,1.1349491,1.1349486,6.4871747e-06,3.377502e-06,0,1,0,1
25808000,25694000,25728000,0,-0.033358477,-0.037634194,1.0,1.0,0.012407443,0.019508936,1.1348989,1.1348984,5.4258444e-06,1.3414366e-05,0,1,0,1
26208000,26090000,26128000,0,-0.033358477,-0.037634194,1.0,1.0,0.0106889345,0.013754254,1.1347549,1.1347544,4.0274185e-06,6.6685625e-06,0,1,0,1
26608000,26490000,26528000,0,-0.022238987,-0.030107355,1.0,1.0,0.012344101,0.005784517,1.1345407,1.1345403,5.372283e-06,1.1797073e-06,0,1,0,1
27008000,26890000,26928000,0,-0.022238987,-0.015053677,1.0,1.0,0.012808285,0.003673276,1.1342697,1.1342694,5.785296e-06,4.7582898e-07,0,1,0,1
27408000,27290000,27328000,0,-0.011119492,-0.0075268387,1.0,1.0,0.002974148,-0.0011257515,1.1339523,1.133952,3.1202566e-07,4.4704414e-08,0,1,0,1
27808000,27690000,27728000,0,0.0,-0.0075268387,1.0,1.0,-0.005226743,0.010633407,1.1335952,1.1335951,9.639717e-07,3.9897614e-06,0,1,0,1
28208000,28090000,28128000,0,0.0,0.0,1.0,1.0,0.0027874988,0.016506018,1.1332041,1.1332042,2.7427186e-07,9.616931e-06,0,1,0,1
28608000,28490000,28528000,0,0.0,0.0075268387,1.0,1.0,0.0011504884,0.004194369,1.1327845,1.1327847,4.673876e-08,6.212207e-07,0,1,0,1
29008000,28890000,28928000,0,0.0,0.015053677,1.0,1.0,0.007817771,-0.0009932797,1.132342,1.1323422,2.1589785e-06,3.485182e-08,0,1,0,1
29408000,29290000,29328000,0,0.011119493,0.015053677,1.0,1.0,-0.002058316,-0.0015841592,1.1318849,1.1318853,1.497207e-07,8.868603e-08,0,1,0,1
29808000,29690000,29728000,0,0.011119493,0.015053677,1.0,1.0,-0.007194737,0.0015469836,1.1314199,1.1314205,1.830063e-06,8.46072e-08,0,1,0,1
30208000,30090000,30128000,0,0.0,0.015053677,1.0,1.0,0.0039377715,-0.0003430508,1.1309559,1.1309566,5.484226e-07,4.1622763e-09,0,1,0,1
30608000,30490000,30528000,0,0.011119493,0.030107355,1.0,1.0,-0.0076965718,-0.0052745566,1.1304984,1.1304994,2.095968e-06,9.843773e-07,0,1,0,1
31008000,30890000,30928000,0,0.011119493,0.030107355,1.0,1.0,-0.011432114,-0.0066013318,1.1300557,1.1300569,4.626081e-06,1.5424916e-06,0,1,0,1
31408000,31290000,31328000,0,0.011119493,0.037634194,1.0,1.0,-0.01034021,-0.008335926,1.1296355,1.1296369,3.7859982e-06,2.4605306e-06,0,1,0,1
31808000,31690000,31728000,0,0.0,0.037634194,1.0,1.0,-0.0019367898,-0.009806102,1.1292466,1.1292481,1.3287284e-07,3.4061475e-06,0,1,0,1
32208000,32090000,32128000,0,0.0,0.037634194,1.0,1.0,-0.0051072068,-0.0038837045,1.1288939,1.1288956,9.242166e-07,5.344395e-07,0,1,0,1
32608000,32490000,32528000,0,-0.011119492,0.04516103,1.0,1.0,0.004321345,-0.013504975,1.1285824,1.1285843,6.618577e-07,6.4641813e-06,0,1,0,1
33008000,32890000,32928000,0,-0.011119492,0.052687872,1.0,1.0,0.0042138384,-0.018437348,1.1283159,1.1283178,6.2948453e-07,1.2051066e-05,0,1,0,1
33408000,33290000,33328000,0,-0.022238985,0.052687872,1.0,1.0,0.004374573,-0.016567286,1.128069,1.128071,6.7857155e-07,9.732542e-06,0,1,0,1
33808000,33690000,33728000,0,-0.033358477,0.052687872,1.0,1.0,0.00817251,-0.014132794,1.1277839,1.1277858,2.3688908e-06,7.0841775e-06,0,1,0,1
34208000,34090000,34128000,0,-0.033358477,0.06774155,1.0,1.0,0.010474715,-0.028444927,1.1276509,1.1276528,3.891973e-06,2.8700819e-05,0,1,0,1
34608000,34490000,34528000,0,-0.04447797,0.07526839,1.0,1.0,0.022248112,-0.025049917,1.1275527,1.1275545,1.755939e-05,2.2260507e-05,0,1,0,1
35008000,34890000,34928000,0,-0.04447797,0.09032206,1.0,1.0,0.020951902,-0.037687678,1.1275012,1.1275029,1.557363e-05,5.0389623e-05,0,1,0,1
35408000,35290000,35328000,0,-0.05559746,0.09784891,1.0,1.0,0.03140194,-0.037699986,1.127492,1.1274934,3.4983197e-05,5.0422965e-05,0,1,0,1
35808000,35690000,35728000,0,-0.066716954,0.105375744,1.0,1.0,0.036849506,-0.04109752,1.1275187,1.1275198,4.8172547e-05,5.9919348e-05,0,1,0,1
36208000,36090000,36128000,0,-0.066716954,0.11290258,1.0,1.0,0.031593043,-0.037199847,1.1275728,1.1275737,3.540775e-05,4.9090493e-05,0,1,0,1
36608000,36490000,36528000,0,-0.07783645,0.12042942,1.0,1.0,0.04101328,-0.035299636,1.1276464,1.127647,5.9667258e-05,4.420051e-05,0,1,0,1
37008000,36890000,36928000,0,-0.08895594,0.12042942,1.0,1.0,0.046177182,-0.036833934,1.1277314,1.1277318,7.563262e-05,4.8122747e-05,0,1,0,1
37408000,37290000,37328000,0,-0.07783645,0.12042942,1.0,1.0,0.03199112,-0.037243128,1.1277802,1.1277802,3.6298978e-05,4.9195776e-05,0,1,0,1
37808000,37690000,37728000,0,-0.07783645,0.12042942,1.0,1.0,0.027392507,-0.037300065,1.1282374,1.1282369,2.6602538e-05,4.9326336e-05,0,1,0,1
38208000,38090000,38128000,0,-0.07783645,0.11290258,1.0,1.0,0.029900685,-0.032279655,1.1292665,1.1292655,3.166838e-05,3.6908103e-05,0,1,0,1
38608000,38490000,38528000,0,-0.066716954,0.105375744,1.0,1.0,0.020147637,-0.022074446,1.1306831,1.130682,1.4360426e-05,1.7238488e-05,0,1,0,1
39008000,38890000,38928000,0,-0.05559746,0.09784891,1.0,1.0,0.020055804,-0.01765345,1.1320198,1.1320187,1.4213013e-05,1.10119845e-05,0,1,0,1
39408000,39290000,39328000,0,-0.033358477,0.082795225,1.0,1.0,0.007051641,-0.018205062,1.133029,1.1330281,1.755494e-06,1.1700477e-05,0,1,0,1
39808000,39690000,39728000,0,-0.022238985,0.06021471,1.0,1.0,0.010055788,0.004857514,1.1336911,1.1336905,3.5677751e-06,8.3251797e-07,0,1,0,1
40208000,40090000,40128000,0,-0.022238985,0.06021471,1.0,1.0,0.006285889,0.0150122605,1.1339768,1.133976,1.3937639e-06,7.949656e-06,0,1,0,1
40608000,40490000,40528000,0,-0.022238985,0.06021471,1.0,1.0,0.00032869913,0.013431754,1.1338657,1.1338649,3.811496e-09,6.3644975e-06,0,1,0,1
41008000,40886000,40928000,0,-0.022238985,0.06021471,1.0,1.0,-0.0004932638,0.01623838,1.1338929,1.1338919,8.583146e-09,9.301944e-06,0,1,0,1
41408000,41290000,41328000,0,-0.022238985,0.06021471,1.0,1.0,-0.005268896,0.014117848,1.1339939,1.1339926,9.792386e-07,7.0305096e-06,0,1,0,1
41808000,41690000,41728000,0,-0.022238985,0.06021471,1.0,1.0,-0.005346315,0.007875677,1.1341108,1.1341095,1.0081231e-06,2.1876651e-06,0,1,0,1
42208000,42090000,42128000,0,-0.022238985,0.06021471,1.0,1.0,-0.009470195,0.006981831,1.134198,1.1341966,3.1629256e-06,1.7191363e-06,0,1,0,1
42608000,42490000,42528000,0,-0.022238985,0.06021471,1.0,1.0,-0.008410584,0.0017210059,1.134231,1.1342298,2.4946569e-06,1.0445366e-07,0,1,0,1
43008000,42890000,42928000,0,-0.011119492,0.06021471,1.0,1.0,-0.023321416,0.0012587681,1.1342032,1.134202,1.9181341e-05,5.58806e-08,0,1,0,1
43408000,43290000,43328000,0,-0.011119492,0.06021471,1.0,1.0,-0.024871837,0.00077671185,1.1341174,1.1341163,2.1818141e-05,2.1277582e-08,0,1,0,1
43808000,43690000,43728000,0,-0.022238985,0.06021471,1.0,1.0,-0.0064655785,0.0010070018,1.1339808,1.1339797,1.4745826e-06,3.57697e-08,0,1,0,1
44208000,44090000,44128000,0,-0.022238985,0.06021471,1.0,1.0,-0.0067911223,-0.0039413683,1.1337999,1.1337988,1.6270716e-06,5.480473e-07,0,1,0,1
44608000,44490000,44528000,0,-0.011119492,0.06021471,1.0,1.0,-0.017369645,-0.004203528,1.1335812,1.1335802,1.0646068e-05,6.2349886e-07,0,1,0,1
45008000,44890000,44928000,0,-0.022238985,0.06021471,1.0,1.0,-0.00016605482,-0.0046459585,1.1333297,1.1333288,9.732102e-10,7.6182414e-07,0,1,0,1
45408000,45290000,45328000,0,-0.022238985,0.06021471,1.0,1.0,0.0037656613,-0.008618958,1.1330498,1.1330488,5.0060305e-07,2.622533e-06,0,1,0,1
45808000,45690000,45728000,0,-0.011119492,0.06021471,1.0,1.0,-0.0037002172,-0.00891703,1.1327465,1.1327455,4.834836e-07,2.8078125e-06,0,1,0,1
46208000,46090000,46128000,0,-0.022238985,0.06021471,1.0,1.0,0.008447727,-0.0045113713,1.1324239,1.1324229,2.5207555e-06,7.1889997e-07,0,1,0,1
46608000,46490000,46528000,0,-0.022238985,0.06021471,1.0,1.0,0.008109723,-0.008552127,1.1320858,1.132085,2.3237678e-06,2.5842185e-06,0,1,0,1
47008000,46890000,46928000,0,-0.022238985,0.06021471,1.0,1.0,0.008586078,-0.0010177493,1.1317384,1.1317376,2.6055752e-06,3.6609674e-08,0,1,0,1
47408000,47290000,47328000,0,-0.022238985,0.06021471,1.0,1.0,0.008056702,-0.006241899,1.131386,1.1313852,2.2949e-06,1.3774726e-06,0,1,0,1
47808000,47690000,47728000,0,-0.022238985,0.06021471,1.0,1.0,0.014842761,-0.003725864,1.131033,1.1310322,7.791375e-06,4.9095195e-07,0,1,0,1
