timestamp,timestamp_sample,gps_hvel[0],gps_hvel[1],gps_vvel,gps_hpos[0],gps_hpos[1],gps_vpos,ev_hvel[0],ev_hvel[1],ev_vvel,ev_hpos[0],ev_hpos[1],ev_vpos,rng_vpos,baro_vpos,aux_hvel[0],aux_hvel[1],aux_vvel,flow[0],flow[1],terr_flow[0],terr_flow[1],heading,mag_field[0],mag_field[1],mag_field[2],gravity[0],gravity[1],gravity[2],drag[0],drag[1],airspeed,beta,hagl,hagl_rate
3264000,3184000,0.0,0.0,0.0,0.0,0.0,0.0,0.0,0.0,0.0,0.0,0.0,0.0,0.0,0.0,0.0,0.0,nan,0.0,0.0,0.0,0.0,0.0,0.0,0.0,0.0,1.979836,1.9800458,1.0010271,0.0,0.0,0.0,0.0,0.0,0.0
3272000,3192000,0.0,0.0,0.0,0.0,0.0,0.0,0.0,0.0,0.0,0.0,0.0,0.0,0.0,112.451,0.0,0.0,nan,0.0,0.0,0.0,0.0,0.0,0.0,0.0,0.0,1.9825615,1.9828346,1.0010326,0.0,0.0,0.0,0.0,0.0,0.0
3280000,3200000,0.0,0.0,0.0,0.0,0.0,0.0,0.0,0.0,0.0,0.0,0.0,0.0,0.0,112.451,0.0,0.0,nan,0.0,0.0,0.0,0.0,0.0,0.0,0.0,0.0,1.9846363,1.9849167,1.0010378,0.0,0.0,0.0,0.0,0.0,0.0
3288000,3208000,0.0,0.0,0.0,0.0,0.0,0.0,0.0,0.0,0.0,0.0,0.0,0.0,0.0,112.451,0.0,0.0,nan,0.0,0.0,0.0,0.0,0.0,0.0,0.0,0.0,1.9884146,1.9885266,1.0164795,0.0,0.0,0.0,0.0,0.0,0.0
3296000,3216000,0.0,0.0,0.0,0.0,0.0,0.0,0.0,0.0,0.0,0.0,0.0,0.0,0.0,112.451,0.0,0.0,nan,0.0,0.0,0.0,0.0,0.0,0.0,0.0,0.0,1.9895525,1.9897221,1.0143383,0.0,0.0,0.0,0.0,0.0,0.0
3304000,3224000,0.0,0.0,0.0,0.0,0.0,0.0,0.0,0.0,0.0,0.0,0.0,0.0,0.0,112.451,0.0,0.0,nan,0.0,0.0,0.0,0.0,0.0,0.0,0.0,0.0,1.9911696,1.9913808,1.0126729,0.0,0.0,0.0,0.0,0.0,0.0
3312000,3232000,0.0,0.0,0.0,0.0,0.0,0.0,0.0,0.0,0.0,0.0,0.0,0.0,0.0,112.451,0.0,0.0,nan,0.0,0.0,0.0,0.0,0.0,0.0,0.0,0.0,1.9931822,1.9934242,1.0113488,0.0,0.0,0.0,0.0,0.0,0.0
3320000,3240000,0.0,0.0,0.0,0.0,0.0,0.0,0.0,0.0,0.0,0.0,0.0,0.0,0.0,112.451,0.0,0.0,nan,0.0,0.0,0.0,0.0,0.0,0.0,0.0,0.0,1.995536,1.9958053,1.0102813,0.0,0.0,0.0,0.0,0.0,0.0
3328000,3248000,0.0,0.0,0.0,0.0,0.0,0.0,0.0,0.0,0.0,0.0,0.0,0.0,0.0,112.451,0.0,0.0,nan,0.0,0.0,0.0,0.0,0.0,0.0,0.0,0.0,1.9981983,1.9984912,1.0094168,0.0,0.0,0.0,0.0,0.0,0.0
3336000,3256000,0.0,0.0,0.0,0.0,0.0,0.0,0.0,0.0,0.0,0.0,0.0,0.0,0.0,112.25,0.0,0.0,nan,0.0,0.0,0.0,0.0,0.0,0.0,0.0,0.0,2.001145,2.0014596,1.008716,0.0,0.0,0.0,0.0,0.0,0.0
3344000,3264000,0.0,0.0,0.0,0.0,0.0,0.0,0.0,0.0,0.0,0.0,0.0,0.0,0.0,112.25,0.0,0.0,nan,0.0,0.0,0.0,0.0,0.0,0.0,0.0,0.0,2.00436,2.0046923,1.0081519,0.0,0.0,0.0,0.0,0.0,0.0
3352000,3272000,0.0,0.0,0.0,0.0,0.0,0.0,0.0,0.0,0.0,0.0,0.0,0.0,0.0,112.25,0.0,0.0,nan,0.0,0.0,0.0,0.0,0.0,0.0,0.0,0.0,2.007828,2.0081775,1.007702,0.0,0.0,0.0,0.0,0.0,0.0
3360000,3280000,0.0,0.0,0.0,0.0,0.0,0.0,0.0,0.0,0.0,0.0,0.0,0.0,0.0,112.25,0.0,0.0,nan,0.0,0.0,0.0,0.0,0.0,0.0,0.0,0.0,2.0115392,2.0119035,1.0073472,0.0,0.0,0.0,0.0,0.0,0.0
3368000,3288000,0.0,0.0,0.0,0.0,0.0,0.0,0.0,0.0,0.0,0.0,0.0,0.0,0.0,112.25,0.0,0.0,nan,0.0,0.0,0.0,0.0,0.0,0.0,0.0,0.0,2.015485,2.0158598,1.0070734,0.0,0.0,0.0,0.0,0.0,0.0
3376000,3296000,0.0,0.0,0.0,0.0,0.0,0.0,0.0,0.0,0.0,0.0,0.0,0.0,0.0,112.25,0.0,0.0,nan,0.0,0.0,0.0,0.0,0.0,0.0,0.0,0.0,2.0196552,2.0200386,1.0068673,0.0,0.0,0.0,0.0,0.0,0.0
3384000,3304000,0.0,0.0,0.0,0.0,0.0,0.0,0.0,0.0,0.0,0.0,0.0,0.0,0.0,112.25,0.0,0.0,nan,0.0,0.0,0.0,0.0,0.0,0.0,0.0,0.0,2.024043,2.0244339,1.0067145,0.0,0.0,0.0,0.0,0.0,0.0
3392000,3312000,0.0,0.0,0.0,0.0,0.0,0.0,0.0,0.0,0.0,0.0,0.0,0.0,0.0,112.25,0.0,0.0,nan,0.0,0.0,0.0,0.0,0.0,0.0,0.0,0.0,2.0286436,2.0290384,1.0066063,0.0,0.0,0.0,0.0,0.0,0.0
3400000,3320000,0.0,0.0,0.0,0.0,0.0,0.0,0.0,0.0,0.0,0.0,0.0,0.0,0.0,112.25,0.0,0.0,nan,0.0,0.0,0.0,0.0,0.0,0.0,0.0,0.0,2.0334525,2.033847,1.0065335,0.0,0.0,0.0,0.0,0.0,0.0
3408000,3328000,0.10889597,0.10885313,0.20386402,101.00009,101.0001,101.0,0.0,0.0,0.0,0.0,0.0,0.0,0.0,112.25,0.0,0.0,nan,0.0,0.0,0.0,0.0,0.0,0.0,0.0,0.0,2.0384634,2.038856,1.0064867,0.0,0.0,0.0,0.0,0.0,0.0
3416000,3336000,0.10889597,0.10885313,0.20386402,101.00009,101.0001,101.0,0.0,0.0,0.0,0.0,0.0,0.0,0.0,112.25,0.0,0.0,nan,0.0,0.0,0.0,0.0,0.0,0.0,0.0,0.0,2.0436735,2.0440621,1.00646,0.0,0.0,0.0,0.0,0.0,0.0
3424000,3344000,0.10889597,0.10885313,0.20386402,101.00009,101.0001,101.0,0.0,0.0,0.0,0.0,0.0,0.0,0.0,112.25,0.0,0.0,nan,0.0,0.0,0.0,0.0,0.0,0.0,0.0,0.0,2.04908,2.049461,1.0064479,0.0,0.0,0.0,0.0,0.0,0.0
3432000,3352000,0.10889597,0.10885313,0.20386402,101.00009,101.0001,101.0,0.0,0.0,0.0,0.0,0.0,0.0,0.0,112.25,0.0,0.0,nan,0.0,0.0,0.0,0.0,0.0,0.0,0.0,0.0,2.0546808,2.0550525,1.006445,0.0,0.0,0.0,0.0,0.0,0.0
3440000,3360000,0.10889597,0.10885313,0.20386402,101.00009,101.0001,101.0,0.0,0.0,0.0,0.0,0.0,0.0,0.0,112.25,0.0,0.0,nan,0.0,0.0,0.0,0.0,0.0,0.0,0.0,0.0,2.0604737,2.0608342,1.0064483,0.0,0.0,0.0,0.0,0.0,0.0
3448000,3368000,0.10889597,0.10885313,0.20386402,101.00009,101.0001,101.0,0.0,0.0,0.0,0.0,0.0,0.0,0.0,112.25,0.0,0.0,nan,0.0,0.0,0.0,0.0,0.0,0.0,0.0,0.0,2.0664585,2.0668054,1.006454,0.0,0.0,0.0,0.0,0.0,0.0
3456000,3376000,0.10889597,0.10885313,0.20386402,101.00009,101.0001,101.0,0.0,0.0,0.0,0.0,0.0,0.0,0.0,62.25,0.0,0.0,nan,0.0,0.0,0.0,0.0,0.0,0.0,0.0,0.0,2.0726323,2.0729642,1.0064608,0.0,0.0,0.0,0.0,0.0,0.0
3464000,3384000,0.10889597,0.10885313,0.20386402,101.00009,101.0001,101.0,0.0,0.0,0.0,0.0,0.0,0.0,0.0,62.25,0.0,0.0,nan,0.0,0.0,0.0,0.0,0.0,0.0,0.0,0.0,2.0789976,2.0793118,1.0064675,0.0,0.0,0.0,0.0,0.0,0.0
3472000,3392000,0.10889597,0.10885313,0.20386402,101.00009,101.0001,101.0,0.0,0.0,0.0,0.0,0.0,0.0,0.0,62.25,0.0,0.0,nan,0.0,0.0,0.0,0.0,0.0,0.0,0.0,0.0,2.0855534,2.0858488,1.0064712,0.0,0.0,0.0,0.0,0.0,0.0
3480000,3400000,0.10889597,0.10885313,0.20386402,101.00009,101.0001,101.0,0.0,0.0,0.0,0.0,0.0,0.0,0.0,62.25,0.0,0.0,nan,0.0,0.0,0.0,0.0,0.0,0.0,0.0,0.0,2.0922987,2.092574,1.0064719,0.0,0.0,0.0,0.0,0.0,0.0
3488000,3408000,0.10889597,0.10885313,0.20386402,101.00009,101.0001,101.0,0.0,0.0,0.0,0.0,0.0,0.0,0.0,62.25,0.0,0.0,nan,0.0,0.0,0.0,0.0,0.0,0.0,0.0,0.0,1.0799922,1.0799103,1.0060654,0.0,0.0,0.0,0.0,0.0,0.0
3496000,3416000,0.10889597,0.10885313,0.20386402,101.00009,101.0001,101.0,0.0,0.0,0.0,0.0,0.0,0.0,0.0,62.25,0.0,0.0,nan,0.0,0.0,0.0,0.0,0.100117624,0.0,0.0,0.0,1.0828978,1.0828177,1.0060748,0.0,0.0,0.0,0.0,0.0,0.0
3504000,3424000,0.10889597,0.10885313,0.20386402,101.00009,101.0001,101.0,0.0,0.0,0.0,0.0,0.0,0.0,0.0,62.25,0.0,0.0,nan,0.0,0.0,0.0,0.0,0.100117624,0.0,0.0,0.0,1.0829903,1.0829104,1.006075,0.0,0.0,0.0,0.0,0.0,0.0
3512000,3432000,0.10889597,0.10885313,0.20386402,101.00009,101.0001,101.0,0.0,0.0,0.0,0.0,0.0,0.0,0.0,62.249985,0.0,0.0,nan,0.0,0.0,0.0,0.0,0.100117624,0.0,0.0,0.0,1.0832641,1.0831844,1.0060754,0.0,0.0,0.0,0.0,0.0,0.0
3520000,3440000,0.10889597,0.10885313,0.20386402,101.00009,101.0001,101.0,0.0,0.0,0.0,0.0,0.0,0.0,0.0,62.249985,0.0,0.0,nan,0.0,0.0,0.0,0.0,0.100117624,0.0,0.0,0.0,1.0837193,1.0836396,1.0060759,0.0,0.0,0.0,0.0,0.0,0.0
3528000,3448000,0.10889597,0.10885313,0.20386402,101.00009,101.0001,101.0,0.0,0.0,0.0,0.0,0.0,0.0,0.0,62.249985,0.0,0.0,nan,0.0,0.0,0.0,0.0,0.100117624,0.0,0.0,0.0,1.0843556,1.0842761,1.0060765,0.0,0.0,0.0,0.0,0.0,0.0
3536000,3456000,0.10889597,0.10885313,0.20386402,101.00009,101.0001,101.0,0.0,0.0,0.0,0.0,0.0,0.0,0.0,62.249985,0.0,0.0,nan,0.0,0.0,0.0,0.0,0.100117624,0.0,0.0,0.0,1.0851731,1.085094,1.0060773,0.0,0.0,0.0,0.0,0.0,0.0
3544000,3464000,0.10889597,0.10885313,0.20386402,101.00009,101.0001,101.0,0.0,0.0,0.0,0.0,0.0,0.0,0.0,62.249985,0.0,0.0,nan,0.0,0.0,0.0,0.0,0.100117624,0.0,0.0,0.0,1.0861719,1.086093,1.0060781,0.0,0.0,0.0,0.0,0.0,0.0
3552000,3472000,0.10889597,0.10885313,0.20386402,101.00009,101.0001,101.0,0.0,0.0,0.0,0.0,0.0,0.0,0.0,62.249985,0.0,0.0,nan,0.0,0.0,0.0,0.0,0.100117624,0.0,0.0,0.0,1.087352,1.0872735,1.0060794,0.0,0.0,0.0,0.0,0.0,0.0
3560000,3480000,0.10889597,0.10885313,0.20386402,101.00009,101.0001,101.0,0.0,0.0,0.0,0.0,0.0,0.0,0.0,62.249985,0.0,0.0,nan,0.0,0.0,0.0,0.0,0.09911463,0.0,0.0,0.0,1.0887133,1.0886352,1.0060799,0.0,0.0,0.0,0.0,0.0,0.0
3568000,3488000,0.10889597,0.10885313,0.20386402,101.00009,101.0001,101.0,0.0,0.0,0.0,0.0,0.0,0.0,0.0,62.249985,0.0,0.0,nan,0.0,0.0,0.0,0.0,0.09911463,0.0,0.0,0.0,1.0902559,1.0901783,1.0060813,0.0,0.0,0.0,0.0,0.0,0.0
3576000,3496000,0.10889597,0.10885313,0.20386402,101.00009,101.0001,101.0,0.0,0.0,0.0,0.0,0.0,0.0,0.0,62.249985,0.0,0.0,nan,0.0,0.0,0.0,0.0,0.09911463,0.0,0.0,0.0,1.0919797,1.0919024,1.0060831,0.0,0.0,0.0,0.0,0.0,0.0
3584000,3504000,0.10889597,0.10885313,0.20386402,101.00009,101.0001,101.0,0.0,0.0,0.0,0.0,0.0,0.0,0.0,62.249985,0.0,0.0,nan,0.0,0.0,0.0,0.0,0.09911463,0.0,0.0,0.0,1.0938846,1.0938079,1.0060848,0.0,0.0,0.0,0.0,0.0,0.0
3592000,3512000,0.10889597,0.10885313,0.20386402,101.00009,101.0001,101.0,0.0,0.0,0.0,0.0,0.0,0.0,0.0,62.249985,0.0,0.0,nan,0.0,0.0,0.0,0.0,0.09911463,0.0,0.0,0.0,1.095971,1.095895,1.0060867,0.0,0.0,0.0,0.0,0.0,0.0
3600000,3520000,0.10889597,0.10885313,0.20386402,101.00009,101.0001,101.0,0.0,0.0,0.0,0.0,0.0,0.0,0.0,62.249985,0.0,0.0,nan,0.0,0.0,0.0,0.0,0.09911463,0.0,0.0,0.0,1.0982386,1.0981631,1.006089,0.0,0.0,0.0,0.0,0.0,0.0
3608000,3528000,0.10889597,0.10885313,0.20386402,101.00009,101.0001,101.0,0.0,0.0,0.0,0.0,0.0,0.0,0.0,62.249985,0.0,0.0,nan,0.0,0.0,0.0,0.0,0.09911463,0.0,0.0,0.0,1.1006873,1.1006128,1.0060912,0.0,0.0,0.0,0.0,0.0,0.0
3616000,3536000,0.10889597,0.10885313,0.20386402,101.00009,101.0001,101.0,0.0,0.0,0.0,0.0,0.0,0.0,0.0,62.249985,0.0,0.0,nan,0.0,0.0,0.0,0.0,0.09911463,0.0,0.0,0.0,1.1033175,1.1032437,1.0060936,0.0,0.0,0.0,0.0,0.0,0.0
3624000,3544000,0.10889597,0.10885313,0.20386402,101.00009,101.0001,101.0,0.0,0.0,0.0,0.0,0.0,0.0,0.0,62.249985,0.0,0.0,nan,0.0,0.0,0.0,0.0,0.09911463,0.0,0.0,0.0,1.1061287,1.1060559,1.0060961,0.0,0.0,0.0,0.0,0.0,0.0
3632000,3552000,0.10889597,0.10885313,0.20386402,101.00009,101.0001,101.0,0.0,0.0,0.0,0.0,0.0,0.0,0.0,62.249985,0.0,0.0,nan,0.0,0.0,0.0,0.0,0.098340444,0.0,0.0,0.0,1.1091213,1.1090492,1.0060986,0.0,0.0,0.0,0.0,0.0,0.0
3640000,3560000,0.10889597,0.10885313,0.20386402,101.00009,101.0001,101.0,0.0,0.0,0.0,0.0,0.0,0.0,0.0,62.249985,0.0,0.0,nan,0.0,0.0,0.0,0.0,0.098340444,0.0,0.0,0.0,1.1122952,1.1122239,1.0061015,0.0,0.0,0.0,0.0,0.0,0.0
3648000,3568000,0.10889597,0.10885313,0.20386402,101.00009,101.0001,101.0,0.0,0.0,0.0,0.0,0.0,0.0,0.0,62.249985,0.0,0.0,nan,0.0,0.0,0.0,0.0,0.098340444,0.0,0.0,0.0,1.1156499,1.11558,1.0061046,0.0,0.0,0.0,0.0,0.0,0.0
3656000,3576000,0.10889597,0.10885313,0.20386402,101.00009,101.0001,101.0,0.0,0.0,0.0,0.0,0.0,0.0,0.0,62.249985,0.0,0.0,nan,0.0,0.0,0.0,0.0,0.098340444,0.0,0.0,0.0,1.1191863,1.1191174,1.0061078,0.0,0.0,0.0,0.0,0.0,0.0
3664000,3584000,0.10889597,0.10885313,0.20386402,101.00009,101.0001,101.0,0.0,0.0,0.0,0.0,0.0,0.0,0.0,62.249985,0.0,0.0,nan,0.0,0.0,0.0,0.0,0.098340444,0.0,0.0,0.0,1.1147338,1.1146708,1.0061067,0.0,0.0,0.0,0.0,0.0,0.0
3672000,3592000,0.10889597,0.10885313,0.20386402,101.00009,101.0001,101.0,0.0,0.0,0.0,0.0,0.0,0.0,0.0,62.249985,0.0,0.0,nan,0.0,0.0,0.0,0.0,0.098340444,0.0,0.0,0.0,1.1185234,1.1184617,1.0061104,0.0,0.0,0.0,0.0,0.0,0.0
3680000,3600000,0.10889597,0.10885313,0.20386402,101.00009,101.0001,101.0,0.0,0.0,0.0,0.0,0.0,0.0,0.0,45.58333,0.0,0.0,nan,0.0,0.0,0.0,0.0,0.098340444,0.0,0.0,0.0,1.1224936,1.1224334,1.0061141,0.0,0.0,0.0,0.0,0.0,0.0
3688000,3608000,0.10889597,0.10885313,0.20386402,101.00009,101.0001,101.0,0.0,0.0,0.0,0.0,0.0,0.0,0.0,45.58333,0.0,0.0,nan,0.0,0.0,0.0,0.0,0.098340444,0.0,0.0,0.0,1.1266444,1.1265854,1.0061183,0.0,0.0,0.0,0.0,0.0,0.0
3696000,3616000,0.10889597,0.10885313,0.20386402,101.00009,101.0001,101.0,0.0,0.0,0.0,0.0,0.0,0.0,0.0,45.58333,0.0,0.0,nan,0.0,0.0,0.0,0.0,0.098340444,0.0,0.0,0.0,1.1236254,1.1235715,1.0061177,0.0,0.0,0.0,0.0,0.0,0.0
3704000,3624000,0.10889597,0.10885313,0.20386402,101.00009,101.0001,101.0,0.0,0.0,0.0,0.0,0.0,0.0,0.0,45.58333,0.0,0.0,nan,0.0,0.0,0.0,0.0,0.09773836,0.0,0.0,0.0,1.1279907,1.1279385,1.0061218,0.0,0.0,0.0,0.0,0.0,0.0
3712000,3632000,0.10889597,0.10885313,0.20386402,101.00009,101.0001,101.0,0.0,0.0,0.0,0.0,0.0,0.0,0.0,45.58333,0.0,0.0,nan,0.0,0.0,0.0,0.0,0.09773836,0.0,0.0,0.0,1.1325351,1.1324846,1.0061262,0.0,0.0,0.0,0.0,0.0,0.0
3720000,3640000,0.10889597,0.10885313,0.20386402,101.00009,101.0001,101.0,0.0,0.0,0.0,0.0,0.0,0.0,0.0,45.58333,0.0,0.0,nan,0.0,0.0,0.0,0.0,0.09773836,0.0,0.0,0.0,1.1372585,1.1372098,1.0061307,0.0,0.0,0.0,0.0,0.0,0.0
3728000,3648000,0.10889597,0.10885313,0.20386402,101.00009,101.0001,101.0,0.0,0.0,0.0,0.0,0.0,0.0,0.0,45.58333,0.0,0.0,nan,0.0,0.0,0.0,0.0,0.09773836,0.0,0.0,0.0,1.1421608,1.142114,1.0061356,0.0,0.0,0.0,0.0,0.0,0.0
3736000,3656000,0.10889597,0.10885313,0.20386402,101.00009,101.0001,101.0,0.0,0.0,0.0,0.0,0.0,0.0,0.0,45.58333,0.0,0.0,nan,0.0,0.0,0.0,0.0,0.09773836,0.0,0.0,0.0,1.1472424,1.1471975,1.0061406,0.0,0.0,0.0,0.0,0.0,0.0
3744000,3664000,0.10889597,0.10885313,0.20386402,101.00009,101.0001,101.0,0.0,0.0,0.0,0.0,0.0,0.0,0.0,45.58333,0.0,0.0,nan,0.0,0.0,0.0,0.0,0.09773836,0.0,0.0,0.0,1.1525029,1.1524603,1.0061456,0.0,0.0,0.0,0.0,0.0,0.0
3752000,3672000,0.10889597,0.10885313,0.20386402,101.00009,101.0001,101.0,0.0,0.0,0.0,0.0,0.0,0.0,0.0,45.58333,0.0,0.0,nan,0.0,0.0,0.0,0.0,0.09773836,0.0,0.0,0.0,1.1579424,1.157902,1.006151,0.0,0.0,0.0,0.0,0.0,0.0
3760000,3680000,0.10889597,0.10885313,0.20386402,101.00009,101.0001,101.0,0.0,0.0,0.0,0.0,0.0,0.0,0.0,45.58333,0.0,0.0,nan,0.0,0.0,0.0,0.0,0.09773836,0.0,0.0,0.0,1.163561,1.1635228,1.0061564,0.0,0.0,0.0,0.0,0.0,0.0
3768000,3688000,0.10889597,0.10885313,0.20386402,101.00009,101.0001,101.0,0.0,0.0,0.0,0.0,0.0,0.0,0.0,45.58333,0.0,0.0,nan,0.0,0.0,0.0,0.0,0.097251065,0.0,0.0,0.0,1.1693588,1.1693228,1.0061619,0.0,0.0,0.0,0.0,0.0,0.0
3776000,3696000,0.10889597,0.10885313,0.20386402,101.00009,101.0001,101.0,0.0,0.0,0.0,0.0,0.0,0.0,0.0,45.58333,0.0,0.0,nan,0.0,0.0,0.0,0.0,0.097251065,0.0,0.0,0.0,1.1753355,1.175302,1.0061679,0.0,0.0,0.0,0.0,0.0,0.0
3784000,3704000,0.10889597,0.10885313,0.20386402,101.00009,101.0001,101.0,0.0,0.0,0.0,0.0,0.0,0.0,0.0,45.58333,0.0,0.0,nan,0.0,0.0,0.0,0.0,0.097251065,0.0,0.0,0.0,1.1814913,1.1814604,1.006174,0.0,0.0,0.0,0.0,0.0,0.0
3792000,3712000,0.10889597,0.10885313,0.20386402,101.00009,101.0001,101.0,0.0,0.0,0.0,0.0,0.0,0.0,0.0,45.58333,0.0,0.0,nan,0.0,0.0,0.0,0.0,0.097251065,0.0,0.0,0.0,1.1878262,1.1877975,1.0061804,0.0,0.0,0.0,0.0,0.0,0.0
3800000,3720000,0.10889597,0.10885313,0.20386402,101.00009,101.0001,101.0,0.0,0.0,0.0,0.0,0.0,0.0,0.0,45.58333,0.0,0.0,nan,0.0,0.0,0.0,0.0,0.097251065,0.0,0.0,0.0,1.19434,1.194314,1.0061871,0.0,0.0,0.0,0.0,0.0,0.0
3808000,3728000,0.103476085,0.10347683,0.20363116,1.0003365,1.0003366,34.33333,0.0,0.0,0.0,0.0,0.0,0.0,0.0,45.58333,0.0,0.0,nan,0.0,0.0,0.0,0.0,0.097251065,0.0,0.0,0.0,1.201033,1.2010095,1.0061935,0.0,0.0,0.0,0.0,0.0,0.0
3816000,3736000,0.103476085,0.10347683,0.20363116,1.0003365,1.0003366,34.33333,0.0,0.0,0.0,0.0,0.0,0.0,0.0,45.58333,0.0,0.0,nan,0.0,0.0,0.0,0.0,0.097251065,0.0,0.0,0.0,1.2079052,1.2078843,1.0062002,0.0,0.0,0.0,0.0,0.0,0.0
3824000,3744000,0.103476085,0.10347683,0.20363116,1.0003365,1.0003366,34.33333,0.0,0.0,0.0,0.0,0.0,0.0,0.0,45.58333,0.0,0.0,nan,0.0,0.0,0.0,0.0,0.097251065,0.0,0.0,0.0,1.2149563,1.2149384,1.0062072,0.0,0.0,0.0,0.0,0.0,0.0
3832000,3752000,0.103476085,0.10347683,0.20363116,1.0003365,1.0003366,34.33333,0.0,0.0,0.0,0.0,0.0,0.0,0.0,45.58333,0.0,0.0,nan,0.0,0.0,0.0,0.0,0.097251065,0.0,0.0,0.0,1.2221864,1.2221713,1.0062144,0.0,0.0,0.0,0.0,0.0,0.0
3840000,3760000,0.103476085,0.10347683,0.20363116,1.0003365,1.0003366,34.33333,0.0,0.0,0.0,0.0,0.0,0.0,0.0,45.58333,0.0,0.0,nan,0.0,0.0,0.0,0.0,0.09688527,0.0,0.0,0.0,1.2295955,1.2295833,1.0062219,0.0,0.0,0.0,0.0,0.0,0.0
3848000,3768000,0.103476085,0.10347683,0.20363116,1.0003365,1.0003366,34.33333,0.0,0.0,0.0,0.0,0.0,0.0,0.0,45.58333,0.0,0.0,nan,0.0,0.0,0.0,0.0,0.09688527,0.0,0.0,0.0,1.2371839,1.2371745,1.0062293,0.0,0.0,0.0,0.0,0.0,0.0
3856000,3776000,0.103476085,0.10347683,0.20363116,1.0003365,1.0003366,34.33333,0.0,0.0,0.0,0.0,0.0,0.0,0.0,45.58333,0.0,0.0,nan,0.0,0.0,0.0,0.0,0.09688527,0.0,0.0,0.0,1.2449512,1.244945,1.0062371,0.0,0.0,0.0,0.0,0.0,0.0
3864000,3784000,0.103476085,0.10347683,0.20363116,1.0003365,1.0003366,34.33333,0.0,0.0,0.0,0.0,0.0,0.0,0.0,45.58337,0.0,0.0,nan,0.0,0.0,0.0,0.0,0.09688527,0.0,0.0,0.0,1.2528976,1.2528944,1.0062453,0.0,0.0,0.0,0.0,0.0,0.0
3872000,3792000,0.103476085,0.10347683,0.20363116,1.0003365,1.0003366,34.33333,0.0,0.0,0.0,0.0,0.0,0.0,0.0,45.58337,0.0,0.0,nan,0.0,0.0,0.0,0.0,0.09688527,0.0,0.0,0.0,1.1742522,1.1742615,1.0061884,0.0,0.0,0.0,0.0,0.0,0.0
3880000,3800000,0.103476085,0.10347683,0.20363116,1.0003365,1.0003366,34.33333,0.0,0.0,0.0,0.0,0.0,0.0,0.0,45.58337,0.0,0.0,nan,0.0,0.0,0.0,0.0,0.09688527,0.0,0.0,0.0,1.1808202,1.1808324,1.0061953,0.0,0.0,0.0,0.0,0.0,0.0
3888000,3808000,0.103476085,0.10347683,0.20363116,1.0003365,1.0003366,34.33333,0.0,0.0,0.0,0.0,0.0,0.0,0.0,45.58337,0.0,0.0,nan,0.0,0.0,0.0,0.0,0.09688527,0.0,0.0,0.0,1.1875502,1.1875652,1.0062022,0.0,0.0,0.0,0.0,0.0,0.0
3896000,3816000,0.103476085,0.10347683,0.20363116,1.0003365,1.0003366,34.33333,0.0,0.0,0.0,0.0,0.0,0.0,0.0,45.58337,0.0,0.0,nan,0.0,0.0,0.0,0.0,0.09688527,0.0,0.0,0.0,1.1944418,1.1944602,1.0062094,0.0,0.0,0.0,0.0,0.0,0.0
3904000,3824000,0.103476085,0.10347683,0.20363116,1.0003365,1.0003366,34.33333,0.0,0.0,0.0,0.0,0.0,0.0,0.0,45.58337,0.0,0.0,nan,0.0,0.0,0.0,0.0,0.09657941,0.0,0.0,0.0,1.1905617,1.1905833,1.0062068,0.0,0.0,0.0,0.0,0.0,0.0
3912000,3832000,0.103476085,0.10347683,0.20363116,1.0003365,1.0003366,34.33333,0.0,0.0,0.0,0.0,0.0,0.0,0.0,45.58337,0.0,0.0,nan,0.0,0.0,0.0,0.0,0.09657941,0.0,0.0,0.0,1.1974089,1.1974338,1.0062135,0.0,0.0,0.0,0.0,0.0,0.0
3920000,3840000,0.103476085,0.10347683,0.20363116,1.0003365,1.0003366,34.33333,0.0,0.0,0.0,0.0,0.0,0.0,0.0,37.250046,0.0,0.0,nan,0.0,0.0,0.0,0.0,0.09657941,0.0,0.0,0.0,1.2044116,1.2044395,1.0062207,0.0,0.0,0.0,0.0,0.0,0.0
3928000,3848000,0.103476085,0.10347683,0.20363116,1.0003365,1.0003366,34.33333,0.0,0.0,0.0,0.0,0.0,0.0,0.0,37.250046,0.0,0.0,nan,0.0,0.0,0.0,0.0,0.09657941,0.0,0.0,0.0,1.2115703,1.2116015,1.0062282,0.0,0.0,0.0,0.0,0.0,0.0
3936000,3856000,0.103476085,0.10347683,0.20363116,1.0003365,1.0003366,34.33333,0.0,0.0,0.0,0.0,0.0,0.0,0.0,37.250046,0.0,0.0,nan,0.0,0.0,0.0,0.0,0.09657941,0.0,0.0,0.0,1.2188847,1.218919,1.0062358,0.0,0.0,0.0,0.0,0.0,0.0
3944000,3864000,0.103476085,0.10347683,0.20363116,1.0003365,1.0003366,34.33333,0.0,0.0,0.0,0.0,0.0,0.0,0.0,37.250046,0.0,0.0,nan,0.0,0.0,0.0,0.0,0.09657941,0.0,0.0,0.0,1.226355,1.2263925,1.0062435,0.0,0.0,0.0,0.0,0.0,0.0
3952000,3872000,0.103476085,0.10347683,0.20363116,1.0003365,1.0003366,34.33333,0.0,0.0,0.0,0.0,0.0,0.0,0.0,37.250046,0.0,0.0,nan,0.0,0.0,0.0,0.0,0.09657941,0.0,0.0,0.0,1.2339807,1.2340218,1.0062513,0.0,0.0,0.0,0.0,0.0,0.0
3960000,3880000,0.103476085,0.10347683,0.20363116,1.0003365,1.0003366,34.33333,0.0,0.0,0.0,0.0,0.0,0.0,0.0,37.250046,0.0,0.0,nan,0.0,0.0,0.0,0.0,0.09657941,0.0,0.0,0.0,1.241762,1.241807,1.0062596,0.0,0.0,0.0,0.0,0.0,0.0
3968000,3888000,0.103476085,0.10347683,0.20363116,1.0003365,1.0003366,34.33333,0.0,0.0,0.0,0.0,0.0,0.0,0.0,37.250046,0.0,0.0,nan,0.0,0.0,0.0,0.0,0.09657941,0.0,0.0,0.0,1.2496995,1.2497478,1.0062677,0.0,0.0,0.0,0.0,0.0,0.0
3976000,3896000,0.103476085,0.10347683,0.20363116,1.0003365,1.0003366,34.33333,0.0,0.0,0.0,0.0,0.0,0.0,0.0,37.250046,0.0,0.0,nan,0.0,0.0,0.0,0.0,0.096367605,0.0,0.0,0.0,1.2577924,1.2578444,1.006276,0.0,0.0,0.0,0.0,0.0,0.0
3984000,3904000,0.103476085,0.10347683,0.20363116,1.0003365,1.0003366,34.33333,0.0,0.0,0.0,0.0,0.0,0.0,0.0,37.250107,0.0,0.0,nan,0.0,0.0,0.0,0.0,0.096367605,0.0,0.0,0.0,1.2660412,1.2660971,1.0062845,0.0,0.0,0.0,0.0,0.0,0.0
3992000,3912000,0.103476085,0.10347683,0.20363116,1.0003365,1.0003366,34.33333,0.0,0.0,0.0,0.0,0.0,0.0,0.0,37.250107,0.0,0.0,nan,0.0,0.0,0.0,0.0,0.096367605,0.0,0.0,0.0,1.2744459,1.2745053,1.006293,0.0,0.0,0.0,0.0,0.0,0.0
4000000,3920000,0.103476085,0.10347683,0.20363116,1.0003365,1.0003366,34.33333,0.0,0.0,0.0,0.0,0.0,0.0,0.0,37.250107,0.0,0.0,nan,0.0,0.0,0.0,0.0,0.096367605,0.0,0.0,0.0,1.283006,1.2830696,1.0063019,0.0,0.0,0.0,0.0,0.0,0.0
4008000,3928000,0.103476085,0.10347683,0.20363116,1.0003365,1.0003366,34.33333,0.0,0.0,0.0,0.0,0.0,0.0,0.0,37.250107,0.0,0.0,nan,0.0,0.0,0.0,0.0,0.096367605,0.0,0.0,0.0,1.2917217,1.2917895,1.0063109,0.0,0.0,0.0,0.0,0.0,0.0
4016000,3936000,0.103476085,0.10347683,0.20363116,1.0003365,1.0003366,34.33333,0.0,0.0,0.0,0.0,0.0,0.0,0.0,37.250107,0.0,0.0,nan,0.0,0.0,0.0,0.0,0.096367605,0.0,0.0,0.0,1.3005934,1.3006655,1.0063201,0.0,0.0,0.0,0.0,0.0,0.0
4024000,3944000,0.103476085,0.10347683,0.20363116,1.0003365,1.0003366,34.33333,0.0,0.0,0.0,0.0,0.0,0.0,0.0,37.250107,0.0,0.0,nan,0.0,0.0,0.0,0.0,0.096367605,0.0,0.0,0.0,1.3096207,1.3096975,1.0063294,0.0,0.0,0.0,0.0,0.0,0.0
4032000,3952000,0.103476085,0.10347683,0.20363116,1.0003365,1.0003366,34.33333,0.0,0.0,0.0,0.0,0.0,0.0,0.0,37.250107,0.0,0.0,nan,0.0,0.0,0.0,0.0,0.096367605,0.0,0.0,0.0,1.3188043,1.3188847,1.0063385,0.0,0.0,0.0,0.0,0.0,0.0
4040000,3960000,0.103476085,0.10347683,0.20363116,1.0003365,1.0003366,34.33333,0.0,0.0,0.0,0.0,0.0,0.0,0.0,20.47152,0.0,0.0,nan,0.0,0.0,0.0,0.0,0.09618195,0.0,0.0,0.0,1.3281429,1.3282281,1.0063484,0.0,0.0,0.0,0.0,0.0,0.0
4048000,3968000,0.103476085,0.10347683,0.20363116,1.0003365,1.0003366,34.33333,0.0,0.0,0.0,0.0,0.0,0.0,0.0,20.47152,0.0,0.0,nan,0.0,0.0,0.0,0.0,0.09618195,0.0,0.0,0.0,1.3376373,1.3377271,1.0063587,0.0,0.0,0.0,0.0,0.0,0.0
4056000,3976000,0.103476085,0.10347683,0.20363116,1.0003365,1.0003366,34.33333,0.0,0.0,0.0,0.0,0.0,0.0,0.0,20.47152,0.0,0.0,nan,0.0,0.0,0.0,0.0,0.09618195,0.0,0.0,0.0,1.3472875,1.3473818,1.006369,0.0,0.0,0.0,0.0,0.0,0.0
4064000,3984000,0.103476085,0.10347683,0.20363116,1.0003365,1.0003366,34.33333,0.0,0.0,0.0,0.0,0.0,0.0,0.0,20.47152,0.0,0.0,nan,0.0,0.0,0.0,0.0,0.09618195,0.0,0.0,0.0,1.3570936,1.3571924,1.0063792,0.0,0.0,0.0,0.0,0.0,0.0
4072000,3992000,0.103476085,0.10347683,0.20363116,1.0003365,1.0003366,34.33333,0.0,0.0,0.0,0.0,0.0,0.0,0.0,20.47152,0.0,0.0,nan,0.0,0.0,0.0,0.0,0.09618195,0.0,0.0,0.0,1.3670554,1.3671591,1.0063896,0.0,0.0,0.0,0.0,0.0,0.0
4080000,4000000,0.103476085,0.10347683,0.20363116,1.0003365,1.0003366,34.33333,0.0,0.0,0.0,0.0,0.0,0.0,0.0,20.47152,0.0,0.0,nan,0.0,0.0,0.0,0.0,0.09618195,0.0,0.0,0.0,1.2475041,1.2475793,1.0062737,0.0,0.0,0.0,0.0,0.0,0.0
4088000,4008000,0.103476085,0.10347683,0.20363116,1.0003365,1.0003366,34.33333,0.0,0.0,0.0,0.0,0.0,0.0,0.0,20.47152,0.0,0.0,nan,0.0,0.0,0.0,0.0,0.09618195,0.0,0.0,0.0,1.2545474,1.2546258,1.0062809,0.0,0.0,0.0,0.0,0.0,0.0
4096000,4016000,0.103476085,0.10347683,0.20363116,1.0003365,1.0003366,34.33333,0.0,0.0,0.0,0.0,0.0,0.0,0.0,20.47152,0.0,0.0,nan,0.0,0.0,0.0,0.0,0.09618195,0.0,0.0,0.0,1.2617068,1.2617885,1.0062884,0.0,0.0,0.0,0.0,0.0,0.0
4104000,4024000,0.103476085,0.10347683,0.20363116,1.0003365,1.0003366,34.33333,0.0,0.0,0.0,0.0,0.0,0.0,0.0,17.169739,0.0,0.0,nan,0.0,0.0,0.0,0.0,0.09618195,0.0,0.0,0.0,1.2689823,1.269067,1.0062957,0.0,0.0,0.0,0.0,0.0,0.0
4112000,4032000,0.103476085,0.10347683,0.20363116,1.0003365,1.0003366,34.33333,0.0,0.0,0.0,0.0,0.0,0.0,0.0,17.169739,0.0,0.0,nan,0.0,0.0,0.0,0.0,0.09607548,0.0,0.0,0.0,1.2508065,1.2508798,1.0062761,0.0,0.0,0.0,0.0,0.0,0.0
4120000,4040000,0.103476085,0.10347683,0.20363116,1.0003365,1.0003366,34.33333,0.0,0.0,0.0,0.0,0.0,0.0,0.0,17.169739,0.0,0.0,nan,0.0,0.0,0.0,0.0,0.09607548,0.0,0.0,0.0,1.2575569,1.2576331,1.0062833,0.0,0.0,0.0,0.0,0.0,0.0
4128000,4048000,0.103476085,0.10347683,0.20363116,1.0003365,1.0003366,34.33333,0.0,0.0,0.0,0.0,0.0,0.0,0.0,17.169739,0.0,0.0,nan,0.0,0.0,0.0,0.0,0.09607548,0.0,0.0,0.0,1.2644126,1.2644919,1.0062896,0.0,0.0,0.0,0.0,0.0,0.0
4136000,4056000,0.103476085,0.10347683,0.20363116,1.0003365,1.0003366,34.33333,0.0,0.0,0.0,0.0,0.0,0.0,0.0,17.169739,0.0,0.0,nan,0.0,0.0,0.0,0.0,0.09607548,0.0,0.0,0.0,1.271373,1.2714552,1.0062969,0.0,0.0,0.0,0.0,0.0,0.0
4144000,4064000,0.103476085,0.10347683,0.20363116,1.0003365,1.0003366,34.33333,0.0,0.0,0.0,0.0,0.0,0.0,0.0,17.169739,0.0,0.0,nan,0.0,0.0,0.0,0.0,0.09607548,0.0,0.0,0.0,1.2784384,1.2785236,1.0063041,0.0,0.0,0.0,0.0,0.0,0.0
4152000,4072000,0.103476085,0.10347683,0.20363116,1.0003365,1.0003366,34.33333,0.0,0.0,0.0,0.0,0.0,0.0,0.0,17.169739,0.0,0.0,nan,0.0,0.0,0.0,0.0,0.09607548,0.0,0.0,0.0,1.2856085,1.285697,1.0063117,0.0,0.0,0.0,0.0,0.0,0.0
4160000,4080000,0.103476085,0.10347683,0.20363116,1.0003365,1.0003366,34.33333,0.0,0.0,0.0,0.0,0.0,0.0,0.0,15.760104,0.0,0.0,nan,0.0,0.0,0.0,0.0,0.09607548,0.0,0.0,0.0,1.2928839,1.2929753,1.006319,0.0,0.0,0.0,0.0,0.0,0.0
4168000,4088000,0.103476085,0.10347683,0.20363116,1.0003365,1.0003366,34.33333,0.0,0.0,0.0,0.0,0.0,0.0,0.0,15.760104,0.0,0.0,nan,0.0,0.0,0.0,0.0,0.09607548,0.0,0.0,0.0,1.3002645,1.3003584,1.0063269,0.0,0.0,0.0,0.0,0.0,0.0
4176000,4096000,0.103476085,0.10347683,0.20363116,1.0003365,1.0003366,34.33333,0.0,0.0,0.0,0.0,0.0,0.0,0.0,15.760104,0.0,0.0,nan,0.0,0.0,0.0,0.0,0.09607548,0.0,0.0,0.0,1.3077497,1.3078464,1.0063347,0.0,0.0,0.0,0.0,0.0,0.0
4184000,4104000,0.103476085,0.10347683,0.20363116,1.0003365,1.0003366,34.33333,0.0,0.0,0.0,0.0,0.0,0.0,0.0,15.760104,0.0,0.0,nan,0.0,0.0,0.0,0.0,0.09600938,0.0,0.0,0.0,1.3153408,1.3154397,1.0063438,0.0,0.0,0.0,0.0,0.0,0.0
4192000,4112000,0.103476085,0.10347683,0.20363116,1.0003365,1.0003366,34.33333,0.0,0.0,0.0,0.0,0.0,0.0,0.0,15.760104,0.0,0.0,nan,0.0,0.0,0.0,0.0,0.09600938,0.0,0.0,0.0,1.3230356,1.323138,1.0063516,0.0,0.0,0.0,0.0,0.0,0.0
4200000,4120000,0.103476085,0.10347683,0.20363116,1.0003365,1.0003366,34.33333,0.0,0.0,0.0,0.0,0.0,0.0,0.0,15.760104,0.0,0.0,nan,0.0,0.0,0.0,0.0,0.09600938,0.0,0.0,0.0,1.3308357,1.3309411,1.0063599,0.0,0.0,0.0,0.0,0.0,0.0
4208000,4128000,0.10356691,0.10356656,0.20638531,1.0003736,1.0003736,3.7283819,0.0,0.0,0.0,0.0,0.0,0.0,0.0,15.760104,0.0,0.0,nan,0.0,0.0,0.0,0.0,0.09600938,0.0,0.0,0.0,1.338741,1.3388492,1.0063679,0.0,0.0,0.0,0.0,0.0,0.0
4216000,4136000,0.10356691,0.10356656,0.20638531,1.0003736,1.0003736,3.7283819,0.0,0.0,0.0,0.0,0.0,0.0,0.0,15.760104,0.0,0.0,nan,0.0,0.0,0.0,0.0,0.09600938,0.0,0.0,0.0,1.3467511,1.3468627,1.0063757,0.0,0.0,0.0,0.0,0.0,0.0
4224000,4144000,0.10356691,0.10356656,0.20638531,1.0003736,1.0003736,3.7283819,0.0,0.0,0.0,0.0,0.0,0.0,0.0,14.978404,0.0,0.0,nan,0.0,0.0,0.0,0.0,0.09600938,0.0,0.0,0.0,1.3548663,1.354981,1.0063839,0.0,0.0,0.0,0.0,0.0,0.0
4232000,4152000,0.10356691,0.10356656,0.20638531,1.0003736,1.0003736,3.7283819,0.0,0.0,0.0,0.0,0.0,0.0,0.0,14.978404,0.0,0.0,nan,0.0,0.0,0.0,0.0,0.09600938,0.0,0.0,0.0,1.3630857,1.3632044,1.0063926,0.0,0.0,0.0,0.0,0.0,0.0
4240000,4160000,0.10356691,0.10356656,0.20638531,1.0003736,1.0003736,3.7283819,0.0,0.0,0.0,0.0,0.0,0.0,0.0,14.978404,0.0,0.0,nan,0.0,0.0,0.0,0.0,0.09600938,0.0,0.0,0.0,1.3714104,1.3715327,1.0064014,0.0,0.0,0.0,0.0,0.0,0.0
4248000,4168000,0.10356691,0.10356656,0.20638531,1.0003736,1.0003736,3.7283819,0.0,0.0,0.0,0.0,0.0,0.0,0.0,14.978404,0.0,0.0,nan,0.0,0.0,0.0,0.0,0.09600938,0.0,0.0,0.0,1.3798406,1.3799657,1.0064101,0.0,0.0,0.0,0.0,0.0,0.0
4256000,4176000,0.10356691,0.10356656,0.20638531,1.0003736,1.0003736,3.7283819,0.0,0.0,0.0,0.0,0.0,0.0,0.0,14.978404,0.0,0.0,nan,0.0,0.0,0.0,0.0,0.09597642,0.0,0.0,0.0,1.388375,1.3885041,1.0064183,0.0,0.0,0.0,0.0,0.0,0.0
4264000,4184000,0.10356691,0.10356656,0.20638531,1.0003736,1.0003736,3.7283819,0.0,0.0,0.0,0.0,0.0,0.0,0.0,14.978404,0.0,0.0,nan,0.0,0.0,0.0,0.0,0.09597642,0.0,0.0,0.0,1.3970151,1.3971475,1.0064269,0.0,0.0,0.0,0.0,0.0,0.0
4272000,4192000,0.10356691,0.10356656,0.20638531,1.0003736,1.0003736,3.7283819,0.0,0.0,0.0,0.0,0.0,0.0,0.0,14.978404,0.0,0.0,nan,0.0,0.0,0.0,0.0,0.09597642,0.0,0.0,0.0,1.4057598,1.4058957,1.0064362,0.0,0.0,0.0,0.0,0.0,0.0
4280000,4200000,0.10356691,0.10356656,0.20638531,1.0003736,1.0003736,3.7283819,0.0,0.0,0.0,0.0,0.0,0.0,0.0,14.481495,0.0,0.0,nan,0.0,0.0,0.0,0.0,0.09597642,0.0,0.0,0.0,1.4146092,1.4147485,1.0064459,0.0,0.0,0.0,0.0,0.0,0.0
4288000,4208000,0.10356691,0.10356656,0.20638531,1.0003736,1.0003736,3.7283819,0.0,0.0,0.0,0.0,0.0,0.0,0.0,14.481495,0.0,0.0,nan,0.0,0.0,0.0,0.0,0.09597642,0.0,0.0,0.0,1.2056917,1.205718,1.0062305,0.0,0.0,0.0,0.0,0.0,0.0
4296000,4216000,0.10356691,0.10356656,0.20638531,1.0003736,1.0003736,3.7283819,0.0,0.0,0.0,0.0,0.0,0.0,0.0,14.481495,0.0,0.0,nan,0.0,0.0,0.0,0.0,0.09597642,0.0,0.0,0.0,1.2099252,1.2099526,1.0062348,0.0,0.0,0.0,0.0,0.0,0.0
4304000,4224000,0.10356691,0.10356656,0.20638531,1.0003736,1.0003736,3.7283819,0.0,0.0,0.0,0.0,0.0,0.0,0.0,14.481495,0.0,0.0,nan,0.0,0.0,0.0,0.0,0.09597642,0.0,0.0,0.0,1.214211,1.2142391,1.0062389,0.0,0.0,0.0,0.0,0.0,0.0
4312000,4232000,0.10356691,0.10356656,0.20638531,1.0003736,1.0003736,3.7283819,0.0,0.0,0.0,0.0,0.0,0.0,0.0,14.481495,0.0,0.0,nan,0.0,0.0,0.0,0.0,0.09597642,0.0,0.0,0.0,1.2185485,1.2185779,1.0062431,0.0,0.0,0.0,0.0,0.0,0.0
4320000,4240000,0.10356691,0.10356656,0.20638531,1.0003736,1.0003736,3.7283819,0.0,0.0,0.0,0.0,0.0,0.0,0.0,14.481495,0.0,0.0,nan,0.0,0.0,0.0,0.0,0.09597642,0.0,0.0,0.0,1.1987739,1.1987923,1.006222,0.0,0.0,0.0,0.0,0.0,0.0
4328000,4248000,0.10356691,0.10356656,0.20638531,1.0003736,1.0003736,3.7283819,0.0,0.0,0.0,0.0,0.0,0.0,0.0,14.481495,0.0,0.0,nan,0.0,0.0,0.0,0.0,0.09597038,0.0,0.0,0.0,1.2026588,1.202678,1.0062261,0.0,0.0,0.0,0.0,0.0,0.0
4336000,4256000,0.10356691,0.10356656,0.20638531,1.0003736,1.0003736,3.7283819,0.0,0.0,0.0,0.0,0.0,0.0,0.0,14.481495,0.0,0.0,nan,0.0,0.0,0.0,0.0,0.09597038,0.0,0.0,0.0,1.2065895,1.2066091,1.00623,0.0,0.0,0.0,0.0,0.0,0.0
4344000,4264000,0.10356691,0.10356656,0.20638531,1.0003736,1.0003736,3.7283819,0.0,0.0,0.0,0.0,0.0,0.0,0.0,14.137736,0.0,0.0,nan,0.0,0.0,0.0,0.0,0.09597038,0.0,0.0,0.0,1.2105658,1.210586,1.0062338,0.0,0.0,0.0,0.0,0.0,0.0
4352000,4272000,0.10356691,0.10356656,0.20638531,1.0003736,1.0003736,3.7283819,0.0,0.0,0.0,0.0,0.0,0.0,0.0,14.137736,0.0,0.0,nan,0.0,0.0,0.0,0.0,0.09597038,0.0,0.0,0.0,1.2145878,1.2146086,1.0062381,0.0,0.0,0.0,0.0,0.0,0.0
4360000,4280000,0.10356691,0.10356656,0.20638531,1.0003736,1.0003736,3.7283819,0.0,0.0,0.0,0.0,0.0,0.0,0.0,14.137736,0.0,0.0,nan,0.0,0.0,0.0,0.0,0.09597038,0.0,0.0,0.0,1.2186556,1.218677,1.006242,0.0,0.0,0.0,0.0,0.0,0.0
4368000,4288000,0.10356691,0.10356656,0.20638531,1.0003736,1.0003736,3.7283819,0.0,0.0,0.0,0.0,0.0,0.0,0.0,14.137736,0.0,0.0,nan,0.0,0.0,0.0,0.0,0.09597038,0.0,0.0,0.0,1.2227689,1.2227914,1.0062461,0.0,0.0,0.0,0.0,0.0,0.0
4376000,4296000,0.10356691,0.10356656,0.20638531,1.0003736,1.0003736,3.7283819,0.0,0.0,0.0,0.0,0.0,0.0,0.0,14.137736,0.0,0.0,nan,0.0,0.0,0.0,0.0,0.09597038,0.0,0.0,0.0,1.2269281,1.2269516,1.0062499,0.0,0.0,0.0,0.0,0.0,0.0
4384000,4304000,0.10356691,0.10356656,0.20638531,1.0003736,1.0003736,3.7283819,0.0,0.0,0.0,0.0,0.0,0.0,0.0,14.137736,0.0,0.0,nan,0.0,0.0,0.0,0.0,0.09597038,0.0,0.0,0.0,1.2311332,1.2311573,1.006254,0.0,0.0,0.0,0.0,0.0,0.0
4392000,4312000,0.10356691,0.10356656,0.20638531,1.0003736,1.0003736,3.7283819,0.0,0.0,0.0,0.0,0.0,0.0,0.0,14.137736,0.0,0.0,nan,0.0,0.0,0.0,0.0,0.09597038,0.0,0.0,0.0,1.2353839,1.2354089,1.0062581,0.0,0.0,0.0,0.0,0.0,0.0
4400000,4320000,0.10356691,0.10356656,0.20638531,1.0003736,1.0003736,3.7283819,0.0,0.0,0.0,0.0,0.0,0.0,0.0,13.8858,0.0,0.0,nan,0.0,0.0,0.0,0.0,0.095986016,0.0,0.0,0.0,1.2396802,1.2397062,1.006262,0.0,0.0,0.0,0.0,0.0,0.0
4408000,4328000,0.10356691,0.10356656,0.20638531,1.0003736,1.0003736,3.7283819,0.0,0.0,0.0,0.0,0.0,0.0,0.0,13.8858,0.0,0.0,nan,0.0,0.0,0.0,0.0,0.095986016,0.0,0.0,0.0,1.2440226,1.2440493,1.0062662,0.0,0.0,0.0,0.0,0.0,0.0
4416000,4336000,0.10356691,0.10356656,0.20638531,1.0003736,1.0003736,3.7283819,0.0,0.0,0.0,0.0,0.0,0.0,0.0,13.8858,0.0,0.0,nan,0.0,0.0,0.0,0.0,0.095986016,0.0,0.0,0.0,1.2484106,1.2484381,1.0062702,0.0,0.0,0.0,0.0,0.0,0.0
4424000,4344000,0.10356691,0.10356656,0.20638531,1.0003736,1.0003736,3.7283819,0.0,0.0,0.0,0.0,0.0,0.0,0.0,13.8858,0.0,0.0,nan,0.0,0.0,0.0,0.0,0.095986016,0.0,0.0,0.0,1.2528442,1.2528727,1.0062746,0.0,0.0,0.0,0.0,0.0,0.0
4432000,4352000,0.10356691,0.10356656,0.20638531,1.0003736,1.0003736,3.7283819,0.0,0.0,0.0,0.0,0.0,0.0,0.0,13.8858,0.0,0.0,nan,0.0,0.0,0.0,0.0,0.095986016,0.0,0.0,0.0,1.2573236,1.2573531,1.0062789,0.0,0.0,0.0,0.0,0.0,0.0
4440000,4360000,0.10356691,0.10356656,0.20638531,1.0003736,1.0003736,3.7283819,0.0,0.0,0.0,0.0,0.0,0.0,0.0,13.8858,0.0,0.0,nan,0.0,0.0,0.0,0.0,0.095986016,0.0,0.0,0.0,1.2618489,1.2618787,1.0062834,0.0,0.0,0.0,0.0,0.0,0.0
4448000,4368000,0.10356691,0.10356656,0.20638531,1.0003736,1.0003736,3.7283819,0.0,0.0,0.0,0.0,0.0,0.0,0.0,13.8858,0.0,0.0,nan,0.0,0.0,0.0,0.0,0.095986016,0.0,0.0,0.0,1.2664198,1.2664506,1.0062879,0.0,0.0,0.0,0.0,0.0,0.0
4456000,4376000,0.10356691,0.10356656,0.20638531,1.0003736,1.0003736,3.7283819,0.0,0.0,0.0,0.0,0.0,0.0,0.0,13.8858,0.0,0.0,nan,0.0,0.0,0.0,0.0,0.095986016,0.0,0.0,0.0,1.2710367,1.2710682,1.0062922,0.0,0.0,0.0,0.0,0.0,0.0
4464000,4384000,0.10356691,0.10356656,0.20638531,1.0003736,1.0003736,3.7283819,0.0,0.0,0.0,0.0,0.0,0.0,0.0,13.693273,0.0,0.0,nan,0.0,0.0,0.0,0.0,0.095986016,0.0,0.0,0.0,1.2756994,1.2757312,1.0062965,0.0,0.0,0.0,0.0,0.0,0.0
4472000,4392000,0.10356691,0.10356656,0.20638531,1.0003736,1.0003736,3.7283819,0.0,0.0,0.0,0.0,0.0,0.0,0.0,13.693273,0.0,0.0,nan,0.0,0.0,0.0,0.0,0.0960185,0.0,0.0,0.0,1.2804078,1.28044,1.0063022,0.0,0.0,0.0,0.0,0.0,0.0
4480000,4400000,0.10356691,0.10356656,0.20638531,1.0003736,1.0003736,3.7283819,0.0,0.0,0.0,0.0,0.0,0.0,0.0,13.693273,0.0,0.0,nan,0.0,0.0,0.0,0.0,0.0960185,0.0,0.0,0.0,1.2851619,1.2851945,1.0063069,0.0,0.0,0.0,0.0,0.0,0.0
4488000,4408000,0.10356691,0.10356656,0.20638531,1.0003736,1.0003736,3.7283819,0.0,0.0,0.0,0.0,0.0,0.0,0.0,13.693273,0.0,0.0,nan,0.0,0.0,0.0,0.0,0.0960185,0.0,0.0,0.0,1.2899617,1.2899945,1.0063117,0.0,0.0,0.0,0.0,0.0,0.0
4496000,4416000,0.10356691,0.10356656,0.20638531,1.0003736,1.0003736,3.7283819,0.0,0.0,0.0,0.0,0.0,0.0,0.0,13.693273,0.0,0.0,nan,0.0,0.0,0.0,0.0,0.0960185,0.0,0.0,0.0,1.1271656,1.1271385,1.0061473,0.0,0.0,0.0,0.0,0.0,0.0
4504000,4424000,0.10356691,0.10356656,0.20638531,1.0003736,1.0003736,3.7283819,0.0,0.0,0.0,0.0,0.0,0.0,0.0,13.693273,0.0,0.0,nan,0.0,0.0,0.0,0.0,0.0960185,0.0,0.0,0.0,1.1289953,1.1289681,1.006149,0.0,0.0,0.0,0.0,0.0,0.0
4512000,4432000,0.10356691,0.10356656,0.20638531,1.0003736,1.0003736,3.7283819,0.0,0.0,0.0,0.0,0.0,0.0,0.0,13.693273,0.0,0.0,nan,0.0,0.0,0.0,0.0,0.0960185,0.0,0.0,0.0,1.130843,1.1308156,1.006151,0.0,0.0,0.0,0.0,0.0,0.0
4520000,4440000,0.10356691,0.10356656,0.20638531,1.0003736,1.0003736,3.7283819,0.0,0.0,0.0,0.0,0.0,0.0,0.0,13.541339,0.0,0.0,nan,0.0,0.0,0.0,0.0,0.0960185,0.0,0.0,0.0,1.1327088,1.1326813,1.0061527,0.0,0.0,0.0,0.0,0.0,0.0
4528000,4448000,0.10356691,0.10356656,0.20638531,1.0003736,1.0003736,3.7283819,0.0,0.0,0.0,0.0,0.0,0.0,0.0,13.541339,0.0,0.0,nan,0.0,0.0,0.0,0.0,0.0960185,0.0,0.0,0.0,1.1243346,1.1243061,1.0061439,0.0,0.0,0.0,0.0,0.0,0.0
4536000,4456000,0.10356691,0.10356656,0.20638531,1.0003736,1.0003736,3.7283819,0.0,0.0,0.0,0.0,0.0,0.0,0.0,13.541339,0.0,0.0,nan,0.0,0.0,0.0,0.0,0.0960185,0.0,0.0,0.0,1.1260457,1.126017,1.0061457,0.0,0.0,0.0,0.0,0.0,0.0
4544000,4464000,0.10356691,0.10356656,0.20638531,1.0003736,1.0003736,3.7283819,0.0,0.0,0.0,0.0,0.0,0.0,0.0,13.541339,0.0,0.0,nan,0.0,0.0,0.0,0.0,0.09606351,0.0,0.0,0.0,1.127773,1.1277441,1.0061471,0.0,0.0,0.0,0.0,0.0,0.0
4552000,4472000,0.10356691,0.10356656,0.20638531,1.0003736,1.0003736,3.7283819,0.0,0.0,0.0,0.0,0.0,0.0,0.0,13.541339,0.0,0.0,nan,0.0,0.0,0.0,0.0,0.09606351,0.0,0.0,0.0,1.129517,1.1294875,1.0061486,0.0,0.0,0.0,0.0,0.0,0.0
4560000,4480000,0.10356691,0.10356656,0.20638531,1.0003736,1.0003736,3.7283819,0.0,0.0,0.0,0.0,0.0,0.0,0.0,13.541339,0.0,0.0,nan,0.0,0.0,0.0,0.0,0.09606351,0.0,0.0,0.0,1.131277,1.1312474,1.0061501,0.0,0.0,0.0,0.0,0.0,0.0
4568000,4488000,0.10356691,0.10356656,0.20638531,1.0003736,1.0003736,3.7283819,0.0,0.0,0.0,0.0,0.0,0.0,0.0,13.541339,0.0,0.0,nan,0.0,0.0,0.0,0.0,0.09606351,0.0,0.0,0.0,1.1330533,1.1330231,1.0061519,0.0,0.0,0.0,0.0,0.0,0.0
4576000,4496000,0.10356691,0.10356656,0.20638531,1.0003736,1.0003736,3.7283819,0.0,0.0,0.0,0.0,0.0,0.0,0.0,13.541339,0.0,0.0,nan,0.0,0.0,0.0,0.0,0.09606351,0.0,0.0,0.0,1.134846,1.1348155,1.0061537,0.0,0.0,0.0,0.0,0.0,0.0
4584000,4504000,0.10356691,0.10356656,0.20638531,1.0003736,1.0003736,3.7283819,0.0,0.0,0.0,0.0,0.0,0.0,0.0,13.418357,0.0,0.0,nan,0.0,0.0,0.0,0.0,0.09606351,0.0,0.0,0.0,1.136655,1.1366242,1.0061551,0.0,0.0,0.0,0.0,0.0,0.0
4592000,4512000,0.10356691,0.10356656,0.20638531,1.0003736,1.0003736,3.7283819,0.0,0.0,0.0,0.0,0.0,0.0,0.0,13.418357,0.0,0.0,nan,0.0,0.0,0.0,0.0,0.09606351,0.0,0.0,0.0,1.1384801,1.1384491,1.0061568,0.0,0.0,0.0,0.0,0.0,0.0
4600000,4520000,0.10356691,0.10356656,0.20638531,1.0003736,1.0003736,3.7283819,0.0,0.0,0.0,0.0,0.0,0.0,0.0,13.418357,0.0,0.0,nan,0.0,0.0,0.0,0.0,0.09606351,0.0,0.0,0.0,1.1403217,1.1402903,1.0061584,0.0,0.0,0.0,0.0,0.0,0.0
4608000,4528000,0.09834611,0.09834691,0.2091524,1.0002832,1.0002832,2.0667179,0.0,0.0,0.0,0.0,0.0,0.0,0.0,13.418357,0.0,0.0,nan,0.0,0.0,0.0,0.0,0.09606351,0.0,0.0,0.0,1.1421794,1.1421477,1.00616,0.0,0.0,0.0,0.0,0.0,0.0
4616000,4536000,0.09834611,0.09834691,0.2091524,1.0002832,1.0002832,2.0667179,0.0,0.0,0.0,0.0,0.0,0.0,0.0,13.418357,0.0,0.0,nan,0.0,0.0,0.0,0.0,0.09611744,0.0,0.0,0.0,1.1440532,1.1440215,1.0061613,0.0,0.0,0.0,0.0,0.0,0.0
4624000,4544000,0.09834611,0.09834691,0.2091524,1.0002832,1.0002832,2.0667179,0.0,0.0,0.0,0.0,0.0,0.0,0.0,13.418357,0.0,0.0,nan,0.0,0.0,0.0,0.0,0.09611744,0.0,0.0,0.0,1.1459434,1.1459113,1.0061631,0.0,0.0,0.0,0.0,0.0,0.0
4632000,4552000,0.09834611,0.09834691,0.2091524,1.0002832,1.0002832,2.0667179,0.0,0.0,0.0,0.0,0.0,0.0,0.0,13.418357,0.0,0.0,nan,0.0,0.0,0.0,0.0,0.09611744,0.0,0.0,0.0,1.14785,1.1478176,1.0061649,0.0,0.0,0.0,0.0,0.0,0.0
4640000,4560000,0.09834611,0.09834691,0.2091524,1.0002832,1.0002832,2.0667179,0.0,0.0,0.0,0.0,0.0,0.0,0.0,13.316856,0.0,0.0,nan,0.0,0.0,0.0,0.0,0.09611744,0.0,0.0,0.0,1.1497731,1.1497401,1.0061666,0.0,0.0,0.0,0.0,0.0,0.0
4648000,4568000,0.09834611,0.09834691,0.2091524,1.0002832,1.0002832,2.0667179,0.0,0.0,0.0,0.0,0.0,0.0,0.0,13.316856,0.0,0.0,nan,0.0,0.0,0.0,0.0,0.09611744,0.0,0.0,0.0,1.1517121,1.151679,1.0061686,0.0,0.0,0.0,0.0,0.0,0.0
4656000,4576000,0.09834611,0.09834691,0.2091524,1.0002832,1.0002832,2.0667179,0.0,0.0,0.0,0.0,0.0,0.0,0.0,13.316856,0.0,0.0,nan,0.0,0.0,0.0,0.0,0.09611744,0.0,0.0,0.0,1.1536674,1.1536341,1.0061705,0.0,0.0,0.0,0.0,0.0,0.0
4664000,4584000,0.09834611,0.09834691,0.2091524,1.0002832,1.0002832,2.0667179,0.0,0.0,0.0,0.0,0.0,0.0,0.0,13.316856,0.0,0.0,nan,0.0,0.0,0.0,0.0,0.09611744,0.0,0.0,0.0,1.1556394,1.1556054,1.0061723,0.0,0.0,0.0,0.0,0.0,0.0
4672000,4592000,0.09834611,0.09834691,0.2091524,1.0002832,1.0002832,2.0667179,0.0,0.0,0.0,0.0,0.0,0.0,0.0,13.316856,0.0,0.0,nan,0.0,0.0,0.0,0.0,0.09611744,0.0,0.0,0.0,1.1576273,1.1575931,1.0061742,0.0,0.0,0.0,0.0,0.0,0.0
4680000,4600000,0.09834611,0.09834691,0.2091524,1.0002832,1.0002832,2.0667179,0.0,0.0,0.0,0.0,0.0,0.0,0.0,13.316856,0.0,0.0,nan,0.0,0.0,0.0,0.0,0.09611744,0.0,0.0,0.0,1.1596317,1.1595972,1.006176,0.0,0.0,0.0,0.0,0.0,0.0
4688000,4608000,0.09834611,0.09834691,0.2091524,1.0002832,1.0002832,2.0667179,0.0,0.0,0.0,0.0,0.0,0.0,0.0,13.316856,0.0,0.0,nan,0.0,0.0,0.0,0.0,0.096176915,0.0,0.0,0.0,1.1616522,1.1616173,1.0061773,0.0,0.0,0.0,0.0,0.0,0.0
4696000,4616000,0.09834611,0.09834691,0.2091524,1.0002832,1.0002832,2.0667179,0.0,0.0,0.0,0.0,0.0,0.0,0.0,13.316856,0.0,0.0,nan,0.0,0.0,0.0,0.0,0.096176915,0.0,0.0,0.0,1.1636891,1.1636537,1.0061793,0.0,0.0,0.0,0.0,0.0,0.0
4704000,4624000,0.09834611,0.09834691,0.2091524,1.0002832,1.0002832,2.0667179,0.0,0.0,0.0,0.0,0.0,0.0,0.0,13.231697,0.0,0.0,nan,0.0,0.0,0.0,0.0,0.096176915,0.0,0.0,0.0,1.0837305,1.0836911,1.0061,0.0,0.0,0.0,0.0,0.0,0.0
4712000,4632000,0.09834611,0.09834691,0.2091524,1.0002832,1.0002832,2.0667179,0.0,0.0,0.0,0.0,0.0,0.0,0.0,13.231697,0.0,0.0,nan,0.0,0.0,0.0,0.0,0.096176915,0.0,0.0,0.0,1.0845426,1.0845032,1.0061008,0.0,0.0,0.0,0.0,0.0,0.0
4720000,4640000,0.09834611,0.09834691,0.2091524,1.0002832,1.0002832,2.0667179,0.0,0.0,0.0,0.0,0.0,0.0,0.0,13.231697,0.0,0.0,nan,0.0,0.0,0.0,0.0,0.096176915,0.0,0.0,0.0,1.0853615,1.0853218,1.0061015,0.0,0.0,0.0,0.0,0.0,0.0
4728000,4648000,0.09834611,0.09834691,0.2091524,1.0002832,1.0002832,2.0667179,0.0,0.0,0.0,0.0,0.0,0.0,0.0,13.231697,0.0,0.0,nan,0.0,0.0,0.0,0.0,0.096176915,0.0,0.0,0.0,1.0861871,1.0861471,1.0061023,0.0,0.0,0.0,0.0,0.0,0.0
4736000,4656000,0.09834611,0.09834691,0.2091524,1.0002832,1.0002832,2.0667179,0.0,0.0,0.0,0.0,0.0,0.0,0.0,13.231697,0.0,0.0,nan,0.0,0.0,0.0,0.0,0.096176915,0.0,0.0,0.0,1.0831898,1.0831509,1.0060992,0.0,0.0,0.0,0.0,0.0,0.0
4744000,4664000,0.09834611,0.09834691,0.2091524,1.0002832,1.0002832,2.0667179,0.0,0.0,0.0,0.0,0.0,0.0,0.0,13.231697,0.0,0.0,nan,0.0,0.0,0.0,0.0,0.096176915,0.0,0.0,0.0,1.0839692,1.08393,1.0061,0.0,0.0,0.0,0.0,0.0,0.0
4752000,4672000,0.09834611,0.09834691,0.2091524,1.0002832,1.0002832,2.0667179,0.0,0.0,0.0,0.0,0.0,0.0,0.0,13.231697,0.0,0.0,nan,0.0,0.0,0.0,0.0,0.096176915,0.0,0.0,0.0,1.0847551,1.0847154,1.0061008,0.0,0.0,0.0,0.0,0.0,0.0
4760000,4680000,0.09834611,0.09834691,0.2091524,1.0002832,1.0002832,2.0667179,0.0,0.0,0.0,0.0,0.0,0.0,0.0,13.158998,0.0,0.0,nan,0.0,0.0,0.0,0.0,0.096239015,0.0,0.0,0.0,1.085547,1.085507,1.0061015,0.0,0.0,0.0,0.0,0.0,0.0
4768000,4688000,0.09834611,0.09834691,0.2091524,1.0002832,1.0002832,2.0667179,0.0,0.0,0.0,0.0,0.0,0.0,0.0,13.158998,0.0,0.0,nan,0.0,0.0,0.0,0.0,0.096239015,0.0,0.0,0.0,1.0863452,1.086305,1.0061023,0.0,0.0,0.0,0.0,0.0,0.0
4776000,4696000,0.09834611,0.09834691,0.2091524,1.0002832,1.0002832,2.0667179,0.0,0.0,0.0,0.0,0.0,0.0,0.0,13.158998,0.0,0.0,nan,0.0,0.0,0.0,0.0,0.096239015,0.0,0.0,0.0,1.0871497,1.0871092,1.0061029,0.0,0.0,0.0,0.0,0.0,0.0
4784000,4704000,0.09834611,0.09834691,0.2091524,1.0002832,1.0002832,2.0667179,0.0,0.0,0.0,0.0,0.0,0.0,0.0,13.158998,0.0,0.0,nan,0.0,0.0,0.0,0.0,0.096239015,0.0,0.0,0.0,1.0879606,1.0879197,1.0061036,0.0,0.0,0.0,0.0,0.0,0.0
4792000,4712000,0.09834611,0.09834691,0.2091524,1.0002832,1.0002832,2.0667179,0.0,0.0,0.0,0.0,0.0,0.0,0.0,13.158998,0.0,0.0,nan,0.0,0.0,0.0,0.0,0.096239015,0.0,0.0,0.0,1.0887777,1.0887364,1.0061044,0.0,0.0,0.0,0.0,0.0,0.0
4800000,4720000,0.09834611,0.09834691,0.2091524,1.0002832,1.0002832,2.0667179,0.0,0.0,0.0,0.0,0.0,0.0,0.0,13.158998,0.0,0.0,nan,0.0,0.0,0.0,0.0,0.096239015,0.0,0.0,0.0,1.0896012,1.0895593,1.0061051,0.0,0.0,0.0,0.0,0.0,0.0
4808000,4728000,0.09834611,0.09834691,0.2091524,1.0002832,1.0002832,2.0667179,0.0,0.0,0.0,0.0,0.0,0.0,0.0,13.158998,0.0,0.0,nan,0.0,0.0,0.0,0.0,0.096239015,0.0,0.0,0.0,1.0904307,1.0903887,1.0061058,0.0,0.0,0.0,0.0,0.0,0.0
4816000,4736000,0.09834611,0.09834691,0.2091524,1.0002832,1.0002832,2.0667179,0.0,0.0,0.0,0.0,0.0,0.0,0.0,13.158998,0.0,0.0,nan,0.0,0.0,0.0,0.0,0.096239015,0.0,0.0,0.0,1.0912665,1.0912241,1.0061066,0.0,0.0,0.0,0.0,0.0,0.0
4824000,4744000,0.09834611,0.09834691,0.2091524,1.0002832,1.0002832,2.0667179,0.0,0.0,0.0,0.0,0.0,0.0,0.0,13.096555,0.0,0.0,nan,0.0,0.0,0.0,0.0,0.096239015,0.0,0.0,0.0,1.0921086,1.0920659,1.0061074,0.0,0.0,0.0,0.0,0.0,0.0
4832000,4752000,0.09834611,0.09834691,0.2091524,1.0002832,1.0002832,2.0667179,0.0,0.0,0.0,0.0,0.0,0.0,0.0,13.096555,0.0,0.0,nan,0.0,0.0,0.0,0.0,0.096301384,0.0,0.0,0.0,1.0929571,1.0929139,1.0061082,0.0,0.0,0.0,0.0,0.0,0.0
4840000,4760000,0.09834611,0.09834691,0.2091524,1.0002832,1.0002832,2.0667179,0.0,0.0,0.0,0.0,0.0,0.0,0.0,13.096555,0.0,0.0,nan,0.0,0.0,0.0,0.0,0.096301384,0.0,0.0,0.0,1.0938119,1.0937682,1.0061088,0.0,0.0,0.0,0.0,0.0,0.0
4848000,4768000,0.09834611,0.09834691,0.2091524,1.0002832,1.0002832,2.0667179,0.0,0.0,0.0,0.0,0.0,0.0,0.0,13.096555,0.0,0.0,nan,0.0,0.0,0.0,0.0,0.096301384,0.0,0.0,0.0,1.0946728,1.0946289,1.0061095,0.0,0.0,0.0,0.0,0.0,0.0
4856000,4776000,0.09834611,0.09834691,0.2091524,1.0002832,1.0002832,2.0667179,0.0,0.0,0.0,0.0,0.0,0.0,0.0,13.096555,0.0,0.0,nan,0.0,0.0,0.0,0.0,0.096301384,0.0,0.0,0.0,1.0955399,1.0954958,1.0061103,0.0,0.0,0.0,0.0,0.0,0.0
4864000,4784000,0.09834611,0.09834691,0.2091524,1.0002832,1.0002832,2.0667179,0.0,0.0,0.0,0.0,0.0,0.0,0.0,13.096555,0.0,0.0,nan,0.0,0.0,0.0,0.0,0.096301384,0.0,0.0,0.0,1.0964134,1.0963688,1.006111,0.0,0.0,0.0,0.0,0.0,0.0
4872000,4792000,0.09834611,0.09834691,0.2091524,1.0002832,1.0002832,2.0667179,0.0,0.0,0.0,0.0,0.0,0.0,0.0,13.096555,0.0,0.0,nan,0.0,0.0,0.0,0.0,0.096301384,0.0,0.0,0.0,1.097293,1.0972482,1.0061117,0.0,0.0,0.0,0.0,0.0,0.0
4880000,4800000,0.09834611,0.09834691,0.2091524,1.0002832,1.0002832,2.0667179,0.0,0.0,0.0,0.0,0.0,0.0,0.0,13.042185,0.0,0.0,nan,0.0,0.0,0.0,0.0,0.096301384,0.0,0.0,0.0,1.0981791,1.0981338,1.0061123,0.0,0.0,0.0,0.0,0.0,0.0
4888000,4808000,0.09834611,0.09834691,0.2091524,1.0002832,1.0002832,2.0667179,0.0,0.0,0.0,0.0,0.0,0.0,0.0,13.042185,0.0,0.0,nan,0.0,0.0,0.0,0.0,0.096301384,0.0,0.0,0.0,1.0990713,1.0990258,1.0061129,0.0,0.0,0.0,0.0,0.0,0.0
4896000,4816000,0.09834611,0.09834691,0.2091524,1.0002832,1.0002832,2.0667179,0.0,0.0,0.0,0.0,0.0,0.0,0.0,13.042185,0.0,0.0,nan,0.0,0.0,0.0,0.0,0.096301384,0.0,0.0,0.0,1.0999697,1.099924,1.0061138,0.0,0.0,0.0,0.0,0.0,0.0
4904000,4824000,0.09834611,0.09834691,0.2091524,1.0002832,1.0002832,2.0667179,0.0,0.0,0.0,0.0,0.0,0.0,0.0,13.042185,0.0,0.0,nan,0.0,0.0,0.0,0.0,0.09636189,0.0,0.0,0.0,1.1008743,1.1008285,1.0061152,0.0,0.0,0.0,0.0,0.0,0.0
4912000,4832000,0.09834611,0.09834691,0.2091524,1.0002832,1.0002832,2.0667179,0.0,0.0,0.0,0.0,0.0,0.0,0.0,13.042185,0.0,0.0,nan,0.0,0.0,0.0,0.0,0.09636189,0.0,0.0,0.0,1.0633224,1.0632848,1.006079,0.0,0.0,0.0,0.0,0.0,0.0
4920000,4840000,0.09834611,0.09834691,0.2091524,1.0002832,1.0002832,2.0667179,0.0,0.0,0.0,0.0,0.0,0.0,0.0,13.042185,0.0,0.0,nan,0.0,0.0,0.0,0.0,0.09636189,0.0,0.0,0.0,1.0637325,1.0636946,1.0060794,0.0,0.0,0.0,0.0,0.0,0.0
4928000,4848000,0.09834611,0.09834691,0.2091524,1.0002832,1.0002832,2.0667179,0.0,0.0,0.0,0.0,0.0,0.0,0.0,13.042185,0.0,0.0,nan,0.0,0.0,0.0,0.0,0.09636189,0.0,0.0,0.0,1.0641457,1.0641074,1.0060797,0.0,0.0,0.0,0.0,0.0,0.0
4936000,4856000,0.09834611,0.09834691,0.2091524,1.0002832,1.0002832,2.0667179,0.0,0.0,0.0,0.0,0.0,0.0,0.0,13.042185,0.0,0.0,nan,0.0,0.0,0.0,0.0,0.09636189,0.0,0.0,0.0,1.0645616,1.0645233,1.0060799,0.0,0.0,0.0,0.0,0.0,0.0
4944000,4864000,0.09834611,0.09834691,0.2091524,1.0002832,1.0002832,2.0667179,0.0,0.0,0.0,0.0,0.0,0.0,0.0,12.994228,0.0,0.0,nan,0.0,0.0,0.0,0.0,0.09636189,0.0,0.0,0.0,1.0633954,1.0633578,1.0060787,0.0,0.0,0.0,0.0,0.0,0.0
4952000,4872000,0.09834611,0.09834691,0.2091524,1.0002832,1.0002832,2.0667179,0.0,0.0,0.0,0.0,0.0,0.0,0.0,12.994228,0.0,0.0,nan,0.0,0.0,0.0,0.0,0.09636189,0.0,0.0,0.0,1.063796,1.0637583,1.0060792,0.0,0.0,0.0,0.0,0.0,0.0
4960000,4880000,0.09834611,0.09834691,0.2091524,1.0002832,1.0002832,2.0667179,0.0,0.0,0.0,0.0,0.0,0.0,0.0,12.994228,0.0,0.0,nan,0.0,0.0,0.0,0.0,0.09636189,0.0,0.0,0.0,1.0641993,1.0641617,1.0060793,0.0,0.0,0.0,0.0,0.0,0.0
4968000,4888000,0.09834611,0.09834691,0.2091524,1.0002832,1.0002832,2.0667179,0.0,0.0,0.0,0.0,0.0,0.0,0.0,12.994228,0.0,0.0,nan,0.0,0.0,0.0,0.0,0.09636189,0.0,0.0,0.0,1.0646056,1.0645677,1.0060797,0.0,0.0,0.0,0.0,0.0,0.0
4976000,4896000,0.09834611,0.09834691,0.2091524,1.0002832,1.0002832,2.0667179,0.0,0.0,0.0,0.0,0.0,0.0,0.0,12.994228,0.0,0.0,nan,0.0,0.0,0.0,0.0,0.09641874,0.0,0.0,0.0,1.0650146,1.0649765,1.0060802,0.0,0.0,0.0,0.0,0.0,0.0
4984000,4904000,0.09834611,0.09834691,0.2091524,1.0002832,1.0002832,2.0667179,0.0,0.0,0.0,0.0,0.0,0.0,0.0,12.994228,0.0,0.0,nan,0.0,0.0,0.0,0.0,0.09641874,0.0,0.0,0.0,1.0654263,1.0653881,1.0060806,0.0,0.0,0.0,0.0,0.0,0.0
4992000,4912000,0.09834611,0.09834691,0.2091524,1.0002832,1.0002832,2.0667179,0.0,0.0,0.0,0.0,0.0,0.0,0.0,12.994228,0.0,0.0,nan,0.0,0.0,0.0,0.0,0.09641874,0.0,0.0,0.0,1.065841,1.0658025,1.0060809,0.0,0.0,0.0,0.0,0.0,0.0
5000000,4920000,0.09834611,0.09834691,0.2091524,1.0002832,1.0002832,2.0667179,0.0,0.0,0.0,0.0,0.0,0.0,0.0,12.951975,0.0,0.0,nan,0.0,0.0,0.0,0.0,0.09641874,0.0,0.0,0.0,1.0662584,1.0662197,1.0060813,0.0,0.0,0.0,0.0,0.0,0.0
5008000,4928000,0.09379053,0.093791515,0.21062976,1.0001856,1.0001856,1.6639845,0.0,0.0,0.0,0.0,0.0,0.0,0.0,12.951975,0.0,0.0,nan,0.0,0.0,0.0,0.0,0.09641874,0.0,0.0,0.0,1.0666785,1.0666397,1.0060817,0.0,0.0,0.0,0.0,0.0,0.0
5016000,4936000,0.09379053,0.093791515,0.21062976,1.0001856,1.0001856,1.6639845,0.0,0.0,0.0,0.0,0.0,0.0,0.0,12.951975,0.0,0.0,nan,0.0,0.0,0.0,0.0,0.09641874,0.0,0.0,0.0,1.0671017,1.0670626,1.0060819,0.0,0.0,0.0,0.0,0.0,0.0
5024000,4944000,0.09379053,0.093791515,0.21062976,1.0001856,1.0001856,1.6639845,0.0,0.0,0.0,0.0,0.0,0.0,0.0,12.951975,0.0,0.0,nan,0.0,0.0,0.0,0.0,0.09641874,0.0,0.0,0.0,1.0675275,1.0674882,1.0060823,0.0,0.0,0.0,0.0,0.0,0.0
5032000,4952000,0.09379053,0.093791515,0.21062976,1.0001856,1.0001856,1.6639845,0.0,0.0,0.0,0.0,0.0,0.0,0.0,12.951975,0.0,0.0,nan,0.0,0.0,0.0,0.0,0.09641874,0.0,0.0,0.0,1.0679561,1.0679165,1.0060827,0.0,0.0,0.0,0.0,0.0,0.0
5040000,4960000,0.09379053,0.093791515,0.21062976,1.0001856,1.0001856,1.6639845,0.0,0.0,0.0,0.0,0.0,0.0,0.0,12.951975,0.0,0.0,nan,0.0,0.0,0.0,0.0,0.09641874,0.0,0.0,0.0,1.0683876,1.0683477,1.006083,0.0,0.0,0.0,0.0,0.0,0.0
5048000,4968000,0.09379053,0.093791515,0.21062976,1.0001856,1.0001856,1.6639845,0.0,0.0,0.0,0.0,0.0,0.0,0.0,12.951975,0.0,0.0,nan,0.0,0.0,0.0,0.0,0.09647072,0.0,0.0,0.0,1.0688217,1.0687816,1.0060831,0.0,0.0,0.0,0.0,0.0,0.0
5056000,4976000,0.09379053,0.093791515,0.21062976,1.0001856,1.0001856,1.6639845,0.0,0.0,0.0,0.0,0.0,0.0,0.0,12.951975,0.0,0.0,nan,0.0,0.0,0.0,0.0,0.09647072,0.0,0.0,0.0,1.0692588,1.0692185,1.0060834,0.0,0.0,0.0,0.0,0.0,0.0
5064000,4984000,0.09379053,0.093791515,0.21062976,1.0001856,1.0001856,1.6639845,0.0,0.0,0.0,0.0,0.0,0.0,0.0,12.91441,0.0,0.0,nan,0.0,0.0,0.0,0.0,0.09647072,0.0,0.0,0.0,1.0696986,1.069658,1.0060837,0.0,0.0,0.0,0.0,0.0,0.0
5072000,4992000,0.09379053,0.093791515,0.21062976,1.0001856,1.0001856,1.6639845,0.0,0.0,0.0,0.0,0.0,0.0,0.0,12.91441,0.0,0.0,nan,0.0,0.0,0.0,0.0,0.09647072,0.0,0.0,0.0,1.0701412,1.0701005,1.0060842,0.0,0.0,0.0,0.0,0.0,0.0
5080000,5000000,0.09379053,0.093791515,0.21062976,1.0001856,1.0001856,1.6639845,0.0,0.0,0.0,0.0,0.0,0.0,0.0,12.91441,0.0,0.0,nan,0.0,0.0,0.0,0.0,0.09647072,0.0,0.0,0.0,1.0705867,1.0705456,1.0060847,0.0,0.0,0.0,0.0,0.0,0.0
5088000,5008000,0.09379053,0.093791515,0.21062976,1.0001856,1.0001856,1.6639845,0.0,0.0,0.0,0.0,0.0,0.0,0.0,12.91441,0.0,0.0,nan,0.0,0.0,0.0,0.0,0.09647072,0.0,0.0,0.0,1.0710349,1.0709937,1.0060849,0.0,0.0,0.0,0.0,0.0,0.0
5096000,5016000,0.09379053,0.093791515,0.21062976,1.0001856,1.0001856,1.6639845,0.0,0.0,0.0,0.0,0.0,0.0,0.0,12.91441,0.0,0.0,nan,0.0,0.0,0.0,0.0,0.09647072,0.0,0.0,0.0,1.0714859,1.0714445,1.0060853,0.0,0.0,0.0,0.0,0.0,0.0
5104000,5024000,0.09379053,0.093791515,0.21062976,1.0001856,1.0001856,1.6639845,0.0,0.0,0.0,0.0,0.0,0.0,0.0,12.91441,0.0,0.0,nan,0.0,0.0,0.0,0.0,0.09647072,0.0,0.0,0.0,1.0719397,1.071898,1.0060856,0.0,0.0,0.0,0.0,0.0,0.0
5112000,5032000,0.09379053,0.093791515,0.21062976,1.0001856,1.0001856,1.6639845,0.0,0.0,0.0,0.0,0.0,0.0,0.0,12.91441,0.0,0.0,nan,0.0,0.0,0.0,0.0,0.09647072,0.0,0.0,0.0,1.0723963,1.0723546,1.006086,0.0,0.0,0.0,0.0,0.0,0.0
5120000,5040000,0.09379053,0.093791515,0.21062976,1.0001856,1.0001856,1.6639845,0.0,0.0,0.0,0.0,0.0,0.0,0.0,12.880699,0.0,0.0,nan,0.0,0.0,0.0,0.0,0.09651668,0.0,0.0,0.0,1.0532147,1.0531797,1.0060676,0.0,0.0,0.0,0.0,0.0,0.0
5128000,5048000,0.09379053,0.093791515,0.21062976,1.0001856,1.0001856,1.6639845,0.0,0.0,0.0,0.0,0.0,0.0,0.0,12.880699,0.0,0.0,nan,0.0,0.0,0.0,0.0,0.09651668,0.0,0.0,0.0,1.0534495,1.0534146,1.0060678,0.0,0.0,0.0,0.0,0.0,0.0
5136000,5056000,0.09379053,0.093791515,0.21062976,1.0001856,1.0001856,1.6639845,0.0,0.0,0.0,0.0,0.0,0.0,0.0,12.880699,0.0,0.0,nan,0.0,0.0,0.0,0.0,0.09651668,0.0,0.0,0.0,1.0536859,1.0536507,1.006068,0.0,0.0,0.0,0.0,0.0,0.0
5144000,5064000,0.09379053,0.093791515,0.21062976,1.0001856,1.0001856,1.6639845,0.0,0.0,0.0,0.0,0.0,0.0,0.0,12.880699,0.0,0.0,nan,0.0,0.0,0.0,0.0,0.09651668,0.0,0.0,0.0,1.0539238,1.0538886,1.0060681,0.0,0.0,0.0,0.0,0.0,0.0
5152000,5072000,0.09379053,0.093791515,0.21062976,1.0001856,1.0001856,1.6639845,0.0,0.0,0.0,0.0,0.0,0.0,0.0,12.880699,0.0,0.0,nan,0.0,0.0,0.0,0.0,0.09651668,0.0,0.0,0.0,1.0534065,1.0533715,1.0060676,0.0,0.0,0.0,0.0,0.0,0.0
5160000,5080000,0.09379053,0.093791515,0.21062976,1.0001856,1.0001856,1.6639845,0.0,0.0,0.0,0.0,0.0,0.0,0.0,12.880699,0.0,0.0,nan,0.0,0.0,0.0,0.0,0.09651668,0.0,0.0,0.0,1.0536385,1.0536033,1.0060678,0.0,0.0,0.0,0.0,0.0,0.0
5168000,5088000,0.09379053,0.093791515,0.21062976,1.0001856,1.0001856,1.6639845,0.0,0.0,0.0,0.0,0.0,0.0,0.0,12.880699,0.0,0.0,nan,0.0,0.0,0.0,0.0,0.09651668,0.0,0.0,0.0,1.0538719,1.0538367,1.006068,0.0,0.0,0.0,0.0,0.0,0.0
5176000,5096000,0.09379053,0.093791515,0.21062976,1.0001856,1.0001856,1.6639845,0.0,0.0,0.0,0.0,0.0,0.0,0.0,12.880699,0.0,0.0,nan,0.0,0.0,0.0,0.0,0.09651668,0.0,0.0,0.0,1.0541067,1.0540714,1.0060682,0.0,0.0,0.0,0.0,0.0,0.0
5184000,5104000,0.09379053,0.093791515,0.21062976,1.0001856,1.0001856,1.6639845,0.0,0.0,0.0,0.0,0.0,0.0,0.0,12.849936,0.0,0.0,nan,0.0,0.0,0.0,0.0,0.09651668,0.0,0.0,0.0,1.054343,1.0543076,1.0060685,0.0,0.0,0.0,0.0,0.0,0.0
5192000,5112000,0.09379053,0.093791515,0.21062976,1.0001856,1.0001856,1.6639845,0.0,0.0,0.0,0.0,0.0,0.0,0.0,12.849936,0.0,0.0,nan,0.0,0.0,0.0,0.0,0.09655591,0.0,0.0,0.0,1.0545807,1.0545452,1.0060686,0.0,0.0,0.0,0.0,0.0,0.0
5200000,5120000,0.09379053,0.093791515,0.21062976,1.0001856,1.0001856,1.6639845,0.0,0.0,0.0,0.0,0.0,0.0,0.0,12.849936,0.0,0.0,nan,0.0,0.0,0.0,0.0,0.09655591,0.0,0.0,0.0,1.0548198,1.0547842,1.0060687,0.0,0.0,0.0,0.0,0.0,0.0
5208000,5128000,0.09379053,0.093791515,0.21062976,1.0001856,1.0001856,1.6639845,0.0,0.0,0.0,0.0,0.0,0.0,0.0,12.849936,0.0,0.0,nan,0.0,0.0,0.0,0.0,0.09655591,0.0,0.0,0.0,1.0550605,1.0550247,1.006069,0.0,0.0,0.0,0.0,0.0,0.0
5216000,5136000,0.09379053,0.093791515,0.21062976,1.0001856,1.0001856,1.6639845,0.0,0.0,0.0,0.0,0.0,0.0,0.0,12.849936,0.0,0.0,nan,0.0,0.0,0.0,0.0,0.09655591,0.0,0.0,0.0,1.0553026,1.0552665,1.0060691,0.0,0.0,0.0,0.0,0.0,0.0
5224000,5144000,0.09379053,0.093791515,0.21062976,1.0001856,1.0001856,1.6639845,0.0,0.0,0.0,0.0,0.0,0.0,0.0,12.849936,0.0,0.0,nan,0.0,0.0,0.0,0.0,0.09655591,0.0,0.0,0.0,1.055546,1.0555099,1.0060693,0.0,0.0,0.0,0.0,0.0,0.0
5232000,5152000,0.09379053,0.093791515,0.21062976,1.0001856,1.0001856,1.6639845,0.0,0.0,0.0,0.0,0.0,0.0,0.0,12.849936,0.0,0.0,nan,0.0,0.0,0.0,0.0,0.09655591,0.0,0.0,0.0,1.0557909,1.0557548,1.0060695,0.0,0.0,0.0,0.0,0.0,0.0
5240000,5160000,0.09379053,0.093791515,0.21062976,1.0001856,1.0001856,1.6639845,0.0,0.0,0.0,0.0,0.0,0.0,0.0,12.822401,0.0,0.0,nan,0.0,0.0,0.0,0.0,0.09655591,0.0,0.0,0.0,1.0560374,1.0560011,1.0060699,0.0,0.0,0.0,0.0,0.0,0.0
5248000,5168000,0.09379053,0.093791515,0.21062976,1.0001856,1.0001856,1.6639845,0.0,0.0,0.0,0.0,0.0,0.0,0.0,12.822401,0.0,0.0,nan,0.0,0.0,0.0,0.0,0.09655591,0.0,0.0,0.0,1.0562851,1.0562487,1.0060701,0.0,0.0,0.0,0.0,0.0,0.0
5256000,5176000,0.09379053,0.093791515,0.21062976,1.0001856,1.0001856,1.6639845,0.0,0.0,0.0,0.0,0.0,0.0,0.0,12.822401,0.0,0.0,nan,0.0,0.0,0.0,0.0,0.09655591,0.0,0.0,0.0,1.0565344,1.0564977,1.0060701,0.0,0.0,0.0,0.0,0.0,0.0
5264000,5184000,0.09379053,0.093791515,0.21062976,1.0001856,1.0001856,1.6639845,0.0,0.0,0.0,0.0,0.0,0.0,0.0,12.822401,0.0,0.0,nan,0.0,0.0,0.0,0.0,0.09658785,0.0,0.0,0.0,1.056785,1.0567483,1.00607,0.0,0.0,0.0,0.0,0.0,0.0
5272000,5192000,0.09379053,0.093791515,0.21062976,1.0001856,1.0001856,1.6639845,0.0,0.0,0.0,0.0,0.0,0.0,0.0,12.822401,0.0,0.0,nan,0.0,0.0,0.0,0.0,0.09658785,0.0,0.0,0.0,1.0570372,1.0570003,1.0060703,0.0,0.0,0.0,0.0,0.0,0.0
5280000,5200000,0.09379053,0.093791515,0.21062976,1.0001856,1.0001856,1.6639845,0.0,0.0,0.0,0.0,0.0,0.0,0.0,12.822401,0.0,0.0,nan,0.0,0.0,0.0,0.0,0.09658785,0.0,0.0,0.0,1.0572908,1.0572537,1.0060705,0.0,0.0,0.0,0.0,0.0,0.0
5288000,5208000,0.09379053,0.093791515,0.21062976,1.0001856,1.0001856,1.6639845,0.0,0.0,0.0,0.0,0.0,0.0,0.0,12.822401,0.0,0.0,nan,0.0,0.0,0.0,0.0,0.09658785,0.0,0.0,0.0,1.0575458,1.0575086,1.0060707,0.0,0.0,0.0,0.0,0.0,0.0
5296000,5216000,0.09379053,0.093791515,0.21062976,1.0001856,1.0001856,1.6639845,0.0,0.0,0.0,0.0,0.0,0.0,0.0,12.822401,0.0,0.0,nan,0.0,0.0,0.0,0.0,0.09658785,0.0,0.0,0.0,1.0578023,1.057765,1.0060711,0.0,0.0,0.0,0.0,0.0,0.0
5304000,5224000,0.09379053,0.093791515,0.21062976,1.0001856,1.0001856,1.6639845,0.0,0.0,0.0,0.0,0.0,0.0,0.0,12.797452,0.0,0.0,nan,0.0,0.0,0.0,0.0,0.09658785,0.0,0.0,0.0,1.0580602,1.0580227,1.0060712,0.0,0.0,0.0,0.0,0.0,0.0
5312000,5232000,0.09379053,0.093791515,0.21062976,1.0001856,1.0001856,1.6639845,0.0,0.0,0.0,0.0,0.0,0.0,0.0,12.797452,0.0,0.0,nan,0.0,0.0,0.0,0.0,0.09658785,0.0,0.0,0.0,1.0583196,1.058282,1.0060713,0.0,0.0,0.0,0.0,0.0,0.0
5320000,5240000,0.09379053,0.093791515,0.21062976,1.0001856,1.0001856,1.6639845,0.0,0.0,0.0,0.0,0.0,0.0,0.0,12.797452,0.0,0.0,nan,0.0,0.0,0.0,0.0,0.09658785,0.0,0.0,0.0,1.0585803,1.0585426,1.0060716,0.0,0.0,0.0,0.0,0.0,0.0
5328000,5248000,0.09379053,0.093791515,0.21062976,1.0001856,1.0001856,1.6639845,0.0,0.0,0.0,0.0,0.0,0.0,0.0,12.797452,0.0,0.0,nan,0.0,0.0,0.0,0.0,0.09658785,0.0,0.0,0.0,1.0477399,1.0477072,1.0060617,0.0,0.0,0.0,0.0,0.0,0.0
5336000,5256000,0.09379053,0.093791515,0.21062976,1.0001856,1.0001856,1.6639845,0.0,0.0,0.0,0.0,0.0,0.0,0.0,12.797452,0.0,0.0,nan,0.0,0.0,0.0,0.0,0.09661221,0.0,0.0,0.0,1.0478888,1.047856,1.0060617,0.0,0.0,0.0,0.0,0.0,0.0
5344000,5264000,0.09379053,0.093791515,0.21062976,1.0001856,1.0001856,1.6639845,0.0,0.0,0.0,0.0,0.0,0.0,0.0,12.797452,0.0,0.0,nan,0.0,0.0,0.0,0.0,0.09661221,0.0,0.0,0.0,1.0480388,1.0480059,1.0060618,0.0,0.0,0.0,0.0,0.0,0.0
5352000,5272000,0.09379053,0.093791515,0.21062976,1.0001856,1.0001856,1.6639845,0.0,0.0,0.0,0.0,0.0,0.0,0.0,12.797452,0.0,0.0,nan,0.0,0.0,0.0,0.0,0.09661221,0.0,0.0,0.0,1.0481896,1.0481566,1.0060619,0.0,0.0,0.0,0.0,0.0,0.0
5360000,5280000,0.09379053,0.093791515,0.21062976,1.0001856,1.0001856,1.6639845,0.0,0.0,0.0,0.0,0.0,0.0,0.0,12.77402,0.0,0.0,nan,0.0,0.0,0.0,0.0,0.09661221,0.0,0.0,0.0,1.0479314,1.0478987,1.0060617,0.0,0.0,0.0,0.0,0.0,0.0
5368000,5288000,0.09379053,0.093791515,0.21062976,1.0001856,1.0001856,1.6639845,0.0,0.0,0.0,0.0,0.0,0.0,0.0,12.77402,0.0,0.0,nan,0.0,0.0,0.0,0.0,0.09661221,0.0,0.0,0.0,1.0480796,1.0480468,1.0060617,0.0,0.0,0.0,0.0,0.0,0.0
5376000,5296000,0.09379053,0.093791515,0.21062976,1.0001856,1.0001856,1.6639845,0.0,0.0,0.0,0.0,0.0,0.0,0.0,12.77402,0.0,0.0,nan,0.0,0.0,0.0,0.0,0.09661221,0.0,0.0,0.0,1.0482286,1.0481958,1.0060619,0.0,0.0,0.0,0.0,0.0,0.0
5384000,5304000,0.09379053,0.093791515,0.21062976,1.0001856,1.0001856,1.6639845,0.0,0.0,0.0,0.0,0.0,0.0,0.0,12.77402,0.0,0.0,nan,0.0,0.0,0.0,0.0,0.09661221,0.0,0.0,0.0,1.0483785,1.0483457,1.006062,0.0,0.0,0.0,0.0,0.0,0.0
5392000,5312000,0.09379053,0.093791515,0.21062976,1.0001856,1.0001856,1.6639845,0.0,0.0,0.0,0.0,0.0,0.0,0.0,12.77402,0.0,0.0,nan,0.0,0.0,0.0,0.0,0.09661221,0.0,0.0,0.0,1.0485293,1.0484962,1.0060622,0.0,0.0,0.0,0.0,0.0,0.0
5400000,5320000,0.09379053,0.093791515,0.21062976,1.0001856,1.0001856,1.6639845,0.0,0.0,0.0,0.0,0.0,0.0,0.0,12.77402,0.0,0.0,nan,0.0,0.0,0.0,0.0,0.09661221,0.0,0.0,0.0,1.0486808,1.0486478,1.0060623,0.0,0.0,0.0,0.0,0.0,0.0
5408000,5328000,0.092189476,0.09219016,0.2109052,1.0001367,1.0001367,1.5029595,0.0,0.0,0.0,0.0,0.0,0.0,0.0,12.77402,0.0,0.0,nan,0.0,0.0,0.0,0.0,0.09662889,0.0,0.0,0.0,1.048833,1.0488,1.0060626,0.0,0.0,0.0,0.0,0.0,0.0
5416000,5336000,0.092189476,0.09219016,0.2109052,1.0001367,1.0001367,1.5029595,0.0,0.0,0.0,0.0,0.0,0.0,0.0,12.77402,0.0,0.0,nan,0.0,0.0,0.0,0.0,0.09662889,0.0,0.0,0.0,1.0489862,1.048953,1.0060626,0.0,0.0,0.0,0.0,0.0,0.0
5424000,5344000,0.092189476,0.09219016,0.2109052,1.0001367,1.0001367,1.5029595,0.0,0.0,0.0,0.0,0.0,0.0,0.0,12.753116,0.0,0.0,nan,0.0,0.0,0.0,0.0,0.09662889,0.0,0.0,0.0,1.0491401,1.049107,1.0060627,0.0,0.0,0.0,0.0,0.0,0.0
5432000,5352000,0.092189476,0.09219016,0.2109052,1.0001367,1.0001367,1.5029595,0.0,0.0,0.0,0.0,0.0,0.0,0.0,12.753116,0.0,0.0,nan,0.0,0.0,0.0,0.0,0.09662889,0.0,0.0,0.0,1.0492951,1.0492617,1.0060627,0.0,0.0,0.0,0.0,0.0,0.0
5440000,5360000,0.092189476,0.09219016,0.2109052,1.0001367,1.0001367,1.5029595,0.0,0.0,0.0,0.0,0.0,0.0,0.0,12.753116,0.0,0.0,nan,0.0,0.0,0.0,0.0,0.09662889,0.0,0.0,0.0,1.0494508,1.0494173,1.006063,0.0,0.0,0.0,0.0,0.0,0.0
5448000,5368000,0.092189476,0.09219016,0.2109052,1.0001367,1.0001367,1.5029595,0.0,0.0,0.0,0.0,0.0,0.0,0.0,12.753116,0.0,0.0,nan,0.0,0.0,0.0,0.0,0.09662889,0.0,0.0,0.0,1.0496073,1.0495737,1.0060632,0.0,0.0,0.0,0.0,0.0,0.0
