timestamp,x,y,z,vx,vy,vz,acceleration[0],acceleration[1],acceleration[2],thrust[0],thrust[1],thrust[2],yaw,yawspeed
4548000,nan,nan,nan,nan,nan,nan,0.0,0.0,100.0,-0.0,-0.0,-0.001,1.6211342,0.0
4556000,nan,nan,nan,nan,nan,nan,0.0,0.0,100.0,-0.0,-0.0,-0.001,1.6211073,0.0
4652000,nan,nan,nan,nan,nan,nan,0.0,0.0,100.0,-0.0,-0.0,-0.001,1.6207397,0.0
4748000,nan,nan,nan,nan,nan,nan,0.0,0.0,100.0,-0.0,-0.0,-0.001,1.6208664,0.0
4852000,nan,nan,nan,nan,nan,nan,0.0,0.0,100.0,-0.0,-0.0,-0.001,1.6215634,0.0
4948000,nan,nan,nan,nan,nan,nan,0.0,0.0,100.0,-0.0,-0.0,-0.001,1.6218232,0.0
5052000,nan,nan,nan,nan,nan,nan,0.0,0.0,100.0,-0.0,-0.0,-0.001,1.6215612,0.0
5148000,nan,nan,nan,nan,nan,nan,0.0,0.0,100.0,-0.0,-0.0,-0.001,1.6218776,0.0
5252000,nan,nan,nan,nan,nan,nan,0.0,0.0,100.0,-0.0,-0.0,-0.001,1.6225673,0.0
5348000,nan,nan,nan,nan,nan,nan,0.0,0.0,100.0,-0.0,-0.0,-0.001,1.6225443,0.0
5452000,nan,nan,nan,nan,nan,nan,0.0,0.0,100.0,-0.0,-0.0,-0.001,1.6225572,0.0
5548000,nan,nan,nan,nan,nan,nan,0.0,0.0,100.0,-0.0,-0.0,-0.001,1.6223878,0.0
5652000,nan,nan,nan,nan,nan,nan,0.0,0.0,100.0,-0.0,-0.0,-0.001,1.6222489,0.0
5748000,nan,nan,nan,nan,nan,nan,0.0,0.0,100.0,-0.0,-0.0,-0.001,1.6217269,0.0
5852000,nan,nan,nan,nan,nan,nan,0.0,0.0,100.0,-0.0,-0.0,-0.001,1.6215065,0.0
5948000,nan,nan,nan,nan,nan,nan,0.0,0.0,100.0,-0.0,-0.0,-0.001,1.6218146,0.0
6052000,nan,nan,nan,nan,nan,nan,0.0,0.0,100.0,-0.0,-0.0,-0.001,1.6219884,0.0
6148000,nan,nan,nan,nan,nan,nan,0.0,0.0,100.0,-0.0,-0.0,-0.001,1.6221074,0.0
6252000,nan,nan,nan,nan,nan,nan,0.0,0.0,100.0,-0.0,-0.0,-0.001,1.6222972,0.0
6348000,nan,nan,nan,nan,nan,nan,0.0,0.0,100.0,-0.0,-0.0,-0.001,1.6220032,0.0
6452000,nan,nan,nan,nan,nan,nan,0.0,0.0,100.0,-0.0,-0.0,-0.001,1.6222163,0.0
6548000,nan,nan,nan,nan,nan,nan,0.0,0.0,100.0,-0.0,-0.0,-0.001,1.6225358,0.0
6652000,nan,nan,nan,nan,nan,nan,0.0,0.0,100.0,-0.0,-0.0,-0.001,1.622881,0.0
6748000,nan,nan,nan,nan,nan,nan,0.0,0.0,100.0,-0.0,-0.0,-0.001,1.6230788,0.0
6852000,nan,nan,nan,nan,nan,nan,0.0,0.0,100.0,-0.0,-0.0,-0.001,1.623565,0.0
6948000,nan,nan,nan,nan,nan,nan,0.0,0.0,100.0,-0.0,-0.0,-0.001,1.624202,0.0
7052000,nan,nan,nan,nan,nan,nan,0.0,0.0,100.0,-0.0,-0.0,-0.001,1.6259798,0.0
7148000,nan,nan,nan,nan,nan,nan,0.0,0.0,100.0,-0.0,-0.0,-0.001,1.6272392,0.0
7252000,nan,nan,nan,nan,nan,nan,0.0,0.0,100.0,-0.0,-0.0,-0.001,1.6275102,0.0
7348000,nan,nan,nan,nan,nan,nan,0.0,0.0,100.0,-0.0,-0.0,-0.001,1.6273004,0.0
7452000,nan,nan,nan,nan,nan,nan,0.0,0.0,100.0,-0.0,-0.0,-0.001,1.6269658,0.0
7548000,nan,nan,nan,nan,nan,nan,0.0,0.0,100.0,-0.0,-0.0,-0.001,1.6269007,0.0
7652000,nan,nan,nan,nan,nan,nan,0.0,0.0,100.0,-0.0,-0.0,-0.001,1.6270101,0.0
7748000,nan,nan,nan,nan,nan,nan,0.0,0.0,100.0,-0.0,-0.0,-0.001,1.6269333,0.0
7852000,nan,nan,nan,nan,nan,nan,0.0,0.0,100.0,-0.0,-0.0,-0.001,1.6265471,0.0
7948000,nan,nan,nan,nan,nan,nan,0.0,0.0,100.0,-0.0,-0.0,-0.001,1.6255213,0.0
8052000,nan,nan,nan,nan,nan,nan,0.0,0.0,100.0,-0.0,-0.0,-0.001,1.6236697,0.0
8148000,nan,nan,nan,nan,nan,nan,0.0,0.0,100.0,-0.0,-0.0,-0.001,1.622919,0.0
8252000,nan,nan,nan,nan,nan,nan,0.0,0.0,100.0,-0.0,-0.0,-0.001,1.6228606,0.0
8348000,nan,nan,nan,nan,nan,nan,0.0,0.0,100.0,-0.0,-0.0,-0.001,1.6230116,0.0
8452000,nan,nan,nan,nan,nan,nan,0.0,0.0,100.0,-0.0,-0.0,-0.001,1.6223183,0.0
8548000,nan,nan,nan,nan,nan,nan,0.0,0.0,100.0,-0.0,-0.0,-0.001,1.6225487,0.0
8652000,nan,nan,nan,nan,nan,nan,0.0,0.0,100.0,-0.0,-0.0,-0.001,1.6232027,0.0
8748000,nan,nan,nan,nan,nan,nan,0.0,0.0,100.0,-0.0,-0.0,-0.001,1.6229687,0.0
8852000,nan,nan,nan,nan,nan,nan,0.0,0.0,100.0,-0.0,-0.0,-0.001,1.6230588,0.0
8948000,nan,nan,nan,nan,nan,nan,0.0,0.0,100.0,-0.0,-0.0,-0.001,1.6233344,0.0
9052000,nan,nan,nan,nan,nan,nan,0.0,0.0,100.0,-0.0,-0.0,-0.001,1.6238518,0.0
9148000,nan,nan,nan,nan,nan,nan,0.0,0.0,100.0,-0.0,-0.0,-0.001,1.6236839,0.0
9252000,nan,nan,nan,nan,nan,nan,0.0,0.0,100.0,-0.0,-0.0,-0.001,1.6236839,0.0
9348000,nan,nan,nan,nan,nan,nan,0.0,0.0,100.0,-0.0,-0.0,-0.001,1.6240904,0.0
9452000,nan,nan,nan,nan,nan,nan,0.0,0.0,100.0,-0.0,-0.0,-0.001,1.6239562,0.0
9548000,nan,nan,nan,nan,nan,nan,0.0,0.0,100.0,-0.0,-0.0,-0.001,1.6235191,0.0
9652000,nan,nan,nan,nan,nan,nan,0.0,0.0,100.0,-0.0,-0.0,-0.001,1.6229831,0.0
9748000,nan,nan,nan,nan,nan,nan,0.0,0.0,100.0,-0.0,-0.0,-0.001,1.6231244,0.0
9852000,nan,nan,nan,nan,nan,nan,0.0,0.0,100.0,-0.0,-0.0,-0.001,1.6233928,0.0
9948000,nan,nan,nan,nan,nan,nan,0.0,0.0,100.0,-0.0,-0.0,-0.001,1.6233914,0.0
10052000,nan,nan,nan,nan,nan,nan,0.0,0.0,100.0,-0.0,-0.0,-0.001,1.6233006,0.0
10148000,nan,nan,nan,nan,nan,nan,0.0,0.0,100.0,-0.0,-0.0,-0.001,1.6234242,0.0
10252000,nan,nan,nan,nan,nan,nan,0.0,0.0,100.0,-0.0,-0.0,-0.001,1.6235589,0.0
10356000,nan,nan,nan,nan,nan,nan,0.0,0.0,100.0,-0.0,-0.0,-0.001,1.6230152,0.0
10452000,nan,nan,nan,nan,nan,nan,0.0,0.0,100.0,-0.0,-0.0,-0.001,1.6227006,0.0
10548000,nan,nan,nan,nan,nan,nan,0.0,0.0,100.0,-0.0,-0.0,-0.001,1.6224946,0.0
10652000,nan,nan,nan,nan,nan,nan,0.0,0.0,100.0,-0.0,-0.0,-0.001,1.622665,0.0
10748000,nan,nan,nan,nan,nan,nan,0.0,0.0,100.0,-0.0,-0.0,-0.001,1.6218827,0.0
10852000,nan,nan,nan,nan,nan,nan,0.0,0.0,100.0,-0.0,-0.0,-0.001,1.6211811,0.0
10956000,nan,nan,nan,nan,nan,nan,0.0,0.0,100.0,-0.0,-0.0,-0.001,1.6208414,0.0
11052000,nan,nan,nan,nan,nan,nan,0.0,0.0,100.0,-0.0,-0.0,-0.001,1.6208159,0.0
11148000,nan,nan,nan,nan,nan,nan,0.0,0.0,100.0,-0.0,-0.0,-0.001,1.6207439,0.0
11252000,nan,nan,nan,nan,nan,nan,0.0,0.0,100.0,-0.0,-0.0,-0.001,1.6207031,0.0
11348000,nan,nan,nan,nan,nan,nan,0.0,0.0,100.0,-0.0,-0.0,-0.001,1.620561,0.0
11452000,nan,nan,nan,nan,nan,nan,0.0,0.0,100.0,-0.0,-0.0,-0.001,1.6206907,0.0
11548000,nan,nan,nan,nan,nan,nan,0.0,0.0,100.0,-0.0,-0.0,-0.001,1.6210172,0.0
11652000,nan,nan,nan,nan,nan,nan,0.0,0.0,100.0,-0.0,-0.0,-0.001,1.621102,0.0
11748000,nan,nan,nan,nan,nan,nan,0.0,0.0,100.0,-0.0,-0.0,-0.001,1.6209735,0.0
11852000,nan,nan,nan,nan,nan,nan,0.0,0.0,100.0,-0.0,-0.0,-0.001,1.6210607,0.0
11948000,nan,nan,nan,nan,nan,nan,0.0,0.0,100.0,-0.0,-0.0,-0.001,1.6210859,0.0
12052000,nan,nan,nan,nan,nan,nan,0.0,0.0,100.0,-0.0,-0.0,-0.001,1.6211584,0.0
12148000,nan,nan,nan,nan,nan,nan,0.0,0.0,100.0,-0.0,-0.0,-0.001,1.6209872,0.0
12252000,nan,nan,nan,nan,nan,nan,0.0,0.0,100.0,-0.0,-0.0,-0.001,1.6207124,0.0
12348000,nan,nan,nan,nan,nan,nan,0.0,0.0,100.0,-0.0,-0.0,-0.001,1.6210762,0.0
12452000,nan,nan,nan,nan,nan,nan,0.0,0.0,100.0,-0.0,-0.0,-0.001,1.6213938,0.0
12548000,nan,nan,nan,nan,nan,nan,0.0,0.0,100.0,-0.0,-0.0,-0.001,1.621533,0.0
12652000,nan,nan,nan,nan,nan,nan,0.0,0.0,100.0,-0.0,-0.0,-0.001,1.6216618,0.0
12748000,nan,nan,nan,nan,nan,nan,0.0,0.0,100.0,-0.0,-0.0,-0.001,1.6221427,0.0
12852000,nan,nan,nan,nan,nan,nan,0.0,0.0,100.0,-0.0,-0.0,-0.001,1.6222558,0.0
12948000,nan,nan,nan,nan,nan,nan,0.0,0.0,100.0,-0.0,-0.0,-0.001,1.6217167,0.0
13052000,nan,nan,nan,nan,nan,nan,0.0,0.0,100.0,-0.0,-0.0,-0.001,1.621552,0.0
13148000,nan,nan,nan,nan,nan,nan,0.0,0.0,100.0,-0.0,-0.0,-0.001,1.6214932,0.0
13252000,nan,nan,nan,nan,nan,nan,0.0,0.0,100.0,-0.0,-0.0,-0.001,1.6212363,0.0
13348000,nan,nan,nan,nan,nan,nan,0.0,0.0,100.0,-0.0,-0.0,-0.001,1.6216987,0.0
13452000,nan,nan,nan,nan,nan,nan,0.0,0.0,100.0,-0.0,-0.0,-0.001,1.621947,0.0
13548000,nan,nan,nan,nan,nan,nan,0.0,0.0,100.0,-0.0,-0.0,-0.001,1.6217865,0.0
13652000,nan,nan,nan,nan,nan,nan,0.0,0.0,100.0,-0.0,-0.0,-0.001,1.6222063,0.0
13748000,nan,nan,nan,nan,nan,nan,0.0,0.0,100.0,-0.0,-0.0,-0.001,1.6222551,0.0
13852000,nan,nan,nan,nan,nan,nan,0.0,0.0,100.0,-0.0,-0.0,-0.001,1.6219915,0.0
13948000,nan,nan,nan,nan,nan,nan,0.0,0.0,100.0,-0.0,-0.0,-0.001,1.6221482,0.0
14052000,nan,nan,nan,nan,nan,nan,0.0,0.0,100.0,-0.0,-0.0,-0.001,1.6222247,0.0
14148000,nan,nan,nan,nan,nan,nan,0.0,0.0,100.0,-0.0,-0.0,-0.001,1.6223704,0.0
14252000,nan,nan,nan,nan,nan,nan,0.0,0.0,100.0,-0.0,-0.0,-0.001,1.6227975,0.0
14348000,nan,nan,nan,nan,nan,nan,0.0,0.0,100.0,-0.0,-0.0,-0.001,1.6228081,0.0
14452000,nan,nan,nan,nan,nan,nan,0.0,0.0,100.0,-0.0,-0.0,-0.001,1.6229831,0.0
14548000,nan,nan,nan,nan,nan,nan,0.0,0.0,100.0,-0.0,-0.0,-0.001,1.6232944,0.0
14652000,nan,nan,nan,nan,nan,nan,0.0,0.0,100.0,-0.0,-0.0,-0.001,1.6231437,0.0
14748000,nan,nan,nan,nan,nan,nan,0.0,0.0,100.0,-0.0,-0.0,-0.001,1.6227801,0.0
14852000,nan,nan,nan,nan,nan,nan,0.0,0.0,100.0,-0.0,-0.0,-0.001,1.6222358,0.0
14948000,nan,nan,nan,nan,nan,nan,0.0,0.0,100.0,-0.0,-0.0,-0.001,1.6220542,0.0
15052000,nan,nan,nan,nan,nan,nan,0.0,0.0,100.0,-0.0,-0.0,-0.001,1.6219682,0.0
15148000,nan,nan,nan,nan,nan,nan,0.0,0.0,100.0,-0.0,-0.0,-0.001,1.6217452,0.0
15252000,nan,nan,nan,nan,nan,nan,0.0,0.0,100.0,-0.0,-0.0,-0.001,1.6216183,0.0
15348000,nan,nan,nan,nan,nan,nan,0.0,0.0,100.0,-0.0,-0.0,-0.001,1.6215469,0.0
15452000,nan,nan,nan,nan,nan,nan,0.0,0.0,100.0,-0.0,-0.0,-0.001,1.6212373,0.0
15548000,nan,nan,nan,nan,nan,nan,0.0,0.0,100.0,-0.0,-0.0,-0.001,1.6209694,0.0
15652000,nan,nan,nan,nan,nan,nan,0.0,0.0,100.0,-0.0,-0.0,-0.001,1.620397,0.0
15748000,nan,nan,nan,nan,nan,nan,0.0,0.0,100.0,-0.0,-0.0,-0.001,1.6198956,0.0
15852000,nan,nan,nan,nan,nan,nan,0.0,0.0,100.0,-0.0,-0.0,-0.001,1.6195787,0.0
15948000,nan,nan,nan,nan,nan,nan,0.0,0.0,100.0,-0.0,-0.0,-0.001,1.6192579,0.0
16052000,nan,nan,nan,nan,nan,nan,0.0,0.0,100.0,-0.0,-0.0,-0.001,1.6188593,0.0
16148000,nan,nan,nan,nan,nan,nan,0.0,0.0,100.0,-0.0,-0.0,-0.001,1.6188009,0.0
16252000,nan,nan,nan,nan,nan,nan,0.0,0.0,100.0,-0.0,-0.0,-0.001,1.6188055,0.0
16348000,nan,nan,nan,nan,nan,nan,0.0,0.0,100.0,-0.0,-0.0,-0.001,1.6185117,0.0
16452000,nan,nan,nan,nan,nan,nan,0.0,0.0,100.0,-0.0,-0.0,-0.001,1.6180447,0.0
16556000,nan,nan,nan,nan,nan,nan,0.0,0.0,100.0,-0.0,-0.0,-0.001,1.6177741,0.0
16652000,nan,nan,nan,nan,nan,nan,0.0,0.0,100.0,-0.0,-0.0,-0.001,1.617983,0.0
16756000,nan,nan,nan,nan,nan,nan,0.0,0.0,100.0,-0.0,-0.0,-0.001,1.6179168,0.0
16852000,nan,nan,nan,nan,nan,nan,0.0,0.0,100.0,-0.0,-0.0,-0.001,1.6177485,0.0
16948000,nan,nan,nan,nan,nan,nan,0.0,0.0,100.0,-0.0,-0.0,-0.001,1.6177821,0.0
17052000,nan,nan,nan,nan,nan,nan,0.0,0.0,100.0,-0.0,-0.0,-0.001,1.6179372,0.0
17148000,nan,nan,nan,nan,nan,nan,0.0,0.0,100.0,-0.0,-0.0,-0.001,1.6180451,0.0
17252000,nan,nan,nan,nan,nan,nan,0.0,0.0,100.0,-0.0,-0.0,-0.001,1.6179343,0.0
17348000,nan,nan,nan,nan,nan,nan,0.0,0.0,100.0,-0.0,-0.0,-0.001,1.6177015,0.0
17452000,nan,nan,nan,nan,nan,nan,0.0,0.0,100.0,-0.0,-0.0,-0.001,1.6175941,0.0
17548000,nan,nan,nan,nan,nan,nan,0.0,0.0,100.0,-0.0,-0.0,-0.001,1.6176212,0.0
17652000,nan,nan,nan,nan,nan,nan,0.0,0.0,100.0,-0.0,-0.0,-0.001,1.6176592,0.0
17756000,nan,nan,nan,nan,nan,nan,0.0,0.0,100.0,-0.0,-0.0,-0.001,1.6176531,0.0
17852000,nan,nan,nan,nan,nan,nan,0.0,0.0,100.0,-0.0,-0.0,-0.001,1.6177789,0.0
17948000,nan,nan,nan,nan,nan,nan,0.0,0.0,100.0,-0.0,-0.0,-0.001,1.6179527,0.0
18052000,nan,nan,nan,nan,nan,nan,0.0,0.0,100.0,-0.0,-0.0,-0.001,1.6179135,0.0
18148000,nan,nan,nan,nan,nan,nan,0.0,0.0,100.0,-0.0,-0.0,-0.001,1.6177572,0.0
18252000,nan,nan,nan,nan,nan,nan,0.0,0.0,100.0,-0.0,-0.0,-0.001,1.6176553,0.0
18348000,nan,nan,nan,nan,nan,nan,0.0,0.0,100.0,-0.0,-0.0,-0.001,1.6177608,0.0
18452000,nan,nan,nan,nan,nan,nan,0.0,0.0,100.0,-0.0,-0.0,-0.001,1.6178718,0.0
18548000,nan,nan,nan,nan,nan,nan,0.0,0.0,100.0,-0.0,-0.0,-0.001,1.6177814,0.0
18652000,nan,nan,nan,nan,nan,nan,0.0,0.0,100.0,-0.0,-0.0,-0.001,1.6174574,0.0
18748000,nan,nan,nan,nan,nan,nan,0.0,0.0,100.0,-0.0,-0.0,-0.001,1.6170985,0.0
18852000,nan,nan,nan,nan,nan,nan,0.0,0.0,100.0,-0.0,-0.0,-0.001,1.6169275,0.0
18948000,nan,nan,nan,nan,nan,nan,0.0,0.0,100.0,-0.0,-0.0,-0.001,1.6167475,0.0
19052000,nan,nan,nan,nan,nan,nan,0.0,0.0,100.0,-0.0,-0.0,-0.001,1.6164708,0.0
19148000,nan,nan,nan,nan,nan,nan,0.0,0.0,100.0,-0.0,-0.0,-0.001,1.6162992,0.0
19252000,nan,nan,nan,nan,nan,nan,0.0,0.0,100.0,-0.0,-0.0,-0.001,1.6165029,0.0
19348000,nan,nan,nan,nan,nan,nan,0.0,0.0,100.0,-0.0,-0.0,-0.001,1.6162523,0.0
19452000,nan,nan,nan,nan,nan,nan,0.0,0.0,100.0,-0.0,-0.0,-0.001,1.615768,0.0
19548000,nan,nan,nan,nan,nan,nan,0.0,0.0,100.0,-0.0,-0.0,-0.001,1.6152724,0.0
19652000,nan,nan,nan,nan,nan,nan,0.0,0.0,100.0,-0.0,-0.0,-0.001,1.6151811,0.0
19748000,nan,nan,nan,nan,nan,nan,0.0,0.0,100.0,-0.0,-0.0,-0.001,1.615245,0.0
19852000,nan,nan,nan,nan,nan,nan,0.0,0.0,100.0,-0.0,-0.0,-0.001,1.6153959,0.0
19948000,nan,nan,nan,nan,nan,nan,0.0,0.0,100.0,-0.0,-0.0,-0.001,1.6153331,0.0
20052000,nan,nan,nan,nan,nan,nan,0.0,0.0,100.0,-0.0,-0.0,-0.001,1.6152976,0.0
20156000,nan,nan,nan,nan,nan,nan,0.0,0.0,100.0,-0.0,-0.0,-0.001,1.6153897,0.0
20252000,nan,nan,nan,nan,nan,nan,0.0,0.0,100.0,-0.0,-0.0,-0.001,1.6155574,0.0
20348000,nan,nan,nan,nan,nan,nan,0.0,0.0,100.0,-0.0,-0.0,-0.001,1.6157352,0.0
20452000,nan,nan,nan,nan,nan,nan,0.0,0.0,100.0,-0.0,-0.0,-0.001,1.6157688,0.0
20548000,nan,nan,nan,nan,nan,nan,0.0,0.0,100.0,-0.0,-0.0,-0.001,1.6156429,0.0
20652000,nan,nan,nan,nan,nan,nan,0.0,0.0,100.0,-0.0,-0.0,-0.001,1.6155454,0.0
20748000,nan,nan,nan,nan,nan,nan,0.0,0.0,100.0,-0.0,-0.0,-0.001,1.615509,0.0
20852000,nan,nan,nan,nan,nan,nan,0.0,0.0,100.0,-0.0,-0.0,-0.001,1.6155945,0.0
20948000,nan,nan,nan,nan,nan,nan,0.0,0.0,100.0,-0.0,-0.0,-0.001,1.615669,0.0
21052000,nan,nan,nan,nan,nan,nan,0.0,0.0,100.0,-0.0,-0.0,-0.001,1.6155127,0.0
21148000,nan,nan,nan,nan,nan,nan,0.0,0.0,100.0,-0.0,-0.0,-0.001,1.6153568,0.0
21252000,nan,nan,nan,nan,nan,nan,0.0,0.0,100.0,-0.0,-0.0,-0.001,1.6151996,0.0
21348000,nan,nan,nan,nan,nan,nan,0.0,0.0,100.0,-0.0,-0.0,-0.001,1.6148378,0.0
21452000,nan,nan,nan,nan,nan,nan,0.0,0.0,100.0,-0.0,-0.0,-0.001,1.614541,0.0
21548000,nan,nan,nan,nan,nan,nan,0.0,0.0,100.0,-0.0,-0.0,-0.001,1.6143546,0.0
21652000,nan,nan,nan,nan,nan,nan,0.0,0.0,100.0,-0.0,-0.0,-0.001,1.6143013,0.0
21748000,nan,nan,nan,nan,nan,nan,0.0,0.0,100.0,-0.0,-0.0,-0.001,1.614225,0.0
21852000,nan,nan,nan,nan,nan,nan,0.0,0.0,100.0,-0.0,-0.0,-0.001,1.6142232,0.0
21948000,nan,nan,nan,nan,nan,nan,0.0,0.0,100.0,-0.0,-0.0,-0.001,1.6142963,0.0
22052000,nan,nan,nan,nan,nan,nan,0.0,0.0,100.0,-0.0,-0.0,-0.001,1.6142025,0.0
22148000,nan,nan,nan,nan,nan,nan,0.0,0.0,100.0,-0.0,-0.0,-0.001,1.6139355,0.0
22252000,nan,nan,nan,nan,nan,nan,0.0,0.0,100.0,-0.0,-0.0,-0.001,1.613616,0.0
22348000,nan,nan,nan,nan,nan,nan,0.0,0.0,100.0,-0.0,-0.0,-0.001,1.613287,0.0
22452000,nan,nan,nan,nan,nan,nan,0.0,0.0,100.0,-0.0,-0.0,-0.001,1.6132543,0.0
22548000,nan,nan,nan,nan,nan,nan,0.0,0.0,100.0,-0.0,-0.0,-0.001,1.613207,0.0
22652000,nan,nan,nan,nan,nan,nan,0.0,0.0,100.0,-0.0,-0.0,-0.001,1.6127238,0.0
22748000,nan,nan,nan,nan,nan,nan,0.0,0.0,100.0,-0.0,-0.0,-0.001,1.6125821,0.0
22852000,nan,nan,nan,nan,nan,nan,0.0,0.0,100.0,-0.0,-0.0,-0.001,1.6127734,0.0
22948000,nan,nan,nan,nan,nan,nan,0.0,0.0,100.0,-0.0,-0.0,-0.001,1.612969,0.0
23052000,nan,nan,nan,nan,nan,nan,0.0,0.0,100.0,-0.0,-0.0,-0.001,1.6128244,0.0
23148000,nan,nan,nan,nan,nan,nan,0.0,0.0,100.0,-0.0,-0.0,-0.001,1.6129231,0.0
23252000,nan,nan,nan,nan,nan,nan,0.0,0.0,100.0,-0.0,-0.0,-0.001,1.6130506,0.0
23348000,nan,nan,nan,nan,nan,nan,0.0,0.0,100.0,-0.0,-0.0,-0.001,1.6130022,0.0
23452000,nan,nan,nan,nan,nan,nan,0.0,0.0,100.0,-0.0,-0.0,-0.001,1.6130499,0.0
23548000,nan,nan,nan,nan,nan,nan,0.0,0.0,100.0,-0.0,-0.0,-0.001,1.6131184,0.0
23652000,nan,nan,nan,nan,nan,nan,0.0,0.0,100.0,-0.0,-0.0,-0.001,1.6131488,0.0
23748000,nan,nan,nan,nan,nan,nan,0.0,0.0,100.0,-0.0,-0.0,-0.001,1.6133336,0.0
23852000,nan,nan,nan,nan,nan,nan,0.0,0.0,100.0,-0.0,-0.0,-0.001,1.6135019,0.0
23948000,nan,nan,nan,nan,nan,nan,0.0,0.0,100.0,-0.0,-0.0,-0.001,1.6133811,0.0
24052000,nan,nan,nan,nan,nan,nan,0.0,0.0,100.0,-0.0,-0.0,-0.001,1.6133168,0.0
24148000,nan,nan,nan,nan,nan,nan,0.0,0.0,100.0,-0.0,-0.0,-0.001,1.6131496,0.0
24252000,nan,nan,nan,nan,nan,nan,0.0,0.0,100.0,-0.0,-0.0,-0.001,1.6130135,0.0
24348000,nan,nan,nan,nan,nan,nan,0.0,0.0,100.0,-0.0,-0.0,-0.001,1.6130522,0.0
24452000,nan,nan,nan,nan,nan,nan,0.0,0.0,100.0,-0.0,-0.0,-0.001,1.6130419,0.0
24548000,nan,nan,nan,nan,nan,nan,0.0,0.0,100.0,-0.0,-0.0,-0.001,1.6128176,0.0
24652000,nan,nan,nan,nan,nan,nan,0.0,0.0,100.0,-0.0,-0.0,-0.001,1.6124651,0.0
24748000,nan,nan,nan,nan,nan,nan,0.0,0.0,100.0,-0.0,-0.0,-0.001,1.6124269,0.0
24852000,nan,nan,nan,nan,nan,nan,0.0,0.0,100.0,-0.0,-0.0,-0.001,1.6124321,0.0
24948000,nan,nan,nan,nan,nan,nan,0.0,0.0,100.0,-0.0,-0.0,-0.001,1.6123726,0.0
25052000,nan,nan,nan,nan,nan,nan,0.0,0.0,100.0,-0.0,-0.0,-0.001,1.6123854,0.0
25148000,nan,nan,nan,nan,nan,nan,0.0,0.0,100.0,-0.0,-0.0,-0.001,1.6124012,0.0
25252000,nan,nan,nan,nan,nan,nan,0.0,0.0,100.0,-0.0,-0.0,-0.001,1.6123751,0.0
25348000,nan,nan,nan,nan,nan,nan,0.0,0.0,100.0,-0.0,-0.0,-0.001,1.6123471,0.0
25452000,nan,nan,nan,nan,nan,nan,0.0,0.0,100.0,-0.0,-0.0,-0.001,1.6123362,0.0
25556000,nan,nan,nan,nan,nan,nan,0.0,0.0,100.0,-0.0,-0.0,-0.001,1.6122814,0.0
25652000,nan,nan,nan,nan,nan,nan,0.0,0.0,100.0,-0.0,-0.0,-0.001,1.6121387,0.0
25748000,nan,nan,nan,nan,nan,nan,0.0,0.0,100.0,-0.0,-0.0,-0.001,1.6119777,0.0
25852000,nan,nan,nan,nan,nan,nan,0.0,0.0,100.0,-0.0,-0.0,-0.001,1.6118388,0.0
25948000,nan,nan,nan,nan,nan,nan,0.0,0.0,100.0,-0.0,-0.0,-0.001,1.6117761,0.0
26052000,nan,nan,nan,nan,nan,nan,0.0,0.0,100.0,-0.0,-0.0,-0.001,1.6115792,0.0
26148000,nan,nan,nan,nan,nan,nan,0.0,0.0,100.0,-0.0,-0.0,-0.001,1.6115738,0.0
26252000,nan,nan,nan,nan,nan,nan,0.0,0.0,100.0,-0.0,-0.0,-0.001,1.6117053,0.0
26348000,nan,nan,nan,nan,nan,nan,0.0,0.0,100.0,-0.0,-0.0,-0.001,1.6117175,0.0
26452000,nan,nan,nan,nan,nan,nan,0.0,0.0,100.0,-0.0,-0.0,-0.001,1.6115717,0.0
26548000,nan,nan,nan,nan,nan,nan,0.0,0.0,100.0,-0.0,-0.0,-0.001,1.6113784,0.0
26652000,nan,nan,nan,nan,nan,nan,0.0,0.0,100.0,-0.0,-0.0,-0.001,1.6114162,0.0
26748000,nan,nan,nan,nan,nan,nan,0.0,0.0,100.0,-0.0,-0.0,-0.001,1.6113224,0.0
26852000,nan,nan,nan,nan,nan,nan,0.0,0.0,100.0,-0.0,-0.0,-0.001,1.6112088,0.0
26948000,nan,nan,nan,nan,nan,nan,0.0,0.0,100.0,-0.0,-0.0,-0.001,1.6111051,0.0
27052000,nan,nan,nan,nan,nan,nan,0.0,0.0,100.0,-0.0,-0.0,-0.001,1.6112226,0.0
27148000,nan,nan,nan,nan,nan,nan,0.0,0.0,100.0,-0.0,-0.0,-0.001,1.6113254,0.0
27252000,nan,nan,nan,nan,nan,nan,0.0,0.0,100.0,-0.0,-0.0,-0.001,1.6112722,0.0
27348000,nan,nan,nan,nan,nan,nan,0.0,0.0,100.0,-0.0,-0.0,-0.001,1.6113242,0.0
27452000,nan,nan,nan,nan,nan,nan,0.0,0.0,100.0,-0.0,-0.0,-0.001,1.611294,0.0
27548000,nan,nan,nan,nan,nan,nan,0.0,0.0,100.0,-0.0,-0.0,-0.001,1.6111957,0.0
27652000,nan,nan,nan,nan,nan,nan,0.0,0.0,100.0,-0.0,-0.0,-0.001,1.6113482,0.0
27748000,nan,nan,nan,nan,nan,nan,0.0,0.0,100.0,-0.0,-0.0,-0.001,1.6114568,0.0
27852000,nan,nan,nan,nan,nan,nan,0.0,0.0,100.0,-0.0,-0.0,-0.001,1.6114461,0.0
27948000,nan,nan,nan,nan,nan,nan,0.0,0.0,100.0,-0.0,-0.0,-0.001,1.6114379,0.0
28052000,nan,nan,nan,nan,nan,nan,0.0,0.0,100.0,-0.0,-0.0,-0.001,1.6112542,0.0
28148000,nan,nan,nan,nan,nan,nan,0.0,0.0,100.0,-0.0,-0.0,-0.001,1.6111528,0.0
28252000,nan,nan,nan,nan,nan,nan,0.0,0.0,100.0,-0.0,-0.0,-0.001,1.6113535,0.0
28348000,nan,nan,nan,nan,nan,nan,0.0,0.0,100.0,-0.0,-0.0,-0.001,1.6113584,0.0
28452000,nan,nan,nan,nan,nan,nan,0.0,0.0,100.0,-0.0,-0.0,-0.001,1.6110893,0.0
28548000,nan,nan,nan,nan,nan,nan,0.0,0.0,100.0,-0.0,-0.0,-0.001,1.6108505,0.0
28652000,nan,nan,nan,nan,nan,nan,0.0,0.0,100.0,-0.0,-0.0,-0.001,1.6105859,0.0
28748000,nan,nan,nan,nan,nan,nan,0.0,0.0,100.0,-0.0,-0.0,-0.001,1.6105937,0.0
28852000,nan,nan,nan,nan,nan,nan,0.0,0.0,100.0,-0.0,-0.0,-0.001,1.6105734,0.0
28948000,nan,nan,nan,nan,nan,nan,0.0,0.0,100.0,-0.0,-0.0,-0.001,1.6103375,0.0
29052000,nan,nan,nan,nan,nan,nan,0.0,0.0,100.0,-0.0,-0.0,-0.001,1.6102285,0.0
29148000,nan,nan,nan,nan,nan,nan,0.0,0.0,100.0,-0.0,-0.0,-0.001,1.6102729,0.0
29252000,nan,nan,nan,nan,nan,nan,0.0,0.0,100.0,-0.0,-0.0,-0.001,1.6103611,0.0
29348000,nan,nan,nan,nan,nan,nan,0.0,0.0,100.0,-0.0,-0.0,-0.001,1.6102117,0.0
29452000,nan,nan,nan,nan,nan,nan,0.0,0.0,100.0,-0.0,-0.0,-0.001,1.6099862,0.0
29548000,nan,nan,nan,nan,nan,nan,0.0,0.0,100.0,-0.0,-0.0,-0.001,1.6096982,0.0
29652000,nan,nan,nan,nan,nan,nan,0.0,0.0,100.0,-0.0,-0.0,-0.001,1.6096655,0.0
29748000,nan,nan,nan,nan,nan,nan,0.0,0.0,100.0,-0.0,-0.0,-0.001,1.6095657,0.0
29852000,nan,nan,nan,nan,nan,nan,0.0,0.0,100.0,-0.0,-0.0,-0.001,1.6094205,0.0
29948000,nan,nan,nan,nan,nan,nan,0.0,0.0,100.0,-0.0,-0.0,-0.001,1.609617,0.0
30052000,nan,nan,nan,nan,nan,nan,0.0,0.0,100.0,-0.0,-0.0,-0.001,1.6099371,0.0
30148000,nan,nan,nan,nan,nan,nan,0.0,0.0,100.0,-0.0,-0.0,-0.001,1.6101627,0.0
30252000,nan,nan,nan,nan,nan,nan,0.0,0.0,100.0,-0.0,-0.0,-0.001,1.6103808,0.0
30348000,nan,nan,nan,nan,nan,nan,0.0,0.0,100.0,-0.0,-0.0,-0.001,1.6105833,0.0
30452000,nan,nan,nan,nan,nan,nan,0.0,0.0,100.0,-0.0,-0.0,-0.001,1.610797,0.0
30548000,nan,nan,nan,nan,nan,nan,0.0,0.0,100.0,-0.0,-0.0,-0.001,1.6108742,0.0
30652000,nan,nan,nan,nan,nan,nan,0.0,0.0,100.0,-0.0,-0.0,-0.001,1.6110356,0.0
30748000,nan,nan,nan,nan,nan,nan,0.0,0.0,100.0,-0.0,-0.0,-0.001,1.6110971,0.0
30852000,nan,nan,nan,nan,nan,nan,0.0,0.0,100.0,-0.0,-0.0,-0.001,1.6109828,0.0
30948000,nan,nan,nan,nan,nan,nan,0.0,0.0,100.0,-0.0,-0.0,-0.001,1.6109045,0.0
31052000,nan,nan,nan,nan,nan,nan,0.0,0.0,100.0,-0.0,-0.0,-0.001,1.6109781,0.0
31148000,nan,nan,nan,nan,nan,nan,0.0,0.0,100.0,-0.0,-0.0,-0.001,1.6110427,0.0
31252000,nan,nan,nan,nan,nan,nan,0.0,0.0,100.0,-0.0,-0.0,-0.001,1.61089,0.0
31348000,nan,nan,nan,nan,nan,nan,0.0,0.0,100.0,-0.0,-0.0,-0.001,1.6109138,0.0
31452000,-0.011696522,-0.0055908263,0.10968912,-0.00161324,0.0002932026,2.364436,0.0060687265,0.0748455,9.304026,1.5861675e-05,0.00019562175,-0.025626719,1.6109692,0.0
31548000,-0.011818677,-0.0055915765,0.11296879,-0.0017367909,0.0017522214,2.1899827,0.0046200277,0.0788847,9.024742,1.8770608e-05,0.00032049883,-0.03986621,1.6110219,0.0
31652000,-0.0119976625,-0.005594346,0.11352788,-0.0024734589,0.0017887553,2.0009918,0.0011961586,0.07633465,8.688842,6.9559173e-06,0.00044390222,-0.05699238,1.6110579,0.0
31748000,-0.012114195,-0.0055972883,0.11271797,-0.003266008,0.0017775983,1.8265386,-0.0002496693,0.07317474,8.346187,-1.8956757e-06,0.00055559725,-0.07446292,1.6110364,0.0
31852000,-0.012284651,-0.005603342,0.114370935,-0.0038934066,0.0030721931,1.6375475,-0.0057894583,0.07614839,7.935234,-5.6346795e-05,0.000741126,-0.09541568,1.6109474,0.0
31948000,-0.012395321,-0.005608467,0.11713442,-0.004288608,0.005255663,1.4630942,-0.008963263,0.0790273,7.516014,-0.00010677119,0.0009413804,-0.11678994,1.6108245,0.0
32052000,-0.012556852,-0.0056177857,0.11731782,-0.0050748615,0.004281078,1.2741033,-0.014087706,0.07578943,7.032259,-0.00020333935,0.0010939307,-0.14145458,1.6108545,0.0
32148000,-0.012661648,-0.0056250943,0.11617945,-0.0058678375,0.002767149,1.0996501,-0.016414434,0.068446524,6.5478253,-0.00027838754,0.0011608478,-0.16615382,1.6109543,0.0
32252000,-0.012814335,-0.005637693,0.11741107,-0.0065797055,0.0028601028,0.91066015,-0.014073939,0.07220521,5.9848394,-0.0002796429,0.0014346854,-0.1948581,1.6110576,0.0
32348000,-0.012913051,-0.0056471787,0.11970786,-0.0070877103,0.0042352327,0.73620784,-0.020756625,0.075451046,5.4254227,-0.00047319193,0.0017200691,-0.22338045,1.6110541,0.0
32452000,-0.013056405,-0.00566303,0.11800729,-0.009777258,0.0033302023,0.54721797,-0.03805815,0.070619814,4.7868934,-0.000993848,0.0018441612,-0.25593638,1.6110239,0.0
32548000,-0.013148759,-0.0056746705,0.115574166,-0.01301603,0.002191124,0.37276578,-0.047595967,0.06568258,4.1682763,-0.0013953929,0.0019256466,-0.28747708,1.6108996,0.0
32652000,-0.013282377,-0.005693729,0.115476124,-0.016122138,0.002558504,0.18377566,-0.056730773,0.070044026,3.4538414,-0.0018742442,0.0023140812,-0.32390308,1.6107959,0.0
32748000,-0.01336816,-0.005707495,0.11734438,-0.018692873,0.003997319,0.074129514,-0.06657176,0.074005395,3.0214732,-0.0023481352,0.0026103365,-0.34594774,1.6108688,0.0
32852000,-0.013491901,-0.005729735,0.11520537,-0.019880598,0.003928714,0.014392667,-0.06638664,0.07136473,2.7798479,-0.002425894,0.002607803,-0.3582672,1.6110709,0.0
32948000,-0.013571154,-0.005745634,0.112508416,-0.020401467,0.003787824,-0.025663868,-0.073863044,0.067507915,2.608266,-0.002763803,0.0025260071,-0.36701542,1.611021,0.0
33052000,-0.013685089,-0.0057710838,0.11173076,-0.021383692,0.004860338,-0.086117774,-0.07775761,0.075859584,2.3352835,-0.0030215376,0.002947783,-0.38093367,1.6110399,0.0
33148000,-0.013757695,-0.0057891114,0.1128461,-0.02261282,0.006846927,-0.12677838,-0.08373485,0.08377097,2.1391108,-0.0033386142,0.003340054,-0.39093572,1.611237,0.0
33252000,-0.013861531,-0.0058177384,0.11142078,-0.023506667,0.0064646276,-0.1864742,-0.08748396,0.08216842,1.8556509,-0.0036173332,0.0033975441,-0.40538815,1.6114081,0.0
33348000,-0.013927384,-0.005837891,0.1097004,-0.024304774,0.005795545,-0.22658114,-0.09407769,0.08491522,1.645701,-0.0039919848,0.003603195,-0.4160926,1.611441,0.0
33452000,-0.014021018,-0.0058697066,0.11005203,-0.025603041,0.006604935,-0.28673747,-0.099568814,0.08908419,1.3374515,-0.004384562,0.003922866,-0.43180895,1.6113725,0.0
33548000,-0.014079962,-0.0058919652,0.11180824,-0.027202148,0.008426708,-0.32740018,-0.109748386,0.09199648,1.1019006,-0.004964705,0.0041616596,-0.44381872,1.6114429,0.0
33652000,-0.01416314,-0.005926928,0.10996203,-0.02679277,0.008197803,-0.38683477,-0.105651625,0.08794569,0.7804074,-0.004957983,0.004127085,-0.4602103,1.6115794,0.0
33748000,-0.014215146,-0.005951321,0.10744737,-0.02583774,0.007713776,-0.42677075,-0.1039274,0.091554105,0.53758097,-0.005006823,0.004410725,-0.472591,1.611687,0.0
33852000,-0.01428788,-0.0059895203,0.107129246,-0.025748549,0.008630031,-0.4869922,-0.10824856,0.09467392,0.1866169,-0.005416166,0.004736965,-0.4904852,1.6117998,0.0
33948000,-0.014332795,-0.006016042,0.10874019,-0.026401967,0.0105354665,-0.5275873,-0.11531337,0.10526001,-0.08997011,-0.0059334203,0.005416127,-0.5045872,1.6117288,0.0
34052000,-0.014394752,-0.006057402,0.10347049,-0.025867196,0.011237688,-0.5870719,-0.11199238,0.1063959,-0.44593716,-0.0059710434,0.0056726583,-0.5227365,1.6117574,0.0
34148000,-0.014432456,-0.006086052,0.09745306,-0.025271285,0.01191112,-0.62635297,-0.11502416,0.11041451,-0.7176151,-0.006292292,0.0060401256,-0.5365882,1.611828,0.0
34252000,-0.014483524,-0.006130613,0.092456415,-0.025595456,0.013825267,-0.68714607,-0.12025985,0.121099755,-1.1006447,-0.006819555,0.0068671834,-0.55611724,1.6116544,0.0
34348000,-0.014513865,-0.006161357,0.09130305,-0.026617995,0.016503215,-0.72720313,-0.12790911,0.13354374,-1.4008108,-0.007451999,0.0077802744,-0.5714215,1.6116554,0.0
34452000,-0.014553798,-0.006209022,0.08604304,-0.026920946,0.016352024,-0.78704333,-0.12715685,0.13041836,-2.2973886,-0.008003059,0.008208333,-0.6171342,1.6115954,0.0
34548000,-0.014576712,-0.0062418715,0.08158369,-0.027222246,0.015622297,-0.82646114,-0.13552843,0.12850225,-2.6063817,-0.00874842,0.008294877,-0.6328885,1.6114458,0.0
34652000,-0.0146057485,-0.006293316,0.078116335,-0.02839071,0.016425017,-0.8878414,-0.13872308,0.13654794,-3.0344388,-0.009261473,0.009116257,-0.65471333,1.6114659,0.0
34748000,-0.014621336,-0.006328897,0.07777195,-0.02998468,0.018374275,-0.9286444,-0.14182654,0.14821056,-3.3704872,-0.009717252,0.010154652,-0.671847,1.6113951,0.0
34852000,-0.01463885,-0.006383917,0.07217968,-0.028862914,0.017563216,-0.98944163,-0.11586759,0.14504711,-3.709599,-0.008141801,0.010192192,-0.6891369,1.6113027,0.0
34948000,-0.014646598,-0.0064216955,0.065046266,-0.026602004,0.016417056,-1.0287694,-0.09355015,0.14726752,-3.9289942,-0.0066800877,0.010515857,-0.7003229,1.6112787,0.0
35052000,-0.014652303,-0.0064799935,0.05403588,-0.024130903,0.01676665,-1.0910417,-0.017202944,0.13031772,-4.290472,-0.0012612834,0.009554619,-0.7187532,1.6123428,0.0
35148000,-0.014652154,-0.006519334,0.046490274,-0.018762449,0.018320672,-1.130192,0.19676204,0.1798313,-4.5406566,0.014676613,0.013413738,-0.73150903,1.6160008,0.0
35252000,-0.014645994,-0.006578218,0.028954556,-0.0070454646,0.018540297,-1.1926415,0.37171444,0.23914461,-4.7628703,0.028156962,0.018114941,-0.7428388,1.6177248,0.0
35348000,-0.014637928,-0.006617324,0.011678309,0.0092188865,0.020330314,-1.229429,0.46238407,0.28181928,-4.800009,0.035113946,0.02140166,-0.7447323,1.6180037,0.0
35452000,-0.014619891,-0.006675634,-0.022720579,0.031010944,0.025844242,-1.2942414,0.51041293,0.31056887,-4.898084,0.039022315,0.023743749,-0.7497328,1.6179368,0.0
35548000,-0.014603905,-0.0067141964,-0.051958278,0.05265448,0.033083208,-1.3285302,0.5322833,0.31875247,-4.86361,0.04059872,0.024312133,-0.7479751,1.6179228,0.0
35652000,-0.014574487,-0.006770573,-0.10810801,0.07884841,0.03726045,-1.393932,0.5580282,0.30475733,-4.9295826,0.042753767,0.02334922,-0.7513387,1.617808,0.0
35748000,-0.014551978,-0.0068062576,-0.15337402,0.10241697,0.040722392,-1.4226382,0.5688335,0.3002836,-4.8717585,0.04341016,0.02291595,-0.74839056,1.6177232,0.0
35852000,-0.014513421,-0.0068582357,-0.23011513,0.12542835,0.045710884,-1.4888451,0.5761533,0.30773667,-4.949091,0.04420102,0.023608776,-0.7523334,1.6176625,0.0
35948000,-0.014484617,-0.0068917694,-0.28722072,0.14401852,0.051121566,-1.5041616,0.5689504,0.31002158,-4.5758314,0.042543393,0.02318193,-0.7333025,1.617651,0.0
36052000,-0.014438413,-0.0069402647,-0.38351446,0.16337207,0.051737078,-1.5218388,0.5672176,0.29432896,-4.422555,0.041962724,0.021774437,-0.72548753,1.617369,0.0
36148000,-0.014407916,-0.0069719516,-0.4510097,0.17906912,0.050819777,-1.5081465,0.55483395,0.28444678,-4.4374323,0.041088503,0.021064846,-0.72624606,1.6172978,0.0
36252000,-0.014362781,-0.0070188493,-0.55260384,0.19222356,0.051428534,-1.5214903,0.53115845,0.27606013,-4.5417075,0.03962335,0.020593528,-0.7315626,1.6171564,0.0
36348000,-0.014333037,-0.0070497524,-0.6213053,0.20091136,0.0530379,-1.5074869,0.50875825,0.28074536,-4.510561,0.037870314,0.020897772,-0.7299746,1.6170677,0.0
36452000,-0.014288893,-0.0070956205,-0.73125523,0.21284238,0.052799527,-1.5212338,0.50456035,0.2732721,-4.578502,0.037736323,0.020438157,-0.7334386,1.6169033,0.0
36548000,-0.014259776,-0.0071258727,-0.8072265,0.22189893,0.05266503,-1.505862,0.4909745,0.2645175,-4.521057,0.03657328,0.019704225,-0.73050976,1.6168083,0.0
36652000,-0.014216459,-0.00717088,-0.92249584,0.22734806,0.053463038,-1.5210538,0.46405354,0.26472768,-4.588191,0.03472887,0.019811708,-0.7339326,1.6167905,0.0
36748000,-0.014187754,-0.007200705,-1.0006225,0.22880359,0.054864164,-1.5052509,0.43369958,0.26382968,-4.5258665,0.032317445,0.019659463,-0.730755,1.6167464,0.0
36852000,-0.014144888,-0.0072452435,-1.1230371,0.23081833,0.05458468,-1.5210079,0.41357654,0.2584357,-4.5903454,0.030956762,0.019344263,-0.73404247,1.6165409,0.0
36948000,-0.014116421,-0.00727482,-1.2068036,0.2305895,0.054278575,-1.5041922,0.3921916,0.25406915,-4.525509,0.02922402,0.018931875,-0.73073673,1.6163211,0.0
37052000,-0.0140738,-0.007319106,-1.3336456,0.22688681,0.054666635,-1.5210558,0.365286,0.25039804,-4.595292,0.027352497,0.018749725,-0.73429465,1.6163743,0.0
37148000,-0.014045388,-0.0073486255,-1.4192429,0.22081205,0.05541013,-1.5037992,0.33442208,0.25205848,-4.5298715,0.024925897,0.018786987,-0.7309592,1.616185,0.0
37252000,-0.014002746,-0.0073929336,-1.5538248,0.21635848,0.053956997,-1.5211871,0.31776598,0.24071808,-4.5963526,0.023796117,0.018026333,-0.7343488,1.6161749,0.0
37348000,-0.0139743015,-0.007422487,-1.6456205,0.21114893,0.052324157,-1.5028832,0.30098093,0.2349006,-4.5237103,0.022424262,0.017501017,-0.73064506,1.6259515,0.0
37452000,-0.013931554,-0.007466904,-1.7837831,0.20289516,0.051259033,-1.5213602,0.27889985,0.2329146,-4.5959215,0.02088411,0.01744072,-0.7343268,1.6257797,0.0
37548000,-0.013902967,-0.007496605,-1.8765999,0.1933482,0.050751157,-1.5028428,0.2550568,0.23050483,-4.521767,0.019000905,0.017171863,-0.73054594,1.6253009,0.0
37652000,-0.013859921,-0.0075413277,-2.0207543,0.18319155,0.048098963,-1.5216111,0.23680785,0.22453684,-4.599601,0.017737338,0.016818214,-0.73451436,1.6246779,0.0
37748000,-0.0138310995,-0.007571273,-2.118421,0.17298914,0.045565896,-1.5021923,0.21774095,0.22005315,-4.5258245,0.016225128,0.016397424,-0.7307528,1.6240149,0.0
37852000,-0.013787654,-0.0076164124,-2.2651677,0.16073294,0.04368305,-1.5218997,0.19334356,0.21515183,-4.6016083,0.014482722,0.016116306,-0.73461676,1.622681,0.0
37948000,-0.013758543,-0.0076466613,-2.3632882,0.14864814,0.042567912,-1.5023696,0.17688464,0.21936989,-4.5302563,0.013186263,0.01635342,-0.7309788,1.6221513,0.0
38052000,-0.013714645,-0.0076922723,-2.514919,0.13689725,0.03762444,-1.5222101,0.16853856,0.18792757,-4.6037836,0.01262772,0.014080437,-0.7347276,1.6221118,0.0
38148000,-0.013685223,-0.007722843,-2.6180513,0.12666497,0.031543143,-1.501744,0.16545865,0.17185904,-4.516529,0.012321276,0.012797898,-0.7302789,1.621937,0.0
38252000,-0.013640858,-0.0077689392,-2.7724588,0.115364105,0.025951674,-1.52251,0.15470439,0.1609443,-4.6058903,0.01159319,0.012060794,-0.734835,1.6220757,0.0
38348000,-0.013611136,-0.0077998224,-2.875479,0.10483078,0.021791497,-1.502029,0.14343505,0.16271958,-4.529618,0.010690242,0.012127522,-0.73094624,1.6221185,0.0019706127
38452000,-0.013566372,-0.007846333,-3.0348518,0.09735409,0.017392168,-1.5227549,0.16564433,0.16028678,-4.6053267,0.01241241,0.012010949,-0.7348063,1.6221185,0.0011134634
38548000,-0.013536463,-0.007877409,-3.1430495,0.09255166,0.01397782,-1.5012329,0.17241472,0.16289406,-4.5172963,0.012839593,0.012130596,-0.730318,1.6221185,0.0007610135
38652000,-0.013491514,-0.007924113,-3.3047504,0.08712828,0.011542822,-1.5228941,0.17495151,0.16324091,-0.4994898,0.013125469,0.0122469,-0.73565364,1.6221185,0.0004299985
38756000,-0.013452482,-0.007964669,-3.4559932,0.081284426,0.010149572,-1.5344543,0.16695243,0.17295802,-0.54288375,0.012576378,0.013028773,-0.7387511,1.6221185,0.00017493396
38852000,-0.013416374,-0.008002183,-3.5761771,0.075887285,0.009103256,-1.5230389,0.16209987,0.17368051,-0.49240533,0.012151678,0.013019813,-0.73514795,1.6221185,0.0001660573
38948000,-0.013386235,-0.008033503,-3.686471,0.07035455,0.008566408,-1.5010538,0.16050215,0.17398714,-0.40746808,0.011932225,0.012934741,-0.7290851,1.6221185,0.00011349438
39052000,-0.013340924,-0.00808058,-3.851578,0.06411122,0.008681017,-1.5231872,0.15330337,0.18038249,-0.49881485,0.011498223,0.013529239,-0.7356055,1.6221185,6.412819e-05
39156000,-0.0133015765,-0.008121467,-4.005851,0.057717137,0.009376378,-1.5348983,0.15015762,0.1853144,-0.55133224,0.011320847,0.013971426,-0.73935413,1.6221185,2.6088926e-05
39252000,-0.0132651515,-0.0081593115,-4.1303153,0.050121903,0.009460662,-1.5233598,0.12781362,0.18454331,-0.4998892,0.009589677,0.013846026,-0.73568213,1.6221185,2.4765104e-05
39348000,-0.013234693,-0.008190958,-4.244607,0.041753836,0.00957642,-1.5006909,0.11281594,0.18738684,-0.4061238,0.008387847,0.013932182,-0.7289892,1.6221185,1.6926087e-05
39452000,-0.013188837,-0.008238603,-4.4148693,0.03303195,0.010113661,-1.5235667,0.10832011,0.18419455,-0.49313924,0.008121302,0.01380999,-0.73520035,1.6221185,9.563817e-06
39548000,-0.013158174,-0.008270463,-4.527773,0.02549689,0.01092781,-1.501102,0.102442324,0.19318458,-0.40645134,0.007615275,0.014360801,-0.72901255,1.6221185,6.5365357e-06
39652000,-0.013112073,-0.008318362,-4.701671,0.019010328,0.010512068,-1.5237274,0.110590324,0.19153944,-0.4933555,0.008290808,0.014359454,-0.7352158,1.6221185,3.6933652e-06
39748000,-0.013081265,-0.008350372,-4.819315,0.014241975,0.0097547015,-1.5003996,0.11468407,0.18151882,-0.39888245,0.008520375,0.013485818,-0.7284723,1.6221185,2.5242869e-06
39852000,-0.013034863,-0.008398587,-4.994083,0.009779312,0.00923774,-1.5240002,0.11910684,0.17692068,-0.49664018,0.0089332145,0.013269351,-0.7354502,1.6221185,1.426308e-06
39948000,-0.013003782,-0.0084308805,-5.1097913,0.0062251315,0.009045356,-1.5009451,0.12011831,0.17735083,-0.4087014,0.008931758,0.013187456,-0.7291731,1.6221185,9.748319e-07
40052000,-0.012957207,-0.008479276,-5.2868314,0.001106362,0.009745671,-1.5239997,0.10900392,0.18829283,-0.49946705,0.008175576,0.014122452,-0.735652,1.6221185,5.508132e-07
40156000,-0.012916859,-0.008521197,-5.453944,-0.0043345466,0.01111684,-1.5360003,0.10388159,0.19497617,-0.5460237,0.0078282645,0.01469293,-0.7389752,1.6221185,2.2408436e-07
40252000,-0.012879611,-0.0085598985,-5.5834236,-0.00862459,0.01260107,-1.5240002,0.099053085,0.1990951,-0.49285012,0.0074268607,0.01492787,-0.7351797,1.6221185,2.1271369e-07
40348000,-0.012848598,-0.008592121,-5.7006845,-0.012245716,0.014134265,-1.5005932,0.10387287,0.2027583,-0.40271062,0.0077187065,0.015066799,-0.7287455,1.6221185,1.4538239e-07
40452000,-0.012802112,-0.008640422,-5.8798065,-0.014955062,0.015920894,-1.5240002,0.10944912,0.2035169,-0.4975171,0.008208131,0.015262741,-0.73551285,1.6221185,8.2146e-08
40548000,-0.012771116,-0.008672626,-6.0000973,-0.016628988,0.01756074,-1.500093,0.111324675,0.20626624,-0.4000225,0.008271304,0.015325361,-0.72855365,1.6221185,5.614394e-08
40652000,-0.012724628,-0.008720928,-6.1783533,-0.017887572,0.019160341,-1.5240002,0.11801116,0.21089362,-0.499972,0.008853159,0.015821168,-0.73568803,1.6221185,3.1723236e-08
40748000,-0.012693653,-0.0087531125,-6.29609,-0.018601775,0.020557366,-1.5005393,0.119641244,0.21069798,-0.4166652,0.008902402,0.015677854,-0.72974163,1.6221185,2.168173e-08
40852000,-0.012647207,-0.008801369,-6.4791174,-0.020261165,0.023126554,-1.5240002,0.12229953,0.21431573,-0.4981316,0.009173564,0.016075606,-0.73555666,1.6221185,1.2250916e-08
40948000,-0.012616205,-0.008833583,-6.6026506,-0.02171613,0.025663711,-1.4994965,0.11737464,0.22694497,-0.3957068,0.008715273,0.016851062,-0.7282456,1.6221185,8.373075e-09
41052000,-0.012569655,-0.008881953,-6.7851863,-0.022737844,0.028102787,-1.5239997,0.121452466,0.23478799,-0.48901105,0.009101043,0.017593846,-0.73490566,1.6221185,4.7310724e-09
41148000,-0.012538604,-0.0089142155,-6.9057546,-0.02319227,0.03008933,-1.5000043,0.12153983,0.23188215,-0.40453652,0.009033842,0.017235393,-0.7288759,1.6221185,3.2335237e-09
41252000,-0.012492013,-0.008962626,-7.0900784,-0.024238138,0.030456368,-1.5240002,0.118923895,0.22316496,-0.49535012,0.008917617,0.016734228,-0.7353581,1.6221185,1.827051e-09
41348000,-0.012460898,-0.008994957,-7.2139173,-0.025171028,0.029912116,-1.4994453,0.12301991,0.21913055,-0.40195855,0.009142078,0.016284427,-0.7286918,1.6221185,1.2487259e-09
41452000,-0.012414215,-0.00904346,-7.397081,-0.025490277,0.029262654,-1.5176532,0.12786144,0.2132207,-0.2513001,0.009360631,0.015609711,-0.7179378,1.6221185,7.0557266e-10
41548000,-0.012383366,-0.009075513,-7.5169477,-0.025263902,0.028646503,-1.4649025,0.12944552,0.21259971,0.034953088,0.009207341,0.015122022,-0.69750506,1.6221185,4.8223436e-10
41652000,-0.012338077,-0.009122572,-7.695897,-0.025333716,0.027097689,-1.4336615,0.13119511,0.21288173,-0.07537949,0.009436115,0.015311365,-0.70538056,1.6221185,2.7247885e-10
41748000,-0.012308687,-0.009153107,-7.81087,-0.025199527,0.025646996,-1.3724543,0.13916951,0.21413387,-0.051718473,0.009986198,0.015365314,-0.70369166,1.6221185,1.8622982e-10
41852000,-0.012265944,-0.00919752,-7.9737916,-0.024399988,0.024471972,-1.3364171,0.14134483,0.2117479,-0.12526804,0.0102182925,0.015307966,-0.70894164,1.6221185,1.0522619e-10
41948000,-0.012238403,-0.009226135,-8.076788,-0.023226628,0.023569873,-1.277411,0.14538907,0.20711549,-0.08912188,0.010472444,0.014918627,-0.70636153,1.6221185,7.191844e-11
42052000,-0.012198784,-0.009267298,-8.2322645,-0.022992246,0.022119414,-1.2399641,0.14154688,0.20320915,-0.11054617,0.010216574,0.014667234,-0.7078908,1.6221185,4.063637e-11
42148000,-0.012173801,-0.009293258,-8.333535,-0.022849435,0.020748796,-1.1807799,0.14249198,0.19913751,-0.04206595,0.010214108,0.014274571,-0.70300263,1.6221185,2.7773544e-11
42252000,-0.012138674,-0.009329755,-8.476529,-0.022174481,0.019436814,-1.1411295,0.14495604,0.19829823,-0.08602643,0.0104374625,0.01427833,-0.7061406,1.6221185,1.5692997e-11
42348000,-0.012116852,-0.009352426,-8.5664015,-0.021082405,0.018428523,-1.0841858,0.1508717,0.19939473,-0.050684214,0.010825109,0.014306658,-0.7036178,1.6221185,1.0725618e-11
42452000,-0.012086518,-0.009383946,-8.702306,-0.021059629,0.018044695,-1.0430653,0.14567927,0.20038858,-0.048967183,0.010450304,0.014374876,-0.70349526,1.6221185,6.0603397e-12
42548000,-0.0120678935,-0.009403298,-8.790237,-0.02111545,0.01797095,-0.9858783,0.14521529,0.20628935,0.0070602,0.010357478,0.014713584,-0.69949603,1.6221185,4.1420313e-12
42652000,-0.012042352,-0.009429835,-8.912612,-0.020622639,0.018001515,-0.94260216,0.1469115,0.21039797,-0.02622354,0.010514655,0.015058466,-0.7018718,1.6221185,2.3403887e-12
42748000,-0.012026923,-0.009445866,-8.988395,-0.01969509,0.01810578,-0.8877266,0.15206724,0.2070084,-0.0025462508,0.0108583635,0.014781439,-0.7001817,1.6221185,1.5995743e-12
42852000,-0.01200615,-0.009467451,-9.102793,-0.017420048,0.0180459,-0.84273595,0.15590338,0.20759183,-0.0020777583,0.01113171,0.014822335,-0.7001483,1.6221185,9.0381397e-13
42948000,-0.01199304,-0.009481073,-9.182042,-0.014791621,0.017876789,-0.792638,0.16288409,0.20561218,0.018423736,0.0116042355,0.014648284,-0.6986849,1.6221185,6.1772543e-13
43052000,-0.011857267,-0.009283557,-9.271357,-0.005596813,0.02586539,-0.71290296,0.40157303,0.46139264,0.33137143,0.027695598,0.03182122,-0.67634666,1.5592866,-0.3197716
43148000,-0.01033075,-0.00760003,-9.325002,0.028461859,0.058588088,-0.6360872,0.7618228,0.81985784,0.3326713,0.05253406,0.056536056,-0.67625386,1.4964547,-0.53832436
43252000,-0.001118618,0.0020091804,-9.396564,0.12826413,0.1589258,-0.5426451,1.2979989,1.2825716,0.44001853,0.08849395,0.08744217,-0.6685914,1.4022069,-0.74358535
43348000,0.012451567,0.015213782,-9.438231,0.227624,0.23958352,-0.46203864,1.5980659,1.265066,0.50218403,0.108228676,0.08567633,-0.66415405,1.339375,-0.7853982
43452000,0.048522845,0.045531936,-9.491639,0.43092936,0.36466965,-0.3705329,2.1754231,1.2923678,0.53242064,0.1468514,0.08724099,-0.6619957,1.2451272,-0.7853982
43548000,0.08552901,0.07256294,-9.521241,0.59372497,0.44278586,-0.29993832,2.4755185,1.2813444,0.5070903,0.16756573,0.08673311,-0.6638038,1.1822953,-0.7853982
43652000,0.16424556,0.12288211,-9.5567875,0.8979633,0.57232666,-0.20441476,3.1130276,1.3959382,0.61347014,0.20830795,0.09340907,-0.6562104,1.0880475,-0.7853982
43756000,0.25782827,0.17540948,-9.579214,1.1998856,0.68120277,-0.11645597,3.6229663,1.4820423,0.70890284,0.23991357,0.09814115,-0.6493984,1.006366,-0.669297
43852000,0.3668212,0.23073398,-9.593302,1.4968411,0.77922034,-0.039500162,3.743698,1.5433033,0.77890813,0.24598467,0.10140481,-0.6443594,0.93096775,-0.7853982
43956000,0.50909853,0.29776978,-9.6018,1.8128533,0.8826903,0.0366861,3.7991998,1.5897039,0.6369103,0.25357252,0.10610266,-0.65453154,0.8492863,-0.67922723
44052000,0.6613862,0.36574373,-9.604814,2.093022,0.983642,0.08639115,3.7953813,1.6472167,0.30190653,0.26257327,0.11395828,-0.678447,0.77388805,-0.7853982
44148000,0.803272,0.42679167,-9.605714,2.2924728,1.0569234,0.10597264,3.6489244,1.6309316,0.12662385,0.25702628,0.11488106,-0.6907699,0.7110562,-0.7853982
44252000,1.0414896,0.52593166,-9.606778,2.6456254,1.1823117,0.11501084,3.782015,1.6863883,0.27668965,0.26209354,0.116866656,-0.6796006,0.61680835,-0.7853982
44348000,1.2175072,0.597233,-9.607509,2.8230507,1.2431284,0.122458704,3.6906676,1.648442,0.33978927,0.25394797,0.11342622,-0.6747771,0.5539765,-0.7853982
44452000,1.50735,0.71204376,-9.608635,3.1665149,1.3763117,0.13620107,3.8621657,1.7863921,0.40046883,0.26393053,0.12207746,-0.6701615,0.45972872,-0.7853982
44548000,1.7168411,0.7934746,-9.609405,3.3233047,1.4473335,0.1486324,3.7519312,1.7991667,0.42398894,0.25566956,0.12260143,-0.6682589,0.3968969,-0.7853982
44652000,2.0558534,0.9231478,-9.610589,3.6609616,1.5761368,0.15596564,3.9330235,1.8743544,0.42409796,0.26789883,0.1276721,-0.6679823,0.39225486,-0.5899903
44748000,2.298784,1.0148264,-9.611401,3.799645,1.631632,0.15930843,3.5787287,1.79143,0.41691977,0.24385165,0.12206658,-0.6682171,0.39247575,-0.40211457
44852000,2.686323,1.1601696,-9.612651,4.084174,1.7684336,0.16465853,3.2842212,1.9029452,0.36076128,0.22508515,0.13041896,-0.67210144,0.39300883,-0.22462843
44948000,2.9563532,1.2615613,-9.613501,4.1496305,1.83423,0.16712098,2.8680196,1.8547922,0.2692063,0.19847491,0.12835677,-0.6786474,0.3934374,-0.15134677
45052000,3.376653,1.4206911,-9.614802,4.3554163,1.9597362,0.16367428,2.65292,1.8628981,0.17274551,0.18545783,0.13022973,-0.6855541,0.39393914,-0.08320193
45148000,3.6661885,1.5318164,-9.615692,4.37027,2.0012002,0.15666196,2.3066998,1.7373971,0.09401661,0.16258128,0.122455575,-0.69119453,0.39417014,-0.05569335
45252000,4.110601,1.7056999,-9.617056,4.498969,2.1293058,0.15139866,1.9994528,1.8999696,0.058491066,0.14144136,0.13440391,-0.69372255,0.394662,-0.02907593
45356000,4.5169954,1.8689016,-9.61831,4.5331674,2.2235193,0.14577001,1.6640055,1.6756651,0.025851928,0.1181084,0.11893598,-0.6960593,0.3951285,-0.010286938
45452000,4.9150205,2.0316498,-9.619554,4.5595727,2.2794464,0.13736014,1.4040422,1.2934148,-0.03485324,0.10028836,0.09238643,-0.70047337,0.39539227,-0.00853184
45548000,5.2548413,2.1716557,-9.620633,4.5033565,2.2700408,0.12649143,1.0973421,0.88436824,-0.102848195,0.07893838,0.06361789,-0.7054526,0.39549068,-0.005334299
45652000,5.7638354,2.381532,-9.622264,4.5509343,2.3096504,0.11653848,1.2087994,1.0310043,-0.12592608,0.087169684,0.07434841,-0.7071827,0.3957417,-0.0017537043
45748000,6.101409,2.52072,-9.623343,4.469905,2.2966318,0.10848262,1.1693467,1.081293,-0.102322534,0.08411969,0.07778534,-0.7054644,0.39595363,-0.00012321598
45852000,6.606403,2.7289386,-9.624958,4.524539,2.3283339,0.09884367,1.3691123,1.1355383,-0.08228878,0.09828353,0.08151612,-0.7039823,0.39611155,0.00064073515
45948000,6.942933,2.8676968,-9.626034,4.4601765,2.299085,0.09023186,1.3268429,1.0363467,-0.08382609,0.095262825,0.07440619,-0.7040846,0.39611542,0.00045485495
46052000,7.4478083,3.075866,-9.627648,4.5171075,2.3285089,0.08546053,1.4128464,1.0925448,-0.07463302,0.101345934,0.07837014,-0.703449,0.39619914,0.00071463466
46148000,7.800713,3.221375,-9.628778,4.4614363,2.3104198,0.08233145,1.3253802,1.0514436,-0.07188406,0.09505035,0.07540483,-0.7032889,0.39627373,0.00086489326
46252000,8.304906,3.4292629,-9.63039,4.523835,2.3295107,0.07628487,1.4786108,1.0592669,-0.078638226,0.10611704,0.07602154,-0.7038049,0.39623326,0.0002746982
46348000,8.6419325,3.568225,-9.631469,4.465073,2.2894726,0.069820814,1.4137601,0.95217687,-0.08740611,0.101557426,0.06839961,-0.7044607,0.39611465,-0.00041841026
46452000,9.149031,3.7773087,-9.633094,4.5294485,2.30695,0.06594888,1.510545,1.0087681,-0.083382316,0.10847227,0.07243966,-0.70421463,0.3960085,-0.0006722936
46548000,9.487512,3.9168687,-9.634175,4.464459,2.2720826,0.063382454,1.4004145,0.9507478,-0.08161518,0.10055201,0.068265215,-0.7041336,0.3959606,-0.0007054838
46652000,9.996764,4.1268425,-9.635807,4.5348234,2.2833219,0.05870364,1.5489875,0.9609609,-0.08654027,0.11128291,0.0690377,-0.7045331,0.3957686,-0.0013129987
46748000,10.337816,4.267463,-9.636899,4.481301,2.2377508,0.053992447,1.4736007,0.8633074,-0.08883298,0.10589734,0.06203984,-0.70473415,0.39557052,-0.001907583
46852000,10.851845,4.4794054,-9.638544,4.555546,2.2491353,0.054874524,1.5945367,0.9103924,-0.057851598,0.114234,0.0652213,-0.7025564,0.3953296,-0.002155809
46948000,11.195686,4.6211767,-9.639646,4.4990263,2.208556,0.057555154,1.489065,0.85103136,-0.03629324,0.10645032,0.060838543,-0.7010578,0.39518717,-0.002200788
47052000,11.713802,4.8348045,-9.641303,4.5798492,2.216931,0.05722038,1.6503037,0.8680642,-0.03892578,0.1180173,0.06207742,-0.701299,0.39488703,-0.0026569038
47148000,12.061116,4.9780083,-9.642416,4.5327787,2.1697564,0.05522707,1.5725033,0.78090745,-0.050130315,0.11259056,0.055912636,-0.7021505,0.39463764,-0.0030864018
47252000,12.58503,5.1940255,-9.644093,4.615994,2.1768138,0.05629902,1.7008295,0.80610883,-0.038241502,0.12163939,0.057651035,-0.701349,0.39428496,-0.0033643413
47348000,12.936087,5.3387713,-9.645216,4.566222,2.1301613,0.057340253,1.5939965,0.73356336,-0.0371727,0.113995105,0.05246099,-0.7013251,0.39404565,-0.003518285
47452000,13.45315,5.5519648,-9.64687,4.6441445,2.1310432,0.05542896,1.7262481,0.7452597,-0.056101076,0.12370383,0.05340569,-0.7027483,0.39364132,-0.0038801597
47548000,13.797241,5.693838,-9.647969,4.590661,2.0782974,0.05201176,1.6270286,0.662387,-0.0725039,0.116797514,0.04754997,-0.70397866,0.39334986,-0.0041358517
47652000,14.314719,5.9072013,-9.649624,4.663568,2.0810907,0.053799644,1.7341405,0.7023956,-0.043207604,0.12412253,0.05027454,-0.70191956,0.3929763,-0.0040453193
47748000,14.66607,6.052069,-9.650749,4.6096992,2.0349717,0.05592623,1.6279852,0.6452192,-0.033556655,0.116418205,0.046140015,-0.7012778,0.39274618,-0.0039359597
47852000,15.187572,6.2670927,-9.652421,4.6866937,2.0397081,0.054811485,1.7626641,0.6778817,-0.047680765,0.12624215,0.04854994,-0.7023522,0.39238113,-0.0039288434
47948000,15.539654,6.4122615,-9.653548,4.635767,1.9932517,0.052427165,1.6612055,0.61091954,-0.058014244,0.119109176,0.043803204,-0.703139,0.392129,-0.0039686514
48052000,16.073196,6.63225,-9.655258,4.7228417,2.0048435,0.056101583,1.8023118,0.6655756,-0.02818615,0.12884307,0.04758045,-0.7010543,0.3917859,-0.0038252545
48156000,16.539099,6.82435,-9.656751,4.74466,1.9913577,0.06096156,1.8343158,0.66691846,-0.011343677,0.13091624,0.047598373,-0.6999066,0.39151278,-0.0024747718
48252000,16.967602,7.0010295,-9.658126,4.7633686,1.9785078,0.061965883,1.855456,0.6620492,-0.017415415,0.13251638,0.047283452,-0.70038944,0.3912603,-0.0035534962
48348000,17.323906,7.14794,-9.659266,4.7129865,1.9376887,0.06038661,1.7447667,0.6062042,-0.03429326,0.1248345,0.04337268,-0.7016463,0.39105222,-0.0034882766
48452000,17.855324,7.367053,-9.660968,4.7924185,1.953317,0.06213066,1.8597087,0.66082203,-0.023345008,0.13291833,0.047230713,-0.7009088,0.39079535,-0.0031477516
48548000,18.208118,7.512516,-9.662095,4.732581,1.9152638,0.064541526,1.7335099,0.6169679,-0.014336795,0.12379194,0.04405839,-0.7003038,0.39065278,-0.0028767975
48652000,18.73539,7.72992,-9.663782,4.8049936,1.9311334,0.062806524,1.851806,0.66880965,-0.034914855,0.13252808,0.047864657,-0.7018311,0.39044344,-0.002600319
48748000,19.08578,7.874389,-9.664904,4.741623,1.8927528,0.059370317,1.7258782,0.6136808,-0.05020701,0.12371515,0.043990135,-0.70296276,0.39030936,-0.002459454
48852000,19.61016,8.090601,-9.666583,4.807922,1.9102544,0.061051555,1.8298336,0.66868114,-0.02960724,0.13089871,0.047834676,-0.7015272,0.3901511,-0.0021120806
48948000,19.959473,8.23463,-9.6677,4.7397676,1.874886,0.064084165,1.7020409,0.62211716,-0.015511554,0.121588916,0.044442263,-0.7005577,0.3900679,-0.001867882
49052000,20.483095,8.450531,-9.669376,4.803392,1.8935848,0.06352804,1.8093959,0.6680523,-0.028213996,0.12943497,0.04778906,-0.7015175,0.38994607,-0.0016232305
49148000,20.831953,8.594372,-9.670492,4.733783,1.8582492,0.060872905,1.6809043,0.6149735,-0.046026327,0.12046931,0.044074744,-0.7028367,0.3898675,-0.0015093157
49252000,21.355564,8.810262,-9.672166,4.7900114,1.8784411,0.062823765,1.7645967,0.66802156,-0.03096287,0.1262819,0.04780641,-0.7018039,0.3898043,-0.001126067
49348000,21.70557,8.954576,-9.673287,4.7135825,1.8455157,0.06449154,1.6251636,0.625446,-0.028432611,0.11628101,0.04475088,-0.7016698,0.38978156,-0.000884973
49452000,22.23142,9.171392,-9.67497,4.7710915,1.8676713,0.062599435,1.7326521,0.6798876,-0.045705475,0.12419976,0.04873562,-0.7029591,0.38974738,-0.0006595744
49548000,22.582281,9.316056,-9.67609,4.6971154,1.8357875,0.058904715,1.6095277,0.6304867,-0.059926655,0.115547515,0.045262452,-0.70401543,0.3897246,-0.00056698604
49652000,23.11427,9.535401,-9.677793,4.7591805,1.8617734,0.059224866,1.7263426,0.6873871,-0.045759145,0.1237617,0.049278855,-0.7030409,0.38971615,-0.00034916998
49748000,23.470945,9.682462,-9.678934,4.6884866,1.8336859,0.060675234,1.605212,0.6405221,-0.030844945,0.11490807,0.045851365,-0.7020028,0.38972133,-0.00021203698
49852000,24.008774,9.904214,-9.680656,4.756997,1.8626789,0.05900996,1.7377552,0.70425946,-0.042487126,0.12455149,0.050476935,-0.7028805,0.38972226,-0.00011593037
49948000,24.365625,10.051349,-9.681799,4.6884394,1.8348621,0.0558304,1.6235803,0.65505254,-0.051713932,0.11648264,0.046996284,-0.7035711,0.38972023,-8.936506e-05
50052000,24.908964,10.275374,-9.6835375,4.7592187,1.8674641,0.058370776,1.7429451,0.716611,-0.027058907,0.12473893,0.051286347,-0.7018408,0.3897574,0.00014088236
50148000,25.266466,10.422777,-9.684684,4.687267,1.841382,0.061183162,1.6176436,0.67252487,-0.017941691,0.11566999,0.04808905,-0.701228,0.3897927,0.00027570632
50252000,25.805754,10.645135,-9.686409,4.7549095,1.87235,0.06043438,1.7442579,0.73196316,-0.030444726,0.12489111,0.052409496,-0.702168,0.389833,0.00034093903
50348000,26.163977,10.792833,-9.687554,4.6855507,1.8460464,0.0581396,1.6233938,0.6843445,-0.0433243,0.116390124,0.049064465,-0.70309246,0.3898534,0.0003367503
50452000,26.704079,11.01552,-9.689283,4.7530127,1.8779814,0.06121219,1.7440113,0.74452746,-0.017253142,0.12470679,0.05323798,-0.70123154,0.3899075,0.00045384665
50548000,27.06321,11.163596,-9.690434,4.6824503,1.8529814,0.06556455,1.6226029,0.6977527,-0.00040818378,0.115826674,0.049807858,-0.70002913,0.38995078,0.0005297913
50652000,27.604542,11.386798,-9.69217,4.751608,1.884926,0.06583738,1.7556995,0.7523961,-0.017450253,0.12554537,0.053801835,-0.7012456,0.38999987,0.0005251511
50748000,27.964361,11.535159,-9.693321,4.683135,1.8591447,0.0635495,1.6339829,0.7002546,-0.0358549,0.117060065,0.050166894,-0.7025593,0.39002383,0.00047995654
50852000,28.502914,11.757214,-9.695047,4.746819,1.890602,0.066439025,1.7482738,0.76905394,-0.015480064,0.12498884,0.054981753,-0.70110494,0.3900969,0.0006302233
50948000,28.867277,11.907442,-9.696214,4.679183,1.8677647,0.068901405,1.6297523,0.72508514,-0.005747203,0.11640022,0.05178705,-0.70041025,0.39015457,0.0007241756
51052000,29.407803,12.130308,-9.697944,4.745571,1.8994756,0.06767478,1.7523044,0.7772447,-0.030413136,0.12546764,0.05565189,-0.7021709,0.39022288,0.0007242131
51148000,29.769604,12.279484,-9.699101,4.6772695,1.8744241,0.06443115,1.6346395,0.7256669,-0.04822565,0.11725442,0.052052848,-0.70344234,0.39025784,0.0006725607
51252000,30.311434,12.50289,-9.700835,4.7427797,1.9052452,0.064768486,1.7471378,0.7777389,-0.03265512,0.12512633,0.055700026,-0.7023309,0.39031518,0.00065376464
51356000,30.78507,12.698175,-9.702352,4.742671,1.9088049,0.06571912,1.7441614,0.78198594,-0.021178408,0.124767415,0.055938844,-0.7015117,0.39036435,0.00042930862
51452000,31.219833,12.877436,-9.703743,4.7411885,1.9107953,0.06384408,1.7471882,0.78311247,-0.03516174,0.12516156,0.056099035,-0.7025098,0.39039928,0.0005728075
51548000,31.583004,13.027178,-9.704905,4.6724076,1.8844013,0.06020468,1.6269494,0.73017526,-0.053199656,0.11676217,0.052402887,-0.7037974,0.3904212,0.00050258497
51652000,32.129223,13.252397,-9.706655,4.739027,1.9140035,0.061716985,1.7419002,0.7776454,-0.028528348,0.12469878,0.055669915,-0.7020363,0.39045268,0.00043257148
51748000,32.49502,13.403223,-9.707828,4.668733,1.8865637,0.063656874,1.617165,0.72699183,-0.020105762,0.11567022,0.05199921,-0.70143515,0.39046976,0.00038243478
51852000,33.043762,13.629482,-9.709586,4.738849,1.9165977,0.06232074,1.7512339,0.7742887,-0.03095018,0.12539813,0.055443395,-0.70220923,0.39048526,0.0002873505
51948000,33.407597,13.779502,-9.710752,4.6690702,1.8884062,0.059289835,1.629693,0.72347105,-0.04496225,0.11686099,0.051878206,-0.7032094,0.39048934,0.0002171928
52052000,33.956375,14.005777,-9.71251,4.7383237,1.9179816,0.06233111,1.7542169,0.7734391,-0.019854302,0.12546967,0.055319924,-0.7014172,0.39050108,0.00018131503
52148000,34.322285,14.156648,-9.713681,4.6688604,1.8900537,0.065315,1.6391253,0.72150964,-0.010713793,0.11712887,0.051557746,-0.7007647,0.39050767,0.00015744225
52252000,34.869274,14.382184,-9.715435,4.7378354,1.9189053,0.06434599,1.7664739,0.7734931,-0.027760247,0.12644804,0.055368315,-0.70198154,0.39051017,0.00010048757
52348000,35.233356,14.532301,-9.716601,4.6683927,1.890396,0.0613533,1.6392463,0.7213073,-0.04261142,0.11751796,0.051710688,-0.7030416,0.39050782,5.733678e-05
52452000,35.78222,14.75861,-9.718364,4.738509,1.9190309,0.062931806,1.7624873,0.7741275,-0.02320649,0.12610412,0.05538801,-0.70165646,0.39049795,-1.6246107e-05
52548000,36.14811,14.909476,-9.719537,4.669143,1.8900726,0.06584155,1.636233,0.71697474,-0.009227427,0.11690437,0.051225882,-0.7006586,0.3904887,-5.82945e-05
52652000,36.695034,15.134982,-9.721289,4.7376833,1.9178803,0.06504604,1.7652404,0.76820207,-0.026146377,0.12633903,0.054980557,-0.7018663,0.39047384,-0.00010249464
52748000,37.060913,15.285845,-9.72246,4.6692986,1.8893574,0.062306084,1.6454871,0.7195723,-0.042389624,0.11796262,0.05158511,-0.70302576,0.39046475,-0.00011561125
52852000,37.609726,15.512134,-9.724216,4.7380495,1.9189043,0.06395181,1.7730961,0.7738499,-0.027767802,0.12692225,0.055393934,-0.7019821,0.39047822,8.639039e-06
52948000,37.97573,15.663046,-9.72539,4.6675086,1.8913919,0.06637699,1.6432744,0.7233334,-0.016385786,0.11749311,0.05171789,-0.7011696,0.39049718,0.000101157806
53052000,38.524845,15.889458,-9.72715,4.736705,1.9211851,0.06470713,1.7642055,0.7777355,-0.03287,0.1263516,0.055701062,-0.70234627,0.39051735,0.00014989144
53148000,38.89095,16.040411,-9.728325,4.6672406,1.8934246,0.06133687,1.6437471,0.72241807,-0.048131697,0.1179067,0.051819365,-0.70343566,0.39052677,0.00015042133
53252000,39.440243,16.266901,-9.7300825,4.734491,1.922697,0.063024774,1.7647986,0.77223736,-0.028245375,0.12633464,0.055281274,-0.7020162,0.3905507,0.00020272614
53348000,39.80665,16.417982,-9.731257,4.662816,1.8944948,0.06447041,1.6364313,0.72487915,-0.02147427,0.11706435,0.051855218,-0.70153284,0.39056745,0.00022284845
53452000,40.35646,16.644684,-9.733018,4.731244,1.9238322,0.06240562,1.7608668,0.7754754,-0.037563965,0.12617229,0.055565536,-0.7026813,0.39058593,0.0002110032
53548000,40.72307,16.795849,-9.734194,4.661048,1.895652,0.058975134,1.6385636,0.72659284,-0.05181428,0.11757886,0.05213832,-0.7036985,0.39059424,0.00018653096
53652000,41.273167,17.022663,-9.735957,4.728515,1.925263,0.060505792,1.7613878,0.78180325,-0.028421544,0.12609243,0.055966936,-0.7020282,0.39062414,0.00025274683
53748000,41.640095,17.17396,-9.737132,4.656718,1.8975198,0.06344871,1.6362624,0.7315889,-0.012902185,0.116950475,0.052289695,-0.70092094,0.39065012,0.00030472947
53852000,42.190693,17.400986,-9.738898,4.7253156,1.9273862,0.06269067,1.7612553,0.78507507,-0.02813607,0.12607962,0.05619967,-0.70200837,0.3906808,0.00031408409
53948000,42.55783,17.552364,-9.740075,4.6551847,1.8995812,0.060087126,1.6404362,0.73244226,-0.048583508,0.11767436,0.05254071,-0.7034679,0.390696,0.0002915804
54052000,43.108746,17.779518,-9.74184,4.721757,1.9288228,0.062473167,1.7548467,0.7767604,-0.022708286,0.12555122,0.055573646,-0.70162094,0.3907293,0.00032627876
54148000,43.476337,17.931087,-9.74302,4.6485205,1.9003471,0.06584629,1.6235305,0.73335,-0.012308134,0.11603297,0.052412182,-0.70087856,0.39075497,0.00035342324
54252000,44.028038,18.15857,-9.744787,4.7162056,1.9296911,0.065143496,1.7493521,0.7859764,-0.027884757,0.12522425,0.056262717,-0.7019904,0.39078456,0.00033660122
54348000,44.39595,18.310274,-9.745968,4.645299,1.9013952,0.06237968,1.6243901,0.7314326,-0.046191663,0.1164951,0.052455578,-0.70329714,0.390798,0.00029858455
54452000,44.94803,18.537914,-9.747737,4.712278,1.9287823,0.064844124,1.7491527,0.77715904,-0.021381993,0.12512721,0.05559477,-0.7015262,0.3907927,0.00013493035
54548000,45.31628,18.689754,-9.748918,4.639675,1.8980093,0.06839819,1.6268629,0.71999896,-0.010209354,0.11624699,0.051447302,-0.7007287,0.39077565,5.7229154e-06
54652000,45.868774,18.917564,-9.750689,4.708306,1.9253783,0.06788234,1.7546375,0.7671355,-0.025905227,0.12557705,0.054902855,-0.7018491,0.39074966,-0.00011794844
54748000,46.237103,19.069439,-9.751869,4.638063,1.8955184,0.06529309,1.6306642,0.7140312,-0.040456627,0.116877444,0.051178005,-0.7028878,0.3907312,-0.00017478383
54852000,46.78958,19.297243,-9.753641,4.7056975,1.9219129,0.06764779,1.7479217,0.76229125,-0.01902349,0.12500893,0.05451801,-0.7013579,0.39069176,-0.00028769302
54948000,47.157925,19.44912,-9.754822,4.6333127,1.8906484,0.071081,1.6231838,0.7089104,-0.00717118,0.115947895,0.05063916,-0.7005119,0.3906628,-0.0003434338
55052000,47.71036,19.676907,-9.756593,4.7018347,1.9177175,0.07037239,1.7518913,0.75674933,-0.02167982,0.12532678,0.05413632,-0.7015475,0.39062697,-0.00035967559
