timestamp,timestamp_sample,time_last_fuse,device_id,observation,observation_variance,innovation,innovation_variance,test_ratio,estimator_instance,fusion_enabled,innovation_rejected,fused
3460000,3373087,0,0,-0.0008239746,12.25,-1.49110565e-05,112.440414,7.909598e-14,0,0,0,0
3516000,3435114,0,0,-0.014587402,12.25,0.012684413,112.67302,5.711903e-08,0,0,0,0
3580000,3492207,0,0,-0.0023498535,12.25,-0.0012621861,113.04558,5.6370675e-10,0,0,0,0
3636000,3555238,0,0,-0.021331787,12.25,0.01577806,113.46181,8.7764214e-08,0,0,0,0
3700000,3613325,0,0,-0.01965332,12.25,0.014233555,62.86484,1.2890771e-07,0,0,0,0
3756000,3675345,0,0,0.017028809,12.25,-0.025198877,63.225998,4.0172299e-07,0,0,0,0
3820000,3734419,0,0,-0.0440979,12.25,0.032261148,63.734978,6.5319347e-07,0,0,0,0
3876000,3795437,0,0,-0.0019226074,12.25,-0.009002842,46.540253,6.966113e-08,0,0,0,0
3940000,3855501,0,0,0.011383057,12.25,0.0003790781,45.583355,1.2609884e-10,0,0,0,0
3996000,3915516,0,0,0.09552002,12.25,-0.084176436,45.583355,6.217772e-06,0,0,0,0
4060000,3975571,0,0,-0.013641357,12.25,0.02141492,37.25001,4.9245494e-07,0,0,0,0
4116000,4035583,4036000,0,0.09902954,12.25,-0.09245731,37.25003,9.179433e-06,0,0,0,0
4180000,4095631,4100000,0,-0.13198853,12.25,0.14065805,37.250008,2.1245298e-05,0,1,0,1
4236000,4151638,4156000,0,0.098083496,12.25,-0.18399483,20.471478,6.614881e-05,0,1,0,1
4284000,4202339,4204000,0,-0.10852051,12.25,0.09628207,17.16968,2.1596763e-05,0,1,0,1
4348000,4263692,4268000,0,-0.04748535,12.25,0.007303238,15.760034,1.3537353e-07,0,1,0,1
4404000,4322385,4324000,0,0.04171753,12.25,-0.083941326,14.978295,1.881695e-05,0,1,0,1
4468000,4381735,4388000,0,-0.028686523,12.25,0.001182273,14.481351,3.8608814e-09,0,1,0,1
4516000,4431751,4436000,0,-0.16485596,12.25,0.13669004,14.13755,5.2863943e-05,0,1,0,1
4572000,4491772,4492000,0,-0.061553955,12.25,0.014572751,13.885561,6.117579e-07,0,1,0,1
4636000,4551786,4556000,0,-0.023986816,12.25,-0.02552006,13.692951,1.9025072e-06,0,1,0,1
4692000,4611804,4612000,0,-0.04748535,12.25,-0.00012480468,13.540942,4.601218e-11,0,1,0,1
4756000,4671816,4676000,0,0.013549805,12.25,-0.061900668,13.417932,1.1422603e-05,0,1,0,1
4812000,4731832,4732000,0,-0.019317627,12.25,-0.024539262,13.316349,1.8088302e-06,0,1,0,1
4876000,4791842,4796000,0,0.018249512,12.25,-0.061242063,13.231069,1.1338738e-05,0,1,0,1
4932000,4851855,4852000,0,-0.08972168,12.25,0.050218627,13.158444,7.666287e-06,0,1,0,1
4996000,4911864,4916000,0,-0.019317627,12.25,-0.024305325,13.095851,1.8043847e-06,0,1,0,1
5052000,4971876,4972000,0,-0.019317627,12.25,-0.023797326,13.04138,1.7369717e-06,0,1,0,1
5116000,5031883,5036000,0,-0.1038208,12.25,0.060852967,12.993578,1.1399735e-05,0,1,0,1
5172000,5091893,5092000,0,-0.009918213,12.25,-0.03669886,12.951151,4.1596495e-06,0,1,0,1
5236000,5151899,5156000,0,-0.056854248,12.25,0.0109172985,12.91346,3.6918814e-07,0,1,0,1
5292000,5207907,5212000,0,0.008850098,12.25,-0.056543924,12.879644,9.929514e-06,0,1,0,1
5340000,5259911,5260000,0,0.032348633,12.25,-0.07837173,12.849125,1.912077e-05,0,1,0,1
5404000,5319921,5324000,0,-0.05218506,12.25,0.009927727,12.82136,3.0748618e-07,0,1,0,1
5460000,5379923,5380000,0,-0.15075684,12.25,0.10682715,12.796236,3.567311e-05,0,1,0,1
5524000,5437932,5444000,0,-0.0005187988,12.25,-0.04940482,12.773356,7.643523e-06,0,1,0,1
5580000,5499934,5500000,0,-0.075653076,12.25,0.028505277,12.751999,2.5487793e-06,0,1,0,1
5644000,5558942,5564000,0,-0.08035278,12.25,0.030751992,12.7327,2.970886e-06,0,1,0,1
5700000,5619943,5620000,0,-0.03338623,12.25,-0.018616714,12.714855,1.0903217e-06,0,1,0,1
5764000,5679950,5684000,0,0.032348633,12.25,-0.08518994,12.69844,2.2860526e-05,0,1,0,1
5820000,5739951,5740000,0,0.07928467,12.25,-0.12786593,12.682612,5.1565705e-05,0,1,0,1
5884000,5799957,5804000,0,-0.042785645,12.25,-0.0027868338,12.668441,2.4522173e-08,0,1,0,1
5940000,5859958,5860000,0,-0.23059082,12.25,0.18387061,12.655185,0.00010686024,0,1,0,1
6004000,5918963,5924000,0,-0.04748535,12.25,-0.003759697,12.642226,4.4724153e-08,0,1,0,1
6060000,5975964,5980000,0,-0.061553955,12.25,0.009301454,12.630613,2.739916e-07,0,1,0,1
6108000,6027967,6028000,0,-0.05218506,12.25,-0.0013576336,12.6196575,5.842216e-09,0,1,0,1
6172000,6087969,6092000,0,-0.04748535,12.25,-0.0074251145,12.609573,1.7489037e-07,0,1,0,1
6228000,6147972,6148000,0,-0.04748535,12.25,-0.0054224767,12.599157,9.33499e-08,0,1,0,1
6292000,6207974,6212000,0,-0.0005187988,12.25,-0.05349406,12.5901985,9.091562e-06,0,1,0,1
6348000,6267976,6268000,0,0.008850098,12.25,-0.0625855,12.581688,1.2452845e-05,0,1,0,1
6412000,6327977,6332000,0,-0.08502197,12.25,0.0345757,12.572811,3.8033786e-06,0,1,0,1
6468000,6386645,6388000,0,0.03704834,12.25,-0.08934894,12.565174,2.5413841e-05,0,1,0,1
6532000,6447981,6452000,0,-0.019317627,12.25,-0.03192039,12.558071,3.2454384e-06,0,1,0,1
6588000,6506648,6508000,0,-0.08972168,12.25,0.03820453,12.551271,4.651595e-06,0,1,0,1
6652000,6567983,6572000,0,0.008850098,12.25,-0.059567794,12.543815,1.131497e-05,0,1,0,1
6708000,6627985,6628000,0,-0.099121094,12.25,0.04892006,12.537648,7.635156e-06,0,1,0,1
6772000,6687986,6692000,0,-0.03338623,12.25,-0.018955335,12.531926,1.1468459e-06,0,1,0,1
6828000,6746653,6748000,0,-0.01461792,12.25,-0.035616275,12.525213,4.0510895e-06,0,1,0,1
6892000,6807988,6812000,0,-0.075653076,12.25,0.025297098,12.519992,2.0445482e-06,0,1,0,1
6948000,6867989,6868000,0,-0.06625366,12.25,0.014506556,12.514942,6.726045e-07,0,1,0,1
7012000,6927990,6932000,0,0.027648926,12.25,-0.08063972,12.510276,2.0791753e-05,0,1,0,1
7068000,6986657,6988000,0,0.008850098,12.25,-0.05858902,12.504403,1.0980686e-05,0,1,0,1
7132000,7047991,7052000,0,-0.038085938,12.25,-0.011179484,12.500111,3.9993523e-07,0,1,0,1
7188000,7107992,7108000,0,-0.019317627,12.25,-0.03038939,12.49593,2.9562107e-06,0,1,0,1
7252000,7167992,7172000,0,-0.042785645,12.25,-0.0050503276,12.490726,8.167919e-08,0,1,0,1
7308000,7227993,7228000,0,-0.005218506,12.25,-0.043078754,12.486858,5.9447434e-06,0,1,0,1
7372000,7285994,7292000,0,0.032348633,12.25,-0.08045965,12.4833,2.0743728e-05,0,1,0,1
7428000,7346660,7348000,0,-0.038085938,12.25,-0.009074848,12.479807,2.6395557e-07,0,1,0,1
7492000,7407995,7412000,0,0.008850098,12.25,-0.054735225,12.475147,9.606122e-06,0,1,0,1
7548000,7467995,7468000,0,-0.042785645,12.25,-0.0025932044,12.471895,2.156756e-08,0,1,0,1
7612000,7525995,7532000,0,-0.03338623,12.25,-0.012510292,12.468927,5.0207177e-07,0,1,0,1
7660000,7575996,7580000,0,-0.019317627,12.25,-0.02534122,12.46442,2.0608336e-06,0,1,0,1
7716000,7635996,7636000,0,-0.1038208,12.25,0.059215404,12.461525,1.125533e-05,0,1,0,1
7780000,7695996,7700000,0,-0.023986816,12.25,-0.022063531,12.45889,1.5628981e-06,0,1,0,1
7836000,7755997,7756000,0,-0.009918213,12.25,-0.036111873,12.456269,4.1876656e-06,0,1,0,1
7900000,7815997,7820000,0,-0.12728882,12.25,0.08260921,12.452384,2.1921203e-05,0,1,0,1
7956000,7874663,7876000,0,-0.023986816,12.25,-0.022389196,12.449922,1.6105357e-06,0,1,0,1
8020000,7935997,7940000,0,-0.09442139,12.25,0.048015688,12.447704,7.4086156e-06,0,1,0,1
8076000,7995998,7996000,0,-0.03338623,12.25,-0.012946926,12.443979,5.38808e-07,0,1,0,1
8140000,8055998,8060000,0,0.008850098,12.25,-0.05536934,12.441889,9.856265e-06,0,1,0,1
8196000,8114664,8116000,0,-0.056854248,12.25,0.010842089,12.439787,3.779836e-07,0,1,0,1
8260000,8175998,8180000,0,-0.07095337,12.25,0.024374057,12.43792,1.9105917e-06,0,1,0,1
8316000,8235998,8236000,0,-0.099121094,12.25,0.052991223,12.434444,9.033197e-06,0,1,0,1
8380000,8295999,8300000,0,0.027648926,12.25,-0.074981734,12.432675,1.8088656e-05,0,1,0,1
8436000,8353332,8356000,0,-0.061553955,12.25,0.014909912,12.430878,7.1533316e-07,0,1,0,1
8500000,8413999,8420000,0,-0.21179199,12.25,0.16586237,12.427745,8.854486e-05,0,1,0,1
8548000,8463999,8468000,0,-0.019317627,12.25,-0.029304434,12.425915,2.7643837e-06,0,1,0,1
8604000,8521332,8524000,0,-0.06625366,12.25,0.017684143,12.424286,1.0068311e-06,0,1,0,1
8668000,8581999,8588000,0,-0.06625366,12.25,0.017021522,12.422873,9.3289924e-07,0,1,0,1
8716000,8631999,8636000,0,-0.08035278,12.25,0.031714983,12.419699,3.2394994e-06,0,1,0,1
8772000,8691999,8692000,0,-0.061553955,12.25,0.0122062825,12.41822,4.799185e-07,0,1,0,1
8836000,8751999,8756000,0,0.042541504,12.250812,-0.084238544,13.251279,2.1420217e-05,0,1,0,1
8892000,8812000,8812000,0,-0.065460205,12.251758,0.032911416,13.178332,3.2877037e-06,0,1,0,1
8956000,8870000,8876000,0,0.061309814,12.25284,-0.0929853,13.117517,2.6365558e-05,0,1,0,1
9004000,8920000,8924000,0,-0.009155273,12.253651,-0.013967708,13.064656,5.973272e-07,0,1,0,1
9060000,8980000,8980000,0,-0.079559326,12.254596,0.06012839,13.020043,1.1107254e-05,0,1,0,1
9124000,9040000,9044000,0,-0.046691895,12.255676,0.02692176,12.982784,2.2330532e-06,0,1,0,1
9180000,9098666,9100000,0,-0.051361084,12.25662,0.032860518,12.949828,3.3353758e-06,0,1,0,1
9244000,9158000,9164000,0,-0.14993286,12.257698,0.11462831,12.652817,4.1539046e-05,0,1,0,1
9300000,9218666,9220000,0,-0.04660034,12.25864,0.008824557,12.6444435,2.4634633e-07,0,1,0,1
9364000,9280000,9284000,0,-0.037200928,12.259716,0.00041736662,12.637858,5.513431e-10,0,1,0,1
9420000,9338666,9340000,0,0.019134521,12.260655,-0.054838218,12.631638,9.522851e-06,0,1,0,1
9484000,9400000,9404000,0,0.00030517578,12.261728,-0.03318526,12.627185,3.488541e-06,0,1,0,1
9540000,9458666,9460000,0,-0.032592773,12.262664,0.001758704,12.622772,9.801459e-09,0,1,0,1
9604000,9520000,9524000,0,-0.009124756,12.263733,-0.026226718,12.521341,2.1973387e-06,0,1,0,1
9660000,9580000,9580000,0,-0.079559326,12.264664,0.045458604,12.52018,6.602093e-06,0,1,0,1
9724000,9640000,9644000,0,0.06604004,12.265729,-0.10025827,12.520125,3.2113803e-05,0,1,0,1
9780000,9700000,9700000,0,0.023651123,12.266655,-0.055079218,12.519834,9.692525e-06,0,1,0,1
9844000,9758000,9764000,0,-0.051513672,12.2677145,0.022071043,12.520702,1.5562416e-06,0,1,0,1
9892000,9808000,9812000,0,0.037719727,12.268501,-0.06693928,12.520351,1.43154675e-05,0,1,0,1
9948000,9866666,9868000,0,-0.004638672,12.26942,-0.0224517,12.521131,1.6103302e-06,0,1,0,1
10012000,9926000,9932000,0,-0.065704346,12.270472,0.031943586,12.466592,3.2740068e-06,0,1,0,1
10060000,9976000,9980000,0,-0.06564331,12.271249,0.03158561,12.467227,3.2008752e-06,0,1,0,1
10116000,10036000,10036000,0,0.028320312,12.27216,-0.0626429,12.46872,1.2588728e-05,0,1,0,1
10180000,10094000,10100000,0,0.018798828,12.273202,-0.051861547,12.471158,8.626688e-06,0,1,0,1
10228000,10144000,10148000,0,-0.108062744,12.27397,0.0760621,12.472362,1.8554441e-05,0,1,0,1
10284000,10204000,10204000,0,0.014160156,12.27487,-0.047084007,12.474498,7.108594e-06,0,1,0,1
10348000,10264000,10268000,0,-0.009399414,12.275902,-0.022379346,12.477648,1.6055434e-06,0,1,0,1
10404000,10322666,10324000,0,-0.13153076,12.276794,0.09930737,12.440252,3.170982e-05,0,1,0,1
10468000,10384000,10388000,0,0.061187744,12.277819,-0.09439674,12.443135,2.8644694e-05,0,1,0,1
10524000,10444000,10444000,0,-0.04232788,12.278703,0.010650825,12.445539,3.645967e-07,0,1,0,1
10588000,10504000,10508000,0,-0.037597656,12.279718,0.006085258,12.448803,1.189845e-07,0,1,0,1
10644000,10564000,10564000,0,-0.03289795,12.280594,0.0015520416,12.451511,7.738284e-09,0,1,0,1
10708000,10622000,10628000,0,-0.06576538,12.2816,0.034732044,12.455121,3.874117e-06,0,1,0,1
10764000,10682666,10684000,0,-0.04220581,12.282467,0.011036983,12.4581,3.91119e-07,0,1,0,1
10828000,10742000,10748000,0,0.032958984,12.2834635,-0.06262244,12.429663,1.26200375e-05,0,1,0,1
10876000,10792000,10796000,0,0.037475586,12.284184,-0.06599456,12.431715,1.4013455e-05,0,1,0,1
10932000,10850666,10852000,0,-0.019042969,12.285037,-0.008173494,12.434518,2.14905e-07,0,1,0,1
10996000,10912000,10916000,0,0.037261963,12.28602,-0.06373475,12.438126,1.3063442e-05,0,1,0,1
11052000,10972000,10972000,0,-0.11315918,12.286862,0.08808601,12.441142,2.4946728e-05,0,1,0,1
11116000,11032000,11036000,0,-0.018981934,12.287834,-0.0064326115,12.444999,1.3299636e-07,0,1,0,1
11172000,11090666,11092000,0,-0.065979004,12.288666,0.041354857,12.448205,5.4954885e-06,0,1,0,1
11236000,11150000,11156000,0,0.009277344,12.289627,-0.03579095,12.424493,4.1240864e-06,0,1,0,1
11284000,11200000,11204000,0,-0.028411865,12.290313,0.0029189195,12.426737,2.742503e-08,0,1,0,1
11340000,11260000,11260000,0,-0.12231445,12.291128,0.09758324,12.429699,3.0644314e-05,0,1,0,1
11404000,11318000,11324000,0,0.056427002,12.292073,-0.08132072,12.433424,2.1275102e-05,0,1,0,1
11452000,11368000,11372000,0,0.037384033,12.292743,-0.06060627,12.435838,1.1814629e-05,0,1,0,1
11508000,11425333,11428000,0,-0.061431885,12.293542,0.039829843,12.439014,5.1014213e-06,0,1,0,1
11556000,11476000,11476000,0,-0.009643555,12.294201,-0.011610694,12.441516,4.334141e-07,0,1,0,1
11620000,11535000,11540000,0,0.05606079,12.295125,-0.07989661,12.421063,2.0556912e-05,0,1,0,1
11676000,11596000,11596000,0,-0.019348145,12.295908,-0.002644645,12.42398,2.251822e-08,0,1,0,1
11740000,11656000,11660000,0,-0.024047852,12.29682,0.0033470374,12.427608,3.6057333e-08,0,1,0,1
11796000,11716000,11716000,0,-0.028747559,12.297589,0.009183681,12.430653,2.713936e-07,0,1,0,1
11860000,11776000,11780000,0,-0.056884766,12.29849,0.038632024,12.43444,4.8009665e-06,0,1,0,1
11916000,11836000,11836000,0,0.018371582,12.299247,-0.035786368,12.437602,4.118685e-06,0,1,0,1
11980000,11896000,11900000,0,-0.06628418,12.300133,0.05075864,12.44153,8.283352e-06,0,1,0,1
12036000,11956000,11956000,0,-0.06137085,12.300878,0.038892843,12.422195,4.870808e-06,0,1,0,1
12100000,12016000,12020000,0,-0.018951416,12.301751,-0.0025971327,12.425732,2.1713324e-08,0,1,0,1
12156000,12076000,12076000,0,0.04675293,12.302482,-0.067127764,12.428698,1.4502362e-05,0,1,0,1
12220000,12134000,12140000,0,-0.009857178,12.303342,-0.008530293,12.432367,2.3411758e-07,0,1,0,1
12276000,12196000,12196000,0,-0.07092285,12.304059,0.05382563,12.435431,9.319174e-06,0,1,0,1
12340000,12256000,12260000,0,-0.065979004,12.304906,0.049710512,12.439222,7.946268e-06,0,1,0,1
12396000,12316000,12316000,0,0.065704346,12.30561,-0.084774464,12.436765,2.3114402e-05,0,1,0,1
12460000,12376000,12380000,0,-0.061431885,12.306443,0.041771576,12.424981,5.6172785e-06,0,1,0,1
12516000,12436000,12436000,0,-0.04248047,12.307133,0.023562882,12.427849,1.7869847e-06,0,1,0,1
12580000,12495000,12500000,0,-0.056427002,12.307952,0.038592666,12.431389,4.792365e-06,0,1,0,1
12636000,12556000,12556000,0,-0.056243896,12.308628,0.039200157,12.434342,4.9432524e-06,0,1,0,1
12700000,12616000,12620000,0,-0.08892822,12.309433,0.072859526,12.437989,1.7071923e-05,0,1,0,1
12756000,12676000,12676000,0,-0.055725098,12.310096,0.040150378,12.441018,5.1830257e-06,0,1,0,1
12820000,12736000,12740000,0,-0.07901001,12.310887,0.05388733,12.424919,9.348452e-06,0,1,0,1
12876000,12796000,12796000,0,-0.050567627,12.311535,0.02596111,12.427682,2.1692838e-06,0,1,0,1
12940000,12854000,12860000,0,-0.04107666,12.312312,0.01742878,12.43109,9.774279e-07,0,1,0,1
12996000,12916000,12916000,0,0.10458374,12.312946,-0.12732467,12.43393,5.215268e-05,0,1,0,1
13060000,12976000,12980000,0,-0.041625977,12.313709,0.021418402,12.437437,1.4753778e-06,0,1,0,1
13116000,13032000,13036000,0,-0.060272217,12.314329,0.041019723,12.440348,5.410195e-06,0,1,0,1
13164000,13084000,13084000,0,-0.12579346,12.314808,0.107137516,12.442631,3.6900386e-05,0,1,0,1
13228000,13144000,13148000,0,-0.012573242,12.315552,-0.01033468,12.42742,3.4377405e-07,0,1,0,1
13284000,13201333,13204000,0,-0.059570312,12.316153,0.037867635,12.430108,4.614466e-06,0,1,0,1
13332000,13252000,13252000,0,0.18008423,12.316611,-0.20115839,12.432234,0.00013019286,0,1,0,1
13396000,13312000,13316000,0,0.019378662,12.317336,-0.037200164,12.435589,4.451264e-06,0,1,0,1
13452000,13372000,13372000,0,0.061431885,12.317918,-0.077634536,12.438373,1.9382345e-05,0,1,0,1
13516000,13432000,13436000,0,-0.037597656,12.318628,0.023623995,12.441818,1.7942496e-06,0,1,0,1
13572000,13492000,13492000,0,0.03765869,12.319197,-0.05056865,12.444666,8.219388e-06,0,1,0,1
13636000,13552000,13556000,0,-0.06591797,12.319893,0.045055777,12.4300785,6.5326158e-06,0,1,0,1
13692000,13612000,13612000,0,-0.09854126,12.320447,0.078394085,12.432694,1.9772488e-05,0,1,0,1
13756000,13672000,13676000,0,-0.1027832,12.321129,0.08322663,12.43593,2.2279544e-05,0,1,0,1
13812000,13732000,13732000,0,-0.013092041,12.321669,-0.0061057135,12.438614,1.198839e-07,0,1,0,1
13876000,13791000,13796000,0,-0.041290283,12.322337,0.023466272,12.441939,1.7703541e-06,0,1,0,1
13932000,13852000,13852000,0,-0.16323853,12.322863,0.1463797,12.444686,6.887121e-05,0,1,0,1
13996000,13912000,13916000,0,-0.04031372,12.323518,0.01891077,12.443581,1.1495637e-06,0,1,0,1
14052000,13972000,13972000,0,-0.012023926,12.32403,-0.011684511,12.433232,4.392351e-07,0,1,0,1
14116000,14031000,14036000,0,-0.10128784,12.324671,0.07884957,12.436358,1.9997025e-05,0,1,0,1
14172000,14092000,14092000,0,-0.06793213,12.325169,0.04583294,12.438948,6.7551e-06,0,1,0,1
14236000,14152000,14156000,0,0.02154541,12.325796,-0.042821884,12.442164,5.89516e-06,0,1,0,1
14292000,14212000,14212000,0,0.068237305,12.326281,-0.087954834,12.4448185,2.4865138e-05,0,1,0,1
14356000,14272000,14276000,0,0.03012085,12.326895,-0.047627855,12.448122,7.2891717e-06,0,1,0,1
14412000,14332000,14332000,0,0.14248657,12.327366,-0.16624546,12.43384,8.8910754e-05,0,1,0,1
14476000,14391000,14396000,0,0.07571411,12.327967,-0.09682676,12.436868,3.0153646e-05,0,1,0,1
14532000,14452000,14452000,0,0.028167725,12.328424,-0.04731114,12.439373,7.1976096e-06,0,1,0,1
14596000,14512000,14516000,0,0.0043945312,12.329011,-0.02181116,12.442492,1.5293615e-06,0,1,0,1
14652000,14572000,14572000,0,0.10284424,12.329456,-0.11891832,12.445065,4.5452773e-05,0,1,0,1
14716000,14630000,14636000,0,-0.07165527,12.33003,0.058042012,12.448273,1.0825197e-05,0,1,0,1
14772000,14688000,14692000,0,-0.066589355,12.330462,0.053627156,12.450909,9.239075e-06,0,1,0,1
14820000,14738666,14740000,0,-0.07095337,12.330753,0.05207151,12.43632,8.721043e-06,0,1,0,1
14884000,14800000,14804000,0,-0.056518555,12.33131,0.038428865,12.439296,4.74875e-06,0,1,0,1
14940000,14858666,14860000,0,-0.070373535,12.331725,0.052990433,12.441753,9.027622e-06,0,1,0,1
15004000,14920000,14924000,0,-0.051239014,12.33227,0.034602344,12.444822,3.8484186e-06,0,1,0,1
15060000,14980000,14980000,0,-0.022857666,12.332673,0.0069908984,12.44735,1.5705403e-07,0,1,0,1
15124000,15040000,15044000,0,-0.046295166,12.333205,0.031579144,12.450511,3.20386e-06,0,1,0,1
15180000,15100000,15100000,0,-0.022583008,12.333595,0.008650153,12.453104,2.4034216e-07,0,1,0,1
15244000,15160000,15164000,0,-0.09295654,12.334116,0.07147752,12.439836,1.6427985e-05,0,1,0,1
15300000,15218666,15220000,0,-0.017333984,12.334494,-0.0037979,12.442227,4.637126e-08,0,1,0,1
15364000,15280000,15284000,0,-0.12536621,12.335001,0.105433375,12.445223,3.5728393e-05,0,1,0,1
15420000,15340000,15340000,0,0.020904541,12.335367,-0.040742055,12.447687,5.3340514e-06,0,1,0,1
15484000,15400000,15404000,0,-0.08734131,12.335863,0.06908324,12.450778,1.5332358e-05,0,1,0,1
15540000,15460000,15460000,0,-0.053985596,12.336218,0.036168806,12.453314,4.201878e-06,0,1,0,1
15604000,15518000,15524000,0,-0.12887573,12.336702,0.10537383,12.440357,3.570201e-05,0,1,0,1
15652000,15568000,15572000,0,-0.10934448,12.336909,0.08580975,12.442142,2.3672175e-05,0,1,0,1
15708000,15628000,15628000,0,-0.080566406,12.337249,0.057317723,12.444505,1.0559911e-05,0,1,0,1
15772000,15688000,15692000,0,-0.019134521,12.337718,-0.003424747,12.447474,3.7690835e-08,0,1,0,1
15828000,15746666,15748000,0,0.0043029785,12.338047,-0.025760142,12.449913,2.1320145e-06,0,1,0,1
15892000,15808000,15812000,0,0.093322754,12.338506,-0.113251805,12.45298,4.119808e-05,0,1,0,1
15948000,15866666,15868000,0,-0.03894043,12.338823,0.02123788,12.455493,1.4485097e-06,0,1,0,1
16012000,15926000,15932000,0,-0.1138916,12.339271,0.09102329,12.442627,2.6635016e-05,0,1,0,1
16060000,15976000,15980000,0,-0.0146484375,12.339441,-0.008067142,12.444388,2.0918274e-07,0,1,0,1
16116000,16036000,16036000,0,-0.0335083,12.3397455,0.011900835,12.446733,4.5515512e-07,0,1,0,1
16180000,16096000,16100000,0,-0.06628418,12.340179,0.045800958,12.449685,6.739858e-06,0,1,0,1
16236000,16154666,16156000,0,-0.13635254,12.340473,0.116597846,12.452107,4.367151e-05,0,1,0,1
16300000,16214000,16220000,0,0.042907715,12.340898,-0.06235055,12.455161,1.2485077e-05,0,1,0,1
16348000,16264000,16268000,0,-0.074920654,12.341045,0.05710745,12.457051,1.0472016e-05,0,1,0,1
16404000,16324000,16324000,0,0.00061035156,12.341326,-0.024606504,12.44375,1.9462943e-06,0,1,0,1
16468000,16384000,16388000,0,0.06616211,12.341738,-0.088677496,12.44659,2.5271816e-05,0,1,0,1
16524000,16444000,16444000,0,-0.0847168,12.342008,0.06410708,12.448921,1.3205057e-05,0,1,0,1
16588000,16504000,16508000,0,-0.05606079,12.342409,0.036245987,12.451865,4.2203205e-06,0,1,0,1
16644000,16562666,16564000,0,-0.055786133,12.3426695,0.036896147,12.454277,4.372235e-06,0,1,0,1
16708000,16624000,16628000,0,-0.06491089,12.343061,0.04719116,12.457325,7.150831e-06,0,1,0,1
16764000,16681333,16684000,0,-0.050445557,12.343313,0.03366942,12.459816,3.6393149e-06,0,1,0,1
16812000,16732000,16732000,0,0.01083374,12.343426,-0.033650663,12.44588,3.6393315e-06,0,1,0,1
16876000,16792000,16796000,0,-0.11618042,12.343805,0.09516595,12.448713,2.9100385e-05,0,1,0,1
16932000,16852000,16852000,0,-0.13894653,12.344045,0.1184983,12.451037,4.511061e-05,0,1,0,1
16996000,16911000,16916000,0,-0.06765747,12.344417,0.04778366,12.4539795,7.33349e-06,0,1,0,1
17052000,16972000,16972000,0,0.07357788,12.344647,-0.09243982,12.456387,2.7440128e-05,0,1,0,1
17116000,17032000,17036000,0,0.0071411133,12.34501,-0.023435099,12.4594345,1.7631743e-06,0,1,0,1
17172000,17092000,17092000,0,0.07739258,12.345231,-0.09189985,12.46192,2.7108446e-05,0,1,0,1
17236000,17151000,17156000,0,0.010955811,12.345585,-0.029252427,12.44907,2.7494568e-06,0,1,0,1
17292000,17212000,17212000,0,-0.08786011,12.345798,0.07133079,12.451358,1.634547e-05,0,1,0,1
17356000,17272000,17276000,0,-0.06384277,12.346142,0.048493996,12.454259,7.552975e-06,0,1,0,1
17412000,17332000,17332000,0,-0.1010437,12.346346,0.08685161,12.456631,2.4222289e-05,0,1,0,1
17476000,17391000,17396000,0,-0.029937744,12.346683,0.016807415,12.459641,9.0689343e-07,0,1,0,1
17532000,17452000,17452000,0,-0.0063476562,12.346879,-0.005279542,12.462096,8.946669e-08,0,1,0,1
17596000,17512000,17516000,0,-0.08148193,12.347207,0.0689142,12.46088,1.5245045e-05,0,1,0,1
17652000,17572000,17572000,0,-0.062164307,12.347396,0.047116175,12.451529,7.1314425e-06,0,1,0,1
17716000,17631000,17636000,0,-0.014831543,12.347715,0.00122537,12.454388,4.822499e-09,0,1,0,1
17772000,17692000,17692000,0,-0.13220215,12.347895,0.12020165,12.456723,4.639562e-05,0,1,0,1
17836000,17752000,17756000,0,0.037750244,12.348207,-0.049009115,12.459694,7.710923e-06,0,1,0,1
17892000,17812000,17812000,0,0.051452637,12.348379,-0.06069928,12.462113,1.1825932e-05,0,1,0,1
17956000,17872000,17876000,0,0.0039978027,12.348684,-0.010848037,12.465193,3.7762723e-07,0,1,0,1
18012000,17928000,17932000,0,0.06964111,12.348849,-0.08908515,12.451599,2.549444e-05,0,1,0,1
18060000,17980000,17980000,0,0.03137207,12.348876,-0.04896134,12.453292,7.699853e-06,0,1,0,1
18124000,18040000,18044000,0,-0.053527832,12.349173,0.037876114,12.456153,4.60688e-06,0,1,0,1
18180000,18100000,18100000,0,-0.034454346,12.349329,0.019871352,12.4584875,1.2677964e-06,0,1,0,1
18244000,18160000,18164000,0,-0.095336914,12.349619,0.08222913,12.461461,2.170413e-05,0,1,0,1
18300000,18218666,18220000,0,-0.0758667,12.349769,0.06349682,12.463881,1.29392965e-05,0,1,0,1
18364000,18280000,18284000,0,0.12182617,12.350052,-0.13298668,12.466964,5.6743425e-05,0,1,0,1
18420000,18338666,18340000,0,-0.038879395,12.350196,0.023235815,12.453326,1.7341649e-06,0,1,0,1
18484000,18400000,18404000,0,0.05053711,12.350471,-0.064627215,12.456147,1.3412419e-05,0,1,0,1
18540000,18460000,18460000,0,-0.02041626,12.350607,0.008447935,12.458448,2.2913802e-07,0,1,0,1
18604000,18518000,18524000,0,-0.029754639,12.350876,0.019516986,12.461382,1.2226982e-06,0,1,0,1
18652000,18568000,18572000,0,0.09716797,12.35087,-0.106170304,12.463164,3.6177436e-05,0,1,0,1
18708000,18628000,18628000,0,0.0211792,12.351001,-0.027526034,12.465586,2.4312778e-06,0,1,0,1
18772000,18688000,18692000,0,-0.016571045,12.351264,0.012472342,12.468674,4.990404e-07,0,1,0,1
18828000,18748000,18748000,0,0.0069885254,12.351388,-0.018458417,12.454876,1.0942323e-06,0,1,0,1
18892000,18808000,18812000,0,-0.1293335,12.3516445,0.11990228,12.4577,4.6161193e-05,0,1,0,1
18948000,18868000,18868000,0,-0.12365723,12.351761,0.11487486,12.459998,4.236352e-05,0,1,0,1
19012000,18928000,18932000,0,0.004058838,12.352012,-0.011890433,12.462935,4.5376913e-07,0,1,0,1
19068000,18988000,18988000,0,-0.052368164,12.352123,0.04638,12.465322,6.9026837e-06,0,1,0,1
19132000,19048000,19052000,0,0.009033203,12.352368,-0.013405593,12.468369,5.765306e-07,0,1,0,1
19188000,19106666,19108000,0,0.055847168,12.352474,-0.058251567,12.470838,1.0883777e-05,0,1,0,1
19252000,19166000,19172000,0,-0.0009765625,12.352714,-0.0072563207,12.457435,1.6906912e-07,0,1,0,1
19300000,19216000,19220000,0,-0.05267334,12.352677,0.046000537,12.45912,6.7935757e-06,0,1,0,1
19356000,19274666,19276000,0,-0.01473999,12.3527775,0.009421992,12.461417,2.8495614e-07,0,1,0,1
19420000,19336000,19340000,0,-0.005279541,12.353012,0.0019332501,12.464355,1.1994061e-08,0,1,0,1
19476000,19396000,19396000,0,0.022918701,12.3531065,-0.02444817,12.466739,1.9177846e-06,0,1,0,1
19540000,19454000,19460000,0,0.0368042,12.353335,-0.03596423,12.469788,4.1489902e-06,0,1,0,1
19596000,19514666,19516000,0,-0.015136719,12.353426,0.013225002,12.467704,5.6113197e-07,0,1,0,1
19660000,19576000,19580000,0,-0.076049805,12.353649,0.071726516,12.458764,1.6517506e-05,0,1,0,1
19716000,19636000,19636000,0,-0.033203125,12.353733,0.030002408,12.461023,2.8894722e-06,0,1,0,1
19780000,19696000,19700000,0,-0.13623047,12.353951,0.13476577,12.463918,5.8286056e-05,0,1,0,1
19836000,19756000,19756000,0,-0.03652954,12.354031,0.035628546,12.466264,4.073051e-06,0,1,0,1
19900000,19816000,19820000,0,-0.05029297,12.354244,0.051107276,12.469269,8.378852e-06,0,1,0,1
19956000,19873333,19876000,0,0.06750488,12.35432,-0.065314926,12.471701,1.3682303e-05,0,1,0,1
20004000,19924000,19924000,0,-0.059814453,12.354258,0.051502008,12.45723,8.517004e-06,0,1,0,1
20068000,19984000,19988000,0,-0.012420654,12.354467,0.0055365926,12.4600115,9.8407156e-08,0,1,0,1
20124000,20044000,20044000,0,-0.17669678,12.354537,0.17139718,12.462269,9.429099e-05,0,1,0,1
20188000,20103000,20108000,0,0.012542725,12.354742,-0.01745582,12.465164,9.777831e-07,0,1,0,1
20244000,20164000,20164000,0,0.07342529,12.354809,-0.07654648,12.46751,1.8798826e-05,0,1,0,1
20308000,20224000,20228000,0,-0.007019043,12.355009,0.0065497416,12.470516,1.3760173e-07,0,1,0,1
20364000,20280000,20284000,0,0.05407715,12.355071,-0.052859645,12.472944,8.96065e-06,0,1,0,1
20428000,20341000,20348000,0,0.06768799,12.355268,-0.07521259,12.459456,1.8161094e-05,0,1,0,1
20484000,20404000,20404000,0,0.20321655,12.355325,-0.20852397,12.461675,0.00013957112,0,1,0,1
20548000,20464000,20468000,0,-0.033325195,12.3555155,0.03167527,12.464522,3.2197715e-06,0,1,0,1
20604000,20524000,20524000,0,-0.0987854,12.355569,0.09856796,12.466829,3.117278e-05,0,1,0,1
20668000,20582000,20588000,0,-0.050994873,12.355757,0.051860146,12.4697895,8.627169e-06,0,1,0,1
20724000,20644000,20644000,0,-0.0036315918,12.355806,0.005754466,12.47218,1.0620077e-07,0,1,0,1
20788000,20704000,20708000,0,-0.03173828,12.35599,0.03583739,12.475249,4.1179733e-06,0,1,0,1
20844000,20764000,20764000,0,-0.040802002,12.356036,0.033432055,12.460984,3.587846e-06,0,1,0,1
20908000,20823000,20828000,0,-0.031158447,12.3562155,0.025323698,12.463785,2.0580896e-06,0,1,0,1
20964000,20880000,20884000,0,0.26486206,12.3562565,-0.26928535,12.466051,0.00023267866,0,1,0,1
21012000,20932000,20932000,0,-0.03793335,12.356162,0.03732424,12.467753,4.4694457e-06,0,1,0,1
21076000,20992000,20996000,0,0.037506104,12.356339,-0.036500126,12.470711,4.273242e-06,0,1,0,1
21132000,21052000,21052000,0,0.07476807,12.3563795,-0.07163064,12.473097,1.645445e-05,0,1,0,1
21196000,21112000,21116000,0,0.074157715,12.356554,-0.077497184,12.471534,1.926247e-05,0,1,0,1
21252000,21172000,21172000,0,-0.07675171,12.356589,0.07119195,12.461851,1.626819e-05,0,1,0,1
21316000,21232000,21236000,0,0.13983154,12.356759,-0.14415146,12.464649,6.6683446e-05,0,1,0,1
21372000,21290666,21292000,0,-0.06329346,12.3567915,0.0618997,12.466911,1.2293575e-05,0,1,0,1
21436000,21352000,21356000,0,-0.086242676,12.356958,0.0862868,12.469821,2.388298e-05,0,1,0,1
21492000,21409333,21412000,0,0.0741272,12.356987,-0.073131554,12.472167,1.715251e-05,0,1,0,1
21540000,21460000,21460000,0,0.07348633,12.356881,-0.07031167,12.473923,1.5853011e-05,0,1,0,1
21604000,21520000,21524000,0,-0.05859375,12.357046,0.05418326,12.460514,9.424412e-06,0,1,0,1
21660000,21580000,21580000,0,-0.039367676,12.357073,0.036146987,12.462686,4.1936537e-06,0,1,0,1
21724000,21640000,21644000,0,-0.06253052,12.357235,0.060941927,12.465484,1.19174465e-05,0,1,0,1
21780000,21700000,21700000,0,0.092926025,12.357259,-0.0933551,12.467743,2.7960712e-05,0,1,0,1
21844000,21760000,21764000,0,0.026397705,12.357418,-0.024031479,12.470653,1.8523872e-06,0,1,0,1
21900000,21820000,21820000,0,0.12008667,12.357439,-0.115758926,12.472996,4.297325e-05,0,1,0,1
21964000,21879000,21884000,0,-0.049926758,12.357595,0.057386708,12.476014,1.055861e-05,0,1,0,1
22020000,21936000,21940000,0,-0.105773926,12.357614,0.1038587,12.461839,3.4622917e-05,0,1,0,1
22068000,21988000,21988000,0,0.040649414,12.357495,-0.04204274,12.46344,5.6728863e-06,0,1,0,1
22132000,22048000,22052000,0,-0.05831909,12.35765,0.059166066,12.466236,1.1232334e-05,0,1,0,1
22188000,22108000,22108000,0,0.0032348633,12.357667,-0.0012184025,12.468493,4.762419e-09,0,1,0,1
22252000,22168000,22172000,0,-0.043701172,12.357819,0.04771672,12.471401,7.30274e-06,0,1,0,1
22308000,22228000,22228000,0,-0.06677246,12.357833,0.07214098,12.4737425,1.6688882e-05,0,1,0,1
22372000,22288000,22292000,0,0.06530762,12.357982,-0.058520466,12.476758,1.0979278e-05,0,1,0,1
22428000,22348000,22348000,0,0.022521973,12.357994,-0.021164637,12.46254,1.4377226e-06,0,1,0,1
22492000,22408000,22412000,0,-0.0011291504,12.35814,0.0046917154,12.465291,7.063515e-08,0,1,0,1
22548000,22468000,22468000,0,-0.052734375,12.358148,0.058088355,12.467509,1.0825761e-05,0,1,0,1
22612000,22528000,22532000,0,-0.052215576,12.358292,0.059222963,12.470372,1.1250216e-05,0,1,0,1
22668000,22588000,22588000,0,-0.075164795,12.358297,0.083602235,12.472676,2.2414866e-05,0,1,0,1
22732000,22646000,22652000,0,0.010070801,12.3584385,-0.0001324825,12.475648,5.627479e-11,0,1,0,1
22780000,22696000,22700000,0,-0.04626465,12.358307,0.057941757,12.477394,1.0762656e-05,0,1,0,1
22836000,22756000,22756000,0,-0.03640747,12.358314,0.046276115,12.463094,6.8730246e-06,0,1,0,1
22900000,22816000,22820000,0,-0.068847656,12.358454,0.08077679,12.465842,2.0936859e-05,0,1,0,1
22956000,22876000,22876000,0,-0.01651001,12.358457,0.029960196,12.468059,2.8797213e-06,0,1,0,1
23020000,22936000,22940000,0,-0.096069336,12.358595,0.1118455,12.470919,4.0123476e-05,0,1,0,1
23076000,22996000,22996000,0,-0.06689453,12.358596,0.08399304,12.473219,2.262393e-05,0,1,0,1
23140000,23056000,23060000,0,-0.005126953,12.358731,0.02419689,12.476187,1.8771423e-06,0,1,0,1
23196000,23114666,23116000,0,-0.061279297,12.35873,0.07604632,12.473949,1.8544384e-05,0,1,0,1
23260000,23176000,23180000,0,-0.023040771,12.358865,0.033222992,12.464749,3.5420437e-06,0,1,0,1
23316000,23234666,23236000,0,-0.06967163,12.35886,0.08183977,12.466927,2.1489652e-05,0,1,0,1
23380000,23296000,23300000,0,-0.06896973,12.358991,0.08309018,12.469739,2.2146342e-05,0,1,0,1
23436000,23353333,23356000,0,0.011566162,12.358985,0.004206065,12.472003,5.6738227e-08,0,1,0,1
23484000,23404000,23404000,0,-0.12924194,12.358844,0.147085,12.473687,6.937482e-05,0,1,0,1
23548000,23463000,23468000,0,0.04574585,12.358975,-0.026381671,12.476653,2.231344e-06,0,1,0,1
23604000,23524000,23524000,0,-0.08596802,12.35897,0.09517356,12.462503,2.907283e-05,0,1,0,1
23668000,23582000,23588000,0,-0.028808594,12.359098,0.039900143,12.465204,5.1086895e-06,0,1,0,1
23724000,23644000,23644000,0,-0.06600952,12.35909,0.07914274,12.467381,2.0095877e-05,0,1,0,1
23788000,23704000,23708000,0,0.037963867,12.359218,-0.022787984,12.470194,1.665707e-06,0,1,0,1
23844000,23764000,23764000,0,-0.1312561,12.359207,0.14907041,12.472455,7.126741e-05,0,1,0,1
23908000,23824000,23828000,0,0.034362793,12.359332,-0.015045894,12.475376,7.258424e-07,0,1,0,1
23964000,23880000,23884000,0,-0.05496216,12.359321,0.07697993,12.47772,1.8996769e-05,0,1,0,1
24012000,23932000,23932000,0,0.020843506,12.359174,-0.011794416,12.462924,4.4647066e-07,0,1,0,1
24076000,23992000,23996000,0,0.09118652,12.3593,-0.07936884,12.465626,2.0213705e-05,0,1,0,1
24132000,24052000,24052000,0,0.015350342,12.359287,-0.00045845937,12.4678,6.7432904e-10,0,1,0,1
24196000,24112000,24116000,0,0.03881836,12.359411,-0.021148657,12.4706135,1.434623e-06,0,1,0,1
24252000,24170666,24172000,0,0.04333496,12.359398,-0.02302226,12.472874,1.699767e-06,0,1,0,1
24316000,24232000,24236000,0,0.118255615,12.35952,-0.094931476,12.475796,2.8894301e-05,0,1,0,1
24372000,24290666,24292000,0,0.0047302246,12.359505,0.021986783,12.478138,1.5496498e-06,0,1,0,1
24436000,24350000,24356000,0,-0.17819214,12.359625,0.18748006,12.4644575,0.0001127968,0,1,0,1
24484000,24400000,24404000,0,-0.040374756,12.359472,0.049891643,12.466022,7.987074e-06,0,1,0,1
24540000,24460000,24460000,0,0.021087646,12.359457,-0.009844898,12.468196,3.109416e-07,0,1,0,1
24604000,24520000,24524000,0,-0.08230591,12.359578,0.09612478,12.47101,2.9636647e-05,0,1,0,1
24660000,24580000,24580000,0,0.007751465,12.359561,0.007417988,12.473269,1.7646231e-07,0,1,0,1
24724000,24640000,24644000,0,0.07354736,12.359681,-0.055857442,12.476193,1.0003223e-05,0,1,0,1
24780000,24700000,24700000,0,-0.0067443848,12.359663,0.02727778,12.478536,2.3851433e-06,0,1,0,1
24844000,24760000,24764000,0,-0.04876709,12.35978,0.059675835,12.464896,1.142795e-05,0,1,0,1
24900000,24818666,24820000,0,0.008087158,12.35976,0.004537261,12.467038,6.605173e-08,0,1,0,1
24964000,24878000,24884000,0,-0.029418945,12.359876,0.044572074,12.4698105,6.3727343e-06,0,1,0,1
25020000,24937333,24940000,0,-0.047821045,12.359854,0.06490012,12.472038,1.3508701e-05,0,1,0,1
25068000,24988000,24988000,0,-0.11764526,12.359697,0.13617432,12.473693,5.9464175e-05,0,1,0,1
25132000,25048000,25052000,0,0.010284424,12.359815,0.009756379,12.47662,3.0516895e-07,0,1,0,1
25188000,25108000,25108000,0,0.06674194,12.359794,-0.044335872,12.478963,6.3007465e-06,0,1,0,1
25252000,25168000,25172000,0,0.11328125,12.35991,-0.09566659,12.465249,2.9368353e-05,0,1,0,1
25308000,25228000,25228000,0,0.10772705,12.359887,-0.08684314,12.467392,2.4196659e-05,0,1,0,1
25372000,25288000,25292000,0,-0.047973633,12.36,0.07253088,12.470166,1.6874606e-05,0,1,0,1
25428000,25348000,25348000,0,-0.11773682,12.359976,0.14426799,12.472396,6.674981e-05,0,1,0,1
25492000,25408000,25412000,0,-0.031951904,12.360088,0.060192242,12.475282,1.1616911e-05,0,1,0,1
25548000,25468000,25468000,0,0.22207642,12.360063,-0.19172303,12.477592,0.000117835945,0,1,0,1
25612000,25527000,25532000,0,0.027923584,12.360173,-0.005909987,12.46403,1.1209197e-07,0,1,0,1
25668000,25588000,25588000,0,-0.04727173,12.3601465,0.07183597,12.466139,1.6558155e-05,0,1,0,1
25732000,25648000,25652000,0,-0.03253174,12.360254,0.059385046,12.468871,1.1313242e-05,0,1,0,1
25788000,25708000,25708000,0,0.019622803,12.360226,0.009300446,12.471066,2.7743673e-07,0,1,0,1
25852000,25767000,25772000,0,0.005645752,12.360333,0.02624188,12.473911,2.208245e-06,0,1,0,1
25908000,25828000,25828000,0,-0.15374756,12.360304,0.18813367,12.476191,0.000113477836,0,1,0,1
25972000,25887000,25892000,0,-0.0065307617,12.36041,0.042293694,12.479142,5.7335883e-06,0,1,0,1
26028000,25948000,25948000,0,-0.11883545,12.360379,0.13926664,12.464913,6.2239335e-05,0,1,0,1
26092000,26008000,26012000,0,-0.03781128,12.360484,0.05991092,12.4676075,1.1515661e-05,0,1,0,1
26148000,26068000,26068000,0,0.009674072,12.360451,0.014465792,12.4697695,6.712527e-07,0,1,0,1
26212000,26127000,26132000,0,0.009796143,12.360555,0.017196193,12.472575,9.483496e-07,0,1,0,1
26268000,26188000,26188000,0,-0.018249512,12.36052,0.04778084,12.474823,7.3203723e-06,0,1,0,1
26332000,26248000,26252000,0,0.09487915,12.360623,-0.062618956,12.477737,1.2570015e-05,0,1,0,1
26388000,26308000,26308000,0,0.033294678,12.360589,0.0024250671,12.480068,1.8849097e-08,0,1,0,1
26452000,26368000,26372000,0,0.019226074,12.36069,0.0026018433,12.466267,2.1721302e-08,0,1,0,1
26508000,26428000,26428000,0,-0.09811401,12.360654,0.12254903,12.468396,4.818026e-05,0,1,0,1
26572000,26487000,26492000,0,-0.035980225,12.360754,0.062419325,12.471159,1.24965845e-05,0,1,0,1
26628000,26548000,26548000,0,-0.011962891,12.360717,0.04060159,12.473375,5.2864248e-06,0,1,0,1
26692000,26608000,26612000,0,-0.053833008,12.360815,0.08535345,12.476248,2.3357059e-05,0,1,0,1
26748000,26668000,26668000,0,-0.020202637,12.360777,0.05385183,12.478547,9.296017e-06,0,1,0,1
26812000,26728000,26732000,0,-0.04788208,12.360875,0.0662121,12.464916,1.4068423e-05,0,1,0,1
26868000,26788000,26788000,0,-0.08016968,12.360836,0.100610204,12.467012,3.2477426e-05,0,1,0,1
26932000,26848000,26852000,0,-0.032348633,12.360932,0.055085883,12.469734,9.7338225e-06,0,1,0,1
26988000,26908000,26908000,0,-0.10696411,12.360891,0.13206655,12.471917,5.5938704e-05,0,1,0,1
27052000,26967000,26972000,0,-0.007232666,12.360987,0.03445589,12.47475,3.8067567e-06,0,1,0,1
27108000,27028000,27028000,0,-0.04916382,12.360946,0.079042986,12.477017,2.0029765e-05,0,1,0,1
27172000,27088000,27092000,0,-0.010925293,12.361041,0.04355446,12.479959,6.0801194e-06,0,1,0,1
27228000,27148000,27148000,0,-0.0011291504,12.360999,0.02615964,12.465625,2.1958845e-06,0,1,0,1
27292000,27208000,27212000,0,0.0038146973,12.361093,0.02443031,12.468305,1.9147433e-06,0,1,0,1
27348000,27268000,27268000,0,0.032196045,12.36105,-0.001048144,12.470456,3.5238668e-09,0,1,0,1
27412000,27328000,27332000,0,-0.03353882,12.361142,0.06837668,12.473248,1.4993275e-05,0,1,0,1
27468000,27388000,27388000,0,0.1408081,12.361098,-0.103319205,12.475484,3.4226676e-05,0,1,0,1
27532000,27448000,27452000,0,0.022491455,12.36119,0.019780189,12.478385,1.2541875e-06,0,1,0,1
27588000,27508000,27508000,0,-0.047729492,12.361146,0.08422602,12.476148,2.2744272e-05,0,1,0,1
27652000,27568000,27572000,0,0.05630493,12.361238,-0.024500906,12.4669285,1.9260378e-06,0,1,0,1
27708000,27628000,27628000,0,-0.0049438477,12.361191,0.040241294,12.469048,5.1948205e-06,0,1,0,1
27772000,27686000,27692000,0,-0.0045776367,12.361281,0.043413933,12.471801,6.0448997e-06,0,1,0,1
27828000,27744000,27748000,0,0.09442139,12.361235,-0.052437272,12.474008,8.817271e-06,0,1,0,1
27876000,27794666,27796000,0,-0.042175293,12.361053,0.08778004,12.475638,2.4705223e-05,0,1,0,1
27940000,27856000,27860000,0,-0.111816406,12.361147,0.16095345,12.478546,8.304176e-05,0,1,0,1
27996000,27916000,27916000,0,-0.05404663,12.361103,0.096706256,12.476293,2.9983587e-05,0,1,0,1
28060000,27976000,27980000,0,0.026611328,12.361196,0.011677936,12.467042,4.3755102e-07,0,1,0,1
28116000,28036000,28036000,0,0.017333984,12.36115,0.024621122,12.469166,1.9446356e-06,0,1,0,1
28180000,28096000,28100000,0,0.022247314,12.361241,0.02388538,12.471925,1.829746e-06,0,1,0,1
28236000,28156000,28156000,0,0.07879639,12.361196,-0.028952636,12.474135,2.6879782e-06,0,1,0,1
28300000,28214000,28220000,0,0.064453125,12.361285,-0.009723455,12.477003,3.0310346e-07,0,1,0,1
28348000,28264000,28268000,0,-0.001373291,12.361104,0.059729908,12.478668,1.1436034e-05,0,1,0,1
28404000,28320000,28324000,0,-0.019622803,12.361061,0.05760153,12.464575,1.0647571e-05,0,1,0,1
28452000,28372000,28372000,0,0.10296631,12.360883,-0.062220737,12.46609,1.2422243e-05,0,1,0,1
28516000,28432000,28436000,0,-0.014953613,12.360978,0.06065109,12.46879,1.1800839e-05,0,1,0,1
28572000,28488000,28492000,0,-0.028503418,12.360937,0.077662244,12.470958,1.9345503e-05,0,1,0,1
28620000,28538666,28540000,0,-0.07003784,12.360761,0.12199354,12.472563,4.772852e-05,0,1,0,1
28684000,28598000,28604000,0,-0.036102295,12.360859,0.091665044,12.475419,2.6940917e-05,0,1,0,1
28732000,28648000,28652000,0,-0.03527832,12.360685,0.09356575,12.477082,2.8066012e-05,0,1,0,1
28788000,28706666,28708000,0,0.0077819824,12.36065,0.053841602,12.4794035,9.291848e-06,0,1,0,1
28852000,28768000,28772000,0,0.008270264,12.36075,0.03589078,12.465778,4.13339e-06,0,1,0,1
28908000,28826666,28828000,0,0.0743103,12.360713,-0.026470289,12.4679,2.2479364e-06,0,1,0,1
28972000,28888000,28892000,0,-0.094940186,12.360811,0.14769131,12.470653,6.996497e-05,0,1,0,1
29028000,28946666,28948000,0,-0.032592773,12.360773,0.08823319,12.472861,2.496651e-05,0,1,0,1
29092000,29006000,29012000,0,0.08557129,12.36087,-0.025809154,12.475725,2.1357073e-06,0,1,0,1
29148000,29065333,29068000,0,-0.06491089,12.360832,0.1293315,12.478019,5.361953e-05,0,1,0,1
29196000,29116000,29116000,0,0.10525513,12.360659,-0.065701246,12.463463,1.3853785e-05,0,1,0,1
29260000,29176000,29180000,0,-0.03616333,12.360758,0.08087154,12.466113,2.0985548e-05,0,1,0,1
29316000,29236000,29236000,0,0.03967285,12.36072,0.008468084,12.468242,2.3005151e-07,0,1,0,1
29380000,29294000,29300000,0,-0.0119018555,12.360818,0.06475435,12.471004,1.3449202e-05,0,1,0,1
29436000,29356000,29356000,0,0.002746582,12.36078,0.05376479,12.473221,9.269948e-06,0,1,0,1
29500000,29416000,29420000,0,0.00793457,12.360878,0.05302306,12.476094,9.013862e-06,0,1,0,1
29556000,29476000,29476000,0,0.10699463,12.360839,-0.04213401,12.4783945,5.690715e-06,0,1,0,1
29620000,29535000,29540000,0,0.026824951,12.360936,0.029617961,12.4649105,2.8150178e-06,0,1,0,1
29676000,29596000,29596000,0,0.04586792,12.360895,0.014748558,12.4670105,6.979058e-07,0,1,0,1
29740000,29655000,29660000,0,0.013122559,12.36099,0.05250264,12.469736,8.842295e-06,0,1,0,1
29796000,29716000,29716000,0,0.12158203,12.360949,-0.051862933,12.471925,8.62662e-06,0,1,0,1
29860000,29775000,29780000,0,-0.015045166,12.361043,0.09053624,12.474762,2.628286e-05,0,1,0,1
29916000,29836000,29836000,0,0.07495117,12.361001,0.0044221953,12.4770355,6.269377e-08,0,1,0,1
29980000,29895000,29900000,0,0.03274536,12.361095,0.05205357,12.479982,8.684545e-06,0,1,0,1
30036000,29956000,29956000,0,-0.11706543,12.3610525,0.18293467,12.465698,0.00010738298,0,1,0,1
30100000,30015000,30020000,0,0.016021729,12.361145,0.053394772,12.468386,9.146337e-06,0,1,0,1
30156000,30076000,30076000,0,0.077545166,12.3611,-0.0040482283,12.470542,5.2565966e-08,0,1,0,1
30220000,30134000,30140000,0,0.011779785,12.361193,0.06700243,12.473342,1.4396545e-05,0,1,0,1
30276000,30196000,30196000,0,0.068725586,12.361147,0.014152944,12.475584,6.4223315e-07,0,1,0,1
30340000,30256000,30260000,0,0.012512207,12.3612385,0.075662486,12.478494,1.8350971e-05,0,1,0,1
30396000,30316000,30316000,0,-0.09008789,12.361194,0.1697704,12.47624,9.240601e-05,0,1,0,1
30460000,30376000,30380000,0,0.01940918,12.361284,0.051366314,12.467018,8.465531e-06,0,1,0,1
30516000,30436000,30436000,0,-0.050567627,12.361238,0.12530026,12.469144,5.0364815e-05,0,1,0,1
30580000,30496000,30500000,0,0.053863525,12.361326,0.024866499,12.471904,1.9831543e-06,0,1,0,1
30636000,30552000,30556000,0,-0.030426025,12.3612795,0.113465466,12.474117,4.12836e-05,0,1,0,1
30684000,30604000,30604000,0,0.022216797,12.361097,0.06371878,12.475753,1.3017517e-05,0,1,0,1
30748000,30664000,30668000,0,0.013397217,12.36119,0.07728895,12.478668,1.9148138e-05,0,1,0,1
30804000,30724000,30724000,0,0.046966553,12.361145,0.021758862,12.464588,1.519338e-06,0,1,0,1
30868000,30782000,30788000,0,-0.004486084,12.361236,0.07798826,12.467244,1.9514076e-05,0,1,0,1
30924000,30842666,30844000,0,-0.013183594,12.36119,0.09044849,12.469377,2.6243268e-05,0,1,0,1
30988000,30904000,30908000,0,-0.07342529,12.3612795,0.15501744,12.472145,7.706904e-05,0,1,0,1
31044000,30964000,30964000,0,0.0077819824,12.361234,0.076941416,12.474365,1.898287e-05,0,1,0,1
31108000,31024000,31028000,0,0.003753662,12.361323,0.08550607,12.477244,2.3438788e-05,0,1,0,1
31164000,31084000,31084000,0,0.0045166016,12.361277,0.08860499,12.4795475,2.5163874e-05,0,1,0,1
31228000,31144000,31148000,0,0.028778076,12.361365,0.050789177,12.465929,8.27709e-06,0,1,0,1
31284000,31204000,31204000,0,0.06680298,12.361318,0.016813673,12.468032,9.069582e-07,0,1,0,1
31348000,31264000,31268000,0,-0.003479004,12.361405,0.092186786,12.470763,2.7258648e-05,0,1,0,1
31404000,31324000,31324000,0,0.12411499,12.361356,-0.03155265,12.472952,3.1927318e-06,0,1,0,1
31468000,31384000,31388000,0,-0.063964844,12.3614435,0.16223273,12.475796,8.438566e-05,0,1,0,1
31524000,31442666,31444000,0,0.09240723,12.361395,0.009199001,12.478071,2.7126507e-07,0,1,0,1
31588000,31504000,31508000,0,0.1159668,12.361482,-0.008854888,12.481022,2.512905e-07,0,1,0,1
31644000,31564000,31564000,0,0.040771484,12.361432,0.04654634,12.466619,6.9515618e-06,0,1,0,1
31708000,31624000,31628000,0,0.04119873,12.361518,0.05092869,12.46931,8.320369e-06,0,1,0,1
31764000,31682666,31684000,0,-0.00061035156,12.361466,0.09691068,12.471468,3.0122128e-05,0,1,0,1
31828000,31744000,31748000,0,0.080078125,12.361552,0.020712562,12.474272,1.3756643e-06,0,1,0,1
31884000,31802666,31804000,0,0.094329834,12.361501,0.0110042915,12.476517,3.8823157e-07,0,1,0,1
31948000,31862000,31868000,0,0.12728882,12.361586,-0.01656901,12.479429,8.7995096e-07,0,1,0,1
31996000,31912000,31916000,0,0.07550049,12.3614,0.029698908,12.476532,2.8277896e-06,0,1,0,1
32052000,31972000,31972000,0,0.019439697,12.361351,0.07479274,12.466721,1.794844e-05,0,1,0,1
32116000,32030000,32036000,0,0.09051514,12.361438,0.008249424,12.469418,2.183037e-07,0,1,0,1
32164000,32080000,32084000,0,-0.05026245,12.361254,0.1528743,12.47099,7.495974e-05,0,1,0,1
32220000,32137333,32140000,0,0.07788086,12.361207,0.028019398,12.473189,2.5176776e-06,0,1,0,1
32268000,32188000,32188000,0,0.0076904297,12.361027,0.101987384,12.474817,3.3351756e-05,0,1,0,1
32332000,32248000,32252000,0,-0.0524292,12.36112,0.16661197,12.4777155,8.8989196e-05,0,1,0,1
32388000,32308000,32308000,0,0.089904785,12.361077,0.027552739,12.480034,2.4331773e-06,0,1,0,1
32452000,32368000,32372000,0,0.052612305,12.36117,0.041369632,12.46635,5.4914112e-06,0,1,0,1
32508000,32428000,32428000,0,-0.0033569336,12.361125,0.10142049,12.468468,3.2998814e-05,0,1,0,1
32572000,32485000,32492000,0,0.04449463,12.361217,0.057879187,12.471218,1.0744741e-05,0,1,0,1
32628000,32548000,32548000,0,0.13421631,12.361171,-0.0,12.473423,2.4724695e-06,0,1,0,1
32692000,32608000,32612000,0,0.0541687,12.361261,0.057609253,12.476284,1.064043e-05,0,1,0,1
32748000,32668000,32668000,0,-0.025146484,12.361216,0.1411306,12.478575,6.384654e-05,0,1,0,1
32812000,32728000,32732000,0,0.070007324,12.361306,0.022059381,12.465033,1.5615403e-06,0,1,0,1
32868000,32788000,32788000,0,0.0138549805,12.3612585,0.08232072,12.46712,2.1742633e-05,0,1,0,1
32932000,32847000,32852000,0,0.061553955,12.361347,0.038880125,12.469831,4.8490283e-06,0,1,0,1
32988000,32908000,32908000,0,-0.13061523,12.3612995,0.2351281,12.472008,0.00017730979,0,1,0,1
33052000,32967000,32972000,0,-0.001739502,12.361388,0.109259225,12.474832,3.827732e-05,0,1,0,1
33108000,33028000,33028000,0,0.04147339,12.36134,0.06958492,12.477092,1.5523043e-05,0,1,0,1
33172000,33087000,33092000,0,0.013916016,12.361428,0.10179136,12.480025,3.3209806e-05,0,1,0,1
33228000,33148000,33148000,0,0.00076293945,12.36138,0.09729941,12.46576,3.037817e-05,0,1,0,1
33292000,33205000,33212000,0,-0.021881104,12.361465,0.12404691,12.468432,4.93651e-05,0,1,0,1
33348000,33268000,33268000,0,0.040252686,12.361416,0.06519935,12.470577,1.3635153e-05,0,1,0,1
33412000,33327000,33332000,0,0.0079956055,12.361502,0.10191815,12.473363,3.3310374e-05,0,1,0,1
33468000,33388000,33388000,0,0.03237915,12.361451,0.08103984,12.475594,2.1056972e-05,0,1,0,1
33532000,33447000,33452000,0,0.09414673,12.361537,0.02363196,12.478489,1.7901833e-06,0,1,0,1
33588000,33508000,33508000,0,0.033325195,12.361486,0.088744715,12.480803,2.5240763e-05,0,1,0,1
33652000,33566000,33572000,0,0.066986084,12.361572,0.03233953,12.467025,3.3555561e-06,0,1,0,1
33708000,33628000,33628000,0,0.10949707,12.361521,-0.0,12.469138,1.3042155e-07,0,1,0,1
33772000,33687000,33692000,0,0.0625,12.361605,0.045300998,12.471885,6.5817812e-06,0,1,0,1
33828000,33748000,33748000,0,0.09106445,12.361552,0.020447932,12.474086,1.340757e-06,0,1,0,1
33892000,33807000,33812000,0,0.09124756,12.361636,0.024812907,12.476943,1.973818e-06,0,1,0,1
33948000,33868000,33868000,0,-0.021209717,12.361584,0.14125937,12.479228,6.395976e-05,0,1,0,1
34012000,33928000,33932000,0,0.026977539,12.361668,0.057757556,12.465612,1.0704441e-05,0,1,0,1
34068000,33988000,33988000,0,-0.010070801,12.361614,0.097801134,12.467694,3.0687508e-05,0,1,0,1
34132000,34046000,34052000,0,0.09411621,12.361696,-0.0,12.470402,3.300262e-08,0,1,0,1
34188000,34104000,34108000,0,-0.14535522,12.361642,0.23980318,12.472571,0.0001844225,0,1,0,1
34236000,34154666,34156000,0,0.12908936,12.361454,-0.0,12.474176,3.651881e-06,0,1,0,1
34300000,34216000,34220000,0,0.16165161,12.36154,-0.0,12.477041,1.2414379e-05,0,1,0,1
34356000,34274666,34276000,0,0.053100586,12.361489,0.049915865,12.479331,7.986305e-06,0,1,0,1
34420000,34334000,34340000,0,0.13339233,12.361574,-0.0,12.465716,8.830881e-06,0,1,0,1
34468000,34384000,34388000,0,0.039031982,12.361387,0.04457227,12.467234,6.3741077e-06,0,1,0,1
34524000,34444000,34444000,0,0.011260986,12.361339,0.075088575,12.469358,1.808688e-05,0,1,0,1
34580000,34500000,34500000,0,0.13400269,12.361291,-0.0,12.471525,6.5492177e-06,0,1,0,1
34636000,34550000,34556000,0,0.06317139,12.361244,0.028742246,12.473732,2.6491405e-06,0,1,0,1
34692000,34609333,34612000,0,0.06341553,12.361198,0.031356707,12.47598,3.1524355e-06,0,1,0,1
34740000,34660000,34660000,0,0.06838989,12.361018,0.028763525,12.47764,2.6522334e-06,0,1,0,1
34804000,34719000,34724000,0,0.09210205,12.361112,-0.0,12.464235,7.611662e-07,0,1,0,1
34860000,34780000,34780000,0,0.012145996,12.361068,0.067080535,12.466315,1.4438263e-05,0,1,0,1
34924000,34839000,34844000,0,0.07849121,12.36116,0.0022359416,12.469017,1.6037943e-08,0,1,0,1
34980000,34900000,34900000,0,0.050323486,12.361115,0.031173006,12.471186,3.116805e-06,0,1,0,1
35044000,34958000,34964000,0,0.041229248,12.361207,0.039679818,12.473999,5.0488634e-06,0,1,0,1
35100000,35020000,35020000,0,0.18243408,12.361162,-0.0,12.4762535,3.4074124e-05,0,1,0,1
35164000,35080000,35084000,0,0.04537964,12.361253,0.0317885,12.4791765,3.2390235e-06,0,1,0,1
35220000,35136000,35140000,0,0.050323486,12.361208,0.011676434,12.465034,4.3750904e-07,0,1,0,1
35268000,35188000,35188000,0,0.03164673,12.361027,0.02684486,12.466555,2.3122552e-06,0,1,0,1
35332000,35246000,35252000,0,-0.029144287,12.361119,0.0808137,12.469264,2.0950247e-05,0,1,0,1
35380000,35296000,35300000,0,0.07489014,12.36094,-0.0,12.470846,3.0341214e-06,0,1,0,1
35436000,35356000,35356000,0,-0.047454834,12.3609,0.08126469,12.473058,2.1178286e-05,0,1,0,1
35500000,35416000,35420000,0,0.033081055,12.360995,-0.0,12.475924,7.379833e-07,0,1,0,1
35556000,35476000,35476000,0,-0.13137817,12.360954,0.13302816,12.478219,5.6727622e-05,0,1,0,1
35620000,35536000,35540000,0,-0.064453125,12.36105,0.031678576,12.464804,3.2203707e-06,0,1,0,1
35676000,35594666,35596000,0,-0.12991333,12.361007,0.07422875,12.466899,1.7678516e-05,0,1,0,1
35740000,35656000,35660000,0,-0.10574341,12.361099,0.019976005,12.469619,1.2800416e-06,0,1,0,1
35796000,35716000,35716000,0,-0.11495972,12.361056,0.00021729618,12.471803,1.5143803e-10,0,1,0,1
35860000,35776000,35780000,0,-0.18539429,12.361149,0.034339562,12.474634,3.7811305e-06,0,1,0,1
35916000,35834666,35836000,0,-0.21325684,12.361105,0.027204946,12.476903,2.3727332e-06,0,1,0,1
35980000,35894000,35900000,0,-0.23648071,12.361197,0.0072264373,12.479845,1.6737835e-07,0,1,0,1
36028000,35944000,35948000,0,-0.32092285,12.361017,0.03849256,12.4650545,4.754659e-06,0,1,0,1
36084000,36004000,36004000,0,-0.43795776,12.360975,0.11287531,12.467156,4.087808e-05,0,1,0,1
36148000,36064000,36068000,0,-0.41818237,12.361069,0.042434514,12.469885,5.776117e-06,0,1,0,1
36204000,36122666,36124000,0,-0.40371704,12.361026,-0.0,12.4720745,8.6999273e-07,0,1,0,1
36268000,36184000,36188000,0,-0.50717163,12.361119,0.035933286,12.474915,4.1401518e-06,0,1,0,1
36324000,36244000,36244000,0,-0.5679016,12.361075,0.050955057,12.477189,8.323727e-06,0,1,0,1
36388000,36302000,36308000,0,-0.6003113,12.361169,0.024836063,12.475611,1.9777149e-06,0,1,0,1
36436000,36352000,36356000,0,-0.5672302,12.360989,-0.0,12.465366,1.2167623e-05,0,1,0,1
36492000,36412000,36412000,0,-0.67578125,12.360948,-0.0,12.467477,4.9351723e-09,0,1,0,1
36556000,36472000,36476000,0,-0.67108154,12.361041,-0.0,12.470215,1.2374259e-05,0,1,0,1
36612000,36529333,36532000,0,-0.8500366,12.360999,0.06674129,12.472412,1.4285607e-05,0,1,0,1
36660000,36580000,36580000,0,-0.8447571,12.360823,0.017199636,12.474041,9.486179e-07,0,1,0,1
36724000,36640000,36644000,0,-0.9572754,12.36092,0.07037336,12.476935,1.5877007e-05,0,1,0,1
36780000,36700000,36700000,0,-0.97073364,12.36088,0.03046149,12.479252,2.9742246e-06,0,1,0,1
36844000,36760000,36764000,0,-1.0690613,12.360976,0.055689454,12.465712,9.951506e-06,0,1,0,1
36900000,36820000,36820000,0,-1.092041,12.360934,0.023515582,12.467829,1.7741105e-06,0,1,0,1
36964000,36880000,36884000,0,-1.1528625,12.36103,0.020676732,12.470577,1.371315e-06,0,1,0,1
37020000,36940000,36940000,0,-1.1808472,12.360987,-0.0,12.472781,1.9903793e-07,0,1,0,1
37084000,36998000,37004000,0,-1.3076782,12.361081,0.05365193,12.475641,9.229279e-06,0,1,0,1
37140000,37060000,37060000,0,-1.4761963,12.361038,0.16375244,12.477931,8.595932e-05,0,1,0,1
37204000,37118000,37124000,0,-1.4043274,12.361132,0.008531451,12.464504,2.335774e-07,0,1,0,1
37260000,37180000,37180000,0,-1.5122375,12.361088,0.056679964,12.466592,1.0307928e-05,0,1,0,1
37324000,37239000,37244000,0,-1.4976196,12.361179,-0.0,12.469303,2.4178307e-06,0,1,0,1
37380000,37300000,37300000,0,-1.4650269,12.361135,-0.0,12.471479,4.7073925e-05,0,1,0,1
37444000,37360000,37364000,0,-1.6961365,12.361225,0.03937733,12.474301,4.9720593e-06,0,1,0,1
37500000,37420000,37420000,0,-1.747406,12.36118,0.027856112,12.476563,2.4877456e-06,0,1,0,1
37564000,37480000,37484000,0,-1.8457642,12.361271,0.05387652,12.479495,9.303836e-06,0,1,0,1
37620000,37540000,37540000,0,-1.8922424,12.361225,0.022007108,12.4653225,1.5541124e-06,0,1,0,1
37684000,37600000,37604000,0,-1.9530945,12.361315,0.008922219,12.467996,2.5539308e-07,0,1,0,1
37740000,37660000,37660000,0,-2.0609741,12.361267,0.05166483,12.470141,8.562067e-06,0,1,0,1
37804000,37720000,37724000,0,-2.0746155,12.361356,-0.0,12.472927,3.260993e-07,0,1,0,1
37860000,37780000,37780000,0,-2.1028748,12.361308,-0.0,12.47516,7.360455e-06,0,1,0,1
37924000,37839000,37844000,0,-2.277008,12.361397,0.050083637,12.478056,8.040903e-06,0,1,0,1
37980000,37900000,37900000,0,-2.2765503,12.361348,-0.0,12.4803705,1.0360258e-06,0,1,0,1
38044000,37960000,37964000,0,-2.4081726,12.361437,0.021151543,12.466613,1.4354749e-06,0,1,0,1
38100000,38020000,38020000,0,-2.5300598,12.361386,0.07445502,12.468725,1.7783856e-05,0,1,0,1
38164000,38080000,38084000,0,-2.5152893,12.361473,-0.0,12.471472,1.2432291e-06,0,1,0,1
38220000,38136000,38140000,0,-2.632843,12.3614235,0.028487682,12.473673,2.6024347e-06,0,1,0,1
38284000,38198000,38204000,0,-2.773468,12.361509,0.0891099,12.476529,2.5457635e-05,0,1,0,1
38340000,38260000,38260000,0,-2.7445068,12.36146,-0.0,12.478816,3.752781e-07,0,1,0,1
38404000,38320000,38324000,0,-2.8807373,12.361546,0.025817394,12.4652195,2.1388723e-06,0,1,0,1
38460000,38380000,38380000,0,-2.92276,12.361494,-0.0,12.467301,4.2514007e-08,0,1,0,1
38524000,38439000,38444000,0,-3.0777283,12.361578,0.06942749,12.470007,1.5461663e-05,0,1,0,1
38580000,38500000,38500000,0,-3.1944885,12.3615265,0.11354518,12.472177,4.1348063e-05,0,1,0,1
38644000,38559000,38564000,0,-3.2122498,12.36161,0.04756069,12.474994,7.2529715e-06,0,1,0,1
38700000,38620000,38620000,0,-3.1695862,12.361558,-0.0,12.477248,1.4928884e-05,0,1,0,1
38764000,38679000,38684000,0,-3.2593994,12.361643,-0.0,12.480175,1.22688625e-05,0,1,0,1
38820000,38740000,38740000,0,-3.382019,12.36159,-0.0,12.465873,1.9281415e-06,0,1,0,1
38884000,38798000,38804000,0,-3.4526367,12.361672,-0.0,12.468537,4.7143426e-06,0,1,0,1
38940000,38860000,38860000,0,-3.6924133,12.361619,0.12723637,12.470675,5.1926916e-05,0,1,0,1
39004000,38919000,38924000,0,-3.7429504,12.361702,0.09148407,12.473454,2.6838869e-05,0,1,0,1
39060000,38980000,38980000,0,-3.709259,12.361648,-0.0,12.4756775,1.0144335e-06,0,1,0,1
39124000,39040000,39044000,0,-3.8502502,12.36173,0.037503004,12.478565,4.508452e-06,0,1,0,1
39180000,39100000,39100000,0,-3.817047,12.361676,-0.0,12.480873,1.6274562e-05,0,1,0,1
39244000,39160000,39164000,0,-3.9726257,12.361758,-0.0,12.467071,1.4091701e-06,0,1,0,1
39300000,39216000,39220000,0,-4.094879,12.361703,0.02519989,12.469177,2.0371335e-06,0,1,0,1
39348000,39268000,39268000,0,-4.1838684,12.361513,0.04857731,12.470736,7.5689354e-06,0,1,0,1
39412000,39328000,39332000,0,-4.2538757,12.361598,0.030714512,12.473519,3.0252288e-06,0,1,0,1
39468000,39388000,39388000,0,-4.277069,12.361546,-0.0,12.475748,1.7105033e-06,0,1,0,1
39532000,39448000,39452000,0,-4.418152,12.36163,0.03003645,12.478642,2.8919437e-06,0,1,0,1
39588000,39508000,39508000,0,-4.51178,12.361578,0.04622078,12.480954,6.8467853e-06,0,1,0,1
39652000,39568000,39572000,0,-4.6193237,12.361662,0.043464184,12.46716,6.0611565e-06,0,1,0,1
39708000,39628000,39628000,0,-4.684662,12.3616085,0.030498981,12.469273,2.9839364e-06,0,1,0,1
39772000,39686000,39692000,0,-4.7454224,12.3616905,0.0016932487,12.472016,9.195277e-09,0,1,0,1
39820000,39736000,39740000,0,-5.0224304,12.361502,0.21158028,12.473613,0.00014355492,0,1,0,1
39876000,39796000,39796000,0,-4.907837,12.361451,0.01670885,12.475847,8.9512383e-07,0,1,0,1
39940000,39856000,39860000,0,-4.954651,12.361537,-0.0,12.478746,2.221755e-06,0,1,0,1
39996000,39916000,39916000,0,-5.058197,12.361486,-0.0,12.476495,4.850412e-07,0,1,0,1
40060000,39976000,39980000,0,-5.2883606,12.361572,0.11844826,12.467273,4.501382e-05,0,1,0,1
40116000,40036000,40036000,0,-5.291992,12.36152,0.04182625,12.46939,5.6119347e-06,0,1,0,1
40180000,40096000,40100000,0,-5.3056946,12.361605,-0.0,12.472143,4.0524665e-06,0,1,0,1
40236000,40156000,40156000,0,-5.3952026,12.361552,-0.0,12.474348,2.0876237e-06,0,1,0,1
40300000,40216000,40220000,0,-5.6724243,12.361636,0.1607604,12.477211,8.2851555e-05,0,1,0,1
40356000,40274666,40276000,0,-5.6334534,12.361584,0.040542603,12.479501,5.2684886e-06,0,1,0,1
40420000,40334000,40340000,0,-5.830261,12.361668,0.12912464,12.465866,5.3500247e-05,0,1,0,1
40468000,40384000,40388000,0,-5.688263,12.361479,-0.0,12.467382,2.19778e-05,0,1,0,1
40524000,40444000,40444000,0,-5.806366,12.361428,-0.0,12.469506,6.4944916e-06,0,1,0,1
40588000,40504000,40508000,0,-5.9006653,12.361514,-0.0,12.472266,5.8148466e-06,0,1,0,1
40644000,40564000,40564000,0,-6.0278015,12.361464,0.004070282,12.474477,5.3123497e-08,0,1,0,1
40708000,40622000,40628000,0,-6.0230713,12.361548,-0.0,12.477347,2.75734e-05,0,1,0,1
40756000,40672000,40676000,0,-6.1929016,12.361362,0.008030415,12.4790125,2.0670726e-07,0,1,0,1
40812000,40732000,40732000,0,-6.314911,12.361316,0.020637989,12.464937,1.3667989e-06,0,1,0,1
40876000,40792000,40796000,0,-6.4461975,12.3614025,0.058905125,12.467593,1.1132265e-05,0,1,0,1
40932000,40850666,40852000,0,-6.4081116,12.361354,-0.0,12.469727,1.1945576e-05,0,1,0,1
40996000,40912000,40916000,0,-6.5870667,12.361441,0.024843216,12.472496,1.9793483e-06,0,1,0,1
41052000,40972000,40972000,0,-6.7840576,12.361392,0.14010239,12.474717,6.293908e-05,0,1,0,1
41116000,41032000,41036000,0,-6.796875,12.361479,0.058405876,12.477597,1.0935587e-05,0,1,0,1
41172000,41092000,41092000,0,-6.852722,12.361429,0.032087326,12.479901,3.3000151e-06,0,1,0,1
41236000,41152000,41156000,0,-6.9510193,12.361516,0.014954567,12.46623,7.1758365e-07,0,1,0,1
41292000,41212000,41212000,0,-7.0260315,12.3614645,0.007806778,12.468332,1.9552184e-07,0,1,0,1
41356000,41272000,41276000,0,-7.2607117,12.361549,0.14861536,12.471065,7.084087e-05,0,1,0,1
