timestamp,timestamp_sample,time_utc_usec,device_id,lat,lon,alt,alt_ellipsoid,s_variance_m_s,c_variance_rad,eph,epv,hdop,vdop,noise_per_ms,jamming_indicator,vel_m_s,vel_n_m_s,vel_e_m_s,vel_d_m_s,cog_rad,timestamp_time_relative,heading,heading_offset,heading_accuracy,rtcm_injection_rate,automatic_gain_control,fix_type,jamming_state,vel_ned_valid,satellites_used,selected_rtcm_instance
3588000,0,1698226005799747,11468804,473977508,85456074,488104,488104,0.25,0.5,1.0,1.0,0.0,0.0,0,0,0.0,0.0,0.0,0.02,3.021863,0,nan,nan,0.0,0.0,0,3,0,1,10,0
3988000,0,1698226006195747,0,473977508,85456074,488111,488111,0.25,0.5,1.0,1.0,0.0,0.0,0,0,0.0,0.0,0.0,-0.02,0.84648466,0,nan,nan,0.0,0.0,0,3,0,1,10,0
4388000,0,1698226006595747,0,473977508,85456073,488101,488101,0.25,0.5,1.0,1.0,0.0,0.0,0,0,0.0,0.0,0.0,-0.04,2.2828908,0,nan,nan,0.0,0.0,0,3,0,1,10,0
4788000,0,1698226006995747,0,473977508,85456074,488102,488102,0.25,0.5,1.0,1.0,0.0,0.0,0,0,0.0,0.02,0.01,-0.04,0.5337217,0,nan,nan,0.0,0.0,0,3,0,1,10,0
5188000,0,1698226007399747,0,473977508,85456074,488102,488102,0.25,0.5,1.0,1.0,0.0,0.0,0,0,0.0,0.0,0.0,-0.01,1.7941984,0,nan,nan,0.0,0.0,0,3,0,1,10,0
5588000,0,1698226007799747,0,473977508,85456074,488097,488097,0.25,0.5,1.0,1.0,0.0,0.0,0,0,0.0,-0.01,0.01,0.03,2.3841195,0,nan,nan,0.0,0.0,0,3,0,1,10,0
5988000,0,1698226008195747,0,473977508,85456074,488103,488103,0.25,0.5,1.0,1.0,0.0,0.0,0,0,0.0,0.0,0.01,-0.02,2.0909042,0,nan,nan,0.0,0.0,0,3,0,1,10,0
6388000,0,1698226008595747,0,473977508,85456074,488098,488098,0.25,0.5,1.0,1.0,0.0,0.0,0,0,0.0,0.0,0.0,0.0,2.433338,0,nan,nan,0.0,0.0,0,3,0,1,10,0
6788000,0,1698226008995747,0,473977508,85456074,488109,488109,0.25,0.5,1.0,1.0,0.0,0.0,0,0,0.0,-0.01,-0.01,-0.01,3.7323864,0,nan,nan,0.0,0.0,0,3,0,1,10,0
7188000,0,1698226009399747,0,473977508,85456074,488110,488110,0.25,0.5,1.0,1.0,0.0,0.0,0,0,0.0,-0.01,-0.01,-0.01,3.9240239,0,nan,nan,0.0,0.0,0,3,0,1,10,0
7588000,0,1698226009799747,0,473977508,85456074,488104,488104,0.25,0.5,1.0,1.0,0.0,0.0,0,0,0.0,0.01,0.0,0.049999997,0.583289,0,nan,nan,0.0,0.0,0,3,0,1,10,0
7988000,0,1698226010195747,0,473977508,85456074,488102,488102,0.25,0.5,1.0,1.0,0.0,0.0,0,0,0.0,0.01,0.0,0.02,6.1915555,0,nan,nan,0.0,0.0,0,3,0,1,10,0
8388000,0,1698226010599748,0,473977508,85456074,488103,488103,0.25,0.5,1.0,1.0,0.0,0.0,0,0,0.0,0.02,0.0,0.0,0.26529005,0,nan,nan,0.0,0.0,0,3,0,1,10,0
8788000,0,1698226010995747,0,473977508,85456074,488103,488103,0.25,0.5,1.0,1.0,0.0,0.0,0,0,0.0,-0.02,0.0,0.049999997,3.0592132,0,nan,nan,0.0,0.0,0,3,0,1,10,0
9188000,0,1698226011399747,0,473977508,85456074,488106,488106,0.25,0.5,1.0,1.0,0.0,0.0,0,0,0.0,0.0,0.0,-0.01,5.972691,0,nan,nan,0.0,0.0,0,3,0,1,10,0
9588000,0,1698226011795747,0,473977508,85456074,488101,488101,0.25,0.5,1.0,1.0,0.0,0.0,0,0,0.0,0.0,-0.02,0.0,5.0076985,0,nan,nan,0.0,0.0,0,3,0,1,10,0
9988000,0,1698226012195747,0,473977508,85456074,488092,488092,0.25,0.5,1.0,1.0,0.0,0.0,0,0,0.0,-0.02,0.01,-0.03,2.5197318,0,nan,nan,0.0,0.0,0,3,0,1,10,0
10388000,0,1698226012599748,0,473977508,85456075,488091,488091,0.25,0.5,1.0,1.0,0.0,0.0,0,0,0.0,0.02,0.01,0.0,0.49514988,0,nan,nan,0.0,0.0,0,3,0,1,10,0
10788000,0,1698226012995747,0,473977508,85456074,488096,488096,0.25,0.5,1.0,1.0,0.0,0.0,0,0,0.0,0.0,0.0,0.02,2.4808109,0,nan,nan,0.0,0.0,0,3,0,1,10,0
11188000,0,1698226013399747,0,473977508,85456074,488097,488097,0.25,0.5,1.0,1.0,0.0,0.0,0,0,0.0,0.01,-0.02,0.01,5.4747486,0,nan,nan,0.0,0.0,0,3,0,1,10,0
11588000,0,1698226013795747,0,473977508,85456074,488113,488113,0.25,0.5,1.0,1.0,0.0,0.0,0,0,0.0,0.01,0.0,0.02,0.23980823,0,nan,nan,0.0,0.0,0,3,0,1,10,0
11988000,0,1698226014195747,0,473977507,85456074,488110,488110,0.25,0.5,1.0,1.0,0.0,0.0,0,0,0.0,0.0,0.0,0.0,2.5560346,0,nan,nan,0.0,0.0,0,3,0,1,10,0
12388000,0,1698226014599748,0,473977508,85456074,488101,488101,0.25,0.5,1.0,1.0,0.0,0.0,0,0,0.0,0.0,0.0,0.0,0.87249005,0,nan,nan,0.0,0.0,0,3,0,1,10,0
12788000,0,1698226014995747,0,473977508,85456074,488103,488103,0.25,0.5,1.0,1.0,0.0,0.0,0,0,0.0,-0.01,0.01,-0.03,2.3366466,0,nan,nan,0.0,0.0,0,3,0,1,10,0
13188000,0,1698226015399747,0,473977508,85456074,488105,488105,0.25,0.5,1.0,1.0,0.0,0.0,0,0,0.0,0.01,0.0,0.01,0.1436406,0,nan,nan,0.0,0.0,0,3,0,1,10,0
13588000,0,1698226015795747,0,473977508,85456074,488109,488109,0.25,0.5,1.0,1.0,0.0,0.0,0,0,0.0,-0.03,0.0,-0.02,3.249803,0,nan,nan,0.0,0.0,0,3,0,1,10,0
13988000,0,1698226016195747,0,473977508,85456075,488110,488110,0.25,0.5,1.0,1.0,0.0,0.0,0,0,0.0,-0.01,0.0,-0.01,2.7277749,0,nan,nan,0.0,0.0,0,3,0,1,10,0
14388000,0,1698226016599748,0,473977508,85456073,488112,488112,0.25,0.5,1.0,1.0,0.0,0.0,0,0,0.0,0.01,0.0,-0.01,0.14468779,0,nan,nan,0.0,0.0,0,3,0,1,10,0
14788000,0,1698226016995747,0,473977508,85456074,488107,488107,0.25,0.5,1.0,1.0,0.0,0.0,0,0,0.0,0.01,-0.01,0.0,5.3831186,0,nan,nan,0.0,0.0,0,3,0,1,10,0
15188000,0,1698226017399747,0,473977508,85456074,488108,488108,0.25,0.5,1.0,1.0,0.0,0.0,0,0,0.0,0.02,0.0,-0.02,0.1940806,0,nan,nan,0.0,0.0,0,3,0,1,10,0
15588000,0,1698226017795747,0,473977508,85456074,488116,488116,0.25,0.5,1.0,1.0,0.0,0.0,0,0,0.0,-0.01,-0.01,0.0,4.0959387,0,nan,nan,0.0,0.0,0,3,0,1,10,0
15988000,0,1698226018195747,0,473977508,85456073,488099,488099,0.25,0.5,1.0,1.0,0.0,0.0,0,0,0.0,0.0,0.0,-0.01,0.9063495,0,nan,nan,0.0,0.0,0,3,0,1,10,0
16388000,0,1698226018599748,0,473977508,85456073,488104,488104,0.25,0.5,1.0,1.0,0.0,0.0,0,0,0.0,0.0,0.01,-0.01,1.0936233,0,nan,nan,0.0,0.0,0,3,0,1,10,0
16788000,0,1698226018999747,0,473977508,85456074,488099,488099,0.25,0.5,1.0,1.0,0.0,0.0,0,0,0.0,0.0,0.0,-0.01,5.1708865,0,nan,nan,0.0,0.0,0,3,0,1,10,0
17188000,0,1698226019395748,0,473977508,85456074,488100,488100,0.25,0.5,1.0,1.0,0.0,0.0,0,0,0.0,0.0,0.0,0.0,2.0385444,0,nan,nan,0.0,0.0,0,3,0,1,10,0
17588000,0,1698226019795747,0,473977508,85456074,488106,488106,0.25,0.5,1.0,1.0,0.0,0.0,0,0,0.0,0.0,0.0,0.01,4.1310196,0,nan,nan,0.0,0.0,0,3,0,1,10,0
17988000,0,1698226020195747,0,473977508,85456074,488105,488105,0.25,0.5,1.0,1.0,0.0,0.0,0,0,0.0,-0.01,-0.01,-0.049999997,3.8280306,0,nan,nan,0.0,0.0,0,3,0,1,10,0
18388000,0,1698226020599748,0,473977508,85456074,488103,488103,0.25,0.5,1.0,1.0,0.0,0.0,0,0,0.0,0.0,0.0,0.0,3.5236452,0,nan,nan,0.0,0.0,0,3,0,1,10,0
18788000,0,1698226020999747,0,473977508,85456073,488097,488097,0.25,0.5,1.0,1.0,0.0,0.0,0,0,0.0,0.0,0.0,-0.01,5.9849086,0,nan,nan,0.0,0.0,0,3,0,1,10,0
19188000,0,1698226021395748,0,473977508,85456074,488100,488100,0.25,0.5,1.0,1.0,0.0,0.0,0,0,0.0,-0.01,0.0,0.0,3.5126495,0,nan,nan,0.0,0.0,0,3,0,1,10,0
19588000,0,1698226021795747,0,473977508,85456074,488103,488103,0.25,0.5,1.0,1.0,0.0,0.0,0,0,0.0,0.02,0.0,0.0,6.211278,0,nan,nan,0.0,0.0,0,3,0,1,10,0
19988000,0,1698226022195747,0,473977508,85456074,488098,488098,0.25,0.5,1.0,1.0,0.0,0.0,0,0,0.0,0.02,0.0,-0.03,5.9686766,0,nan,nan,0.0,0.0,0,3,0,1,10,0
20388000,0,1698226022599748,0,473977508,85456074,488112,488112,0.25,0.5,1.0,1.0,0.0,0.0,0,0,0.0,-0.01,0.0,-0.01,3.1372292,0,nan,nan,0.0,0.0,0,3,0,1,10,0
20788000,0,1698226022999747,0,473977508,85456074,488100,488100,0.25,0.5,1.0,1.0,0.0,0.0,0,0,0.0,0.01,-0.01,-0.03,5.379977,0,nan,nan,0.0,0.0,0,3,0,1,10,0
21188000,0,1698226023395748,0,473977508,85456074,488106,488106,0.25,0.5,1.0,1.0,0.0,0.0,0,0,0.0,0.0,0.0,-0.03,1.5330971,0,nan,nan,0.0,0.0,0,3,0,1,10,0
21588000,0,1698226023795747,0,473977508,85456074,488112,488112,0.25,0.5,1.0,1.0,0.0,0.0,0,0,0.0,-0.01,0.0,0.0,3.2347932,0,nan,nan,0.0,0.0,0,3,0,1,10,0
21988000,0,1698226024195747,0,473977508,85456075,488100,488100,0.25,0.5,1.0,1.0,0.0,0.0,0,0,0.0,0.0,0.0,-0.01,3.5529666,0,nan,nan,0.0,0.0,0,3,0,1,10,0
22388000,0,1698226024599748,0,473977508,85456074,488097,488097,0.25,0.5,1.0,1.0,0.0,0.0,0,0,0.0,0.0,0.0,0.01,3.411246,0,nan,nan,0.0,0.0,0,3,0,1,10,0
22788000,0,1698226024999747,0,473977508,85456074,488096,488096,0.25,0.5,1.0,1.0,0.0,0.0,0,0,0.0,0.0,0.02,0.049999997,1.7938493,0,nan,nan,0.0,0.0,0,3,0,1,10,0
23188000,0,1698226025395748,0,473977508,85456074,488108,488108,0.25,0.5,1.0,1.0,0.0,0.0,0,0,0.0,0.02,0.01,0.0,0.61889374,0,nan,nan,0.0,0.0,0,3,0,1,10,0
23588000,0,1698226025795747,0,473977508,85456073,488104,488104,0.25,0.5,1.0,1.0,0.0,0.0,0,0,0.0,0.01,0.01,0.0,1.0025171,0,nan,nan,0.0,0.0,0,3,0,1,10,0
23988000,0,1698226026195747,0,473977508,85456073,488105,488105,0.25,0.5,1.0,1.0,0.0,0.0,0,0,0.0,0.01,0.02,-0.01,0.97424275,0,nan,nan,0.0,0.0,0,3,0,1,10,0
24388000,0,1698226026599748,0,473977508,85456074,488104,488104,0.25,0.5,1.0,1.0,0.0,0.0,0,0,0.0,-0.01,-0.01,-0.049999997,3.706032,0,nan,nan,0.0,0.0,0,3,0,1,10,0
24788000,0,1698226026999747,0,473977508,85456074,488101,488101,0.25,0.5,1.0,1.0,0.0,0.0,0,0,0.0,0.0,-0.01,0.0,4.6060987,0,nan,nan,0.0,0.0,0,3,0,1,10,0
25188000,0,1698226027395748,0,473977508,85456074,488095,488095,0.25,0.5,1.0,1.0,0.0,0.0,0,0,0.0,0.0,-0.01,0.03,5.2928853,0,nan,nan,0.0,0.0,0,3,0,1,10,0
25588000,0,1698226027795747,0,473977508,85456074,488103,488103,0.25,0.5,1.0,1.0,0.0,0.0,0,0,0.0,0.0,0.01,0.01,1.9065976,0,nan,nan,0.0,0.0,0,3,0,1,10,0
25988000,0,1698226028195747,0,473977508,85456074,488106,488106,0.25,0.5,1.0,1.0,0.0,0.0,0,0,0.0,0.0,-0.01,-0.02,4.524766,0,nan,nan,0.0,0.0,0,3,0,1,10,0
26388000,0,1698226028599748,0,473977508,85456074,488096,488096,0.25,0.5,1.0,1.0,0.0,0.0,0,0,0.0,0.02,0.0,-0.02,5.9458127,0,nan,nan,0.0,0.0,0,3,0,1,10,0
26788000,0,1698226028999747,0,473977508,85456074,488106,488106,0.25,0.5,1.0,1.0,0.0,0.0,0,0,0.0,0.0,0.02,-0.02,1.5198327,0,nan,nan,0.0,0.0,0,3,0,1,10,0
27188000,0,1698226029395748,0,473977508,85456074,488105,488105,0.25,0.5,1.0,1.0,0.0,0.0,0,0,0.0,0.0,0.0,0.04,4.772952,0,nan,nan,0.0,0.0,0,3,0,1,10,0
27588000,0,1698226029795747,0,473977508,85456074,488097,488097,0.25,0.5,1.0,1.0,0.0,0.0,0,0,0.0,0.0,0.01,0.0,1.2295843,0,nan,nan,0.0,0.0,0,3,0,1,10,0
27988000,0,1698226030195747,0,473977509,85456073,488092,488092,0.25,0.5,1.0,1.0,0.0,0.0,0,0,0.0,0.0,0.02,0.01,1.2444197,0,nan,nan,0.0,0.0,0,3,0,1,10,0
28388000,0,1698226030599748,0,473977508,85456074,488110,488110,0.25,0.5,1.0,1.0,0.0,0.0,0,0,0.0,-0.01,-0.01,-0.02,3.9097118,0,nan,nan,0.0,0.0,0,3,0,1,10,0
28788000,0,1698226030999747,0,473977508,85456074,488098,488098,0.25,0.5,1.0,1.0,0.0,0.0,0,0,0.0,0.01,0.0,-0.01,0.42900193,0,nan,nan,0.0,0.0,0,3,0,1,10,0
29188000,0,1698226031395748,0,473977508,85456074,488107,488107,0.25,0.5,1.0,1.0,0.0,0.0,0,0,0.0,0.0,0.0,-0.04,4.954641,0,nan,nan,0.0,0.0,0,3,0,1,10,0
29588000,0,1698226031795747,0,473977508,85456074,488113,488113,0.25,0.5,1.0,1.0,0.0,0.0,0,0,0.0,-0.02,0.0,0.07,2.9492574,0,nan,nan,0.0,0.0,0,3,0,1,10,0
29988000,0,1698226032195747,0,473977508,85456074,488100,488100,0.25,0.5,1.0,1.0,0.0,0.0,0,0,0.0,0.0,0.0,0.01,6.06659,0,nan,nan,0.0,0.0,0,3,0,1,10,0
30388000,0,1698226032599748,0,473977507,85456073,488101,488101,0.25,0.5,1.0,1.0,0.0,0.0,0,0,0.0,0.0,0.02,0.0,1.6955874,0,nan,nan,0.0,0.0,0,3,0,1,10,0
30784000,0,1698226032999747,0,473977508,85456074,488097,488097,0.25,0.5,1.0,1.0,0.0,0.0,0,0,0.0,-0.01,-0.01,-0.01,3.9306557,0,nan,nan,0.0,0.0,0,3,0,1,10,0
31188000,0,1698226033395748,0,473977508,85456074,488109,488109,0.25,0.5,1.0,1.0,0.0,0.0,0,0,0.0,0.0,0.01,0.06,1.6324065,0,nan,nan,0.0,0.0,0,3,0,1,10,0
31588000,0,1698226033795747,0,473977508,85456074,488103,488103,0.25,0.5,1.0,1.0,0.0,0.0,0,0,0.0,0.0,-0.01,0.02,4.2062435,0,nan,nan,0.0,0.0,0,3,0,1,10,0
31988000,0,1698226034195747,0,473977508,85456074,488102,488102,0.25,0.5,1.0,1.0,0.0,0.0,0,0,0.0,0.0,0.01,0.02,1.845162,0,nan,nan,0.0,0.0,0,3,0,1,10,0
32388000,0,1698226034595747,0,473977508,85456074,488107,488107,0.25,0.5,1.0,1.0,0.0,0.0,0,0,0.0,0.03,0.0,0.0,6.1536818,0,nan,nan,0.0,0.0,0,3,0,1,10,0
32788000,0,1698226034999747,0,473977507,85456074,488103,488103,0.25,0.5,1.0,1.0,0.0,0.0,0,0,0.0,0.0,-0.01,0.0,4.7061057,0,nan,nan,0.0,0.0,0,3,0,1,10,0
33188000,0,1698226035395748,0,473977508,85456074,488093,488093,0.25,0.5,1.0,1.0,0.0,0.0,0,0,0.0,0.01,0.0,0.04,5.8108993,0,nan,nan,0.0,0.0,0,3,0,1,10,0
33588000,0,1698226035799747,0,473977508,85456075,488094,488094,0.25,0.5,1.0,1.0,0.0,0.0,0,0,0.0,-0.01,-0.01,0.0,3.7177258,0,nan,nan,0.0,0.0,0,3,0,1,10,0
33988000,0,1698226036195747,0,473977508,85456074,488088,488088,0.25,0.5,1.0,1.0,0.0,0.0,0,0,0.0,0.0,-0.02,-0.099999994,5.110324,0,nan,nan,0.0,0.0,0,3,0,1,10,0
34388000,0,1698226036595747,0,473977508,85456074,488108,488108,0.25,0.5,1.0,1.0,0.0,0.0,0,0,0.0,0.01,0.0,-0.01,5.596573,0,nan,nan,0.0,0.0,0,3,0,1,10,0
34788000,0,1698226036999747,0,473977508,85456074,488106,488106,0.25,0.5,1.0,1.0,0.0,0.0,0,0,0.0,-0.01,0.0,-0.01,3.172834,0,nan,nan,0.0,0.0,0,3,0,1,10,0
35188000,0,1698226037395748,0,473977508,85456074,488112,488112,0.25,0.5,1.0,1.0,0.0,0.0,0,0,0.04,-0.03,0.0,-0.04,3.3279936,0,nan,nan,0.0,0.0,0,3,0,1,10,0
35588000,0,1698226037799747,0,473977501,85456073,488196,488196,0.25,0.5,1.0,1.0,0.0,0.0,0,0,0.28,-0.26999998,-0.06,-0.32999998,3.3564427,0,nan,nan,0.0,0.0,0,3,0,1,10,0
35988000,0,1698226038195747,0,473977491,85456071,488418,488418,0.25,0.5,1.0,1.0,0.0,0.0,0,0,0.24,-0.21,-0.02,-0.76,3.268129,0,nan,nan,0.0,0.0,0,3,0,1,10,0
36388000,0,1698226038595747,0,473977484,85456069,488757,488757,0.25,0.5,1.0,1.0,0.0,0.0,0,0,0.13,-0.14,-0.03,-0.87,3.3995523,0,nan,nan,0.0,0.0,0,3,0,1,10,0
36788000,0,1698226038999747,0,473977482,85456068,489120,489120,0.25,0.5,1.0,1.0,0.0,0.0,0,0,0.02,-0.02,-0.02,-0.95,3.970275,0,nan,nan,0.0,0.0,0,3,0,1,10,0
37188000,0,1698226039395748,0,473977482,85456068,489530,489530,0.25,0.5,1.0,1.0,0.0,0.0,0,0,0.06,0.049999997,0.0,-1.0799999,0.13456489,0,nan,nan,0.0,0.0,0,3,0,1,10,0
37588000,0,1698226039799747,0,473977486,85456070,489986,489986,0.25,0.5,1.0,1.0,0.0,0.0,0,0,0.11,0.12,0.01,-1.16,0.102625355,0,nan,nan,0.0,0.0,0,3,0,1,10,0
37988000,0,1698226040195747,0,473977490,85456071,490462,490462,0.25,0.5,1.0,1.0,0.0,0.0,0,0,0.13,0.13,0.049999997,-1.25,0.3843215,0,nan,nan,0.0,0.0,0,3,0,1,10,0
38388000,0,1698226040595747,0,473977494,85456073,490982,490982,0.25,0.5,1.0,1.0,0.0,0.0,0,0,0.11,0.08,0.02,-1.3299999,0.30857423,0,nan,nan,0.0,0.0,0,3,0,1,10,0
38788000,0,1698226040999747,0,473977499,85456073,491512,491512,0.25,0.5,1.0,1.0,0.0,0.0,0,0,0.089999996,0.08,0.0,-1.3299999,0.027750734,0,nan,nan,0.0,0.0,0,3,0,1,10,0
39188000,0,1698226041395748,0,473977501,85456074,492070,492070,0.25,0.5,1.0,1.0,0.0,0.0,0,0,0.089999996,0.099999994,-0.01,-1.41,6.1391954,0,nan,nan,0.0,0.0,0,3,0,1,10,0
39588000,0,1698226041799747,0,473977505,85456073,492640,492640,0.25,0.5,1.0,1.0,0.0,0.0,0,0,0.07,0.06,0.0,-1.4599999,6.1690407,0,nan,nan,0.0,0.0,0,3,0,1,10,0
39988000,0,1698226042195747,0,473977507,85456072,493217,493217,0.25,0.5,1.0,1.0,0.0,0.0,0,0,0.049999997,0.06,-0.02,-1.48,5.93377,0,nan,nan,0.0,0.0,0,3,0,1,10,0
40388000,0,1698226042595747,0,473977509,85456071,493814,493814,0.25,0.5,1.0,1.0,0.0,0.0,0,0,0.03,0.02,-0.02,-1.4699999,5.4759703,0,nan,nan,0.0,0.0,0,3,0,1,10,0
40788000,0,1698226042999747,0,473977509,85456070,494416,494416,0.25,0.5,1.0,1.0,0.0,0.0,0,0,0.02,0.02,-0.03,-1.56,5.329537,0,nan,nan,0.0,0.0,0,3,0,1,10,0
41188000,0,1698226043395748,0,473977509,85456069,495020,495020,0.25,0.5,1.0,1.0,0.0,0.0,0,0,0.01,0.01,0.0,-1.54,5.9328976,0,nan,nan,0.0,0.0,0,3,0,1,10,0
41588000,0,1698226043799747,0,473977509,85456069,495653,495653,0.25,0.5,1.0,1.0,0.0,0.0,0,0,0.01,0.0,0.01,-1.55,1.3355259,0,nan,nan,0.0,0.0,0,3,0,1,10,0
41988000,0,1698226044195747,0,473977508,85456069,496239,496239,0.25,0.5,1.0,1.0,0.0,0.0,0,0,0.01,0.0,0.01,-1.3399999,2.120575,0,nan,nan,0.0,0.0,0,3,0,1,10,0
42388000,0,1698226044595747,0,473977508,85456069,496742,496742,0.25,0.5,1.0,1.0,0.0,0.0,0,0,0.01,0.0,0.0,-1.1899999,3.4005995,0,nan,nan,0.0,0.0,0,3,0,1,10,0
42788000,0,1698226044999747,0,473977508,85456070,497172,497172,0.25,0.5,1.0,1.0,0.0,0.0,0,0,0.01,-0.03,0.0,-1.04,2.9588566,0,nan,nan,0.0,0.0,0,3,0,1,10,0
43188000,0,1698226045395748,0,473977508,85456069,497544,497544,0.25,0.5,1.0,1.0,0.0,0.0,0,0,0.0,0.0,0.0,-0.78,1.9383626,0,nan,nan,0.0,0.0,0,3,0,1,10,0
43588000,0,1698226045799747,0,473977511,85456074,497798,497798,0.25,0.5,1.0,1.0,0.0,0.0,0,0,0.32,0.24,0.16,-0.48,0.596728,0,nan,nan,0.0,0.0,0,3,0,1,10,0
43988000,0,1698226046195747,0,473977533,85456091,497929,497929,0.25,0.5,1.0,1.0,0.0,0.0,0,0,1.15,1.09,0.39999998,-0.22,0.35395274,0,nan,nan,0.0,0.0,0,3,0,1,10,0
44388000,0,1698226046595747,0,473977592,85456118,497976,497976,0.25,0.5,1.0,1.0,0.0,0.0,0,0,2.34,2.25,0.63,-0.14,0.27611107,0,nan,nan,0.0,0.0,0,3,0,1,10,0
44788000,0,1698226046999747,0,473977695,85456159,498011,498011,0.25,0.5,1.0,1.0,0.0,0.0,0,0,3.4299998,3.32,0.88,-0.06,0.26110125,0,nan,nan,0.0,0.0,0,3,0,1,10,0
45188000,0,1698226047395748,0,473977829,85456214,498010,498010,0.25,0.5,1.0,1.0,0.0,0.0,0,0,4.31,4.13,1.25,0.03,0.2942625,0,nan,nan,0.0,0.0,0,3,0,1,10,0
45588000,0,1698226047799747,0,473977986,85456292,497987,497987,0.25,0.5,1.0,1.0,0.0,0.0,0,0,4.69,4.38,1.63,0.12,0.35744342,0,nan,nan,0.0,0.0,0,3,0,1,10,0
45988000,0,1698226048195747,0,473978142,85456383,497958,497958,0.25,0.5,1.0,1.0,0.0,0.0,0,0,4.61,4.24,1.77,0.03,0.39584067,0,nan,nan,0.0,0.0,0,3,0,1,10,0
46388000,0,1698226048595747,0,473978293,85456480,497949,497949,0.25,0.5,1.0,1.0,0.0,0.0,0,0,4.5699997,4.17,1.88,0.06,0.4246386,0,nan,nan,0.0,0.0,0,3,0,1,10,0
46792000,0,1698226048999747,0,473978444,85456585,497953,497953,0.25,0.5,1.0,1.0,0.0,0.0,0,0,4.58,4.13,1.9599999,-0.02,0.44331363,0,nan,nan,0.0,0.0,0,3,0,1,10,0
47188000,0,1698226049395748,0,473978592,85456692,497952,497952,0.25,0.5,1.0,1.0,0.0,0.0,0,0,4.6,4.13,2.04,0.02,0.45971972,0,nan,nan,0.0,0.0,0,3,0,1,10,0
47588000,0,1698226049799747,0,473978742,85456801,497969,497969,0.25,0.5,1.0,1.0,0.0,0.0,0,0,4.64,4.18,2.03,0.0,0.45291293,0,nan,nan,0.0,0.0,0,3,0,1,10,0
47988000,0,1698226050195747,0,473978892,85456908,497978,497978,0.25,0.5,1.0,1.0,0.0,0.0,0,0,4.67,4.21,2.01,-0.049999997,0.44558254,0,nan,nan,0.0,0.0,0,3,0,1,10,0
48388000,0,1698226050595747,0,473979046,85457014,497986,497986,0.25,0.5,1.0,1.0,0.0,0.0,0,0,4.7,4.2799997,1.9499999,0.01,0.42812926,0,nan,nan,0.0,0.0,0,3,0,1,10,0
48788000,0,1698226050999747,0,473979203,85457118,497974,497974,0.25,0.5,1.0,1.0,0.0,0.0,0,0,4.7599998,4.3399997,1.9,-0.01,0.41329396,0,nan,nan,0.0,0.0,0,3,0,1,10,0
49188000,0,1698226051395748,0,473979361,85457217,497985,497985,0.25,0.5,1.0,1.0,0.0,0.0,0,0,4.81,4.44,1.87,0.0,0.39880773,0,nan,nan,0.0,0.0,0,3,0,1,10,0
49588000,0,1698226051799747,0,473979523,85457317,497995,497995,0.25,0.5,1.0,1.0,0.0,0.0,0,0,4.83,4.46,1.8399999,0.03,0.39165187,0,nan,nan,0.0,0.0,0,3,0,1,10,0
49988000,0,1698226052195747,0,473979683,85457414,498001,498001,0.25,0.5,1.0,1.0,0.0,0.0,0,0,4.83,4.48,1.81,-0.01,0.38379788,0,nan,nan,0.0,0.0,0,3,0,1,10,0
50388000,0,1698226052595747,0,473979845,85457510,498009,498009,0.25,0.5,1.0,1.0,0.0,0.0,0,0,4.8399997,4.49,1.81,-0.04,0.38309973,0,nan,nan,0.0,0.0,0,3,0,1,10,0
50788000,0,1698226052999747,0,473980009,85457608,498018,498018,0.25,0.5,1.0,1.0,0.0,0.0,0,0,4.8599997,4.5,1.8,-0.01,0.38152894,0,nan,nan,0.0,0.0,0,3,0,1,10,0
51188000,0,1698226053395748,0,473980171,85457704,498019,498019,0.25,0.5,1.0,1.0,0.0,0.0,0,0,4.88,4.5299997,1.8299999,0.02,0.38501963,0,nan,nan,0.0,0.0,0,3,0,1,10,0
51588000,0,1698226053799747,0,473980336,85457803,498029,498029,0.25,0.5,1.0,1.0,0.0,0.0,0,0,4.9,4.54,1.8499999,0.0,0.38641587,0,nan,nan,0.0,0.0,0,3,0,1,10,0
51988000,0,1698226054195747,0,473980498,85457900,498041,498041,0.25,0.5,1.0,1.0,0.0,0.0,0,0,4.91,4.54,1.86,-0.01,0.389732,0,nan,nan,0.0,0.0,0,3,0,1,10,0
52388000,0,1698226054595747,0,473980662,85458000,498037,498037,0.25,0.5,1.0,1.0,0.0,0.0,0,0,4.92,4.5499997,1.88,-0.02,0.39165187,0,nan,nan,0.0,0.0,0,3,0,1,10,0
52788000,0,1698226054999747,0,473980829,85458101,498053,498053,0.25,0.5,1.0,1.0,0.0,0.0,0,0,4.94,4.56,1.86,0.0,0.38833576,0,nan,nan,0.0,0.0,0,3,0,1,10,0
53188000,0,1698226055395748,0,473980992,85458200,498056,498056,0.25,0.5,1.0,1.0,0.0,0.0,0,0,4.95,4.5699997,1.87,0.02,0.389732,0,nan,nan,0.0,0.0,0,3,0,1,10,0
53588000,0,1698226055799747,0,473981160,85458301,498069,498069,0.25,0.5,1.0,1.0,0.0,0.0,0,0,4.96,4.58,1.87,0.0,0.38728854,0,nan,nan,0.0,0.0,0,3,0,1,10,0
53988000,0,1698226056195747,0,473981324,85458401,498068,498068,0.25,0.5,1.0,1.0,0.0,0.0,0,0,4.97,4.61,1.88,-0.01,0.38833576,0,nan,nan,0.0,0.0,0,3,0,1,10,0
54388000,0,1698226056595747,0,473981490,85458502,498079,498079,0.25,0.5,1.0,1.0,0.0,0.0,0,0,4.98,4.61,1.91,-0.01,0.39322266,0,nan,nan,0.0,0.0,0,3,0,1,10,0
54788000,0,1698226056999747,0,473981658,85458605,498087,498087,0.25,0.5,1.0,1.0,0.0,0.0,0,0,4.98,4.6,1.91,-0.02,0.39409533,0,nan,nan,0.0,0.0,0,3,0,1,10,0
55192000,0,1698226057395748,0,473981823,85458706,498095,498095,0.25,0.5,1.0,1.0,0.0,0.0,0,0,4.98,4.61,1.9,-0.049999997,0.39112827,0,nan,nan,0.0,0.0,0,3,0,1,10,0
55588000,0,1698226057799747,0,473981991,85458808,498104,498104,0.25,0.5,1.0,1.0,0.0,0.0,0,0,4.98,4.5899997,1.87,-0.03,0.38763762,0,nan,nan,0.0,0.0,0,3,0,1,10,0
55988000,0,1698226058195747,0,473982155,85458908,498107,498107,0.25,0.5,1.0,1.0,0.0,0.0,0,0,4.98,4.58,1.89,-0.01,0.39217547,0,nan,nan,0.0,0.0,0,3,0,1,10,0
56388000,0,1698226058595747,0,473982322,85459009,498110,498110,0.25,0.5,1.0,1.0,0.0,0.0,0,0,4.99,4.62,1.92,0.04,0.39374626,0,nan,nan,0.0,0.0,0,3,0,1,10,0
56792000,0,1698226058999747,0,473982490,85459110,498101,498101,0.25,0.5,1.0,1.0,0.0,0.0,0,0,5.0,4.64,1.9,-0.03,0.38955748,0,nan,nan,0.0,0.0,0,3,0,1,10,0
57188000,0,1698226059395748,0,473982656,85459211,498111,498111,0.25,0.5,1.0,1.0,0.0,0.0,0,0,5.0,4.66,1.89,-0.02,0.3869395,0,nan,nan,0.0,0.0,0,3,0,1,10,0
57588000,0,1698226059799747,0,473982824,85459314,498115,498115,0.25,0.5,1.0,1.0,0.0,0.0,0,0,5.0,4.64,1.88,-0.02,0.38501963,0,nan,nan,0.0,0.0,0,3,0,1,10,0
57988000,0,1698226060195747,0,473982989,85459414,498117,498117,0.25,0.5,1.0,1.0,0.0,0.0,0,0,4.98,4.6,1.91,0.02,0.39461893,0,nan,nan,0.0,0.0,0,3,0,1,10,0
58388000,0,1698226060595747,0,473983155,85459515,498122,498122,0.25,0.5,1.0,1.0,0.0,0.0,0,0,4.97,4.5699997,1.89,0.0,0.3926991,0,nan,nan,0.0,0.0,0,3,0,1,10,0
58788000,0,1698226060999747,0,473983323,85459618,498130,498130,0.25,0.5,1.0,1.0,0.0,0.0,0,0,4.97,4.5699997,1.88,-0.03,0.39008108,0,nan,nan,0.0,0.0,0,3,0,1,10,0
59188000,0,1698226061395748,0,473983487,85459718,498133,498133,0.25,0.5,1.0,1.0,0.0,0.0,0,0,4.97,4.6,1.92,0.02,0.39566615,0,nan,nan,0.0,0.0,0,3,0,1,10,0
59588000,0,1698226061799747,0,473983655,85459821,498125,498125,0.25,0.5,1.0,1.0,0.0,0.0,0,0,4.99,4.63,1.9,-0.01,0.38955748,0,nan,nan,0.0,0.0,0,3,0,1,10,0
59992000,0,1698226062195747,0,473983820,85459921,498130,498130,0.25,0.5,1.0,1.0,0.0,0.0,0,0,4.99,4.64,1.89,0.0,0.38728854,0,nan,nan,0.0,0.0,0,3,0,1,10,0
60388000,0,1698226062595747,0,473983986,85460021,498137,498137,0.25,0.5,1.0,1.0,0.0,0.0,0,0,4.98,4.6,1.91,0.0,0.39426988,0,nan,nan,0.0,0.0,0,3,0,1,10,0
60788000,0,1698226062999747,0,473984154,85460124,498129,498129,0.25,0.5,1.0,1.0,0.0,0.0,0,0,4.98,4.6,1.9,-0.02,0.39217547,0,nan,nan,0.0,0.0,0,3,0,1,10,0
61188000,0,1698226063395748,0,473984319,85460226,498117,498117,0.25,0.5,1.0,1.0,0.0,0.0,0,0,4.97,4.58,1.93,0.03,0.39845866,0,nan,nan,0.0,0.0,0,3,0,1,10,0
61588000,0,1698226063799747,0,473984486,85460328,498114,498114,0.25,0.5,1.0,1.0,0.0,0.0,0,0,4.97,4.61,1.9,-0.01,0.39165187,0,nan,nan,0.0,0.0,0,3,0,1,10,0
61988000,0,1698226064195747,0,473984650,85460428,498105,498105,0.25,0.5,1.0,1.0,0.0,0.0,0,0,4.97,4.58,1.9,0.01,0.3939208,0,nan,nan,0.0,0.0,0,3,0,1,10,0
62388000,0,1698226064595747,0,473984815,85460529,498107,498107,0.25,0.5,1.0,1.0,0.0,0.0,0,0,4.8199997,4.46,1.86,0.02,0.39479345,0,nan,nan,0.0,0.0,0,3,0,1,10,0
62788000,0,1698226064999747,0,473984967,85460625,498103,498103,0.25,0.5,1.0,1.0,0.0,0.0,0,0,4.21,3.83,1.6899999,0.01,0.41695914,0,nan,nan,0.0,0.0,0,3,0,1,10,0
63188000,0,1698226065395748,0,473985095,85460707,498107,498107,0.25,0.5,1.0,1.0,0.0,0.0,0,0,3.61,3.32,1.4699999,0.0,0.4173082,0,nan,nan,0.0,0.0,0,3,0,1,10,0
63588000,0,1698226065799747,0,473985205,85460780,498111,498111,0.25,0.5,1.0,1.0,0.0,0.0,0,0,3.01,2.76,1.23,0.0,0.4194026,0,nan,nan,0.0,0.0,0,3,0,1,10,0
63992000,0,1698226066195747,0,473985294,85460838,498125,498125,0.25,0.5,1.0,1.0,0.0,0.0,0,0,2.45,2.24,0.94,-0.02,0.3965388,0,nan,nan,0.0,0.0,0,3,0,1,10,0
64388000,0,1698226066599748,0,473985368,85460883,498129,498129,0.25,0.5,1.0,1.0,0.0,0.0,0,0,1.9399999,1.79,0.71999997,0.0,0.3817035,0,nan,nan,0.0,0.0,0,3,0,1,10,0
64788000,0,1698226066999747,0,473985425,85460919,498142,498142,0.25,0.5,1.0,1.0,0.0,0.0,0,0,1.55,1.37,0.65999997,-0.06,0.44785148,0,nan,nan,0.0,0.0,0,3,0,1,10,0
65188000,0,1698226067395748,0,473985461,85460966,498165,498165,0.25,0.5,1.0,1.0,0.0,0.0,0,0,1.22,0.5,1.12,-0.01,1.150172,0,nan,nan,0.0,0.0,0,3,0,1,10,0
65588000,0,1698226067795747,0,473985465,85461040,498161,498161,0.25,0.5,1.0,1.0,0.0,0.0,0,0,1.63,-0.17999999,1.63,-0.01,1.6840682,0,nan,nan,0.0,0.0,0,3,0,1,10,0
65988000,0,1698226068199747,0,473985454,85461130,498150,498150,0.25,0.5,1.0,1.0,0.0,0.0,0,0,1.6899999,-0.35,1.63,0.02,1.7866935,0,nan,nan,0.0,0.0,0,3,0,1,10,0
66388000,0,1698226068599748,0,473985435,85461225,498150,498150,0.25,0.5,1.0,1.0,0.0,0.0,0,0,2.09,-0.66999996,1.9699999,-0.02,1.9022343,0,nan,nan,0.0,0.0,0,3,0,1,10,0
66788000,0,1698226068999747,0,473985404,85461348,498169,498169,0.25,0.5,1.0,1.0,0.0,0.0,0,0,2.9099998,-1.0,2.74,-0.04,1.9226546,0,nan,nan,0.0,0.0,0,3,0,1,10,0
67188000,0,1698226069395748,0,473985364,85461518,498169,498169,0.25,0.5,1.0,1.0,0.0,0.0,0,0,3.8799999,-1.22,3.6799998,0.01,1.8901914,0,nan,nan,0.0,0.0,0,3,0,1,10,0
67588000,0,1698226069795747,0,473985315,85461733,498151,498151,0.25,0.5,1.0,1.0,0.0,0.0,0,0,4.49,-1.48,4.2599998,0.06,1.9050268,0,nan,nan,0.0,0.0,0,3,0,1,10,0
67988000,0,1698226070199747,0,473985258,85461965,498127,498127,0.25,0.5,1.0,1.0,0.0,0.0,0,0,4.61,-1.63,4.3199997,0.04,1.9329522,0,nan,nan,0.0,0.0,0,3,0,1,10,0
68388000,0,1698226070599748,0,473985200,85462192,498126,498126,0.25,0.5,1.0,1.0,0.0,0.0,0,0,4.52,-1.56,4.25,0.07,1.9240509,0,nan,nan,0.0,0.0,0,3,0,1,10,0
68788000,0,1698226070999747,0,473985144,85462418,498103,498103,0.25,0.5,1.0,1.0,0.0,0.0,0,0,4.52,-1.56,4.23,0.049999997,1.9249237,0,nan,nan,0.0,0.0,0,3,0,1,10,0
69188000,0,1698226071395748,0,473985087,85462642,498089,498089,0.25,0.5,1.0,1.0,0.0,0.0,0,0,4.5299997,-1.5999999,4.27,0.04,1.929636,0,nan,nan,0.0,0.0,0,3,0,1,10,0
69588000,0,1698226071795747,0,473985030,85462869,498085,498085,0.25,0.5,1.0,1.0,0.0,0.0,0,0,4.56,-1.5699999,4.2599998,0.0,1.9250981,0,nan,nan,0.0,0.0,0,3,0,1,10,0
69988000,0,1698226072199747,0,473984973,85463101,498069,498069,0.25,0.5,1.0,1.0,0.0,0.0,0,0,4.58,-1.5799999,4.31,0.03,1.921782,0,nan,nan,0.0,0.0,0,3,0,1,10,0
70388000,0,1698226072599748,0,473984916,85463331,498051,498051,0.25,0.5,1.0,1.0,0.0,0.0,0,0,4.61,-1.5799999,4.3199997,0.03,1.9226546,0,nan,nan,0.0,0.0,0,3,0,1,10,0
70788000,0,1698226072999747,0,473984859,85463563,498025,498025,0.25,0.5,1.0,1.0,0.0,0.0,0,0,4.64,-1.56,4.37,0.089999996,1.9151497,0,nan,nan,0.0,0.0,0,3,0,1,10,0
71188000,0,1698226073395748,0,473984803,85463795,498020,498020,0.25,0.5,1.0,1.0,0.0,0.0,0,0,4.63,-1.55,4.3399997,0.049999997,1.9151497,0,nan,nan,0.0,0.0,0,3,0,1,10,0
71588000,0,1698226073795747,0,473984749,85464016,497994,497994,0.25,0.5,1.0,1.0,0.0,0.0,0,0,4.16,-1.4499999,3.9199998,0.03,1.9254472,0,nan,nan,0.0,0.0,0,3,0,1,10,0
71988000,0,1698226074199747,0,473984700,85464213,497987,497987,0.25,0.5,1.0,1.0,0.0,0.0,0,0,3.6399999,-1.25,3.3999999,0.02,1.9240509,0,nan,nan,0.0,0.0,0,3,0,1,10,0
72388000,0,1698226074599748,0,473984657,85464382,497961,497961,0.25,0.5,1.0,1.0,0.0,0.0,0,0,3.1299999,-1.11,2.9299998,0.01,1.932254,0,nan,nan,0.0,0.0,0,3,0,1,10,0
72788000,0,1698226074999747,0,473984620,85464526,497949,497949,0.25,0.5,1.0,1.0,0.0,0.0,0,0,2.6499999,-0.91999996,2.46,0.02,1.929636,0,nan,nan,0.0,0.0,0,3,0,1,10,0
73188000,0,1698226075395748,0,473984590,85464646,497948,497948,0.25,0.5,1.0,1.0,0.0,0.0,0,0,2.19,-0.74,2.06,0.03,1.9154989,0,nan,nan,0.0,0.0,0,3,0,1,10,0
73588000,0,1698226075795747,0,473984567,85464746,497934,497934,0.25,0.5,1.0,1.0,0.0,0.0,0,0,1.78,-0.56,1.6999999,0.01,1.8915877,0,nan,nan,0.0,0.0,0,3,0,1,10,0
73988000,0,1698226076199747,0,473984545,85464832,497944,497944,0.25,0.5,1.0,1.0,0.0,0.0,0,0,1.64,-0.64,1.51,-0.049999997,1.9723965,0,nan,nan,0.0,0.0,0,3,0,1,10,0
74388000,0,1698226076599748,0,473984514,85464895,497946,497946,0.25,0.5,1.0,1.0,0.0,0.0,0,0,1.31,-1.09,0.72999996,-0.02,2.5513222,0,nan,nan,0.0,0.0,0,3,0,1,10,0
74784000,0,1698226076999747,0,473984467,85464908,497940,497940,0.25,0.5,1.0,1.0,0.0,0.0,0,0,1.5,-1.48,-0.14,0.02,3.2381094,0,nan,nan,0.0,0.0,0,3,0,1,10,0
75188000,0,1698226077395748,0,473984410,85464890,497932,497932,0.25,0.5,1.0,1.0,0.0,0.0,0,0,1.7199999,-1.65,-0.48,-0.01,3.4293973,0,nan,nan,0.0,0.0,0,3,0,1,10,0
75588000,0,1698226077795747,0,473984346,85464857,497924,497924,0.25,0.5,1.0,1.0,0.0,0.0,0,0,2.07,-1.9499999,-0.77,-0.03,3.5205035,0,nan,nan,0.0,0.0,0,3,0,1,10,0
75988000,0,1698226078199747,0,473984263,85464810,497929,497929,0.25,0.5,1.0,1.0,0.0,0.0,0,0,2.8899999,-2.71,-1.02,-0.049999997,3.5018287,0,nan,nan,0.0,0.0,0,3,0,1,10,0
76388000,0,1698226078599748,0,473984147,85464751,497932,497932,0.25,0.5,1.0,1.0,0.0,0.0,0,0,3.84,-3.6299999,-1.1899999,0.02,3.4585443,0,nan,nan,0.0,0.0,0,3,0,1,10,0
76788000,0,1698226078999747,0,473984004,85464682,497914,497914,0.25,0.5,1.0,1.0,0.0,0.0,0,0,4.4,-4.17,-1.4499999,0.04,3.4763467,0,nan,nan,0.0,0.0,0,3,0,1,10,0
77188000,0,1698226079395748,0,473983854,85464600,497903,497903,0.25,0.5,1.0,1.0,0.0,0.0,0,0,4.49,-4.21,-1.54,0.01,3.4925783,0,nan,nan,0.0,0.0,0,3,0,1,10,0
77588000,0,1698226079795747,0,473983703,85464519,497902,497902,0.25,0.5,1.0,1.0,0.0,0.0,0,0,4.42,-4.17,-1.51,0.0,3.4906585,0,nan,nan,0.0,0.0,0,3,0,1,10,0
77988000,0,1698226080199747,0,473983552,85464438,497905,497905,0.25,0.5,1.0,1.0,0.0,0.0,0,0,4.42,-4.14,-1.53,-0.03,3.496418,0,nan,nan,0.0,0.0,0,3,0,1,10,0
78388000,0,1698226080599748,0,473983402,85464356,497909,497909,0.25,0.5,1.0,1.0,0.0,0.0,0,0,4.45,-4.19,-1.56,-0.02,3.4978142,0,nan,nan,0.0,0.0,0,3,0,1,10,0
78788000,0,1698226080999747,0,473983251,85464273,497922,497922,0.25,0.5,1.0,1.0,0.0,0.0,0,0,4.48,-4.19,-1.5899999,0.01,3.505319,0,nan,nan,0.0,0.0,0,3,0,1,10,0
79188000,0,1698226081395748,0,473983101,85464190,497926,497926,0.25,0.5,1.0,1.0,0.0,0.0,0,0,4.5099998,-4.23,-1.5899999,-0.02,3.501654,0,nan,nan,0.0,0.0,0,3,0,1,10,0
79592000,0,1698226081795747,0,473982947,85464104,497931,497931,0.25,0.5,1.0,1.0,0.0,0.0,0,0,4.5499997,-4.25,-1.5999999,0.0,3.502003,0,nan,nan,0.0,0.0,0,3,0,1,10,0
79988000,0,1698226082199747,0,473982791,85464018,497955,497955,0.25,0.5,1.0,1.0,0.0,0.0,0,0,4.58,-4.31,-1.5999999,0.0,3.497116,0,nan,nan,0.0,0.0,0,3,0,1,10,0
80388000,0,1698226082599748,0,473982636,85463932,497981,497981,0.25,0.5,1.0,1.0,0.0,0.0,0,0,4.61,-4.3199997,-1.63,-0.04,3.50305,0,nan,nan,0.0,0.0,0,3,0,1,10,0
80788000,0,1698226082999747,0,473982479,85463845,497985,497985,0.25,0.5,1.0,1.0,0.0,0.0,0,0,4.65,-4.33,-1.65,-0.06,3.505319,0,nan,nan,0.0,0.0,0,3,0,1,10,0
81188000,0,1698226083395748,0,473982323,85463758,497981,497981,0.25,0.5,1.0,1.0,0.0,0.0,0,0,4.68,-4.36,-1.63,-0.03,3.4985125,0,nan,nan,0.0,0.0,0,3,0,1,10,0
81588000,0,1698226083795747,0,473982165,85463669,498000,498000,0.25,0.5,1.0,1.0,0.0,0.0,0,0,4.71,-4.38,-1.67,-0.01,3.5065408,0,nan,nan,0.0,0.0,0,3,0,1,10,0
81988000,0,1698226084199747,0,473982003,85463578,498012,498012,0.25,0.5,1.0,1.0,0.0,0.0,0,0,4.75,-4.46,-1.6899999,0.0,3.5047956,0,nan,nan,0.0,0.0,0,3,0,1,10,0
82388000,0,1698226084599748,0,473981843,85463489,498011,498011,0.25,0.5,1.0,1.0,0.0,0.0,0,0,4.7799997,-4.47,-1.6899999,-0.01,3.50305,0,nan,nan,0.0,0.0,0,3,0,1,10,0
82788000,0,1698226084999747,0,473981681,85463398,498028,498028,0.25,0.5,1.0,1.0,0.0,0.0,0,0,4.81,-4.5099998,-1.6899999,0.0,3.5007815,0,nan,nan,0.0,0.0,0,3,0,1,10,0
83188000,0,1698226085395748,0,473981519,85463309,498034,498034,0.25,0.5,1.0,1.0,0.0,0.0,0,0,4.83,-4.5099998,-1.6899999,-0.03,3.5011303,0,nan,nan,0.0,0.0,0,3,0,1,10,0
83588000,0,1698226085795747,0,473981355,85463218,498039,498039,0.25,0.5,1.0,1.0,0.0,0.0,0,0,4.85,-4.5299997,-1.66,0.0,3.4936254,0,nan,nan,0.0,0.0,0,3,0,1,10,0
83988000,0,1698226086199747,0,473981192,85463127,498031,498031,0.25,0.5,1.0,1.0,0.0,0.0,0,0,4.65,-4.36,-1.62,-0.01,3.498338,0,nan,nan,0.0,0.0,0,3,0,1,10,0
84388000,0,1698226086599748,0,473981045,85463045,498041,498041,0.25,0.5,1.0,1.0,0.0,0.0,0,0,4.06,-3.77,-1.4599999,-0.01,3.510206,0,nan,nan,0.0,0.0,0,3,0,1,10,0
84788000,0,1698226086999747,0,473980917,85462971,498029,498029,0.25,0.5,1.0,1.0,0.0,0.0,0,0,3.5,-3.26,-1.27,-0.03,3.5129986,0,nan,nan,0.0,0.0,0,3,0,1,10,0
85188000,0,1698226087395748,0,473980810,85462910,498039,498039,0.25,0.5,1.0,1.0,0.0,0.0,0,0,2.96,-2.77,-1.06,0.02,3.5084608,0,nan,nan,0.0,0.0,0,3,0,1,10,0
85588000,0,1698226087795747,0,473980719,85462858,498049,498049,0.25,0.5,1.0,1.0,0.0,0.0,0,0,2.44,-2.28,-0.84,-0.02,3.49572,0,nan,nan,0.0,0.0,0,3,0,1,10,0
85988000,0,1698226088199747,0,473980644,85462819,498044,498044,0.25,0.5,1.0,1.0,0.0,0.0,0,0,1.9499999,-1.8399999,-0.63,0.0,3.4716341,0,nan,nan,0.0,0.0,0,3,0,1,10,0
86388000,0,1698226088599748,0,473980583,85462786,498061,498061,0.25,0.5,1.0,1.0,0.0,0.0,0,0,1.68,-1.55,-0.62,-0.02,3.5255651,0,nan,nan,0.0,0.0,0,3,0,1,10,0
86788000,0,1698226088999747,0,473980536,85462742,498086,498086,0.25,0.5,1.0,1.0,0.0,0.0,0,0,1.39,-0.91999996,-1.01,-0.07,3.9704492,0,nan,nan,0.0,0.0,0,3,0,1,10,0
87188000,0,1698226089395748,0,473980520,85462677,498086,498086,0.25,0.5,1.0,1.0,0.0,0.0,0,0,1.4499999,0.0,-1.4499999,-0.02,4.7076764,0,nan,nan,0.0,0.0,0,3,0,1,10,0
87588000,0,1698226089795747,0,473980528,85462591,498100,498100,0.25,0.5,1.0,1.0,0.0,0.0,0,0,1.7099999,0.39,-1.66,0.01,4.945041,0,nan,nan,0.0,0.0,0,3,0,1,10,0
87988000,0,1698226090199747,0,473980546,85462499,498095,498095,0.25,0.5,1.0,1.0,0.0,0.0,0,0,1.9599999,0.63,-1.8399999,-0.02,5.0427794,0,nan,nan,0.0,0.0,0,3,0,1,10,0
88388000,0,1698226090599748,0,473980574,85462383,498110,498110,0.25,0.5,1.0,1.0,0.0,0.0,0,0,2.71,0.9,-2.56,-0.04,5.0515065,0,nan,nan,0.0,0.0,0,3,0,1,10,0
88788000,0,1698226090999747,0,473980609,85462220,498125,498125,0.25,0.5,1.0,1.0,0.0,0.0,0,0,3.6999998,1.04,-3.54,0.0,4.998972,0,nan,nan,0.0,0.0,0,3,0,1,10,0
89188000,0,1698226091395748,0,473980650,85462013,498125,498125,0.25,0.5,1.0,1.0,0.0,0.0,0,0,4.35,1.22,-4.15,0.0,4.998972,0,nan,nan,0.0,0.0,0,3,0,1,10,0
89588000,0,1698226091795747,0,473980699,85461785,498112,498112,0.25,0.5,1.0,1.0,0.0,0.0,0,0,4.5499997,1.43,-4.31,0.0,5.032831,0,nan,nan,0.0,0.0,0,3,0,1,10,0
89988000,0,1698226092199747,0,473980750,85461555,498093,498093,0.25,0.5,1.0,1.0,0.0,0.0,0,0,4.46,1.37,-4.2599998,0.03,5.024454,0,nan,nan,0.0,0.0,0,3,0,1,10,0
90388000,0,1698226092599748,0,473980800,85461328,498095,498095,0.25,0.5,1.0,1.0,0.0,0.0,0,0,4.47,1.38,-4.2599998,0.01,5.0274205,0,nan,nan,0.0,0.0,0,3,0,1,10,0
90788000,0,1698226092999747,0,473980851,85461102,498098,498098,0.25,0.5,1.0,1.0,0.0,0.0,0,0,4.49,1.4,-4.2799997,0.01,5.0293407,0,nan,nan,0.0,0.0,0,3,0,1,10,0
91188000,0,1698226093395748,0,473980901,85460875,498105,498105,0.25,0.5,1.0,1.0,0.0,0.0,0,0,4.52,1.4399999,-4.29,0.01,5.0364966,0,nan,nan,0.0,0.0,0,3,0,1,10,0
91588000,0,1698226093795747,0,473980954,85460645,498099,498099,0.25,0.5,1.0,1.0,0.0,0.0,0,0,4.56,1.4499999,-4.33,0.02,5.0371943,0,nan,nan,0.0,0.0,0,3,0,1,10,0
91988000,0,1698226094199747,0,473981007,85460412,498088,498088,0.25,0.5,1.0,1.0,0.0,0.0,0,0,4.5899997,1.4499999,-4.36,0.0,5.0338783,0,nan,nan,0.0,0.0,0,3,0,1,10,0
92388000,0,1698226094599748,0,473981060,85460178,498092,498092,0.25,0.5,1.0,1.0,0.0,0.0,0,0,4.62,1.4599999,-4.39,0.02,5.0330057,0,nan,nan,0.0,0.0,0,3,0,1,10,0
92788000,0,1698226094999747,0,473981112,85459943,498083,498083,0.25,0.5,1.0,1.0,0.0,0.0,0,0,4.66,1.4599999,-4.43,0.0,5.030562,0,nan,nan,0.0,0.0,0,3,0,1,10,0
93188000,0,1698226095395748,0,473981165,85459711,498067,498067,0.25,0.5,1.0,1.0,0.0,0.0,0,0,4.5699997,1.4399999,-4.3399997,0.06,5.0338783,0,nan,nan,0.0,0.0,0,3,0,1,10,0
93588000,0,1698226095795747,0,473981215,85459493,498052,498052,0.25,0.5,1.0,1.0,0.0,0.0,0,0,4.04,1.3,-3.8,0.04,5.043478,0,nan,nan,0.0,0.0,0,3,0,1,10,0
93988000,0,1698226096199747,0,473981259,85459300,498028,498028,0.25,0.5,1.0,1.0,0.0,0.0,0,0,3.52,1.15,-3.33,0.0,5.046096,0,nan,nan,0.0,0.0,0,3,0,1,10,0
94388000,0,1698226096599748,0,473981298,85459135,498032,498032,0.25,0.5,1.0,1.0,0.0,0.0,0,0,3.03,0.98999995,-2.86,0.06,5.047492,0,nan,nan,0.0,0.0,0,3,0,1,10,0
94788000,0,1698226096999747,0,473981330,85458994,498029,498029,0.25,0.5,1.0,1.0,0.0,0.0,0,0,2.55,0.78999996,-2.45,-0.03,5.0249777,0,nan,nan,0.0,0.0,0,3,0,1,10,0
95188000,0,1698226097395748,0,473981355,85458877,498002,498002,0.25,0.5,1.0,1.0,0.0,0.0,0,0,2.1,0.61,-2.0,0.02,5.010142,0,nan,nan,0.0,0.0,0,3,0,1,10,0
95588000,0,1698226097795747,0,473981375,85458780,497993,497993,0.25,0.5,1.0,1.0,0.0,0.0,0,0,1.6999999,0.48,-1.64,0.06,4.999321,0,nan,nan,0.0,0.0,0,3,0,1,10,0
95988000,0,1698226098199747,0,473981390,85458701,497983,497983,0.25,0.5,1.0,1.0,0.0,0.0,0,0,1.3399999,0.35999998,-1.29,0.01,4.9871035,0,nan,nan,0.0,0.0,0,3,0,1,10,0
96384000,0,1698226098599748,0,473981401,85458643,498107,498107,0.25,0.5,1.0,1.0,0.0,0.0,0,0,0.94,0.26,-0.91999996,-0.66999996,4.9916415,0,nan,nan,0.0,0.0,0,3,0,1,10,0
96788000,0,1698226098999747,0,473981409,85458605,498614,498614,0.25,0.5,1.0,1.0,0.0,0.0,0,0,0.53,0.12,-0.5,-1.9399999,4.959353,0,nan,nan,0.0,0.0,0,3,0,1,10,0
97188000,0,1698226099395748,0,473981412,85458587,499535,499535,0.25,0.5,1.0,1.0,0.0,0.0,0,0,0.16,0.049999997,-0.14999999,-2.61,5.0513315,0,nan,nan,0.0,0.0,0,3,0,1,10,0
97588000,0,1698226099795747,0,473981411,85458589,500633,500633,0.25,0.5,1.0,1.0,0.0,0.0,0,0,0.17999999,-0.07,0.17,-2.75,1.998751,0,nan,nan,0.0,0.0,0,3,0,1,10,0
97988000,0,1698226100199747,0,473981408,85458598,501698,501698,0.25,0.5,1.0,1.0,0.0,0.0,0,0,0.16,-0.08,0.14999999,-2.56,2.0788617,0,nan,nan,0.0,0.0,0,3,0,1,10,0
98388000,0,1698226100599748,0,473981405,85458605,502729,502729,0.25,0.5,1.0,1.0,0.0,0.0,0,0,0.14999999,-0.07,0.14,-2.52,2.0526817,0,nan,nan,0.0,0.0,0,3,0,1,10,0
98788000,0,1698226100999747,0,473981402,85458612,503749,503749,0.25,0.5,1.0,1.0,0.0,0.0,0,0,0.14999999,-0.089999996,0.14,-2.57,2.15234,0,nan,nan,0.0,0.0,0,3,0,1,10,0
99188000,0,1698226101395748,0,473981398,85458618,504765,504765,0.25,0.5,1.0,1.0,0.0,0.0,0,0,0.16,-0.11,0.13,-2.52,2.2937117,0,nan,nan,0.0,0.0,0,3,0,1,10,0
99588000,0,1698226101795747,0,473981395,85458625,505781,505781,0.25,0.5,1.0,1.0,0.0,0.0,0,0,0.16,-0.089999996,0.14,-2.61,2.123193,0,nan,nan,0.0,0.0,0,3,0,1,10,0
99988000,0,1698226102199747,0,473981391,85458632,506815,506815,0.25,0.5,1.0,1.0,0.0,0.0,0,0,0.16,-0.089999996,0.13,-2.54,2.1837559,0,nan,nan,0.0,0.0,0,3,0,1,10,0
100392000,0,1698226102599748,0,473981388,85458640,507855,507855,0.25,0.5,1.0,1.0,0.0,0.0,0,0,0.16,-0.07,0.14999999,-2.57,2.0024161,0,nan,nan,0.0,0.0,0,3,0,1,10,0
100784000,0,1698226102999747,0,473981385,85458648,508879,508879,0.25,0.5,1.0,1.0,0.0,0.0,0,0,0.16,-0.07,0.14,-2.59,2.0818286,0,nan,nan,0.0,0.0,0,3,0,1,10,0
101188000,0,1698226103395748,0,473981382,85458655,509907,509907,0.25,0.5,1.0,1.0,0.0,0.0,0,0,0.14999999,-0.03,0.16,-2.58,1.8024014,0,nan,nan,0.0,0.0,0,3,0,1,10,0
101588000,0,1698226103795747,0,473981380,85458664,510934,510934,0.25,0.5,1.0,1.0,0.0,0.0,0,0,0.14999999,-0.049999997,0.12,-2.58,1.9978784,0,nan,nan,0.0,0.0,0,3,0,1,10,0
101988000,0,1698226104199747,0,473981379,85458671,511975,511975,0.25,0.5,1.0,1.0,0.0,0.0,0,0,0.14999999,-0.07,0.12,-2.44,2.1186552,0,nan,nan,0.0,0.0,0,3,0,1,10,0
102384000,0,1698226104599748,0,473981377,85458678,512879,512879,0.25,0.5,1.0,1.0,0.0,0.0,0,0,0.13,-0.049999997,0.12,-2.1,1.9926424,0,nan,nan,0.0,0.0,0,3,0,1,10,0
102788000,0,1698226104999747,0,473981374,85458684,513662,513662,0.25,0.5,1.0,1.0,0.0,0.0,0,0,0.12,-0.04,0.099999994,-1.81,1.9566886,0,nan,nan,0.0,0.0,0,3,0,1,10,0
103188000,0,1698226105395748,0,473981374,85458690,514337,514337,0.25,0.5,1.0,1.0,0.0,0.0,0,0,0.099999994,-0.04,0.11,-1.5999999,1.9476129,0,nan,nan,0.0,0.0,0,3,0,1,10,0
103588000,0,1698226105795747,0,473981373,85458695,514922,514922,0.25,0.5,1.0,1.0,0.0,0.0,0,0,0.08,0.0,0.099999994,-1.41,1.5751597,0,nan,nan,0.0,0.0,0,3,0,1,10,0
103988000,0,1698226106199747,0,473981373,85458699,515435,515435,0.25,0.5,1.0,1.0,0.0,0.0,0,0,0.06,0.0,0.04,-1.1,1.4552555,0,nan,nan,0.0,0.0,0,3,0,1,10,0
104388000,0,1698226106599748,0,473981373,85458701,515858,515858,0.25,0.5,1.0,1.0,0.0,0.0,0,0,0.04,0.0,0.049999997,-0.94,1.5707964,0,nan,nan,0.0,0.0,0,3,0,1,10,0
104788000,0,1698226106999747,0,473981373,85458704,516211,516211,0.25,0.5,1.0,1.0,0.0,0.0,0,0,0.03,0.0,0.03,-0.83,1.346347,0,nan,nan,0.0,0.0,0,3,0,1,10,0
105188000,0,1698226107395748,0,473981373,85458705,516512,516512,0.25,0.5,1.0,1.0,0.0,0.0,0,0,0.02,0.01,0.01,-0.69,0.8340928,0,nan,nan,0.0,0.0,0,3,0,1,10,0
105588000,0,1698226107795747,0,473981374,85458705,516763,516763,0.25,0.5,1.0,1.0,0.0,0.0,0,0,0.02,0.01,0.0,-0.59,5.956285,0,nan,nan,0.0,0.0,0,3,0,1,10,0
105988000,0,1698226108199747,0,473981374,85458707,516969,516969,0.25,0.5,1.0,1.0,0.0,0.0,0,0,0.01,0.0,0.03,-0.45999998,1.8486527,0,nan,nan,0.0,0.0,0,3,0,1,10,0
106388000,0,1698226108599748,0,473981374,85458709,517134,517134,0.25,0.5,1.0,1.0,0.0,0.0,0,0,0.01,0.0,0.03,-0.35999998,1.6446236,0,nan,nan,0.0,0.0,0,3,0,1,10,0
106788000,0,1698226108999747,0,473981374,85458709,517278,517278,0.25,0.5,1.0,1.0,0.0,0.0,0,0,0.07,-0.049999997,-0.03,-0.31,3.748269,0,nan,nan,0.0,0.0,0,3,0,1,10,0
107188000,0,1698226109395748,0,473981363,85458697,517413,517413,0.25,0.5,1.0,1.0,0.0,0.0,0,0,0.76,-0.65999997,-0.39999998,-0.28,3.6904986,0,nan,nan,0.0,0.0,0,3,0,1,10,0
107588000,0,1698226109795747,0,473981321,85458666,517527,517527,0.25,0.5,1.0,1.0,0.0,0.0,0,0,1.89,-1.74,-0.74,-0.24,3.544589,0,nan,nan,0.0,0.0,0,3,0,1,10,0
107988000,0,1698226110199747,0,473981237,85458616,517599,517599,0.25,0.5,1.0,1.0,0.0,0.0,0,0,3.05,-2.86,-1.1,-0.11,3.5093334,0,nan,nan,0.0,0.0,0,3,0,1,10,0
108388000,0,1698226110599748,0,473981115,85458547,517653,517653,0.25,0.5,1.0,1.0,0.0,0.0,0,0,4.1,-3.84,-1.4499999,-0.02,3.5025265,0,nan,nan,0.0,0.0,0,3,0,1,10,0
108788000,0,1698226110999747,0,473980967,85458457,517659,517659,0.25,0.5,1.0,1.0,0.0,0.0,0,0,4.71,-4.29,-1.93,0.0,3.5657077,0,nan,nan,0.0,0.0,0,3,0,1,10,0
109188000,0,1698226111395748,0,473980813,85458348,517641,517641,0.25,0.5,1.0,1.0,0.0,0.0,0,0,4.74,-4.2599998,-2.09,-0.04,3.5978217,0,nan,nan,0.0,0.0,0,3,0,1,10,0
109588000,0,1698226111795747,0,473980660,85458237,517652,517652,0.25,0.5,1.0,1.0,0.0,0.0,0,0,4.69,-4.2,-2.08,-0.02,3.600963,0,nan,nan,0.0,0.0,0,3,0,1,10,0
109988000,0,1698226112199747,0,473980507,85458126,517663,517663,0.25,0.5,1.0,1.0,0.0,0.0,0,0,4.69,-4.22,-2.06,-0.07,3.5964253,0,nan,nan,0.0,0.0,0,3,0,1,10,0
110388000,0,1698226112599748,0,473980354,85458017,517670,517670,0.25,0.5,1.0,1.0,0.0,0.0,0,0,4.71,-4.25,-2.03,-0.02,3.586826,0,nan,nan,0.0,0.0,0,3,0,1,10,0
110788000,0,1698226112999747,0,473980200,85457909,517673,517673,0.25,0.5,1.0,1.0,0.0,0.0,0,0,4.73,-4.2599998,-2.03,-0.03,3.5864768,0,nan,nan,0.0,0.0,0,3,0,1,10,0
111188000,0,1698226113395748,0,473980046,85457803,517676,517676,0.25,0.5,1.0,1.0,0.0,0.0,0,0,4.74,-4.2999997,-1.9699999,0.01,3.5716417,0,nan,nan,0.0,0.0,0,3,0,1,10,0
111588000,0,1698226113795747,0,473979891,85457697,517685,517685,0.25,0.5,1.0,1.0,0.0,0.0,0,0,4.75,-4.3199997,-1.9599999,-0.04,3.5683255,0,nan,nan,0.0,0.0,0,3,0,1,10,0
111992000,0,1698226114199747,0,473979733,85457591,517696,517696,0.25,0.5,1.0,1.0,0.0,0.0,0,0,4.7599998,-4.3399997,-1.9599999,0.0,3.5658822,0,nan,nan,0.0,0.0,0,3,0,1,10,0
112388000,0,1698226114599748,0,473979576,85457486,517716,517716,0.25,0.5,1.0,1.0,0.0,0.0,0,0,4.7799997,-4.3399997,-1.9799999,-0.049999997,3.5698962,0,nan,nan,0.0,0.0,0,3,0,1,10,0
112788000,0,1698226114999747,0,473979419,85457380,517740,517740,0.25,0.5,1.0,1.0,0.0,0.0,0,0,4.7999997,-4.37,-1.9799999,-0.07,3.5667548,0,nan,nan,0.0,0.0,0,3,0,1,10,0
113188000,0,1698226115395748,0,473979262,85457275,517765,517765,0.25,0.5,1.0,1.0,0.0,0.0,0,0,4.8199997,-4.39,-1.99,-0.06,3.5681512,0,nan,nan,0.0,0.0,0,3,0,1,10,0
113588000,0,1698226115795747,0,473979104,85457167,517798,517798,0.25,0.5,1.0,1.0,0.0,0.0,0,0,4.85,-4.4,-2.03,-0.08,3.5740852,0,nan,nan,0.0,0.0,0,3,0,1,10,0
113988000,0,1698226116199747,0,473978943,85457058,517828,517828,0.25,0.5,1.0,1.0,0.0,0.0,0,0,4.87,-4.45,-2.02,-0.07,3.568849,0,nan,nan,0.0,0.0,0,3,0,1,10,0
114388000,0,1698226116599748,0,473978782,85456949,517853,517853,0.25,0.5,1.0,1.0,0.0,0.0,0,0,4.89,-4.45,-2.05,-0.11,3.5739105,0,nan,nan,0.0,0.0,0,3,0,1,10,0
114788000,0,1698226116999747,0,473978622,85456839,517872,517872,0.25,0.5,1.0,1.0,0.0,0.0,0,0,4.9,-4.43,-2.08,-0.049999997,3.5798447,0,nan,nan,0.0,0.0,0,3,0,1,10,0
115188000,0,1698226117395748,0,473978464,85456730,517902,517902,0.25,0.5,1.0,1.0,0.0,0.0,0,0,4.91,-4.44,-2.07,-0.049999997,3.5782738,0,nan,nan,0.0,0.0,0,3,0,1,10,0
115588000,0,1698226117795747,0,473978303,85456620,517946,517946,0.25,0.5,1.0,1.0,0.0,0.0,0,0,4.8399997,-4.42,-2.03,-0.06,3.5728633,0,nan,nan,0.0,0.0,0,3,0,1,10,0
115988000,0,1698226118199747,0,473978152,85456515,517960,517960,0.25,0.5,1.0,1.0,0.0,0.0,0,0,4.29,-3.87,-1.8199999,-0.089999996,3.5821135,0,nan,nan,0.0,0.0,0,3,0,1,10,0
116388000,0,1698226118599748,0,473978021,85456424,517988,517988,0.25,0.5,1.0,1.0,0.0,0.0,0,0,3.72,-3.36,-1.5899999,-0.03,3.5831606,0,nan,nan,0.0,0.0,0,3,0,1,10,0
116788000,0,1698226118999747,0,473977909,85456345,518012,518012,0.25,0.5,1.0,1.0,0.0,0.0,0,0,3.1499999,-2.86,-1.31,-0.03,3.5725145,0,nan,nan,0.0,0.0,0,3,0,1,10,0
117188000,0,1698226119395748,0,473977816,85456281,518027,518027,0.25,0.5,1.0,1.0,0.0,0.0,0,0,2.6,-2.37,-1.1,-0.04,3.575307,0,nan,nan,0.0,0.0,0,3,0,1,10,0
117588000,0,1698226119795747,0,473977739,85456229,518046,518046,0.25,0.5,1.0,1.0,0.0,0.0,0,0,2.1,-1.93,-0.85999995,-0.01,3.5608206,0,nan,nan,0.0,0.0,0,3,0,1,10,0
117988000,0,1698226120199747,0,473977676,85456188,518060,518060,0.25,0.5,1.0,1.0,0.0,0.0,0,0,1.67,-1.53,-0.69,0.0,3.5693727,0,nan,nan,0.0,0.0,0,3,0,1,10,0
118388000,0,1698226120599748,0,473977628,85456156,518063,518063,0.25,0.5,1.0,1.0,0.0,0.0,0,0,1.29,-1.1899999,-0.51,0.0,3.546858,0,nan,nan,0.0,0.0,0,3,0,1,10,0
118788000,0,1698226120999747,0,473977592,85456133,517918,517918,0.25,0.5,1.0,1.0,0.0,0.0,0,0,0.87,-0.78999996,-0.35999998,0.82,3.5754814,0,nan,nan,0.0,0.0,0,3,0,1,10,0
119192000,0,1698226121395748,0,473977571,85456118,517408,517408,0.25,0.5,1.0,1.0,0.0,0.0,0,0,0.41,-0.34,-0.19999999,1.61,3.6931164,0,nan,nan,0.0,0.0,0,3,0,1,10,0
119588000,0,1698226121795747,0,473977567,85456112,516789,516789,0.25,0.5,1.0,1.0,0.0,0.0,0,0,0.03,0.04,-0.03,1.4599999,5.5698695,0,nan,nan,0.0,0.0,0,3,0,1,10,0
119988000,0,1698226122199747,0,473977569,85456112,516206,516206,0.25,0.5,1.0,1.0,0.0,0.0,0,0,0.049999997,0.08,0.04,1.4599999,0.47909287,0,nan,nan,0.0,0.0,0,3,0,1,10,0
120388000,0,1698226122599748,0,473977572,85456113,515617,515617,0.25,0.5,1.0,1.0,0.0,0.0,0,0,0.089999996,0.099999994,0.03,1.48,0.28082347,0,nan,nan,0.0,0.0,0,3,0,1,10,0
120788000,0,1698226122999747,0,473977574,85456115,515005,515005,0.25,0.5,1.0,1.0,0.0,0.0,0,0,0.07,0.07,0.0,1.49,6.28144,0,nan,nan,0.0,0.0,0,3,0,1,10,0
121188000,0,1698226123395748,0,473977575,85456116,514402,514402,0.25,0.5,1.0,1.0,0.0,0.0,0,0,0.02,0.02,0.01,1.52,0.5599016,0,nan,nan,0.0,0.0,0,3,0,1,10,0
121588000,0,1698226123795747,0,473977576,85456115,513789,513789,0.25,0.5,1.0,1.0,0.0,0.0,0,0,0.02,0.01,-0.01,1.5699999,5.566727,0,nan,nan,0.0,0.0,0,3,0,1,10,0
121988000,0,1698226124199747,0,473977576,85456113,513176,513176,0.25,0.5,1.0,1.0,0.0,0.0,0,0,0.04,-0.01,-0.049999997,1.52,4.4898596,0,nan,nan,0.0,0.0,0,3,0,1,10,0
122384000,0,1698226124599748,0,473977576,85456110,512564,512564,0.25,0.5,1.0,1.0,0.0,0.0,0,0,0.07,-0.02,-0.049999997,1.52,4.333129,0,nan,nan,0.0,0.0,0,3,0,1,10,0
122788000,0,1698226124999747,0,473977574,85456106,511947,511947,0.25,0.5,1.0,1.0,0.0,0.0,0,0,0.08,-0.04,-0.07,1.54,4.1585956,0,nan,nan,0.0,0.0,0,3,0,1,10,0
123188000,0,1698226125395748,0,473977572,85456103,511344,511344,0.25,0.5,1.0,1.0,0.0,0.0,0,0,0.089999996,-0.049999997,-0.06,1.52,3.956487,0,nan,nan,0.0,0.0,0,3,0,1,10,0
123588000,0,1698226125795747,0,473977568,85456100,510729,510729,0.25,0.5,1.0,1.0,0.0,0.0,0,0,0.099999994,-0.089999996,-0.04,1.4699999,3.571118,0,nan,nan,0.0,0.0,0,3,0,1,10,0
123988000,0,1698226126199747,0,473977565,85456099,510110,510110,0.25,0.5,1.0,1.0,0.0,0.0,0,0,0.099999994,-0.089999996,-0.03,1.54,3.4552283,0,nan,nan,0.0,0.0,0,3,0,1,10,0
124388000,0,1698226126599748,0,473977561,85456098,509488,509488,0.25,0.5,1.0,1.0,0.0,0.0,0,0,0.099999994,-0.089999996,-0.03,1.56,3.4826298,0,nan,nan,0.0,0.0,0,3,0,1,10,0
124788000,0,1698226126999747,0,473977558,85456097,508869,508869,0.25,0.5,1.0,1.0,0.0,0.0,0,0,0.089999996,-0.06,-0.02,1.54,3.460988,0,nan,nan,0.0,0.0,0,3,0,1,10,0
125188000,0,1698226127395748,0,473977554,85456097,508264,508264,0.25,0.5,1.0,1.0,0.0,0.0,0,0,0.08,-0.099999994,-0.01,1.5,3.252072,0,nan,nan,0.0,0.0,0,3,0,1,10,0
125588000,0,1698226127795747,0,473977551,85456098,507646,507646,0.25,0.5,1.0,1.0,0.0,0.0,0,0,0.08,-0.08,0.0,1.51,3.151192,0,nan,nan,0.0,0.0,0,3,0,1,10,0
125988000,0,1698226128199747,0,473977548,85456097,507042,507042,0.25,0.5,1.0,1.0,0.0,0.0,0,0,0.07,-0.08,0.0,1.51,3.0511844,0,nan,nan,0.0,0.0,0,3,0,1,10,0
126388000,0,1698226128599748,0,473977546,85456097,506425,506425,0.25,0.5,1.0,1.0,0.0,0.0,0,0,0.07,-0.08,0.0,1.51,3.1824334,0,nan,nan,0.0,0.0,0,3,0,1,10,0
126788000,0,1698226128999747,0,473977543,85456096,505810,505810,0.25,0.5,1.0,1.0,0.0,0.0,0,0,0.06,-0.049999997,0.01,1.56,2.9356437,0,nan,nan,0.0,0.0,0,3,0,1,10,0
127188000,0,1698226129395748,0,473977541,85456097,505213,505213,0.25,0.5,1.0,1.0,0.0,0.0,0,0,0.049999997,-0.06,-0.01,1.5,3.3098423,0,nan,nan,0.0,0.0,0,3,0,1,10,0
127588000,0,1698226129795747,0,473977539,85456096,504595,504595,0.25,0.5,1.0,1.0,0.0,0.0,0,0,0.049999997,-0.03,-0.04,1.5,3.9678314,0,nan,nan,0.0,0.0,0,3,0,1,10,0
127988000,0,1698226130199747,0,473977537,85456094,503981,503981,0.25,0.5,1.0,1.0,0.0,0.0,0,0,0.06,-0.06,-0.01,1.52,3.4217181,0,nan,nan,0.0,0.0,0,3,0,1,10,0
128388000,0,1698226130595747,0,473977535,85456093,503382,503382,0.25,0.5,1.0,1.0,0.0,0.0,0,0,0.07,-0.03,-0.03,1.51,3.9049995,0,nan,nan,0.0,0.0,0,3,0,1,10,0
128788000,0,1698226130999747,0,473977532,85456091,502773,502773,0.25,0.5,1.0,1.0,0.0,0.0,0,0,0.08,-0.06,-0.03,1.52,3.6807249,0,nan,nan,0.0,0.0,0,3,0,1,10,0
129188000,0,1698226131399747,0,473977530,85456088,502170,502170,0.25,0.5,1.0,1.0,0.0,0.0,0,0,0.089999996,-0.099999994,-0.03,1.49,3.4595916,0,nan,nan,0.0,0.0,0,3,0,1,10,0
129588000,0,1698226131795747,0,473977527,85456085,501575,501575,0.25,0.5,1.0,1.0,0.0,0.0,0,0,0.089999996,-0.089999996,-0.049999997,1.4599999,3.6650167,0,nan,nan,0.0,0.0,0,3,0,1,10,0
129988000,0,1698226132199747,0,473977524,85456082,500966,500966,0.25,0.5,1.0,1.0,0.0,0.0,0,0,0.089999996,-0.049999997,-0.06,1.4699999,3.9973276,0,nan,nan,0.0,0.0,0,3,0,1,10,0
130388000,0,1698226132595747,0,473977521,85456080,500372,500372,0.25,0.5,1.0,1.0,0.0,0.0,0,0,0.08,-0.049999997,-0.03,1.52,3.7547266,0,nan,nan,0.0,0.0,0,3,0,1,10,0
130788000,0,1698226132999747,0,473977519,85456078,499802,499802,0.25,0.5,1.0,1.0,0.0,0.0,0,0,0.07,-0.06,-0.02,1.26,3.538306,0,nan,nan,0.0,0.0,0,3,0,1,10,0
131188000,0,1698226133399747,0,473977516,85456076,499357,499357,0.25,0.5,1.0,1.0,0.0,0.0,0,0,0.049999997,-0.04,-0.03,0.97999996,3.7596135,0,nan,nan,0.0,0.0,0,3,0,1,10,0
131588000,0,1698226133795747,0,473977515,85456076,499022,499022,0.25,0.5,1.0,1.0,0.0,0.0,0,0,0.03,-0.01,0.0,0.78,2.6658156,0,nan,nan,0.0,0.0,0,3,0,1,10,0
131988000,0,1698226134199747,0,473977514,85456076,498751,498751,0.25,0.5,1.0,1.0,0.0,0.0,0,0,0.02,-0.04,0.0,0.56,3.2059953,0,nan,nan,0.0,0.0,0,3,0,1,10,0
132388000,0,1698226134595747,0,473977513,85456077,498543,498543,0.25,0.5,1.0,1.0,0.0,0.0,0,0,0.02,-0.02,0.0,0.51,2.9270916,0,nan,nan,0.0,0.0,0,3,0,1,10,0
132788000,0,1698226134999747,0,473977512,85456078,498288,498288,0.25,0.5,1.0,1.0,0.0,0.0,0,0,0.02,-0.01,0.0,0.96999997,2.7789133,0,nan,nan,0.0,0.0,0,3,0,1,10,0
133188000,0,1698226135399747,0,473977512,85456080,497753,497753,0.25,0.5,1.0,1.0,0.0,0.0,0,0,0.02,0.0,0.01,1.55,1.8643607,0,nan,nan,0.0,0.0,0,3,0,1,10,0
133588000,0,1698226135795747,0,473977512,85456081,497158,497158,0.25,0.5,1.0,1.0,0.0,0.0,0,0,0.03,0.02,0.04,1.3,1.1294025,0,nan,nan,0.0,0.0,0,3,0,1,10,0
133988000,0,1698226136199747,0,473977512,85456083,496666,496666,0.25,0.5,1.0,1.0,0.0,0.0,0,0,0.03,0.0,0.03,1.1999999,1.6955874,0,nan,nan,0.0,0.0,0,3,0,1,10,0
134388000,0,1698226136595747,0,473977512,85456084,496198,496198,0.25,0.5,1.0,1.0,0.0,0.0,0,0,0.03,0.0,0.02,1.1899999,1.7325883,0,nan,nan,0.0,0.0,0,3,0,1,10,0
134788000,0,1698226136999747,0,473977511,85456086,495735,495735,0.25,0.5,1.0,1.0,0.0,0.0,0,0,0.02,0.01,0.0,1.06,0.5710717,0,nan,nan,0.0,0.0,0,3,0,1,10,0
135188000,0,1698226137399747,0,473977511,85456087,495309,495309,0.25,0.5,1.0,1.0,0.0,0.0,0,0,0.02,0.0,0.02,1.01,1.2154473,0,nan,nan,0.0,0.0,0,3,0,1,10,0
135588000,0,1698226137795747,0,473977511,85456088,494925,494925,0.25,0.5,1.0,1.0,0.0,0.0,0,0,0.02,0.0,0.01,0.97999996,1.863488,0,nan,nan,0.0,0.0,0,3,0,1,10,0
135988000,0,1698226138199747,0,473977510,85456089,494531,494531,0.25,0.5,1.0,1.0,0.0,0.0,0,0,0.02,-0.03,0.02,0.90999997,2.4260077,0,nan,nan,0.0,0.0,0,3,0,1,10,0
136388000,0,1698226138595747,0,473977510,85456090,494182,494182,0.25,0.5,1.0,1.0,0.0,0.0,0,0,0.01,-0.01,0.0,0.85999995,2.6125834,0,nan,nan,0.0,0.0,0,3,0,1,10,0
136788000,0,1698226138999747,0,473977510,85456090,493846,493846,0.25,0.5,1.0,1.0,0.0,0.0,0,0,0.0,-0.03,0.03,0.78999996,2.367539,0,nan,nan,0.0,0.0,0,3,0,1,10,0
137188000,0,1698226139399747,0,473977509,85456091,493537,493537,0.25,0.5,1.0,1.0,0.0,0.0,0,0,0.0,0.0,0.0,0.72999996,3.8693948,0,nan,nan,0.0,0.0,0,3,0,1,10,0
137588000,0,1698226139795747,0,473977509,85456090,493240,493240,0.25,0.5,1.0,1.0,0.0,0.0,0,0,0.01,0.01,0.0,0.72999996,0.25935593,0,nan,nan,0.0,0.0,0,3,0,1,10,0
137988000,0,1698226140199747,0,473977510,85456089,492954,492954,0.25,0.5,1.0,1.0,0.0,0.0,0,0,0.02,0.0,-0.02,0.66999996,4.5291295,0,nan,nan,0.0,0.0,0,3,0,1,10,0
138388000,0,1698226140595747,0,473977510,85456087,492709,492709,0.25,0.5,1.0,1.0,0.0,0.0,0,0,0.02,0.0,-0.04,0.68,4.5636864,0,nan,nan,0.0,0.0,0,3,0,1,10,0
138788000,0,1698226140999747,0,473977510,85456085,492436,492436,0.25,0.5,1.0,1.0,0.0,0.0,0,0,0.02,0.0,-0.04,0.65,4.5085344,0,nan,nan,0.0,0.0,0,3,0,1,10,0
139188000,0,1698226141399747,0,473977511,85456085,492173,492173,0.25,0.5,1.0,1.0,0.0,0.0,0,0,0.02,0.02,-0.03,0.59999996,5.249252,0,nan,nan,0.0,0.0,0,3,0,1,10,0
139588000,0,1698226141795747,0,473977511,85456084,491918,491918,0.25,0.5,1.0,1.0,0.0,0.0,0,0,0.01,0.0,0.01,0.59999996,1.6346753,0,nan,nan,0.0,0.0,0,3,0,1,10,0
139988000,0,1698226142199747,0,473977512,85456082,491650,491650,0.25,0.5,1.0,1.0,0.0,0.0,0,0,0.0,0.0,0.0,0.69,2.82115,0,nan,nan,0.0,0.0,0,3,0,1,10,0
140388000,0,1698226142595747,0,473977511,85456083,491383,491383,0.25,0.5,1.0,1.0,0.0,0.0,0,0,0.0,0.04,0.0,0.66999996,6.192253,0,nan,nan,0.0,0.0,0,3,0,1,10,0
140788000,0,1698226142999747,0,473977511,85456084,491127,491127,0.25,0.5,1.0,1.0,0.0,0.0,0,0,0.0,-0.01,-0.01,0.63,3.85805,0,nan,nan,0.0,0.0,0,3,0,1,10,0
141188000,0,1698226143399747,0,473977511,85456084,490849,490849,0.25,0.5,1.0,1.0,0.0,0.0,0,0,0.01,-0.02,0.0,0.63,3.0597367,0,nan,nan,0.0,0.0,0,3,0,1,10,0
141588000,0,1698226143795747,0,473977511,85456085,490589,490589,0.25,0.5,1.0,1.0,0.0,0.0,0,0,0.01,-0.03,0.0,0.65999997,3.3121111,0,nan,nan,0.0,0.0,0,3,0,1,10,0
141992000,0,1698226144199747,0,473977510,85456085,490321,490321,0.25,0.5,1.0,1.0,0.0,0.0,0,0,0.01,-0.01,0.0,0.71,2.9152234,0,nan,nan,0.0,0.0,0,3,0,1,10,0
142388000,0,1698226144595747,0,473977509,85456085,490068,490068,0.25,0.5,1.0,1.0,0.0,0.0,0,0,0.01,0.0,0.0,0.65,3.5246923,0,nan,nan,0.0,0.0,0,3,0,1,10,0
142788000,0,1698226144999747,0,473977509,85456086,489806,489806,0.25,0.5,1.0,1.0,0.0,0.0,0,0,0.01,0.0,0.0,0.63,3.448945,0,nan,nan,0.0,0.0,0,3,0,1,10,0
143188000,0,1698226145399747,0,473977508,85456087,489567,489567,0.25,0.5,1.0,1.0,0.0,0.0,0,0,0.02,-0.01,0.04,0.64,1.8572048,0,nan,nan,0.0,0.0,0,3,0,1,10,0
143588000,0,1698226145795747,0,473977508,85456088,489301,489301,0.25,0.5,1.0,1.0,0.0,0.0,0,0,0.02,0.0,0.0,0.63,0.89099056,0,nan,nan,0.0,0.0,0,3,0,1,10,0
143988000,0,1698226146199747,0,473977507,85456089,489040,489040,0.25,0.5,1.0,1.0,0.0,0.0,0,0,0.02,-0.01,0.0,0.65999997,2.538232,0,nan,nan,0.0,0.0,0,3,0,1,10,0
144388000,0,1698226146595747,0,473977506,85456089,488776,488776,0.25,0.5,1.0,1.0,0.0,0.0,0,0,0.02,-0.04,0.0,0.68,2.9279642,0,nan,nan,0.0,0.0,0,3,0,1,10,0
144788000,0,1698226146999747,0,473977505,85456089,488514,488514,0.25,0.5,1.0,1.0,0.0,0.0,0,0,0.02,-0.04,0.0,0.65999997,3.1473522,0,nan,nan,0.0,0.0,0,3,0,1,10,0
145188000,0,1698226147399747,0,473977504,85456090,488239,488239,0.25,0.5,1.0,1.0,0.0,0.0,0,0,0.02,-0.03,-0.01,0.69,3.5901423,0,nan,nan,0.0,0.0,0,3,0,1,10,0
145588000,0,1698226147795747,0,473977504,85456089,488118,488118,0.25,0.5,1.0,1.0,0.0,0.0,0,0,0.0,-0.01,0.0,0.01,2.9220302,0,nan,nan,0.0,0.0,0,3,0,1,10,0
145992000,0,1698226148199747,0,473977504,85456090,488106,488106,0.25,0.5,1.0,1.0,0.0,0.0,0,0,0.0,-0.02,0.01,0.049999997,2.550275,0,nan,nan,0.0,0.0,0,3,0,1,10,0
146388000,0,1698226148595747,0,473977503,85456090,488107,488107,0.25,0.5,1.0,1.0,0.0,0.0,0,0,0.0,0.01,0.0,-0.01,5.686457,0,nan,nan,0.0,0.0,0,3,0,1,10,0
146788000,0,1698226148999747,0,473977504,85456089,488111,488111,0.25,0.5,1.0,1.0,0.0,0.0,0,0,0.0,0.0,0.0,-0.02,3.7205184,0,nan,nan,0.0,0.0,0,3,0,1,10,0
147188000,0,1698226149399747,0,473977504,85456089,488099,488099,0.25,0.5,1.0,1.0,0.0,0.0,0,0,0.0,0.01,0.0,0.0,0.1308997,0,nan,nan,0.0,0.0,0,3,0,1,10,0
147584000,0,1698226149795747,0,473977504,85456090,488109,488109,0.25,0.5,1.0,1.0,0.0,0.0,0,0,0.0,-0.01,0.0,-0.01,2.6984537,0,nan,nan,0.0,0.0,0,3,0,1,10,0
147988000,0,1698226150199747,0,473977504,85456090,488104,488104,0.25,0.5,1.0,1.0,0.0,0.0,0,0,0.0,0.01,0.02,-0.04,0.9690068,0,nan,nan,0.0,0.0,0,3,0,1,10,0
148388000,0,1698226150595747,0,473977504,85456090,488106,488106,0.25,0.5,1.0,1.0,0.0,0.0,0,0,0.0,0.0,-0.01,0.03,5.150641,0,nan,nan,0.0,0.0,0,3,0,1,10,0
148788000,0,1698226150999747,0,473977504,85456090,488103,488103,0.25,0.5,1.0,1.0,0.0,0.0,0,0,0.0,0.01,-0.01,0.049999997,5.5038958,0,nan,nan,0.0,0.0,0,3,0,1,10,0
149188000,0,1698226151399747,0,473977504,85456090,488099,488099,0.25,0.5,1.0,1.0,0.0,0.0,0,0,0.0,0.01,0.0,0.01,0.087964594,0,nan,nan,0.0,0.0,0,3,0,1,10,0
