timestamp,timestamp_sample,gps_hvel[0],gps_hvel[1],gps_vvel,gps_hpos[0],gps_hpos[1],gps_vpos,ev_hvel[0],ev_hvel[1],ev_vvel,ev_hpos[0],ev_hpos[1],ev_vpos,rng_vpos,baro_vpos,aux_hvel[0],aux_hvel[1],aux_vvel,flow[0],flow[1],terr_flow[0],terr_flow[1],heading,mag_field[0],mag_field[1],mag_field[2],gravity[0],gravity[1],gravity[2],drag[0],drag[1],airspeed,beta,hagl,hagl_rate
3724000,3644000,25.1528,25.15281,10.202984,103.26637,103.26637,101.90604,0.0,0.0,0.0,0.0,0.0,0.0,0.0,62.86484,0.0,0.0,nan,0.0,0.0,0.0,0.0,0.0,0.0,0.0,0.0,2.1824708,2.1827936,1.0011374,0.0,0.0,0.0,0.0,0.0,0.0
4228000,4148000,0.10023292,0.10023488,0.20299897,1.125376,1.1253762,34.333355,0.0,0.0,0.0,0.0,0.0,0.0,0.0,37.250008,0.0,0.0,nan,0.0,0.0,0.0,0.0,0.0,0.0,0.0,0.0,1.1254069,1.1254417,1.0001205,0.0,0.0,0.0,0.0,0.0,0.0
4732000,4652000,0.094430394,0.09443138,0.20320658,1.0000994,1.0000994,3.7282925,0.0,0.0,0.0,0.0,0.0,0.0,0.0,13.540942,0.0,0.0,nan,0.0,0.0,0.0,0.0,0.0,0.0,0.0,0.0,1.1209753,1.1209869,1.0001202,0.0,0.0,0.0,0.0,0.0,0.0
5228000,5148000,0.09330625,0.0933063,0.20782135,1.0001634,1.0001634,1.6632533,0.0,0.0,0.0,0.0,0.0,0.0,0.0,12.951151,0.0,0.0,nan,0.0,0.0,0.0,0.0,0.0,0.0,0.0,0.0,1.0894462,1.0894538,1.0000865,0.0,0.0,0.0,0.0,0.0,0.0
5724000,5644000,0.092443824,0.092443906,0.20947182,1.0001389,1.0001389,1.4823458,0.0,0.0,0.0,0.0,0.0,0.0,0.0,12.714855,0.0,0.0,nan,0.0,0.0,0.0,0.0,0.0,0.0,0.0,0.0,1.0687968,1.0688044,1.0000654,0.0,0.0,0.0,0.0,0.0,0.0
6228000,6148000,0.09172823,0.09172826,0.21163167,1.0001111,1.0001111,1.3927366,0.0,0.0,0.0,0.0,0.0,0.0,0.0,12.599157,0.0,0.0,nan,0.0,0.0,0.0,0.0,0.0,0.0,0.0,0.0,1.0652466,1.0652521,1.0000615,0.0,0.0,0.0,0.0,0.0,0.0
6732000,6652000,0.091325305,0.091325305,0.2115838,1.0000975,1.0000975,1.3235686,0.0,0.0,0.0,0.0,0.0,0.0,0.0,12.537648,0.0,0.0,nan,0.0,0.0,0.0,0.0,0.0,0.0,0.0,0.0,1.0635476,1.0635535,1.0000591,0.0,0.0,0.0,0.0,0.0,0.0
7228000,7148000,0.09088152,0.09088149,0.21035734,1.0000715,1.0000715,1.2410896,0.0,0.0,0.0,0.0,0.0,0.0,0.0,12.49593,0.0,0.0,nan,0.0,0.0,0.0,0.0,0.0,0.0,0.0,0.0,1.0615644,1.0615714,1.0000567,0.0,0.0,0.0,0.0,0.0,0.0
7724000,7644000,0.091466144,0.091466084,0.20974445,1.0001819,1.0001819,1.2185512,0.0,0.0,0.0,0.0,0.0,0.0,0.0,12.461525,0.0,0.0,nan,0.0,0.0,0.0,0.0,0.0,0.0,0.0,0.0,1.0612361,1.0612421,1.0000563,0.0,0.0,0.0,0.0,0.0,0.0
8228000,8148000,0.09129175,0.0912917,0.2091985,1.0001607,1.0001607,1.1971992,0.0,0.0,0.0,0.0,0.0,0.0,0.0,12.439787,0.0,0.0,nan,0.0,0.0,0.0,0.0,0.0,0.0,0.0,0.0,1.0605807,1.0605855,1.0000552,0.0,0.0,0.0,0.0,0.0,0.0
8724000,8644000,0.09118711,0.09118709,0.2087737,1.0001494,1.0001494,1.1802394,0.0,0.0,0.0,0.0,0.0,0.0,0.0,12.419699,0.0,0.0,nan,0.0,0.0,0.0,0.0,0.0,0.0,0.0,0.0,1.0604538,1.0604578,1.0000536,0.0,0.0,0.0,0.0,0.0,0.0
9228000,9148000,0.090979286,0.090979286,0.20812772,1.0001184,1.0001184,1.6369431,0.0,0.0,0.0,0.0,0.0,0.0,0.0,12.928449,0.0,0.0,nan,0.0,0.0,0.0,0.0,0.0,0.0,0.0,0.0,1.0603719,1.0603757,1.0000528,0.0,0.0,0.0,0.0,0.0,0.0
9724000,9644000,0.09091064,0.09091061,0.20792727,1.0001082,1.0001082,1.3279741,0.0,0.0,0.0,0.0,0.0,0.0,0.0,12.503742,0.0,0.0,nan,0.0,0.0,0.0,0.0,0.0,0.0,0.0,0.0,1.0600499,1.0600529,1.0000517,0.0,0.0,0.0,0.0,0.0,0.0
10228000,10148000,0.09085152,0.09085147,0.20776618,1.0000994,1.0000994,1.2180068,0.0,0.0,0.0,0.0,0.0,0.0,0.0,12.444259,0.0,0.0,nan,0.0,0.0,0.0,0.0,0.0,0.0,0.0,0.0,1.0600214,1.060024,1.0000505,0.0,0.0,0.0,0.0,0.0,0.0
10732000,10652000,0.090799734,0.09079967,0.20763485,1.0000916,1.0000916,1.1642841,0.0,0.0,0.0,0.0,0.0,0.0,0.0,12.417026,0.0,0.0,nan,0.0,0.0,0.0,0.0,0.0,0.0,0.0,0.0,1.0598378,1.0598403,1.00005,0.0,0.0,0.0,0.0,0.0,0.0
11228000,11148000,0.09072493,0.09072488,0.20812498,1.000079,1.000079,1.1127598,0.0,0.0,0.0,0.0,0.0,0.0,0.0,12.402294,0.0,0.0,nan,0.0,0.0,0.0,0.0,0.0,0.0,0.0,0.0,1.0598375,1.0598408,1.0000491,0.0,0.0,0.0,0.0,0.0,0.0
11732000,11652000,0.090700865,0.09070084,0.20805612,1.0000758,1.0000758,1.0986066,0.0,0.0,0.0,0.0,0.0,0.0,0.0,12.385176,0.0,0.0,nan,0.0,0.0,0.0,0.0,0.0,0.0,0.0,0.0,1.0598614,1.0598648,1.0000484,0.0,0.0,0.0,0.0,0.0,0.0
12228000,12148000,0.09066449,0.09066452,0.20797043,1.0000703,1.0000703,1.0882231,0.0,0.0,0.0,0.0,0.0,0.0,0.0,12.384587,0.0,0.0,nan,0.0,0.0,0.0,0.0,0.0,0.0,0.0,0.0,1.0597632,1.0597667,1.0000473,0.0,0.0,0.0,0.0,0.0,0.0
12724000,12644000,0.090630874,0.09063091,0.20789585,1.0000654,1.0000654,1.0803837,0.0,0.0,0.0,0.0,0.0,0.0,0.0,12.383865,0.0,0.0,nan,0.0,0.0,0.0,0.0,0.0,0.0,0.0,0.0,1.0597689,1.059773,1.0000471,0.0,0.0,0.0,0.0,0.0,0.0
13228000,13148000,0.09091896,0.09091887,0.20773049,1.0001332,1.0001332,1.0697851,0.0,0.0,0.0,0.0,0.0,0.0,0.0,12.381262,0.0,0.0,nan,0.0,0.0,0.0,0.0,0.0,0.0,0.0,0.0,1.0596555,1.05966,1.0000467,0.0,0.0,0.0,0.0,0.0,0.0
13732000,13652000,0.090880066,0.09087995,0.20766817,1.0001239,1.0001239,1.0658822,0.0,0.0,0.0,0.0,0.0,0.0,0.0,12.382217,0.0,0.0,nan,0.0,0.0,0.0,0.0,0.0,0.0,0.0,0.0,1.0596583,1.0596621,1.0000464,0.0,0.0,0.0,0.0,0.0,0.0
14228000,14148000,0.090843506,0.09084338,0.20761232,1.0001153,1.0001153,1.0630188,0.0,0.0,0.0,0.0,0.0,0.0,0.0,12.384876,0.0,0.0,nan,0.0,0.0,0.0,0.0,0.0,0.0,0.0,0.0,1.0596571,1.0596614,1.0000461,0.0,0.0,0.0,0.0,0.0,0.0
14724000,14644000,0.09080856,0.090808414,0.2075548,1.0001073,1.0001073,1.0603627,0.0,0.0,0.0,0.0,0.0,0.0,0.0,12.38893,0.0,0.0,nan,0.0,0.0,0.0,0.0,0.0,0.0,0.0,0.0,1.0595515,1.0595556,1.000045,0.0,0.0,0.0,0.0,0.0,0.0
15228000,15148000,0.09074364,0.09074346,0.20744497,1.0000931,1.0000931,1.0562812,0.0,0.0,0.0,0.0,0.0,0.0,0.0,12.389947,0.0,0.0,nan,0.0,0.0,0.0,0.0,0.0,0.0,0.0,0.0,1.0595474,1.0595524,1.0000441,0.0,0.0,0.0,0.0,0.0,0.0
15724000,15644000,0.09072648,0.090726286,0.20742232,1.0000898,1.0000898,1.055061,0.0,0.0,0.0,0.0,0.0,0.0,0.0,12.390467,0.0,0.0,nan,0.0,0.0,0.0,0.0,0.0,0.0,0.0,0.0,1.0594528,1.0594581,1.0000423,0.0,0.0,0.0,0.0,0.0,0.0
16228000,16148000,0.090683185,0.09068299,0.20734525,1.0000808,1.0000808,1.0535883,0.0,0.0,0.0,0.0,0.0,0.0,0.0,12.393043,0.0,0.0,nan,0.0,0.0,0.0,0.0,0.0,0.0,0.0,0.0,1.0594634,1.059469,1.0000411,0.0,0.0,0.0,0.0,0.0,0.0
16732000,16652000,0.09066554,0.09066533,0.207949,1.000076,1.000076,1.0538124,0.0,0.0,0.0,0.0,0.0,0.0,0.0,12.39497,0.0,0.0,nan,0.0,0.0,0.0,0.0,0.0,0.0,0.0,0.0,1.059481,1.0594865,1.0000404,0.0,0.0,0.0,0.0,0.0,0.0
17228000,17148000,0.090610385,0.09061018,0.20784363,1.0000663,1.0000663,1.051925,0.0,0.0,0.0,0.0,0.0,0.0,0.0,12.3969965,0.0,0.0,nan,0.0,0.0,0.0,0.0,0.0,0.0,0.0,0.0,1.0594257,1.059433,1.0000405,0.0,0.0,0.0,0.0,0.0,0.0
17724000,17644000,0.09058408,0.09058388,0.20779693,1.0000619,1.0000619,1.0513687,0.0,0.0,0.0,0.0,0.0,0.0,0.0,12.396587,0.0,0.0,nan,0.0,0.0,0.0,0.0,0.0,0.0,0.0,0.0,1.0594516,1.0594598,1.0000398,0.0,0.0,0.0,0.0,0.0,0.0
18228000,18148000,0.090570755,0.09057057,0.20777269,1.0000598,1.0000598,1.0508074,0.0,0.0,0.0,0.0,0.0,0.0,0.0,12.398319,0.0,0.0,nan,0.0,0.0,0.0,0.0,0.0,0.0,0.0,0.0,1.0593889,1.0593984,1.0000387,0.0,0.0,0.0,0.0,0.0,0.0
18724000,18644000,0.090863675,0.09086331,0.20769477,1.0001286,1.0001286,1.0500727,0.0,0.0,0.0,0.0,0.0,0.0,0.0,12.399578,0.0,0.0,nan,0.0,0.0,0.0,0.0,0.0,0.0,0.0,0.0,1.0593942,1.0594059,1.0000381,0.0,0.0,0.0,0.0,0.0,0.0
19228000,19148000,0.090817556,0.09081724,0.20762166,1.0001162,1.0001161,1.0491693,0.0,0.0,0.0,0.0,0.0,0.0,0.0,12.401541,0.0,0.0,nan,0.0,0.0,0.0,0.0,0.0,0.0,0.0,0.0,1.0594149,1.0594273,1.0000373,0.0,0.0,0.0,0.0,0.0,0.0
19724000,19644000,0.090788625,0.09078839,0.2075767,1.0001086,1.0001086,1.0487326,0.0,0.0,0.0,0.0,0.0,0.0,0.0,12.401626,0.0,0.0,nan,0.0,0.0,0.0,0.0,0.0,0.0,0.0,0.0,1.0593617,1.059376,1.0000365,0.0,0.0,0.0,0.0,0.0,0.0
20228000,20148000,0.0907469,0.09074673,0.20750101,1.0000981,1.0000981,1.0484091,0.0,0.0,0.0,0.0,0.0,0.0,0.0,12.401761,0.0,0.0,nan,0.0,0.0,0.0,0.0,0.0,0.0,0.0,0.0,1.0593746,1.05939,1.000036,0.0,0.0,0.0,0.0,0.0,0.0
20732000,20652000,0.090732515,0.09073241,0.20747897,1.0000948,1.0000948,1.0481738,0.0,0.0,0.0,0.0,0.0,0.0,0.0,12.404159,0.0,0.0,nan,0.0,0.0,0.0,0.0,0.0,0.0,0.0,0.0,1.0593164,1.0593333,1.0000347,0.0,0.0,0.0,0.0,0.0,0.0
21228000,21148000,0.09066567,0.090665594,0.20735948,1.00008,1.00008,1.0476091,0.0,0.0,0.0,0.0,0.0,0.0,0.0,12.401892,0.0,0.0,nan,0.0,0.0,0.0,0.0,0.0,0.0,0.0,0.0,1.0593265,1.0593444,1.0000343,0.0,0.0,0.0,0.0,0.0,0.0
21724000,21644000,0.09065015,0.090650074,0.20796953,1.0000753,1.0000753,1.0487707,0.0,0.0,0.0,0.0,0.0,0.0,0.0,12.403808,0.0,0.0,nan,0.0,0.0,0.0,0.0,0.0,0.0,0.0,0.0,1.0593462,1.0593652,1.0000346,0.0,0.0,0.0,0.0,0.0,0.0
22228000,22148000,0.09062458,0.09062452,0.20791811,1.0000703,1.0000703,1.048493,0.0,0.0,0.0,0.0,0.0,0.0,0.0,12.404782,0.0,0.0,nan,0.0,0.0,0.0,0.0,0.0,0.0,0.0,0.0,1.0592992,1.0593193,1.0000353,0.0,0.0,0.0,0.0,0.0,0.0
22724000,22644000,0.0905993,0.090599254,0.20786674,1.0000658,1.0000658,1.0482349,0.0,0.0,0.0,0.0,0.0,0.0,0.0,12.404794,0.0,0.0,nan,0.0,0.0,0.0,0.0,0.0,0.0,0.0,0.0,1.0593162,1.0593367,1.0000347,0.0,0.0,0.0,0.0,0.0,0.0
23228000,23148000,0.09056197,0.09056192,0.20779608,1.0000595,1.0000595,1.0478808,0.0,0.0,0.0,0.0,0.0,0.0,0.0,12.406552,0.0,0.0,nan,0.0,0.0,0.0,0.0,0.0,0.0,0.0,0.0,1.059289,1.0593094,1.0000347,0.0,0.0,0.0,0.0,0.0,0.0
23724000,23644000,0.090846784,0.090846635,0.20771728,1.0001273,1.0001273,1.0477192,0.0,0.0,0.0,0.0,0.0,0.0,0.0,12.404705,0.0,0.0,nan,0.0,0.0,0.0,0.0,0.0,0.0,0.0,0.0,1.0593202,1.0593406,1.000034,0.0,0.0,0.0,0.0,0.0,0.0
24228000,24148000,0.090818875,0.090818666,0.20766662,1.0001191,1.0001191,1.0475134,0.0,0.0,0.0,0.0,0.0,0.0,0.0,12.405713,0.0,0.0,nan,0.0,0.0,0.0,0.0,0.0,0.0,0.0,0.0,1.0593506,1.059371,1.0000333,0.0,0.0,0.0,0.0,0.0,0.0
24732000,24652000,0.090791434,0.09079118,0.20761617,1.0001115,1.0001115,1.0473189,0.0,0.0,0.0,0.0,0.0,0.0,0.0,12.405978,0.0,0.0,nan,0.0,0.0,0.0,0.0,0.0,0.0,0.0,0.0,1.0593054,1.0593259,1.0000327,0.0,0.0,0.0,0.0,0.0,0.0
25228000,25148000,0.0907503,0.0907501,0.20754221,1.0001007,1.0001007,1.0470738,0.0,0.0,0.0,0.0,0.0,0.0,0.0,12.406666,0.0,0.0,nan,0.0,0.0,0.0,0.0,0.0,0.0,0.0,0.0,1.0593183,1.0593388,1.0000327,0.0,0.0,0.0,0.0,0.0,0.0
25732000,25652000,0.09072378,0.09072363,0.20749602,1.0000942,1.0000942,1.0470755,0.0,0.0,0.0,0.0,0.0,0.0,0.0,12.406618,0.0,0.0,nan,0.0,0.0,0.0,0.0,0.0,0.0,0.0,0.0,1.0592849,1.0593066,1.0000331,0.0,0.0,0.0,0.0,0.0,0.0
26228000,26148000,0.090685055,0.09068492,0.2074194,1.0000851,1.0000851,1.0467856,0.0,0.0,0.0,0.0,0.0,0.0,0.0,12.406381,0.0,0.0,nan,0.0,0.0,0.0,0.0,0.0,0.0,0.0,0.0,1.0593034,1.059325,1.000033,0.0,0.0,0.0,0.0,0.0,0.0
26732000,26652000,0.090671875,0.09067176,0.20739558,1.0000824,1.0000823,1.046736,0.0,0.0,0.0,0.0,0.0,0.0,0.0,12.40747,0.0,0.0,nan,0.0,0.0,0.0,0.0,0.0,0.0,0.0,0.0,1.0592791,1.0593003,1.0000331,0.0,0.0,0.0,0.0,0.0,0.0
27228000,27148000,0.090631746,0.09063165,0.20795925,1.0000726,1.0000725,1.0479983,0.0,0.0,0.0,0.0,0.0,0.0,0.0,12.405668,0.0,0.0,nan,0.0,0.0,0.0,0.0,0.0,0.0,0.0,0.0,1.0593112,1.0593317,1.000033,0.0,0.0,0.0,0.0,0.0,0.0
27732000,27652000,0.09059496,0.09059485,0.20788246,1.0000656,1.0000656,1.0476832,0.0,0.0,0.0,0.0,0.0,0.0,0.0,12.406673,0.0,0.0,nan,0.0,0.0,0.0,0.0,0.0,0.0,0.0,0.0,1.0593485,1.0593691,1.000033,0.0,0.0,0.0,0.0,0.0,0.0
28228000,28148000,0.09057062,0.090570524,0.2078295,1.0000614,1.0000614,1.0476903,0.0,0.0,0.0,0.0,0.0,0.0,0.0,12.407459,0.0,0.0,nan,0.0,0.0,0.0,0.0,0.0,0.0,0.0,0.0,1.059342,1.0593624,1.0000335,0.0,0.0,0.0,0.0,0.0,0.0
28732000,28652000,0.09086789,0.0908677,0.20777687,1.0001353,1.0001353,1.0475186,0.0,0.0,0.0,0.0,0.0,0.0,0.0,12.4071,0.0,0.0,nan,0.0,0.0,0.0,0.0,0.0,0.0,0.0,0.0,1.059384,1.0594043,1.0000336,0.0,0.0,0.0,0.0,0.0,0.0
29228000,29148000,0.09081288,0.09081271,0.20767388,1.0001186,1.0001186,1.0472077,0.0,0.0,0.0,0.0,0.0,0.0,0.0,12.405571,0.0,0.0,nan,0.0,0.0,0.0,0.0,0.0,0.0,0.0,0.0,1.0593662,1.0593871,1.0000343,0.0,0.0,0.0,0.0,0.0,0.0
29732000,29652000,0.09078608,0.090785936,0.20762251,1.0001111,1.000111,1.0470601,0.0,0.0,0.0,0.0,0.0,0.0,0.0,12.406693,0.0,0.0,nan,0.0,0.0,0.0,0.0,0.0,0.0,0.0,0.0,1.0593942,1.0594153,1.0000347,0.0,0.0,0.0,0.0,0.0,0.0
30228000,30148000,0.09077274,0.09077262,0.20759757,1.0001074,1.0001074,1.0470309,0.0,0.0,0.0,0.0,0.0,0.0,0.0,12.407256,0.0,0.0,nan,0.0,0.0,0.0,0.0,0.0,0.0,0.0,0.0,1.059414,1.0594352,1.0000349,0.0,0.0,0.0,0.0,0.0,0.0
30732000,30652000,0.0907335,0.090733394,0.20752329,1.0000972,1.0000972,1.0469364,0.0,0.0,0.0,0.0,0.0,0.0,0.0,12.407803,0.0,0.0,nan,0.0,0.0,0.0,0.0,0.0,0.0,0.0,0.0,1.0593623,1.0593847,1.0000354,0.0,0.0,0.0,0.0,0.0,0.0
31228000,31148000,0.09068206,0.09068199,0.20742115,1.000085,1.000085,1.046646,0.0,0.0,0.0,0.0,0.0,0.0,0.0,12.406206,0.0,0.0,nan,0.0,0.0,0.0,0.0,0.0,0.0,0.0,0.0,1.0593661,1.0593892,1.0000355,0.0,0.0,0.0,0.0,0.0,0.0
31732000,31652000,0.090669334,0.09066926,0.20739631,1.0000821,1.0000821,1.0466166,0.0,0.0,0.0,0.0,0.0,0.0,0.0,12.40721,0.0,0.0,nan,0.0,0.0,0.0,0.0,0.0,0.0,0.0,0.0,1.0593188,1.0593429,1.0000356,0.0,0.0,0.0,0.0,0.0,0.0
32228000,32148000,0.09064226,0.09064218,0.20798513,1.000075,1.000075,1.0479575,0.0,0.0,0.0,0.0,0.0,0.0,0.0,12.406718,0.0,0.0,nan,0.0,0.0,0.0,0.0,0.0,0.0,0.0,0.0,1.0593243,1.0593493,1.0000354,0.0,0.0,0.0,0.0,0.0,0.0
32732000,32652000,0.092702985,0.09270348,0.20795465,1.0001805,1.0001805,1.0477402,0.0,0.0,0.0,0.0,0.0,0.0,0.0,12.410869,0.0,0.0,nan,0.0,0.0,0.0,0.0,0.0,0.0,0.0,0.0,1.0594614,1.0594862,1.0000356,0.0,0.0,0.0,0.0,0.0,0.0
33228000,33148000,0.14729908,0.14732228,0.21092315,1.0141984,1.0142032,1.0563672,0.0,0.0,0.0,0.0,0.0,0.0,0.0,12.415457,0.0,0.0,nan,0.0,0.0,0.0,0.0,0.0,0.0,0.0,0.0,1.0595932,1.0596178,1.000036,0.0,0.0,0.0,0.0,0.0,0.0
33732000,33652000,0.20447281,0.20452005,0.21265446,1.0552746,1.0552953,1.0631441,0.0,0.0,0.0,0.0,0.0,0.0,0.0,12.423959,0.0,0.0,nan,0.0,0.0,0.0,0.0,0.0,0.0,0.0,0.0,1.0596989,1.0597229,1.0000361,0.0,0.0,0.0,0.0,0.0,0.0
34228000,34148000,0.27966207,0.27973986,0.2144189,1.1507866,1.1508445,1.0716326,0.0,0.0,0.0,0.0,0.0,0.0,0.0,12.434844,0.0,0.0,nan,0.0,0.0,0.0,0.0,0.0,0.0,0.0,0.0,1.0595769,1.0595987,1.0000361,0.0,0.0,0.0,0.0,0.0,0.0
34724000,34644000,0.3709326,0.37104246,0.21606748,1.3310819,1.3312061,1.0807637,0.0,0.0,0.0,0.0,0.0,0.0,0.0,12.448138,0.0,0.0,nan,0.0,0.0,0.0,0.0,0.0,0.0,0.0,0.0,1.0592465,1.0592657,1.0000354,0.0,0.0,0.0,0.0,0.0,0.0
35228000,35148000,0.6063132,0.6065453,0.21895675,2.1285295,2.1288838,1.1021886,0.0,0.0,0.0,0.0,0.0,0.0,0.0,12.455607,0.0,0.0,nan,0.0,0.0,0.0,0.0,0.0,0.0,0.0,0.0,1.0584937,1.0582666,1.0002426,0.0,0.0,0.0,0.0,0.0,0.0
35732000,35652000,0.7476243,0.74803555,0.21993405,2.8227134,2.823326,1.1129396,0.0,0.0,0.0,0.0,0.0,0.0,0.0,12.467253,0.0,0.0,nan,0.0,0.0,0.0,0.0,0.0,0.0,0.0,0.0,1.055968,1.05598,1.0000386,0.0,0.0,0.0,0.0,0.0,0.0
36228000,36148000,0.89431,0.89475596,0.22077717,3.7685657,3.7696548,1.123482,0.0,0.0,0.0,0.0,0.0,0.0,0.0,12.482822,0.0,0.0,nan,0.0,0.0,0.0,0.0,0.0,0.0,0.0,0.0,1.0532129,1.0531664,1.0001096,0.0,0.0,0.0,0.0,0.0,0.0
36724000,36644000,1.009811,1.0102439,0.22137593,4.868867,4.8706026,1.1314715,0.0,0.0,0.0,0.0,0.0,0.0,0.0,12.497064,0.0,0.0,nan,0.0,0.0,0.0,0.0,0.0,0.0,0.0,0.0,1.0471611,1.0471119,1.0001047,0.0,0.0,0.0,0.0,0.0,0.0
37228000,37148000,1.1539106,1.1542525,0.2217249,7.3855567,7.388558,1.1459999,0.0,0.0,0.0,0.0,0.0,0.0,0.0,12.489684,0.0,0.0,nan,0.0,0.0,0.0,0.0,0.0,0.0,0.0,0.0,1.0421797,1.0421569,1.0000733,0.0,0.0,0.0,0.0,0.0,0.0
37732000,37652000,1.1658796,1.166127,0.22160357,8.552628,8.555637,1.1500838,0.0,0.0,0.0,0.0,0.0,0.0,0.0,12.498009,0.0,0.0,nan,0.0,0.0,0.0,0.0,0.0,0.0,0.0,0.0,1.0368115,1.0368053,1.0000424,0.0,0.0,0.0,0.0,0.0,0.0
38228000,38148000,1.1403825,1.1405095,0.22136652,9.5262575,9.528672,1.1527075,0.0,0.0,0.0,0.0,0.0,0.0,0.0,12.508154,0.0,0.0,nan,0.0,0.0,0.0,0.0,0.0,0.0,0.0,0.0,1.0287901,1.0287895,1.0000209,0.0,0.0,0.0,0.0,0.0,0.0
38732000,38652000,1.0864474,1.0864652,0.22124343,10.257486,10.258944,1.1560817,0.0,0.0,0.0,0.0,0.0,0.0,0.0,12.514206,0.0,0.0,nan,0.0,0.0,0.0,0.0,0.0,0.0,0.0,0.0,1.0240589,1.0240508,1.0000138,0.0,0.0,0.0,0.0,0.0,0.0
39228000,39148000,1.0305306,1.030354,0.2207642,12.182068,12.181285,1.1571648,0.0,0.0,0.0,0.0,0.0,0.0,0.0,12.519422,0.0,0.0,nan,0.0,0.0,0.0,0.0,0.0,0.0,0.0,0.0,1.0180764,1.0180684,1.0000112,0.0,0.0,0.0,0.0,0.0,0.0
39724000,39644000,0.9393573,0.9391464,0.22065954,12.249183,12.247551,1.1557844,0.0,0.0,0.0,0.0,0.0,0.0,0.0,12.504175,0.0,0.0,nan,0.0,0.0,0.0,0.0,0.0,0.0,0.0,0.0,1.0149941,1.0149897,1.0000074,0.0,0.0,0.0,0.0,0.0,0.0
40228000,40148000,0.8542385,0.85402715,0.22056901,12.248114,12.245894,1.155693,0.0,0.0,0.0,0.0,0.0,0.0,0.0,12.507533,0.0,0.0,nan,0.0,0.0,0.0,0.0,0.0,0.0,0.0,0.0,1.0125238,1.012519,1.0000061,0.0,0.0,0.0,0.0,0.0,0.0
40732000,40652000,0.7733489,0.7731526,0.22047408,12.079811,12.077332,1.1566669,0.0,0.0,0.0,0.0,0.0,0.0,0.0,12.513602,0.0,0.0,nan,0.0,0.0,0.0,0.0,0.0,0.0,0.0,0.0,1.0096586,1.0096558,1.0000054,0.0,0.0,0.0,0.0,0.0,0.0
41228000,41148000,0.63547397,0.6353333,0.22045422,11.5400305,11.537697,1.1548774,0.0,0.0,0.0,0.0,0.0,0.0,0.0,12.516262,0.0,0.0,nan,0.0,0.0,0.0,0.0,0.0,0.0,0.0,0.0,1.0083131,1.0083114,1.0000057,0.0,0.0,0.0,0.0,0.0,0.0
41724000,41644000,0.57778823,0.5776758,0.22058374,11.18585,11.183775,1.1552602,0.0,0.0,0.0,0.0,0.0,0.0,0.0,12.502836,0.0,0.0,nan,0.0,0.0,0.0,0.0,0.0,0.0,0.0,0.0,1.0067489,1.006747,1.0000042,0.0,0.0,0.0,0.0,0.0,0.0
42228000,42148000,0.5265721,0.52648234,0.22064966,10.857337,10.855529,1.1545659,0.0,0.0,0.0,0.0,0.0,0.0,0.0,12.50559,0.0,0.0,nan,0.0,0.0,0.0,0.0,0.0,0.0,0.0,0.0,1.0060657,1.0060637,1.0000038,0.0,0.0,0.0,0.0,0.0,0.0
42724000,42644000,0.48305994,0.48298758,0.22073258,10.527133,10.525594,1.1540005,0.0,0.0,0.0,0.0,0.0,0.0,0.0,12.513657,0.0,0.0,nan,0.0,0.0,0.0,0.0,0.0,0.0,0.0,0.0,1.0055536,1.0055519,1.0000036,0.0,0.0,0.0,0.0,0.0,0.0
43228000,43148000,0.41390514,0.41385734,0.22103658,9.890485,9.889412,1.152966,0.0,0.0,0.0,0.0,0.0,0.0,0.0,12.516542,0.0,0.0,nan,0.0,0.0,0.0,0.0,0.0,0.0,0.0,0.0,1.0049174,1.0049142,1.0000092,0.0,0.0,0.0,0.0,0.0,0.0
43732000,43652000,0.3863644,0.38629904,0.2211125,9.59094,9.590045,1.1545768,0.0,0.0,0.0,0.0,0.0,0.0,0.0,12.502261,0.0,0.0,nan,0.0,0.0,0.0,0.0,0.0,0.0,0.0,0.0,1.0045398,1.0045521,1.0003182,0.0,0.0,0.0,0.0,0.0,0.0
44228000,44148000,0.3864941,0.3859043,0.21987861,10.05888,10.0579,1.1540358,0.0,0.0,0.0,0.0,0.0,0.0,0.0,12.505302,0.0,0.0,nan,0.0,0.0,0.0,0.0,0.0,0.0,0.0,0.0,1.003835,1.0042522,1.0006273,0.0,0.0,0.0,0.0,0.0,0.0
44732000,44652000,0.36817047,0.36568877,0.21816279,9.769507,9.768161,1.1528301,0.0,0.0,0.0,0.0,0.0,0.0,0.0,12.509114,0.0,0.0,nan,0.0,0.0,0.0,0.0,0.0,0.0,0.0,0.0,1.0035892,1.0042261,1.0006394,0.0,0.0,0.0,0.0,0.0,0.0
45228000,45148000,0.34123868,0.334314,0.21552955,9.210419,9.204541,1.1464896,0.0,0.0,0.0,0.0,0.0,0.0,0.0,12.491034,0.0,0.0,nan,0.0,0.0,0.0,0.0,0.0,0.0,0.0,0.0,1.003716,1.0040811,1.0004238,0.0,0.0,0.0,0.0,0.0,0.0
45724000,45644000,0.32939827,0.32311827,0.2143822,8.963242,8.953018,1.1427823,0.0,0.0,0.0,0.0,0.0,0.0,0.0,12.489851,0.0,0.0,nan,0.0,0.0,0.0,0.0,0.0,0.0,0.0,0.0,1.0038234,1.0039372,1.0001246,0.0,0.0,0.0,0.0,0.0,0.0
46228000,46148000,0.31790563,0.31346765,0.21343184,8.716118,8.70169,1.1384116,0.0,0.0,0.0,0.0,0.0,0.0,0.0,12.489568,0.0,0.0,nan,0.0,0.0,0.0,0.0,0.0,0.0,0.0,0.0,1.0037941,1.003942,1.0001428,0.0,0.0,0.0,0.0,0.0,0.0
46724000,46644000,0.30889964,0.30595562,0.21292931,8.506764,8.488976,1.1346713,0.0,0.0,0.0,0.0,0.0,0.0,0.0,12.4895735,0.0,0.0,nan,0.0,0.0,0.0,0.0,0.0,0.0,0.0,0.0,1.0037246,1.0038921,1.0001429,0.0,0.0,0.0,0.0,0.0,0.0
47228000,47148000,0.29618144,0.2951758,0.21303241,8.13566,8.11476,1.1292237,0.0,0.0,0.0,0.0,0.0,0.0,0.0,12.476874,0.0,0.0,nan,0.0,0.0,0.0,0.0,0.0,0.0,0.0,0.0,1.003765,1.0039623,1.0001498,0.0,0.0,0.0,0.0,0.0,0.0
47724000,47644000,0.29201648,0.29154265,0.21347651,7.971937,7.951023,1.1265789,0.0,0.0,0.0,0.0,0.0,0.0,0.0,12.477825,0.0,0.0,nan,0.0,0.0,0.0,0.0,0.0,0.0,0.0,0.0,1.0038303,1.0040498,1.0001532,0.0,0.0,0.0,0.0,0.0,0.0
48228000,48148000,0.28911114,0.28897646,0.21419252,7.821903,7.801817,1.1246628,0.0,0.0,0.0,0.0,0.0,0.0,0.0,12.479615,0.0,0.0,nan,0.0,0.0,0.0,0.0,0.0,0.0,0.0,0.0,1.0038515,1.0040895,1.0001569,0.0,0.0,0.0,0.0,0.0,0.0
48724000,48644000,0.2876637,0.2877413,0.21499917,7.700363,7.681498,1.1240665,0.0,0.0,0.0,0.0,0.0,0.0,0.0,12.482503,0.0,0.0,nan,0.0,0.0,0.0,0.0,0.0,0.0,0.0,0.0,1.0039479,1.0042123,1.0001694,0.0,0.0,0.0,0.0,0.0,0.0
49228000,49148000,0.29606372,0.2964317,0.2169804,7.891444,7.8743253,1.125343,0.0,0.0,0.0,0.0,0.0,0.0,0.0,12.4733925,0.0,0.0,nan,0.0,0.0,0.0,0.0,0.0,0.0,0.0,0.0,1.0040128,1.0042884,1.0001644,0.0,0.0,0.0,0.0,0.0,0.0
49732000,49652000,0.2971593,0.2976963,0.21806677,7.7935123,7.779068,1.127437,0.0,0.0,0.0,0.0,0.0,0.0,0.0,12.478442,0.0,0.0,nan,0.0,0.0,0.0,0.0,0.0,0.0,0.0,0.0,1.0041621,1.0044422,1.0001557,0.0,0.0,0.0,0.0,0.0,0.0
50228000,50148000,0.29834944,0.2990151,0.21901193,7.676436,7.6649833,1.1291032,0.0,0.0,0.0,0.0,0.0,0.0,0.0,12.487043,0.0,0.0,nan,0.0,0.0,0.0,0.0,0.0,0.0,0.0,0.0,1.0043008,1.004602,1.000164,0.0,0.0,0.0,0.0,0.0,0.0
50724000,50644000,0.3007415,0.30144346,0.22003776,7.587145,7.578857,1.1318519,0.0,0.0,0.0,0.0,0.0,0.0,0.0,12.493668,0.0,0.0,nan,0.0,0.0,0.0,0.0,0.0,0.0,0.0,0.0,1.0043863,1.0047027,1.0001675,0.0,0.0,0.0,0.0,0.0,0.0
51228000,51148000,0.3080833,0.30848092,0.22158457,7.457419,7.4554,1.1403818,0.0,0.0,0.0,0.0,0.0,0.0,0.0,12.48694,0.0,0.0,nan,0.0,0.0,0.0,0.0,0.0,0.0,0.0,0.0,1.0045451,1.0048813,1.0001744,0.0,0.0,0.0,0.0,0.0,0.0
51724000,51644000,0.31210524,0.31213978,0.2221647,7.3855357,7.3861375,1.1428463,0.0,0.0,0.0,0.0,0.0,0.0,0.0,12.494287,0.0,0.0,nan,0.0,0.0,0.0,0.0,0.0,0.0,0.0,0.0,1.0046393,1.0049869,1.0001746,0.0,0.0,0.0,0.0,0.0,0.0
52228000,52148000,0.31710947,0.31660953,0.22251894,7.338831,7.3415504,1.1475176,0.0,0.0,0.0,0.0,0.0,0.0,0.0,12.500946,0.0,0.0,nan,0.0,0.0,0.0,0.0,0.0,0.0,0.0,0.0,1.00481,1.005172,1.0001768,0.0,0.0,0.0,0.0,0.0,0.0
52724000,52644000,0.32304978,0.321819,0.22277972,7.316842,7.320951,1.1508653,0.0,0.0,0.0,0.0,0.0,0.0,0.0,12.511286,0.0,0.0,nan,0.0,0.0,0.0,0.0,0.0,0.0,0.0,0.0,1.004975,1.0053538,1.0001818,0.0,0.0,0.0,0.0,0.0,0.0
53228000,53148000,0.3345611,0.33146027,0.22288585,7.2524233,7.2562213,1.1537528,0.0,0.0,0.0,0.0,0.0,0.0,0.0,12.517427,0.0,0.0,nan,0.0,0.0,0.0,0.0,0.0,0.0,0.0,0.0,1.0050646,1.0054533,1.0001831,0.0,0.0,0.0,0.0,0.0,0.0
53732000,53652000,0.34151286,0.33723152,0.22282988,7.255208,7.257134,1.1557137,0.0,0.0,0.0,0.0,0.0,0.0,0.0,12.504591,0.0,0.0,nan,0.0,0.0,0.0,0.0,0.0,0.0,0.0,0.0,1.0052346,1.0056351,1.0001848,0.0,0.0,0.0,0.0,0.0,0.0
54228000,54148000,0.34810495,0.34251758,0.22264741,7.249217,7.248046,1.1584027,0.0,0.0,0.0,0.0,0.0,0.0,0.0,12.508652,0.0,0.0,nan,0.0,0.0,0.0,0.0,0.0,0.0,0.0,0.0,1.0053022,1.0057079,1.0001849,0.0,0.0,0.0,0.0,0.0,0.0
54724000,54644000,0.35475218,0.34776112,0.22243202,7.2492704,7.243772,1.1586945,0.0,0.0,0.0,0.0,0.0,0.0,0.0,12.51623,0.0,0.0,nan,0.0,0.0,0.0,0.0,0.0,0.0,0.0,0.0,1.0054591,1.0058708,1.0001836,0.0,0.0,0.0,0.0,0.0,0.0
55228000,55148000,0.3796486,0.36927253,0.22198616,7.68659,7.6664057,1.1583446,0.0,0.0,0.0,0.0,0.0,0.0,0.0,12.52047,0.0,0.0,nan,0.0,0.0,0.0,0.0,0.0,0.0,0.0,0.0,1.0055107,1.0059205,1.0001802,0.0,0.0,0.0,0.0,0.0,0.0
55724000,55644000,0.38583127,0.37384012,0.22188489,7.6863914,7.657791,1.159123,0.0,0.0,0.0,0.0,0.0,0.0,0.0,12.505996,0.0,0.0,nan,0.0,0.0,0.0,0.0,0.0,0.0,0.0,0.0,1.0056479,1.006065,1.0001837,0.0,0.0,0.0,0.0,0.0,0.0
56228000,56148000,0.39301726,0.3793484,0.22174922,7.725376,7.6866713,1.1592087,0.0,0.0,0.0,0.0,0.0,0.0,0.0,12.510363,0.0,0.0,nan,0.0,0.0,0.0,0.0,0.0,0.0,0.0,0.0,1.0057833,1.0062083,1.0001897,0.0,0.0,0.0,0.0,0.0,0.0
56724000,56644000,0.39930528,0.38405523,0.2215657,7.748741,7.6994452,1.1583085,0.0,0.0,0.0,0.0,0.0,0.0,0.0,12.514611,0.0,0.0,nan,0.0,0.0,0.0,0.0,0.0,0.0,0.0,0.0,1.0057881,1.0062041,1.0001873,0.0,0.0,0.0,0.0,0.0,0.0
57228000,57148000,0.41001272,0.3919752,0.221378,7.779919,7.708812,1.1576288,0.0,0.0,0.0,0.0,0.0,0.0,0.0,12.50069,0.0,0.0,nan,0.0,0.0,0.0,0.0,0.0,0.0,0.0,0.0,1.0059155,1.0063249,1.0001823,0.0,0.0,0.0,0.0,0.0,0.0
57724000,57644000,0.41567016,0.3962666,0.22133619,7.82391,7.7408013,1.1574447,0.0,0.0,0.0,0.0,0.0,0.0,0.0,12.502427,0.0,0.0,nan,0.0,0.0,0.0,0.0,0.0,0.0,0.0,0.0,1.0058975,1.0062839,1.0001739,0.0,0.0,0.0,0.0,0.0,0.0
58228000,58148000,0.4201874,0.39956388,0.22126395,7.8478355,7.753445,1.1565765,0.0,0.0,0.0,0.0,0.0,0.0,0.0,12.508672,0.0,0.0,nan,0.0,0.0,0.0,0.0,0.0,0.0,0.0,0.0,1.0059987,1.006382,1.0001774,0.0,0.0,0.0,0.0,0.0,0.0
58724000,58644000,0.42343357,0.4018965,0.22116283,7.8503737,7.745854,1.155122,0.0,0.0,0.0,0.0,0.0,0.0,0.0,12.512313,0.0,0.0,nan,0.0,0.0,0.0,0.0,0.0,0.0,0.0,0.0,1.0060854,1.0064662,1.0001824,0.0,0.0,0.0,0.0,0.0,0.0
59228000,59148000,0.4291803,0.4066533,0.22126931,7.886311,7.7625275,1.1558878,0.0,0.0,0.0,0.0,0.0,0.0,0.0,12.496995,0.0,0.0,nan,0.0,0.0,0.0,0.0,0.0,0.0,0.0,0.0,1.0060247,1.0063869,1.0001845,0.0,0.0,0.0,0.0,0.0,0.0
59724000,59644000,0.43169743,0.40907764,0.22131252,7.9191513,7.7864647,1.1561036,0.0,0.0,0.0,0.0,0.0,0.0,0.0,12.501324,0.0,0.0,nan,0.0,0.0,0.0,0.0,0.0,0.0,0.0,0.0,1.0061015,1.0064515,1.0001838,0.0,0.0,0.0,0.0,0.0,0.0
60228000,60148000,0.4501024,0.42611605,0.22129598,8.445448,8.2846775,1.1555418,0.0,0.0,0.0,0.0,0.0,0.0,0.0,12.507802,0.0,0.0,nan,0.0,0.0,0.0,0.0,0.0,0.0,0.0,0.0,1.0060334,1.0063472,1.0001732,0.0,0.0,0.0,0.0,0.0,0.0
60724000,60644000,0.4511581,0.42740703,0.22128174,8.454264,8.287163,1.1550317,0.0,0.0,0.0,0.0,0.0,0.0,0.0,12.512361,0.0,0.0,nan,0.0,0.0,0.0,0.0,0.0,0.0,0.0,0.0,1.0060949,1.0063959,1.0001746,0.0,0.0,0.0,0.0,0.0,0.0
61228000,61148000,0.45149764,0.42891926,0.22140296,8.457251,8.28249,1.1560544,0.0,0.0,0.0,0.0,0.0,0.0,0.0,12.499373,0.0,0.0,nan,0.0,0.0,0.0,0.0,0.0,0.0,0.0,0.0,1.0061575,1.006446,1.0001764,0.0,0.0,0.0,0.0,0.0,0.0
61732000,61652000,0.4501225,0.428599,0.22146995,8.42953,8.25454,1.1548066,0.0,0.0,0.0,0.0,0.0,0.0,0.0,12.503828,0.0,0.0,nan,0.0,0.0,0.0,0.0,0.0,0.0,0.0,0.0,1.0060567,1.0063181,1.0001765,0.0,0.0,0.0,0.0,0.0,0.0
62228000,62148000,0.4496073,0.42929834,0.22149454,8.44036,8.264856,1.1570098,0.0,0.0,0.0,0.0,0.0,0.0,0.0,12.5082445,0.0,0.0,nan,0.0,0.0,0.0,0.0,0.0,0.0,0.0,0.0,1.0062072,1.0063516,1.0000768,0.0,0.0,0.0,0.0,0.0,0.0
62724000,62644000,0.4489843,0.42852893,0.22142808,8.403299,8.23052,1.1557305,0.0,0.0,0.0,0.0,0.0,0.0,0.0,12.515703,0.0,0.0,nan,0.0,0.0,0.0,0.0,0.0,0.0,0.0,0.0,1.0061572,1.0061971,1.0000129,0.0,0.0,0.0,0.0,0.0,0.0
63228000,63148000,0.45877948,0.4304339,0.22182307,8.395311,8.216766,1.1555372,0.0,0.0,0.0,0.0,0.0,0.0,0.0,12.519605,0.0,0.0,nan,0.0,0.0,0.0,0.0,0.0,0.0,0.0,0.0,1.0061964,1.006217,1.0000225,0.0,0.0,0.0,0.0,0.0,0.0
63724000,63644000,0.46260947,0.43118182,0.22193255,8.381265,8.196248,1.1571065,0.0,0.0,0.0,0.0,0.0,0.0,0.0,12.504712,0.0,0.0,nan,0.0,0.0,0.0,0.0,0.0,0.0,0.0,0.0,1.0062252,1.0062283,1.000036,0.0,0.0,0.0,0.0,0.0,0.0
64228000,64148000,0.46558884,0.43196893,0.22203979,8.366831,8.173845,1.1567807,0.0,0.0,0.0,0.0,0.0,0.0,0.0,12.507856,0.0,0.0,nan,0.0,0.0,0.0,0.0,0.0,0.0,0.0,0.0,1.0061013,1.0060778,1.0000421,0.0,0.0,0.0,0.0,0.0,0.0
64724000,64644000,0.46638295,0.43168604,0.22206374,8.329214,8.129166,1.1558361,0.0,0.0,0.0,0.0,0.0,0.0,0.0,12.512866,0.0,0.0,nan,0.0,0.0,0.0,0.0,0.0,0.0,0.0,0.0,1.0061349,1.0060636,1.0000806,0.0,0.0,0.0,0.0,0.0,0.0
65228000,65148000,0.49709234,0.44171175,0.22142656,8.872532,8.615364,1.1574341,0.0,0.0,0.0,0.0,0.0,0.0,0.0,12.49845,0.0,0.0,nan,0.0,0.0,0.0,0.0,0.0,0.0,0.0,0.0,1.0059974,1.0055465,1.0004667,0.0,0.0,0.0,0.0,0.0,0.0
65732000,65652000,0.50098896,0.43597785,0.21961561,8.884029,8.598066,1.1565121,0.0,0.0,0.0,0.0,0.0,0.0,0.0,12.501547,0.0,0.0,nan,0.0,0.0,0.0,0.0,0.0,0.0,0.0,0.0,1.0059469,1.0059471,1.000065,0.0,0.0,0.0,0.0,0.0,0.0
66228000,66148000,0.49347106,0.43383038,0.2180716,8.866209,8.554071,1.1536015,0.0,0.0,0.0,0.0,0.0,0.0,0.0,12.506283,0.0,0.0,nan,0.0,0.0,0.0,0.0,0.0,0.0,0.0,0.0,1.0056727,1.005809,1.000259,0.0,0.0,0.0,0.0,0.0,0.0
66732000,66652000,0.48754334,0.4284985,0.2171504,8.816369,8.48658,1.149445,0.0,0.0,0.0,0.0,0.0,0.0,0.0,12.507088,0.0,0.0,nan,0.0,0.0,0.0,0.0,0.0,0.0,0.0,0.0,1.0049437,1.0055414,1.0005983,0.0,0.0,0.0,0.0,0.0,0.0
67228000,67148000,0.47103164,0.4148539,0.21488547,8.765915,8.396704,1.1442405,0.0,0.0,0.0,0.0,0.0,0.0,0.0,12.48826,0.0,0.0,nan,0.0,0.0,0.0,0.0,0.0,0.0,0.0,0.0,1.0047861,1.0053598,1.0005654,0.0,0.0,0.0,0.0,0.0,0.0
67724000,67644000,0.46107623,0.40987617,0.21389067,8.715546,8.3328285,1.1401811,0.0,0.0,0.0,0.0,0.0,0.0,0.0,12.488452,0.0,0.0,nan,0.0,0.0,0.0,0.0,0.0,0.0,0.0,0.0,1.0048655,1.0050577,1.0002378,0.0,0.0,0.0,0.0,0.0,0.0
68228000,68148000,0.44886744,0.40528595,0.21311533,8.6568165,8.26883,1.1362046,0.0,0.0,0.0,0.0,0.0,0.0,0.0,12.488337,0.0,0.0,nan,0.0,0.0,0.0,0.0,0.0,0.0,0.0,0.0,1.0048667,1.0049452,1.0001211,0.0,0.0,0.0,0.0,0.0,0.0
68732000,68652000,0.43411815,0.40064585,0.21265294,8.58637,8.206419,1.1323946,0.0,0.0,0.0,0.0,0.0,0.0,0.0,12.489755,0.0,0.0,nan,0.0,0.0,0.0,0.0,0.0,0.0,0.0,0.0,1.0047737,1.004841,1.0001332,0.0,0.0,0.0,0.0,0.0,0.0
69228000,69148000,0.4093304,0.39039335,0.21284403,8.39847,8.064658,1.1267588,0.0,0.0,0.0,0.0,0.0,0.0,0.0,12.47485,0.0,0.0,nan,0.0,0.0,0.0,0.0,0.0,0.0,0.0,0.0,1.004592,1.0046334,1.0001357,0.0,0.0,0.0,0.0,0.0,0.0
69732000,69652000,0.39892617,0.38547048,0.21334156,8.306943,8.004,1.124356,0.0,0.0,0.0,0.0,0.0,0.0,0.0,12.476986,0.0,0.0,nan,0.0,0.0,0.0,0.0,0.0,0.0,0.0,0.0,1.004552,1.0045738,1.0001361,0.0,0.0,0.0,0.0,0.0,0.0
70228000,70148000,0.40595648,0.39555904,0.21406075,8.773071,8.461754,1.1227849,0.0,0.0,0.0,0.0,0.0,0.0,0.0,12.4784,0.0,0.0,nan,0.0,0.0,0.0,0.0,0.0,0.0,0.0,0.0,1.0044211,1.0044218,1.0001377,0.0,0.0,0.0,0.0,0.0,0.0
70724000,70644000,0.39783636,0.39098457,0.21498592,8.685735,8.415319,1.1224859,0.0,0.0,0.0,0.0,0.0,0.0,0.0,12.480396,0.0,0.0,nan,0.0,0.0,0.0,0.0,0.0,0.0,0.0,0.0,1.0044122,1.0043975,1.0001395,0.0,0.0,0.0,0.0,0.0,0.0
71228000,71148000,0.38458252,0.38145962,0.21713012,8.471483,8.283075,1.1236383,0.0,0.0,0.0,0.0,0.0,0.0,0.0,12.48627,0.0,0.0,nan,0.0,0.0,0.0,0.0,0.0,0.0,0.0,0.0,1.0044976,1.004391,1.0000635,0.0,0.0,0.0,0.0,0.0,0.0
71724000,71644000,0.38008296,0.37880036,0.21826316,8.367883,8.218437,1.1267499,0.0,0.0,0.0,0.0,0.0,0.0,0.0,12.479243,0.0,0.0,nan,0.0,0.0,0.0,0.0,0.0,0.0,0.0,0.0,1.004428,1.0042921,1.0000601,0.0,0.0,0.0,0.0,0.0,0.0
72228000,72148000,0.3773324,0.3771128,0.21939628,8.267656,8.15606,1.1293325,0.0,0.0,0.0,0.0,0.0,0.0,0.0,12.4852085,0.0,0.0,nan,0.0,0.0,0.0,0.0,0.0,0.0,0.0,0.0,1.0044562,1.0043088,1.0000715,0.0,0.0,0.0,0.0,0.0,0.0
72732000,72652000,0.37586388,0.3758024,0.22041918,8.1537075,8.077126,1.1319473,0.0,0.0,0.0,0.0,0.0,0.0,0.0,12.492882,0.0,0.0,nan,0.0,0.0,0.0,0.0,0.0,0.0,0.0,0.0,1.0044023,1.0042468,1.0000858,0.0,0.0,0.0,0.0,0.0,0.0
73228000,73148000,0.37875667,0.37575468,0.22224069,7.9836416,7.965085,1.1395811,0.0,0.0,0.0,0.0,0.0,0.0,0.0,12.484294,0.0,0.0,nan,0.0,0.0,0.0,0.0,0.0,0.0,0.0,0.0,1.0044459,1.0042868,1.0001004,0.0,0.0,0.0,0.0,0.0,0.0
73732000,73652000,0.38217396,0.37652013,0.2229502,7.92849,7.931553,1.1441891,0.0,0.0,0.0,0.0,0.0,0.0,0.0,12.492295,0.0,0.0,nan,0.0,0.0,0.0,0.0,0.0,0.0,0.0,0.0,1.0045359,1.0043546,1.0000716,0.0,0.0,0.0,0.0,0.0,0.0
74228000,74148000,0.38243818,0.374994,0.22329298,7.8638434,7.8816824,1.1477289,0.0,0.0,0.0,0.0,0.0,0.0,0.0,12.502667,0.0,0.0,nan,0.0,0.0,0.0,0.0,0.0,0.0,0.0,0.0,1.0044327,1.0041698,1.0003017,0.0,0.0,0.0,0.0,0.0,0.0
74724000,74644000,0.3783157,0.3813084,0.22347398,7.7883196,7.817254,1.150089,0.0,0.0,0.0,0.0,0.0,0.0,0.0,12.50914,0.0,0.0,nan,0.0,0.0,0.0,0.0,0.0,0.0,0.0,0.0,1.0044171,1.0042151,1.000278,0.0,0.0,0.0,0.0,0.0,0.0
75228000,75148000,0.38772476,0.40274414,0.22370555,8.164177,8.232237,1.1567502,0.0,0.0,0.0,0.0,0.0,0.0,0.0,12.497018,0.0,0.0,nan,0.0,0.0,0.0,0.0,0.0,0.0,0.0,0.0,1.0042344,1.0042632,1.000135,0.0,0.0,0.0,0.0,0.0,0.0
75724000,75644000,0.38502666,0.40034127,0.22346883,8.113115,8.19628,1.158241,0.0,0.0,0.0,0.0,0.0,0.0,0.0,12.50343,0.0,0.0,nan,0.0,0.0,0.0,0.0,0.0,0.0,0.0,0.0,1.0039059,1.0042177,1.0003002,0.0,0.0,0.0,0.0,0.0,0.0
76228000,76148000,0.3754275,0.39770895,0.22232607,8.08026,8.179471,1.1596845,0.0,0.0,0.0,0.0,0.0,0.0,0.0,12.510896,0.0,0.0,nan,0.0,0.0,0.0,0.0,0.0,0.0,0.0,0.0,1.0036402,1.0040954,1.0004557,0.0,0.0,0.0,0.0,0.0,0.0
76724000,76644000,0.3641036,0.3922629,0.21989954,8.004855,8.121836,1.1577623,0.0,0.0,0.0,0.0,0.0,0.0,0.0,12.513378,0.0,0.0,nan,0.0,0.0,0.0,0.0,0.0,0.0,0.0,0.0,1.0037144,1.0039119,1.0002699,0.0,0.0,0.0,0.0,0.0,0.0
77228000,77148000,0.35759035,0.3800066,0.21650024,7.8846006,8.036462,1.1515787,0.0,0.0,0.0,0.0,0.0,0.0,0.0,12.513038,0.0,0.0,nan,0.0,0.0,0.0,0.0,0.0,0.0,0.0,0.0,1.0038017,1.003853,1.0001351,0.0,0.0,0.0,0.0,0.0,0.0
77724000,77644000,0.35783342,0.37069654,0.21567047,7.846869,8.00317,1.1480482,0.0,0.0,0.0,0.0,0.0,0.0,0.0,12.496165,0.0,0.0,nan,0.0,0.0,0.0,0.0,0.0,0.0,0.0,0.0,1.0037018,1.0037372,1.0001692,0.0,0.0,0.0,0.0,0.0,0.0
78228000,78148000,0.35701004,0.36250162,0.2151737,7.7940755,7.9448395,1.1454983,0.0,0.0,0.0,0.0,0.0,0.0,0.0,12.4958,0.0,0.0,nan,0.0,0.0,0.0,0.0,0.0,0.0,0.0,0.0,1.0037004,1.0037168,1.0001807,0.0,0.0,0.0,0.0,0.0,0.0
78732000,78652000,0.3559528,0.3549974,0.21507348,7.7437563,7.881497,1.1399359,0.0,0.0,0.0,0.0,0.0,0.0,0.0,12.495601,0.0,0.0,nan,0.0,0.0,0.0,0.0,0.0,0.0,0.0,0.0,1.0036671,1.0036595,1.0001923,0.0,0.0,0.0,0.0,0.0,0.0
79228000,79148000,0.35341686,0.3419474,0.21577823,7.648914,7.744111,1.1356456,0.0,0.0,0.0,0.0,0.0,0.0,0.0,12.481163,0.0,0.0,nan,0.0,0.0,0.0,0.0,0.0,0.0,0.0,0.0,1.0037044,1.0036792,1.0002007,0.0,0.0,0.0,0.0,0.0,0.0
79724000,79644000,0.3520122,0.3365097,0.21644357,7.60387,7.6722345,1.133859,0.0,0.0,0.0,0.0,0.0,0.0,0.0,12.483384,0.0,0.0,nan,0.0,0.0,0.0,0.0,0.0,0.0,0.0,0.0,1.0037577,1.0037186,1.0002108,0.0,0.0,0.0,0.0,0.0,0.0
80228000,80148000,0.35015383,0.33151925,0.2171935,7.5433125,7.5832415,1.132418,0.0,0.0,0.0,0.0,0.0,0.0,0.0,12.488185,0.0,0.0,nan,0.0,0.0,0.0,0.0,0.0,0.0,0.0,0.0,1.0037785,1.0037235,1.0002248,0.0,0.0,0.0,0.0,0.0,0.0
80724000,80644000,0.36056206,0.33850583,0.21816194,7.953269,7.965003,1.1324334,0.0,0.0,0.0,0.0,0.0,0.0,0.0,12.492136,0.0,0.0,nan,0.0,0.0,0.0,0.0,0.0,0.0,0.0,0.0,1.0038611,1.0037977,1.0002364,0.0,0.0,0.0,0.0,0.0,0.0
81228000,81148000,0.35811323,0.33296615,0.21999669,7.882209,7.826468,1.1367246,0.0,0.0,0.0,0.0,0.0,0.0,0.0,12.483647,0.0,0.0,nan,0.0,0.0,0.0,0.0,0.0,0.0,0.0,0.0,1.0039076,1.0038368,1.000254,0.0,0.0,0.0,0.0,0.0,0.0
81724000,81644000,0.3563032,0.3308162,0.22084859,7.821812,7.736277,1.1380246,0.0,0.0,0.0,0.0,0.0,0.0,0.0,12.489701,0.0,0.0,nan,0.0,0.0,0.0,0.0,0.0,0.0,0.0,0.0,1.0040131,1.003942,1.0002683,0.0,0.0,0.0,0.0,0.0,0.0
82228000,82148000,0.3550393,0.32982108,0.22154638,7.77991,7.666415,1.1419212,0.0,0.0,0.0,0.0,0.0,0.0,0.0,12.495712,0.0,0.0,nan,0.0,0.0,0.0,0.0,0.0,0.0,0.0,0.0,1.0041342,1.0040646,1.0002818,0.0,0.0,0.0,0.0,0.0,0.0
82724000,82644000,0.35389283,0.32953358,0.22211514,7.7388735,7.6008363,1.1444466,0.0,0.0,0.0,0.0,0.0,0.0,0.0,12.50512,0.0,0.0,nan,0.0,0.0,0.0,0.0,0.0,0.0,0.0,0.0,1.0042087,1.0041412,1.0002998,0.0,0.0,0.0,0.0,0.0,0.0
83228000,83148000,0.3526044,0.331347,0.22286983,7.676585,7.4999385,1.1499568,0.0,0.0,0.0,0.0,0.0,0.0,0.0,12.511016,0.0,0.0,nan,0.0,0.0,0.0,0.0,0.0,0.0,0.0,0.0,1.0043474,1.0042882,1.0003148,0.0,0.0,0.0,0.0,0.0,0.0
83724000,83644000,0.35158142,0.33246344,0.22295728,7.621326,7.433528,1.1513323,0.0,0.0,0.0,0.0,0.0,0.0,0.0,12.499422,0.0,0.0,nan,0.0,0.0,0.0,0.0,0.0,0.0,0.0,0.0,1.00446,1.0043839,1.0003096,0.0,0.0,0.0,0.0,0.0,0.0
84228000,84148000,0.3542863,0.33502066,0.22305237,7.585049,7.3882093,1.1532325,0.0,0.0,0.0,0.0,0.0,0.0,0.0,12.508476,0.0,0.0,nan,0.0,0.0,0.0,0.0,0.0,0.0,0.0,0.0,1.0046208,1.0045546,1.0003179,0.0,0.0,0.0,0.0,0.0,0.0
84732000,84652000,0.36312795,0.33977532,0.22334549,7.5738072,7.363957,1.155459,0.0,0.0,0.0,0.0,0.0,0.0,0.0,12.515002,0.0,0.0,nan,0.0,0.0,0.0,0.0,0.0,0.0,0.0,0.0,1.0047734,1.0047324,1.000345,0.0,0.0,0.0,0.0,0.0,0.0
85228000,85148000,0.379405,0.35153234,0.22326611,7.541348,7.301692,1.159158,0.0,0.0,0.0,0.0,0.0,0.0,0.0,12.501336,0.0,0.0,nan,0.0,0.0,0.0,0.0,0.0,0.0,0.0,0.0,1.0048571,1.0048525,1.0003809,0.0,0.0,0.0,0.0,0.0,0.0
85732000,85652000,0.39925638,0.36875108,0.22328338,7.9715667,7.683243,1.1587223,0.0,0.0,0.0,0.0,0.0,0.0,0.0,12.505227,0.0,0.0,nan,0.0,0.0,0.0,0.0,0.0,0.0,0.0,0.0,1.0050164,1.0050482,1.0004121,0.0,0.0,0.0,0.0,0.0,0.0
86228000,86148000,0.40694568,0.37672347,0.2230382,7.990703,7.685778,1.1596261,0.0,0.0,0.0,0.0,0.0,0.0,0.0,12.512727,0.0,0.0,nan,0.0,0.0,0.0,0.0,0.0,0.0,0.0,0.0,1.0051585,1.0051996,1.0003717,0.0,0.0,0.0,0.0,0.0,0.0
86732000,86652000,0.40991482,0.38046792,0.22291955,7.975054,7.6611586,1.1607864,0.0,0.0,0.0,0.0,0.0,0.0,0.0,12.517901,0.0,0.0,nan,0.0,0.0,0.0,0.0,0.0,0.0,0.0,0.0,1.0053512,1.00512,1.0006399,0.0,0.0,0.0,0.0,0.0,0.0
87228000,87148000,0.4419886,0.37654692,0.22104578,8.001324,7.651884,1.1593897,0.0,0.0,0.0,0.0,0.0,0.0,0.0,12.501276,0.0,0.0,nan,0.0,0.0,0.0,0.0,0.0,0.0,0.0,0.0,1.0055982,1.0051895,1.00055,0.0,0.0,0.0,0.0,0.0,0.0
87724000,87644000,0.44472829,0.37764534,0.21924968,8.026684,7.645437,1.1570342,0.0,0.0,0.0,0.0,0.0,0.0,0.0,12.502411,0.0,0.0,nan,0.0,0.0,0.0,0.0,0.0,0.0,0.0,0.0,1.0055705,1.0052226,1.0004383,0.0,0.0,0.0,0.0,0.0,0.0
88228000,88148000,0.44255534,0.37803647,0.21803771,8.045858,7.6396804,1.1537137,0.0,0.0,0.0,0.0,0.0,0.0,0.0,12.506839,0.0,0.0,nan,0.0,0.0,0.0,0.0,0.0,0.0,0.0,0.0,1.0052392,1.0052216,1.00063,0.0,0.0,0.0,0.0,0.0,0.0
88724000,88644000,0.44066545,0.37269843,0.21680531,8.058554,7.6290617,1.1517396,0.0,0.0,0.0,0.0,0.0,0.0,0.0,12.505125,0.0,0.0,nan,0.0,0.0,0.0,0.0,0.0,0.0,0.0,0.0,1.0049275,1.0050118,1.0007818,0.0,0.0,0.0,0.0,0.0,0.0
89228000,89148000,0.43128842,0.36711752,0.21432975,8.059412,7.5826654,1.1432645,0.0,0.0,0.0,0.0,0.0,0.0,0.0,12.488573,0.0,0.0,nan,0.0,0.0,0.0,0.0,0.0,0.0,0.0,0.0,1.0051049,1.0048966,1.0005726,0.0,0.0,0.0,0.0,0.0,0.0
89732000,89652000,0.42477593,0.36811203,0.2134935,8.066982,7.573294,1.1394731,0.0,0.0,0.0,0.0,0.0,0.0,0.0,12.487853,0.0,0.0,nan,0.0,0.0,0.0,0.0,0.0,0.0,0.0,0.0,1.0051813,1.0048443,1.0004519,0.0,0.0,0.0,0.0,0.0,0.0
90228000,90148000,0.41241682,0.3679457,0.21293636,8.021598,7.532495,1.134848,0.0,0.0,0.0,0.0,0.0,0.0,0.0,12.487654,0.0,0.0,nan,0.0,0.0,0.0,0.0,0.0,0.0,0.0,0.0,1.005061,1.004712,1.0004774,0.0,0.0,0.0,0.0,0.0,0.0
90724000,90644000,0.4032878,0.36826628,0.21281613,8.002741,7.5276675,1.1315646,0.0,0.0,0.0,0.0,0.0,0.0,0.0,12.487556,0.0,0.0,nan,0.0,0.0,0.0,0.0,0.0,0.0,0.0,0.0,1.0050408,1.0046839,1.0004852,0.0,0.0,0.0,0.0,0.0,0.0
91228000,91148000,0.40190393,0.37931502,0.21350306,8.412327,7.93635,1.126911,0.0,0.0,0.0,0.0,0.0,0.0,0.0,12.474706,0.0,0.0,nan,0.0,0.0,0.0,0.0,0.0,0.0,0.0,0.0,1.0049613,1.0045894,1.0004876,0.0,0.0,0.0,0.0,0.0,0.0
91732000,91652000,0.3944953,0.3778095,0.21413286,8.325754,7.8956366,1.1245396,0.0,0.0,0.0,0.0,0.0,0.0,0.0,12.476954,0.0,0.0,nan,0.0,0.0,0.0,0.0,0.0,0.0,0.0,0.0,1.0049706,1.0045991,1.0004919,0.0,0.0,0.0,0.0,0.0,0.0
92228000,92148000,0.38852274,0.37664375,0.21497472,8.255115,7.8724084,1.1235573,0.0,0.0,0.0,0.0,0.0,0.0,0.0,12.478639,0.0,0.0,nan,0.0,0.0,0.0,0.0,0.0,0.0,0.0,0.0,1.0049902,1.0046222,1.0004954,0.0,0.0,0.0,0.0,0.0,0.0
92724000,92644000,0.38399425,0.37588033,0.21598366,8.201151,7.8663,1.1239682,0.0,0.0,0.0,0.0,0.0,0.0,0.0,12.484058,0.0,0.0,nan,0.0,0.0,0.0,0.0,0.0,0.0,0.0,0.0,1.0049417,1.0045781,1.0004969,0.0,0.0,0.0,0.0,0.0,0.0
93228000,93148000,0.3764451,0.37246957,0.21810548,8.036089,7.796823,1.1271645,0.0,0.0,0.0,0.0,0.0,0.0,0.0,12.474475,0.0,0.0,nan,0.0,0.0,0.0,0.0,0.0,0.0,0.0,0.0,1.0050101,1.0046357,1.0004761,0.0,0.0,0.0,0.0,0.0,0.0
93732000,93652000,0.37477314,0.37059233,0.21918778,7.9637046,7.7701197,1.1295532,0.0,0.0,0.0,0.0,0.0,0.0,0.0,12.482158,0.0,0.0,nan,0.0,0.0,0.0,0.0,0.0,0.0,0.0,0.0,1.0049703,1.0046232,1.0004942,0.0,0.0,0.0,0.0,0.0,0.0
94228000,94148000,0.37558728,0.36997843,0.22028218,7.91062,7.760642,1.1330917,0.0,0.0,0.0,0.0,0.0,0.0,0.0,12.487852,0.0,0.0,nan,0.0,0.0,0.0,0.0,0.0,0.0,0.0,0.0,1.0050232,1.0047057,1.0005101,0.0,0.0,0.0,0.0,0.0,0.0
94724000,94644000,0.37769413,0.36944026,0.22121921,7.8432302,7.732524,1.1364031,0.0,0.0,0.0,0.0,0.0,0.0,0.0,12.495702,0.0,0.0,nan,0.0,0.0,0.0,0.0,0.0,0.0,0.0,0.0,1.0050864,1.004801,1.0005292,0.0,0.0,0.0,0.0,0.0,0.0
95228000,95148000,0.3866587,0.36943877,0.22265258,7.726582,7.6745825,1.1433815,0.0,0.0,0.0,0.0,0.0,0.0,0.0,12.505563,0.0,0.0,nan,0.0,0.0,0.0,0.0,0.0,0.0,0.0,0.0,1.0050763,1.0048324,1.0005454,0.0,0.0,0.0,0.0,0.0,0.0
95732000,95652000,0.39116216,0.36915788,0.22318795,7.6623178,7.627647,1.1477389,0.0,0.0,0.0,0.0,0.0,0.0,0.0,12.497905,0.0,0.0,nan,0.0,0.0,0.0,0.0,0.0,0.0,0.0,0.0,1.0051775,1.0049679,1.0005424,0.0,0.0,0.0,0.0,0.0,0.0
96228000,96148000,0.39738122,0.3702373,0.22351414,7.641319,7.615742,1.1514771,0.0,0.0,0.0,0.0,0.0,0.0,0.0,12.5055065,0.0,0.0,nan,0.0,0.0,0.0,0.0,0.0,0.0,0.0,0.0,1.0051681,1.0050145,1.0005711,0.0,0.0,0.0,0.0,0.0,0.0
96732000,96652000,0.4210118,0.38719764,0.22374201,8.064075,8.036104,1.1531487,0.0,0.0,0.0,0.0,0.0,0.0,0.0,12.51292,0.0,0.0,nan,0.0,0.0,0.0,0.0,0.0,0.0,0.0,0.0,1.0052688,1.0051686,1.000588,0.0,0.0,0.0,0.0,0.0,0.0
97228000,97148000,0.44654065,0.39925224,0.22358745,8.050368,7.9994135,1.1584129,0.0,0.0,0.0,0.0,0.0,0.0,0.0,12.499514,0.0,0.0,nan,0.0,0.0,0.0,0.0,0.0,0.0,0.0,0.0,1.00535,1.0053248,1.000625,0.0,0.0,0.0,0.0,0.0,0.0
97724000,97644000,0.45206264,0.4000389,0.22342734,8.077538,8.003722,1.1600842,0.0,0.0,0.0,0.0,0.0,0.0,0.0,12.505304,0.0,0.0,nan,0.0,0.0,0.0,0.0,0.0,0.0,0.0,0.0,1.0054257,1.0053803,1.0005985,0.0,0.0,0.0,0.0,0.0,0.0
98228000,98148000,0.45048058,0.39559466,0.22303928,8.085538,7.984542,1.1603165,0.0,0.0,0.0,0.0,0.0,0.0,0.0,12.5137205,0.0,0.0,nan,0.0,0.0,0.0,0.0,0.0,0.0,0.0,0.0,1.0055349,1.0055631,1.0006142,0.0,0.0,0.0,0.0,0.0,0.0
98732000,98652000,0.44812983,0.39251742,0.2227835,8.071613,7.9418316,1.1613946,0.0,0.0,0.0,0.0,0.0,0.0,0.0,12.517926,0.0,0.0,nan,0.0,0.0,0.0,0.0,0.0,0.0,0.0,0.0,1.0055473,1.0056404,1.0006502,0.0,0.0,0.0,0.0,0.0,0.0
99228000,99148000,0.44279498,0.38954186,0.22213545,8.074545,7.8846927,1.1600697,0.0,0.0,0.0,0.0,0.0,0.0,0.0,12.50218,0.0,0.0,nan,0.0,0.0,0.0,0.0,0.0,0.0,0.0,0.0,1.0056607,1.005813,1.0006791,0.0,0.0,0.0,0.0,0.0,0.0
99732000,99652000,0.43975294,0.38981146,0.22193846,8.089936,7.871959,1.1599314,0.0,0.0,0.0,0.0,0.0,0.0,0.0,12.506405,0.0,0.0,nan,0.0,0.0,0.0,0.0,0.0,0.0,0.0,0.0,1.0057869,1.0060005,1.0007056,0.0,0.0,0.0,0.0,0.0,0.0
100228000,100148000,0.4349327,0.3897831,0.22182779,8.059925,7.8219934,1.1601672,0.0,0.0,0.0,0.0,0.0,0.0,0.0,12.512689,0.0,0.0,nan,0.0,0.0,0.0,0.0,0.0,0.0,0.0,0.0,1.0057958,1.0060714,1.0007491,0.0,0.0,0.0,0.0,0.0,0.0
100724000,100644000,0.4311158,0.39175302,0.22171952,8.064686,7.8093057,1.1598864,0.0,0.0,0.0,0.0,0.0,0.0,0.0,12.515187,0.0,0.0,nan,0.0,0.0,0.0,0.0,0.0,0.0,0.0,0.0,1.0059203,1.0062517,1.0007805,0.0,0.0,0.0,0.0,0.0,0.0
101228000,101148000,0.43823242,0.41050822,0.22146332,8.5250435,8.220291,1.1572472,0.0,0.0,0.0,0.0,0.0,0.0,0.0,12.499876,0.0,0.0,nan,0.0,0.0,0.0,0.0,0.0,0.0,0.0,0.0,1.0059315,1.0063184,1.0008284,0.0,0.0,0.0,0.0,0.0,0.0
101724000,101644000,0.43452495,0.41508344,0.22148031,8.514223,8.214506,1.1572205,0.0,0.0,0.0,0.0,0.0,0.0,0.0,12.501826,0.0,0.0,nan,0.0,0.0,0.0,0.0,0.0,0.0,0.0,0.0,1.0060555,1.0064883,1.0008676,0.0,0.0,0.0,0.0,0.0,0.0
102228000,102148000,0.42941284,0.41828766,0.22146222,8.477133,8.192551,1.1565391,0.0,0.0,0.0,0.0,0.0,0.0,0.0,12.508329,0.0,0.0,nan,0.0,0.0,0.0,0.0,0.0,0.0,0.0,0.0,1.0061847,1.0066704,1.0009011,0.0,0.0,0.0,0.0,0.0,0.0
102732000,102652000,0.42251778,0.41949713,0.22155674,8.41267,8.152029,1.1552181,0.0,0.0,0.0,0.0,0.0,0.0,0.0,12.515056,0.0,0.0,nan,0.0,0.0,0.0,0.0,0.0,0.0,0.0,0.0,1.006183,1.0067177,1.0009474,0.0,0.0,0.0,0.0,0.0,0.0
103228000,103148000,0.41303858,0.4265238,0.22157939,8.311188,8.116552,1.1561918,0.0,0.0,0.0,0.0,0.0,0.0,0.0,12.497656,0.0,0.0,nan,0.0,0.0,0.0,0.0,0.0,0.0,0.0,0.0,1.0063007,1.006879,1.0009838,0.0,0.0,0.0,0.0,0.0,0.0
103724000,103644000,0.41016114,0.4314757,0.22166272,8.276206,8.122778,1.1565838,0.0,0.0,0.0,0.0,0.0,0.0,0.0,12.500703,0.0,0.0,nan,0.0,0.0,0.0,0.0,0.0,0.0,0.0,0.0,1.0062793,1.0068896,1.0010378,0.0,0.0,0.0,0.0,0.0,0.0
104228000,104148000,0.40763083,0.43625367,0.22168858,8.220043,8.11212,1.1562831,0.0,0.0,0.0,0.0,0.0,0.0,0.0,12.505223,0.0,0.0,nan,0.0,0.0,0.0,0.0,0.0,0.0,0.0,0.0,1.0064001,1.007036,1.0010772,0.0,0.0,0.0,0.0,0.0,0.0
104732000,104652000,0.40625542,0.44138518,0.22171775,8.164251,8.104467,1.156094,0.0,0.0,0.0,0.0,0.0,0.0,0.0,12.512378,0.0,0.0,nan,0.0,0.0,0.0,0.0,0.0,0.0,0.0,0.0,1.006376,1.007027,1.0011243,0.0,0.0,0.0,0.0,0.0,0.0
105228000,105148000,0.40586203,0.45134124,0.22172074,8.039322,8.077452,1.1552416,0.0,0.0,0.0,0.0,0.0,0.0,0.0,12.497727,0.0,0.0,nan,0.0,0.0,0.0,0.0,0.0,0.0,0.0,0.0,1.0064795,1.0071532,1.0011573,0.0,0.0,0.0,0.0,0.0,0.0
105724000,105644000,0.40730998,0.45641464,0.22173615,7.991221,8.077611,1.1551876,0.0,0.0,0.0,0.0,0.0,0.0,0.0,12.502688,0.0,0.0,nan,0.0,0.0,0.0,0.0,0.0,0.0,0.0,0.0,1.0065811,1.0072672,1.0011932,0.0,0.0,0.0,0.0,0.0,0.0
106228000,106148000,0.4103166,0.4622262,0.22194712,7.9663363,8.100281,1.155734,0.0,0.0,0.0,0.0,0.0,0.0,0.0,12.509643,0.0,0.0,nan,0.0,0.0,0.0,0.0,0.0,0.0,0.0,0.0,1.0065385,1.0072082,1.0012356,0.0,0.0,0.0,0.0,0.0,0.0
106724000,106644000,0.42821714,0.48457524,0.22187868,8.420118,8.622387,1.1567463,0.0,0.0,0.0,0.0,0.0,0.0,0.0,12.514701,0.0,0.0,nan,0.0,0.0,0.0,0.0,0.0,0.0,0.0,0.0,1.0065919,1.0071259,1.0014801,0.0,0.0,0.0,0.0,0.0,0.0
107228000,107148000,0.4317114,0.51298666,0.22136554,8.352877,8.646551,1.1560329,0.0,0.0,0.0,0.0,0.0,0.0,0.0,12.519561,0.0,0.0,nan,0.0,0.0,0.0,0.0,0.0,0.0,0.0,0.0,1.006381,1.0063599,1.0023338,0.0,0.0,0.0,0.0,0.0,0.0
107732000,107652000,0.42825246,0.5372783,0.21945325,8.327472,8.675028,1.1564269,0.0,0.0,0.0,0.0,0.0,0.0,0.0,12.503101,0.0,0.0,nan,0.0,0.0,0.0,0.0,0.0,0.0,0.0,0.0,1.0058455,1.0064656,1.0028081,0.0,0.0,0.0,0.0,0.0,0.0
108228000,108148000,0.42699194,0.5652405,0.21799035,8.3034,8.717191,1.1536982,0.0,0.0,0.0,0.0,0.0,0.0,0.0,12.504852,0.0,0.0,nan,0.0,0.0,0.0,0.0,0.0,0.0,0.0,0.0,1.0055099,1.0064964,1.0029436,0.0,0.0,0.0,0.0,0.0,0.0
108724000,108644000,0.42679885,0.5931047,0.21686208,8.278559,8.772617,1.1502624,0.0,0.0,0.0,0.0,0.0,0.0,0.0,12.505631,0.0,0.0,nan,0.0,0.0,0.0,0.0,0.0,0.0,0.0,0.0,1.005854,1.0059059,1.0025179,0.0,0.0,0.0,0.0,0.0,0.0
109228000,109148000,0.4246605,0.6247957,0.21484663,8.22196,8.907772,1.1442652,0.0,0.0,0.0,0.0,0.0,0.0,0.0,12.488725,0.0,0.0,nan,0.0,0.0,0.0,0.0,0.0,0.0,0.0,0.0,1.0060793,1.0059819,1.0018892,0.0,0.0,0.0,0.0,0.0,0.0
109732000,109652000,0.42491004,0.61987936,0.21408154,8.189491,8.963351,1.1402359,0.0,0.0,0.0,0.0,0.0,0.0,0.0,12.489037,0.0,0.0,nan,0.0,0.0,0.0,0.0,0.0,0.0,0.0,0.0,1.0056632,1.0057342,1.0020052,0.0,0.0,0.0,0.0,0.0,0.0
110228000,110148000,0.42624798,0.61311674,0.21374531,8.175154,9.029759,1.136868,0.0,0.0,0.0,0.0,0.0,0.0,0.0,12.488448,0.0,0.0,nan,0.0,0.0,0.0,0.0,0.0,0.0,0.0,0.0,1.0055017,1.0056474,1.0020484,0.0,0.0,0.0,0.0,0.0,0.0
110732000,110652000,0.42697853,0.60284114,0.2137311,8.138835,9.051876,1.1333001,0.0,0.0,0.0,0.0,0.0,0.0,0.0,12.489956,0.0,0.0,nan,0.0,0.0,0.0,0.0,0.0,0.0,0.0,0.0,1.0053846,1.0055716,1.0020756,0.0,0.0,0.0,0.0,0.0,0.0
111228000,111148000,0.42883155,0.5767228,0.21456732,8.045383,9.016694,1.1275407,0.0,0.0,0.0,0.0,0.0,0.0,0.0,12.490276,0.0,0.0,nan,0.0,0.0,0.0,0.0,0.0,0.0,0.0,0.0,1.0051309,1.0053675,1.0021098,0.0,0.0,0.0,0.0,0.0,0.0
111732000,111652000,0.43121305,0.5637149,0.21526778,8.028223,9.014013,1.1265513,0.0,0.0,0.0,0.0,0.0,0.0,0.0,12.478385,0.0,0.0,nan,0.0,0.0,0.0,0.0,0.0,0.0,0.0,0.0,1.0050492,1.0053172,1.002152,0.0,0.0,0.0,0.0,0.0,0.0
112228000,112148000,0.45047125,0.57779014,0.21623603,8.521795,9.664324,1.1260349,0.0,0.0,0.0,0.0,0.0,0.0,0.0,12.481047,0.0,0.0,nan,0.0,0.0,0.0,0.0,0.0,0.0,0.0,0.0,1.0048494,1.0051547,1.0022004,0.0,0.0,0.0,0.0,0.0,0.0
112724000,112644000,0.4527679,0.563283,0.21720357,8.486454,9.604344,1.127569,0.0,0.0,0.0,0.0,0.0,0.0,0.0,12.486935,0.0,0.0,nan,0.0,0.0,0.0,0.0,0.0,0.0,0.0,0.0,1.0048039,1.0051376,1.002237,0.0,0.0,0.0,0.0,0.0,0.0
113228000,113148000,0.45747304,0.53403056,0.21921124,8.42335,9.4499855,1.1305609,0.0,0.0,0.0,0.0,0.0,0.0,0.0,12.49151,0.0,0.0,nan,0.0,0.0,0.0,0.0,0.0,0.0,0.0,0.0,1.0047787,1.0051334,1.0022671,0.0,0.0,0.0,0.0,0.0,0.0
113732000,113652000,0.4597467,0.5196198,0.22014,8.395694,9.359077,1.1329948,0.0,0.0,0.0,0.0,0.0,0.0,0.0,12.484161,0.0,0.0,nan,0.0,0.0,0.0,0.0,0.0,0.0,0.0,0.0,1.0046594,1.0050312,1.0023052,0.0,0.0,0.0,0.0,0.0,0.0
114228000,114148000,0.46195126,0.5054116,0.2209668,8.370665,9.261287,1.1358719,0.0,0.0,0.0,0.0,0.0,0.0,0.0,12.492614,0.0,0.0,nan,0.0,0.0,0.0,0.0,0.0,0.0,0.0,0.0,1.0046756,1.0050602,1.002328,0.0,0.0,0.0,0.0,0.0,0.0
114724000,114644000,0.46351093,0.4907089,0.22173765,8.327258,9.133419,1.13998,0.0,0.0,0.0,0.0,0.0,0.0,0.0,12.500637,0.0,0.0,nan,0.0,0.0,0.0,0.0,0.0,0.0,0.0,0.0,1.0046002,1.0049871,1.0023575,0.0,0.0,0.0,0.0,0.0,0.0
115228000,115148000,0.46771553,0.4640959,0.2226767,8.288312,8.916385,1.1462481,0.0,0.0,0.0,0.0,0.0,0.0,0.0,12.50877,0.0,0.0,nan,0.0,0.0,0.0,0.0,0.0,0.0,0.0,0.0,1.004647,1.0050391,1.0023824,0.0,0.0,0.0,0.0,0.0,0.0
115732000,115652000,0.4713983,0.44994435,0.22292253,8.271299,8.80394,1.1490452,0.0,0.0,0.0,0.0,0.0,0.0,0.0,12.4976425,0.0,0.0,nan,0.0,0.0,0.0,0.0,0.0,0.0,0.0,0.0,1.0049082,1.0050678,1.0022429,0.0,0.0,0.0,0.0,0.0,0.0
116228000,116148000,0.48821867,0.4304853,0.22325645,8.261364,8.684408,1.1533077,0.0,0.0,0.0,0.0,0.0,0.0,0.0,12.504737,0.0,0.0,nan,0.0,0.0,0.0,0.0,0.0,0.0,0.0,0.0,1.004867,1.005043,1.0022496,0.0,0.0,0.0,0.0,0.0,0.0
116732000,116652000,0.50591093,0.41332594,0.22339994,8.283945,8.57701,1.1559744,0.0,0.0,0.0,0.0,0.0,0.0,0.0,12.513841,0.0,0.0,nan,0.0,0.0,0.0,0.0,0.0,0.0,0.0,0.0,1.0049473,1.0051098,1.0022701,0.0,0.0,0.0,0.0,0.0,0.0
117228000,117148000,0.55892384,0.4037078,0.22335802,8.89308,8.888094,1.1582711,0.0,0.0,0.0,0.0,0.0,0.0,0.0,12.52035,0.0,0.0,nan,0.0,0.0,0.0,0.0,0.0,0.0,0.0,0.0,1.0049119,1.0050716,1.0023054,0.0,0.0,0.0,0.0,0.0,0.0
117732000,117652000,0.5714238,0.39415786,0.22324401,8.922974,8.736385,1.1587503,0.0,0.0,0.0,0.0,0.0,0.0,0.0,12.50613,0.0,0.0,nan,0.0,0.0,0.0,0.0,0.0,0.0,0.0,0.0,1.0049968,1.0051113,1.0023667,0.0,0.0,0.0,0.0,0.0,0.0
118228000,118148000,0.57989794,0.3870692,0.22320709,8.930322,8.5724125,1.1602559,0.0,0.0,0.0,0.0,0.0,0.0,0.0,12.511584,0.0,0.0,nan,0.0,0.0,0.0,0.0,0.0,0.0,0.0,0.0,1.0050845,1.0052029,1.0023718,0.0,0.0,0.0,0.0,0.0,0.0
118724000,118644000,0.5856814,0.3822234,0.22307727,8.987785,8.458235,1.1610072,0.0,0.0,0.0,0.0,0.0,0.0,0.0,12.518968,0.0,0.0,nan,0.0,0.0,0.0,0.0,0.0,0.0,0.0,0.0,1.0050275,1.00511,1.0024716,0.0,0.0,0.0,0.0,0.0,0.0
119228000,119148000,0.584072,0.36708635,0.22284319,9.025774,8.208954,1.1600323,0.0,0.0,0.0,0.0,0.0,0.0,0.0,12.52389,0.0,0.0,nan,0.0,0.0,0.0,0.0,0.0,0.0,0.0,0.0,1.0050204,1.0051215,1.0025132,0.0,0.0,0.0,0.0,0.0,0.0
119732000,119652000,0.5831,0.36657766,0.22261253,9.03615,8.097805,1.1613905,0.0,0.0,0.0,0.0,0.0,0.0,0.0,12.507065,0.0,0.0,nan,0.0,0.0,0.0,0.0,0.0,0.0,0.0,0.0,1.0050461,1.0049351,1.0023793,0.0,0.0,0.0,0.0,0.0,0.0
120228000,120148000,0.5644767,0.3643729,0.22222537,9.005626,7.9833817,1.1598725,0.0,0.0,0.0,0.0,0.0,0.0,0.0,12.509974,0.0,0.0,nan,0.0,0.0,0.0,0.0,0.0,0.0,0.0,0.0,1.0048532,1.004914,1.0023732,0.0,0.0,0.0,0.0,0.0,0.0
120732000,120652000,0.5448497,0.36240366,0.22194046,8.981159,7.8992767,1.1590755,0.0,0.0,0.0,0.0,0.0,0.0,0.0,12.51655,0.0,0.0,nan,0.0,0.0,0.0,0.0,0.0,0.0,0.0,0.0,1.0046232,1.0048337,1.0023476,0.0,0.0,0.0,0.0,0.0,0.0
121228000,121148000,0.4992209,0.35832223,0.22153133,8.894228,7.7755976,1.157958,0.0,0.0,0.0,0.0,0.0,0.0,0.0,12.5200205,0.0,0.0,nan,0.0,0.0,0.0,0.0,0.0,0.0,0.0,0.0,1.0043464,1.0045805,1.0023242,0.0,0.0,0.0,0.0,0.0,0.0
121724000,121644000,0.47751823,0.35540313,0.22148895,8.787432,7.6969647,1.156276,0.0,0.0,0.0,0.0,0.0,0.0,0.0,12.504404,0.0,0.0,nan,0.0,0.0,0.0,0.0,0.0,0.0,0.0,0.0,1.0042143,1.0044681,1.0022951,0.0,0.0,0.0,0.0,0.0,0.0
122228000,122148000,0.45754537,0.35331506,0.22145018,8.7138195,7.6571045,1.1561505,0.0,0.0,0.0,0.0,0.0,0.0,0.0,12.507055,0.0,0.0,nan,0.0,0.0,0.0,0.0,0.0,0.0,0.0,0.0,1.0040343,1.0043209,1.0022595,0.0,0.0,0.0,0.0,0.0,0.0
122732000,122652000,0.45814303,0.36246985,0.22133462,9.210834,8.052977,1.1565976,0.0,0.0,0.0,0.0,0.0,0.0,0.0,12.515108,0.0,0.0,nan,0.0,0.0,0.0,0.0,0.0,0.0,0.0,0.0,1.0039645,1.0042706,1.0022408,0.0,0.0,0.0,0.0,0.0,0.0
123228000,123148000,0.421676,0.35668272,0.22128552,8.943064,7.9411316,1.1550995,0.0,0.0,0.0,0.0,0.0,0.0,0.0,12.517855,0.0,0.0,nan,0.0,0.0,0.0,0.0,0.0,0.0,0.0,0.0,1.0039152,1.0042397,1.0022315,0.0,0.0,0.0,0.0,0.0,0.0
123732000,123652000,0.4062748,0.35416925,0.22135472,8.823591,7.9049845,1.1552961,0.0,0.0,0.0,0.0,0.0,0.0,0.0,12.502261,0.0,0.0,nan,0.0,0.0,0.0,0.0,0.0,0.0,0.0,0.0,1.0038193,1.0041693,1.0022223,0.0,0.0,0.0,0.0,0.0,0.0
124228000,124148000,0.39178327,0.35078877,0.22147112,8.660373,7.8342347,1.1541258,0.0,0.0,0.0,0.0,0.0,0.0,0.0,12.507451,0.0,0.0,nan,0.0,0.0,0.0,0.0,0.0,0.0,0.0,0.0,1.0038141,1.0041771,1.0022267,0.0,0.0,0.0,0.0,0.0,0.0
124724000,124644000,0.37983447,0.34831098,0.2215638,8.539036,7.7989655,1.1545734,0.0,0.0,0.0,0.0,0.0,0.0,0.0,12.512284,0.0,0.0,nan,0.0,0.0,0.0,0.0,0.0,0.0,0.0,0.0,1.003764,1.0041451,1.0022373,0.0,0.0,0.0,0.0,0.0,0.0
125228000,125148000,0.3595713,0.3425016,0.22155263,8.246226,7.677622,1.1552873,0.0,0.0,0.0,0.0,0.0,0.0,0.0,12.498155,0.0,0.0,nan,0.0,0.0,0.0,0.0,0.0,0.0,0.0,0.0,1.003801,1.0041972,1.0022436,0.0,0.0,0.0,0.0,0.0,0.0
125724000,125644000,0.35169074,0.33995885,0.221575,8.116582,7.6261344,1.1551489,0.0,0.0,0.0,0.0,0.0,0.0,0.0,12.500694,0.0,0.0,nan,0.0,0.0,0.0,0.0,0.0,0.0,0.0,0.0,1.003853,1.0042582,1.0022584,0.0,0.0,0.0,0.0,0.0,0.0
126228000,126148000,0.3455621,0.33799177,0.22164756,8.010121,7.5916066,1.155764,0.0,0.0,0.0,0.0,0.0,0.0,0.0,12.50691,0.0,0.0,nan,0.0,0.0,0.0,0.0,0.0,0.0,0.0,0.0,1.0038642,1.0042818,1.0022831,0.0,0.0,0.0,0.0,0.0,0.0
126732000,126652000,0.34030607,0.33584744,0.22165293,7.892105,7.540816,1.1556426,0.0,0.0,0.0,0.0,0.0,0.0,0.0,12.514129,0.0,0.0,nan,0.0,0.0,0.0,0.0,0.0,0.0,0.0,0.0,1.0039523,1.0043768,1.002301,0.0,0.0,0.0,0.0,0.0,0.0
127228000,127148000,0.3441106,0.3428565,0.2217423,8.13607,7.8666973,1.1546427,0.0,0.0,0.0,0.0,0.0,0.0,0.0,12.517625,0.0,0.0,nan,0.0,0.0,0.0,0.0,0.0,0.0,0.0,0.0,1.003991,1.0044243,1.0023234,0.0,0.0,0.0,0.0,0.0,0.0
127732000,127652000,0.34229517,0.3418744,0.22163802,8.04543,7.8314543,1.1553004,0.0,0.0,0.0,0.0,0.0,0.0,0.0,12.501045,0.0,0.0,nan,0.0,0.0,0.0,0.0,0.0,0.0,0.0,0.0,1.0041072,1.0045439,1.0023414,0.0,0.0,0.0,0.0,0.0,0.0
128228000,128148000,0.3406923,0.34036937,0.22172351,7.9291277,7.7637043,1.1564114,0.0,0.0,0.0,0.0,0.0,0.0,0.0,12.508212,0.0,0.0,nan,0.0,0.0,0.0,0.0,0.0,0.0,0.0,0.0,1.004232,1.0046722,1.0023571,0.0,0.0,0.0,0.0,0.0,0.0
128732000,128652000,0.34053713,0.33966103,0.22171208,7.8387485,7.7147746,1.1563323,0.0,0.0,0.0,0.0,0.0,0.0,0.0,12.513313,0.0,0.0,nan,0.0,0.0,0.0,0.0,0.0,0.0,0.0,0.0,1.0043097,1.0047504,1.0023834,0.0,0.0,0.0,0.0,0.0,0.0
129228000,129148000,0.34298694,0.33936995,0.22163829,7.6847405,7.6233892,1.1557587,0.0,0.0,0.0,0.0,0.0,0.0,0.0,12.518259,0.0,0.0,nan,0.0,0.0,0.0,0.0,0.0,0.0,0.0,0.0,1.0044544,1.0048913,1.0023893,0.0,0.0,0.0,0.0,0.0,0.0
129732000,129652000,0.34539157,0.33979315,0.22175242,7.62103,7.5814614,1.1573784,0.0,0.0,0.0,0.0,0.0,0.0,0.0,12.505098,0.0,0.0,nan,0.0,0.0,0.0,0.0,0.0,0.0,0.0,0.0,1.0045471,1.0049703,1.0024133,0.0,0.0,0.0,0.0,0.0,0.0
130228000,130148000,0.34883893,0.34100315,0.22175376,7.582313,7.5585866,1.1576433,0.0,0.0,0.0,0.0,0.0,0.0,0.0,12.508086,0.0,0.0,nan,0.0,0.0,0.0,0.0,0.0,0.0,0.0,0.0,1.0047076,1.0051203,1.0024196,0.0,0.0,0.0,0.0,0.0,0.0
130732000,130652000,0.35245338,0.34215966,0.22169653,7.535713,7.522034,1.1571239,0.0,0.0,0.0,0.0,0.0,0.0,0.0,12.514913,0.0,0.0,nan,0.0,0.0,0.0,0.0,0.0,0.0,0.0,0.0,1.0048087,1.0052029,1.0024236,0.0,0.0,0.0,0.0,0.0,0.0
131228000,131148000,0.3647139,0.3488866,0.22159892,7.469742,7.4612923,1.1561326,0.0,0.0,0.0,0.0,0.0,0.0,0.0,12.518831,0.0,0.0,nan,0.0,0.0,0.0,0.0,0.0,0.0,0.0,0.0,1.0049787,1.0053538,1.0024146,0.0,0.0,0.0,0.0,0.0,0.0
131732000,131652000,0.37019417,0.35181823,0.22165714,7.4332743,7.4211836,1.1569238,0.0,0.0,0.0,0.0,0.0,0.0,0.0,12.504764,0.0,0.0,nan,0.0,0.0,0.0,0.0,0.0,0.0,0.0,0.0,1.0051582,1.0055149,1.0024036,0.0,0.0,0.0,0.0,0.0,0.0
132228000,132148000,0.37628487,0.35534012,0.22161958,7.420629,7.4012327,1.1564888,0.0,0.0,0.0,0.0,0.0,0.0,0.0,12.509391,0.0,0.0,nan,0.0,0.0,0.0,0.0,0.0,0.0,0.0,0.0,1.0052538,1.0055851,1.0023748,0.0,0.0,0.0,0.0,0.0,0.0
132732000,132652000,0.39416382,0.3702538,0.22173746,7.854006,7.820193,1.1560044,0.0,0.0,0.0,0.0,0.0,0.0,0.0,12.514029,0.0,0.0,nan,0.0,0.0,0.0,0.0,0.0,0.0,0.0,0.0,1.0054346,1.0057453,1.0023465,0.0,0.0,0.0,0.0,0.0,0.0
133228000,133148000,0.39700815,0.36966926,0.22167814,7.8699594,7.805156,1.1575177,0.0,0.0,0.0,0.0,0.0,0.0,0.0,12.500543,0.0,0.0,nan,0.0,0.0,0.0,0.0,0.0,0.0,0.0,0.0,1.0055205,1.005792,1.0022968,0.0,0.0,0.0,0.0,0.0,0.0
133732000,133652000,0.40361694,0.37454826,0.22172351,7.8534575,7.7723494,1.1561337,0.0,0.0,0.0,0.0,0.0,0.0,0.0,12.50418,0.0,0.0,nan,0.0,0.0,0.0,0.0,0.0,0.0,0.0,0.0,1.0056996,1.0059458,1.0022541,0.0,0.0,0.0,0.0,0.0,0.0
134228000,134148000,0.40900174,0.37851322,0.22168325,7.860691,7.7620316,1.1576074,0.0,0.0,0.0,0.0,0.0,0.0,0.0,12.510023,0.0,0.0,nan,0.0,0.0,0.0,0.0,0.0,0.0,0.0,0.0,1.0058721,1.0060906,1.0022084,0.0,0.0,0.0,0.0,0.0,0.0
134724000,134644000,0.41472697,0.3830784,0.22170517,7.889588,7.772488,1.1578647,0.0,0.0,0.0,0.0,0.0,0.0,0.0,12.513789,0.0,0.0,nan,0.0,0.0,0.0,0.0,0.0,0.0,0.0,0.0,1.0059372,1.0061151,1.0021334,0.0,0.0,0.0,0.0,0.0,0.0
135228000,135148000,0.42324886,0.39079988,0.2215771,7.89559,7.7470055,1.1561854,0.0,0.0,0.0,0.0,0.0,0.0,0.0,12.499953,0.0,0.0,nan,0.0,0.0,0.0,0.0,0.0,0.0,0.0,0.0,1.0061067,1.0062534,1.0020776,0.0,0.0,0.0,0.0,0.0,0.0
135732000,135652000,0.42782563,0.39548472,0.22160223,7.92843,7.764753,1.156487,0.0,0.0,0.0,0.0,0.0,0.0,0.0,12.502139,0.0,0.0,nan,0.0,0.0,0.0,0.0,0.0,0.0,0.0,0.0,1.006156,1.0062599,1.001992,0.0,0.0,0.0,0.0,0.0,0.0
136228000,136148000,0.43058404,0.39883804,0.22151653,7.921657,7.747198,1.1553612,0.0,0.0,0.0,0.0,0.0,0.0,0.0,12.508148,0.0,0.0,nan,0.0,0.0,0.0,0.0,0.0,0.0,0.0,0.0,1.0063063,1.0063785,1.0019335,0.0,0.0,0.0,0.0,0.0,0.0
136732000,136652000,0.4342,0.4033167,0.22155778,7.953077,7.7677937,1.1558177,0.0,0.0,0.0,0.0,0.0,0.0,0.0,12.513503,0.0,0.0,nan,0.0,0.0,0.0,0.0,0.0,0.0,0.0,0.0,1.0064582,1.006499,1.0018743,0.0,0.0,0.0,0.0,0.0,0.0
137228000,137148000,0.43793753,0.41033033,0.22166811,7.9698153,7.7734733,1.1552135,0.0,0.0,0.0,0.0,0.0,0.0,0.0,12.518489,0.0,0.0,nan,0.0,0.0,0.0,0.0,0.0,0.0,0.0,0.0,1.006463,1.0064654,1.0017854,0.0,0.0,0.0,0.0,0.0,0.0
137724000,137644000,0.43894738,0.41337034,0.22163601,7.973811,7.7761655,1.1568239,0.0,0.0,0.0,0.0,0.0,0.0,0.0,12.503815,0.0,0.0,nan,0.0,0.0,0.0,0.0,0.0,0.0,0.0,0.0,1.0065918,1.0065663,1.0017267,0.0,0.0,0.0,0.0,0.0,0.0
138228000,138148000,0.45619252,0.43102282,0.22155607,8.477276,8.252101,1.1558034,0.0,0.0,0.0,0.0,0.0,0.0,0.0,12.507908,0.0,0.0,nan,0.0,0.0,0.0,0.0,0.0,0.0,0.0,0.0,1.0065763,1.0065172,1.0016423,0.0,0.0,0.0,0.0,0.0,0.0
138732000,138652000,0.4563302,0.43346298,0.22153635,8.477205,8.256241,1.1555547,0.0,0.0,0.0,0.0,0.0,0.0,0.0,12.515697,0.0,0.0,nan,0.0,0.0,0.0,0.0,0.0,0.0,0.0,0.0,1.0066942,1.0066104,1.0015888,0.0,0.0,0.0,0.0,0.0,0.0
139228000,139148000,0.4553387,0.437384,0.22163351,8.463942,8.258973,1.1568686,0.0,0.0,0.0,0.0,0.0,0.0,0.0,12.498345,0.0,0.0,nan,0.0,0.0,0.0,0.0,0.0,0.0,0.0,0.0,1.0067993,1.0066925,1.001538,0.0,0.0,0.0,0.0,0.0,0.0
139732000,139652000,0.45419642,0.43873012,0.22160068,8.450895,8.257139,1.1565096,0.0,0.0,0.0,0.0,0.0,0.0,0.0,12.5034895,0.0,0.0,nan,0.0,0.0,0.0,0.0,0.0,0.0,0.0,0.0,1.006746,1.0066149,1.0014678,0.0,0.0,0.0,0.0,0.0,0.0
140228000,140148000,0.4533802,0.4403414,0.2216283,8.455375,8.273714,1.1569116,0.0,0.0,0.0,0.0,0.0,0.0,0.0,12.507406,0.0,0.0,nan,0.0,0.0,0.0,0.0,0.0,0.0,0.0,0.0,1.0068338,1.0066861,1.0014255,0.0,0.0,0.0,0.0,0.0,0.0
140732000,140652000,0.45172948,0.44102713,0.221592,8.434232,8.266808,1.1565189,0.0,0.0,0.0,0.0,0.0,0.0,0.0,12.515083,0.0,0.0,nan,0.0,0.0,0.0,0.0,0.0,0.0,0.0,0.0,1.0067573,1.006593,1.0013678,0.0,0.0,0.0,0.0,0.0,0.0
141228000,141148000,0.44713503,0.4407542,0.22162858,8.36028,8.224415,1.1570412,0.0,0.0,0.0,0.0,0.0,0.0,0.0,12.497809,0.0,0.0,nan,0.0,0.0,0.0,0.0,0.0,0.0,0.0,0.0,1.0068305,1.0066543,1.0013329,0.0,0.0,0.0,0.0,0.0,0.0
141732000,141652000,0.4448856,0.44042817,0.22159408,8.329552,8.209676,1.1566523,0.0,0.0,0.0,0.0,0.0,0.0,0.0,12.505216,0.0,0.0,nan,0.0,0.0,0.0,0.0,0.0,0.0,0.0,0.0,1.0069051,1.0067207,1.0012997,0.0,0.0,0.0,0.0,0.0,0.0
