timestamp,unallocated_torque[0],unallocated_torque[1],unallocated_torque[2],unallocated_thrust[0],unallocated_thrust[1],unallocated_thrust[2],handled_motor_failure_mask,torque_setpoint_achieved,thrust_setpoint_achieved,actuator_saturation[0],actuator_saturation[1],actuator_saturation[2],actuator_saturation[3],actuator_saturation[4],actuator_saturation[5],actuator_saturation[6],actuator_saturation[7],actuator_saturation[8],actuator_saturation[9],actuator_saturation[10],actuator_saturation[11],actuator_saturation[12],actuator_saturation[13],actuator_saturation[14],actuator_saturation[15]
3444000,2.1572618e-05,0.00046095,8.658927e-05,0.0,0.0,0.0,0,1,1,-2,-2,-2,-2,2,2,2,2,2,2,2,2,2,2,2,2
3452000,0.0007466166,0.0011273003,-0.00019246453,0.0,0.0,1.5376523e-11,0,0,1,-2,-2,-2,-2,2,2,2,2,2,2,2,2,2,2,2,2
3644000,5.707355e-05,0.00090455497,-0.00030350938,0.0,0.0,0.0,0,1,1,-2,-2,-2,-2,2,2,2,2,2,2,2,2,2,2,2,2
3844000,-0.0004888929,0.0008059672,-0.00020268436,0.0,0.0,4.51592e-11,0,1,1,-2,-2,-2,-2,2,2,2,2,2,2,2,2,2,2,2,2
4044000,0.00066752365,0.00027651706,-0.00052774884,0.0,0.0,1.4551915e-11,0,1,1,-2,-2,-2,-2,2,2,2,2,2,2,2,2,2,2,2,2
4244000,0.020432746,0.022843067,0.0003616494,0.0,0.0,1.1641532e-10,0,0,1,0,-2,0,-2,2,2,2,2,2,2,2,2,2,2,2,2
4444000,0.019750789,0.020670466,0.00022504975,0.0,0.0,5.820766e-10,0,0,1,0,-2,0,-2,2,2,2,2,2,2,2,2,2,2,2,2
4644000,0.020279292,0.022788098,0.00025355627,0.0,0.0,1.1641532e-10,0,0,1,0,-2,0,-2,2,2,2,2,2,2,2,2,2,2,2,2
4844000,0.019930994,0.021582717,0.00015834876,0.0,0.0,5.820766e-10,0,0,1,0,-2,0,-2,2,2,2,2,2,2,2,2,2,2,2,2
5044000,0.01859494,0.021437205,0.0004914072,0.0,0.0,5.820766e-10,0,0,1,0,-2,0,-2,2,2,2,2,2,2,2,2,2,2,2,2
5244000,0.017018346,0.01945014,6.198328e-05,0.0,0.0,4.656613e-10,0,0,1,0,-2,0,-2,2,2,2,2,2,2,2,2,2,2,2,2
5444000,0.01708182,0.018483564,-0.000452178,0.0,0.0,1.1641532e-10,0,0,1,0,-2,0,-2,2,2,2,2,2,2,2,2,2,2,2,2
5644000,0.017332295,0.01894414,-0.00044141774,0.0,0.0,4.656613e-10,0,0,1,0,-2,0,-2,2,2,2,2,2,2,2,2,2,2,2,2
5844000,0.016482636,0.01923792,0.00018662763,0.0,0.0,4.656613e-10,0,0,1,0,-2,0,-2,2,2,2,2,2,2,2,2,2,2,2,2
6044000,0.018046767,0.019339856,0.00019307912,0.0,0.0,1.1641532e-10,0,0,1,0,-2,0,-2,2,2,2,2,2,2,2,2,2,2,2,2
6244000,0.017238628,0.019110518,-0.00042081974,0.0,0.0,1.1641532e-10,0,0,1,0,-2,0,-2,2,2,2,2,2,2,2,2,2,2,2,2
6444000,0.01722021,0.01928984,-0.00018227592,0.0,0.0,5.820766e-10,0,0,1,0,-2,0,-2,2,2,2,2,2,2,2,2,2,2,2,2
6644000,0.017448714,0.018015206,-7.997657e-05,0.0,0.0,1.1641532e-10,0,0,1,0,-2,0,-2,2,2,2,2,2,2,2,2,2,2,2,2
6844000,0.01615007,0.019711988,-0.00014573324,0.0,0.0,-2.3283064e-10,0,0,1,0,-2,0,-2,2,2,2,2,2,2,2,2,2,2,2,2
7044000,0.017165769,0.019127792,-0.0001162229,0.0,0.0,1.1641532e-10,0,0,1,0,-2,0,-2,2,2,2,2,2,2,2,2,2,2,2,2
7244000,0.017865343,0.01972326,-0.0004353049,0.0,0.0,1.1641532e-10,0,0,1,0,-2,0,-2,2,2,2,2,2,2,2,2,2,2,2,2
7444000,0.016539471,0.019530816,-0.00029428882,0.0,0.0,-2.3283064e-10,0,0,1,0,-2,0,-2,2,2,2,2,2,2,2,2,2,2,2,2
7644000,0.018297812,0.020731062,-6.371987e-05,0.0,0.0,1.1641532e-10,0,0,1,0,-2,0,-2,2,2,2,2,2,2,2,2,2,2,2,2
7844000,0.01680923,0.018501185,-0.0002397337,0.0,0.0,1.1641532e-10,0,0,1,0,-2,0,-2,2,2,2,2,2,2,2,2,2,2,2,2
8044000,0.018150538,0.018656276,0.00055782235,0.0,0.0,-2.3283064e-10,0,0,1,0,-2,0,-2,2,2,2,2,2,2,2,2,2,2,2,2
8244000,0.016917475,0.01866589,0.00024509296,0.0,0.0,5.820766e-10,0,0,1,0,-2,0,-2,2,2,2,2,2,2,2,2,2,2,2,2
8444000,0.017718298,0.018945472,0.0007196547,0.0,0.0,1.1641532e-10,0,0,1,0,-2,0,-2,2,2,2,2,2,2,2,2,2,2,2,2
8644000,0.017004227,0.019072797,-0.00022017954,0.0,0.0,1.1641532e-10,0,0,1,0,-2,0,-2,2,2,2,2,2,2,2,2,2,2,2,2
8844000,0.01698187,0.01917994,0.00030154162,0.0,0.0,4.656613e-10,0,0,1,0,-2,0,-2,2,2,2,2,2,2,2,2,2,2,2,2
9044000,0.016852135,0.0192656,0.00014935793,0.0,0.0,1.1641532e-10,0,0,1,0,-2,0,-2,2,2,2,2,2,2,2,2,2,2,2,2
9244000,0.017322991,0.017555902,0.0002675651,0.0,0.0,1.1641532e-10,0,0,1,0,-2,0,-2,2,2,2,2,2,2,2,2,2,2,2,2
9444000,0.01684432,0.018069208,-0.0006865115,0.0,0.0,-8.1490725e-10,0,0,1,0,-2,0,-2,2,2,2,2,2,2,2,2,2,2,2,2
9644000,0.017486434,0.01887234,0.0001413036,0.0,0.0,-2.3283064e-10,0,0,1,0,-2,0,-2,2,2,2,2,2,2,2,2,2,2,2,2
9844000,0.017172448,0.018870788,0.00022798785,0.0,0.0,1.1641532e-10,0,0,1,0,-2,0,-2,2,2,2,2,2,2,2,2,2,2,2,2
10044000,0.017240375,0.017960483,-6.482377e-05,0.0,0.0,5.820766e-10,0,0,1,0,-2,0,-2,2,2,2,2,2,2,2,2,2,2,2,2
10244000,0.017890662,0.019173589,0.0002501995,0.0,0.0,3.4924597e-10,0,0,1,0,-2,0,-2,2,2,2,2,2,2,2,2,2,2,2,2
10444000,0.017232686,0.018738229,0.00014119515,0.0,0.0,4.656613e-10,0,0,1,0,-2,0,-2,2,2,2,2,2,2,2,2,2,2,2,2
10644000,0.017388126,0.01970891,-0.00069686276,0.0,0.0,1.1641532e-10,0,0,1,0,-2,0,-2,2,2,2,2,2,2,2,2,2,2,2,2
10844000,0.016631639,0.017419847,0.00035365022,0.0,0.0,-2.3283064e-10,0,0,1,0,-2,0,-2,2,2,2,2,2,2,2,2,2,2,2,2
11044000,0.016677203,0.01930489,0.00042868414,0.0,0.0,1.1641532e-10,0,0,1,0,-2,0,-2,2,2,2,2,2,2,2,2,2,2,2,2
11244000,0.017882332,0.01822396,0.00029873766,0.0,0.0,-2.3283064e-10,0,0,1,0,-2,0,-2,2,2,2,2,2,2,2,2,2,2,2,2
11444000,0.016719973,0.018855276,0.00011297709,0.0,0.0,1.1641532e-10,0,0,1,0,-2,0,-2,2,2,2,2,2,2,2,2,2,2,2,2
11644000,0.017192593,0.01748988,-0.00019395222,0.0,0.0,1.1641532e-10,0,0,1,0,-2,0,-2,2,2,2,2,2,2,2,2,2,2,2,2
11844000,0.017022343,0.017615587,1.466772e-05,0.0,0.0,1.1641532e-10,0,0,1,0,-2,0,-2,2,2,2,2,2,2,2,2,2,2,2,2
12044000,0.01658531,0.01738931,0.00034314833,0.0,0.0,1.1641532e-10,0,0,1,0,-2,0,-2,2,2,2,2,2,2,2,2,2,2,2,2
12244000,0.016939417,0.01695644,-0.00048468175,0.0,0.0,1.1641532e-10,0,0,1,0,-2,0,-2,2,2,2,2,2,2,2,2,2,2,2,2
12444000,0.016430462,0.017796487,-0.00017624858,0.0,0.0,4.656613e-10,0,0,1,0,-2,0,-2,2,2,2,2,2,2,2,2,2,2,2,2
12644000,0.016620804,0.017598685,0.00021053203,0.0,0.0,8.1490725e-10,0,0,1,0,-2,0,-2,2,2,2,2,2,2,2,2,2,2,2,2
12844000,0.016450275,0.01813357,0.00036014916,0.0,0.0,1.1641532e-10,0,0,1,0,-2,0,-2,2,2,2,2,2,2,2,2,2,2,2,2
13044000,0.01618745,0.017194845,6.20701e-05,0.0,0.0,4.656613e-10,0,0,1,0,-2,0,-2,2,2,2,2,2,2,2,2,2,2,2,2
13244000,0.016321689,0.017117273,-5.5220098e-05,0.0,0.0,1.1641532e-10,0,0,1,0,-2,0,-2,2,2,2,2,2,2,2,2,2,2,2,2
13444000,0.01642921,0.016860947,-0.00010375424,0.0,0.0,5.820766e-10,0,0,1,0,-2,0,-2,2,2,2,2,2,2,2,2,2,2,2,2
13644000,0.017152192,0.01729101,0.00035525666,0.0,0.0,4.656613e-10,0,0,1,0,-2,0,-2,2,2,2,2,2,2,2,2,2,2,2,2
13844000,0.015653886,0.01626994,0.0007384172,0.0,0.0,-2.3283064e-10,0,0,1,0,-2,0,-2,2,2,2,2,2,2,2,2,2,2,2,2
14044000,0.015805678,0.017163847,0.0003130794,0.0,0.0,1.1641532e-10,0,0,1,0,-2,0,-2,2,2,2,2,2,2,2,2,2,2,2,2
14244000,0.017597545,0.017600141,0.0002208733,0.0,0.0,4.656613e-10,0,0,1,0,-2,0,-2,2,2,2,2,2,2,2,2,2,2,2,2
14444000,0.0149633195,0.016773023,0.0005419477,0.0,0.0,3.4924597e-10,0,0,1,0,-2,0,-2,2,2,2,2,2,2,2,2,2,2,2,2
14644000,0.015669234,0.017583529,0.0007257212,0.0,0.0,5.820766e-10,0,0,1,0,-2,0,-2,2,2,2,2,2,2,2,2,2,2,2,2
14844000,0.016054578,0.017272687,7.320856e-05,0.0,0.0,5.820766e-10,0,0,1,0,-2,0,-2,2,2,2,2,2,2,2,2,2,2,2,2
15044000,0.015037361,0.016907694,-2.5226852e-06,0.0,0.0,1.1641532e-10,0,0,1,0,-2,0,-2,2,2,2,2,2,2,2,2,2,2,2,2
15244000,0.0157516,0.016882332,0.0002964382,0.0,0.0,5.820766e-10,0,0,1,0,-2,0,-2,2,2,2,2,2,2,2,2,2,2,2,2
15444000,0.016434632,0.015649613,0.0003161086,0.0,0.0,5.820766e-10,0,0,1,0,-2,0,-2,2,2,2,2,2,2,2,2,2,2,2,2
15644000,0.016537406,0.016291033,-0.00020333647,0.0,0.0,1.1641532e-10,0,0,1,0,-2,0,-2,2,2,2,2,2,2,2,2,2,2,2,2
15844000,0.016120326,0.014986185,-0.00022261728,0.0,0.0,-2.3283064e-10,0,0,1,0,-2,0,-2,2,2,2,2,2,2,2,2,2,2,2,2
16044000,0.01606042,0.015901228,0.00040546255,0.0,0.0,1.1641532e-10,0,0,1,0,-2,0,-2,2,2,2,2,2,2,2,2,2,2,2,2
16244000,0.016094677,0.014861082,-7.694508e-05,0.0,0.0,1.1641532e-10,0,0,1,0,-2,0,-2,2,2,2,2,2,2,2,2,2,2,2,2
16444000,0.016356116,0.016246537,0.00015146878,0.0,0.0,1.1641532e-10,0,0,1,0,-2,0,-2,2,2,2,2,2,2,2,2,2,2,2,2
16644000,0.0162796,0.0153512545,0.00034254658,0.0,0.0,-2.3283064e-10,0,0,1,0,-2,0,-2,2,2,2,2,2,2,2,2,2,2,2,2
16844000,0.016407935,0.016864054,0.00013193354,0.0,0.0,-2.3283064e-10,0,0,1,0,-2,0,-2,2,2,2,2,2,2,2,2,2,2,2,2
17044000,0.015636204,0.015463856,0.00016308881,0.0,0.0,1.1641532e-10,0,0,1,0,-2,0,-2,2,2,2,2,2,2,2,2,2,2,2,2
17244000,0.01648381,0.016047118,-0.00010384977,0.0,0.0,1.1641532e-10,0,0,1,0,-2,0,-2,2,2,2,2,2,2,2,2,2,2,2,2
17444000,0.016234338,0.015285454,0.0006550947,0.0,0.0,1.1641532e-10,0,0,1,0,-2,0,-2,2,2,2,2,2,2,2,2,2,2,2,2
17644000,0.01598844,0.01566939,7.559184e-05,0.0,0.0,-2.3283064e-10,0,0,1,0,-2,0,-2,2,2,2,2,2,2,2,2,2,2,2,2
17844000,0.015811807,0.0146096,-0.00033479958,0.0,0.0,1.1641532e-10,0,0,1,0,-2,0,-2,2,2,2,2,2,2,2,2,2,2,2,2
18044000,0.015675703,0.015055644,4.4210596e-05,0.0,0.0,1.1641532e-10,0,0,1,0,-2,0,-2,2,2,2,2,2,2,2,2,2,2,2,2
18244000,0.015714101,0.0154353725,-7.3432304e-05,0.0,0.0,1.1641532e-10,0,0,1,0,-2,0,-2,2,2,2,2,2,2,2,2,2,2,2,2
18444000,0.015710412,0.015609057,0.00020777709,0.0,0.0,1.1641532e-10,0,0,1,0,-2,0,-2,2,2,2,2,2,2,2,2,2,2,2,2
18644000,0.015376549,0.016122203,-2.4580046e-05,0.0,0.0,1.1641532e-10,0,0,1,0,-2,0,-2,2,2,2,2,2,2,2,2,2,2,2,2
18844000,0.016071245,0.014134128,0.00033092406,0.0,0.0,1.1641532e-10,0,0,1,0,-2,0,-2,2,2,2,2,2,2,2,2,2,2,2,2
19044000,0.01606788,0.013888763,0.0002612675,0.0,0.0,1.1641532e-10,0,0,1,0,-2,0,-2,2,2,2,2,2,2,2,2,2,2,2,2
19244000,0.016154489,0.014008383,6.881187e-05,0.0,0.0,1.1641532e-10,0,0,1,0,-2,0,-2,2,2,2,2,2,2,2,2,2,2,2,2
19444000,0.0153197115,0.014460349,0.00024648957,0.0,0.0,-1.1641532e-10,0,0,1,0,-2,0,-2,2,2,2,2,2,2,2,2,2,2,2,2
19644000,0.015927304,0.015010267,-0.0003194847,0.0,0.0,1.1641532e-10,0,0,1,0,-2,0,-2,2,2,2,2,2,2,2,2,2,2,2,2
19844000,0.01563972,0.013936105,0.0007140841,0.0,0.0,1.1641532e-10,0,0,1,0,-2,0,-2,2,2,2,2,2,2,2,2,2,2,2,2
20044000,0.016072528,0.01462377,0.00041271513,0.0,0.0,1.1641532e-10,0,0,1,0,-2,0,-2,2,2,2,2,2,2,2,2,2,2,2,2
20244000,0.0146381855,0.014627238,0.00017976543,0.0,0.0,1.1641532e-10,0,0,1,0,-2,0,-2,2,2,2,2,2,2,2,2,2,2,2,2
20444000,0.015493517,0.01372851,-0.00014213816,0.0,0.0,-8.1490725e-10,0,0,1,0,-2,0,-2,2,2,2,2,2,2,2,2,2,2,2,2
20644000,0.014730031,0.013687964,0.00018753209,0.0,0.0,4.656613e-10,0,0,1,0,-2,0,-2,2,2,2,2,2,2,2,2,2,2,2,2
20844000,0.014428604,0.014802218,0.0001673542,0.0,0.0,1.1641532e-10,0,0,1,0,-2,0,-2,2,2,2,2,2,2,2,2,2,2,2,2
21044000,0.015195976,0.014311408,0.0009785774,0.0,0.0,1.1641532e-10,0,0,1,0,-2,0,-2,2,2,2,2,2,2,2,2,2,2,2,2
21244000,0.01454473,0.013798465,0.00021805348,0.0,0.0,-1.1641532e-10,0,0,1,0,-2,0,-2,2,2,2,2,2,2,2,2,2,2,2,2
21444000,0.015348183,0.014436365,0.0003341421,0.0,0.0,1.1641532e-10,0,0,1,0,-2,0,-2,2,2,2,2,2,2,2,2,2,2,2,2
21644000,0.015542122,0.014434476,0.00020497851,0.0,0.0,-8.1490725e-10,0,0,1,0,-2,0,-2,2,2,2,2,2,2,2,2,2,2,2,2
21844000,0.014226582,0.014527913,0.00013450929,0.0,0.0,3.4924597e-10,0,0,1,0,-2,0,-2,2,2,2,2,2,2,2,2,2,2,2,2
22044000,0.013009399,0.0138417035,9.449618e-05,0.0,0.0,-2.3283064e-10,0,0,1,0,-2,0,-2,2,2,2,2,2,2,2,2,2,2,2,2
22244000,0.015349608,0.014941688,0.00047466974,0.0,0.0,5.820766e-10,0,0,1,0,-2,0,-2,2,2,2,2,2,2,2,2,2,2,2,2
22444000,0.01502719,0.013110364,0.000452113,0.0,0.0,-1.1641532e-10,0,0,1,0,-2,0,-2,2,2,2,2,2,2,2,2,2,2,2,2
22644000,0.014024968,0.014012298,-8.592255e-06,0.0,0.0,5.820766e-10,0,0,1,0,-2,0,-2,2,2,2,2,2,2,2,2,2,2,2,2
22844000,0.015702281,0.011436563,1.8258463e-06,0.0,0.0,1.0477379e-09,0,0,1,0,-2,0,-2,2,2,2,2,2,2,2,2,2,2,2,2
23044000,0.014478334,0.014328135,0.00048855646,0.0,0.0,-2.3283064e-10,0,0,1,0,-2,0,-2,2,2,2,2,2,2,2,2,2,2,2,2
23244000,0.014842951,0.0126399845,-0.0003061877,0.0,0.0,-3.4924597e-10,0,0,1,0,-2,0,-2,2,2,2,2,2,2,2,2,2,2,2,2
23444000,0.014566177,0.012876345,-0.0003668527,0.0,0.0,-3.4924597e-10,0,0,1,0,-2,0,-2,2,2,2,2,2,2,2,2,2,2,2,2
23644000,0.015372131,0.01358089,0.0003744228,0.0,0.0,1.1641532e-10,0,0,1,0,-2,0,-2,2,2,2,2,2,2,2,2,2,2,2,2
23844000,0.013931475,0.014261484,-7.7101366e-05,0.0,0.0,1.1641532e-10,0,0,1,0,-2,0,-2,2,2,2,2,2,2,2,2,2,2,2,2
24044000,0.015068363,0.013997021,9.750389e-06,0.0,0.0,5.820766e-10,0,0,1,0,-2,0,-2,2,2,2,2,2,2,2,2,2,2,2,2
24244000,0.013888708,0.012814391,-0.00014314755,0.0,0.0,1.1641532e-10,0,0,1,0,-2,0,-2,2,2,2,2,2,2,2,2,2,2,2,2
24444000,0.014908522,0.013117646,0.00016649238,0.0,0.0,1.1641532e-10,0,0,1,0,-2,0,-2,2,2,2,2,2,2,2,2,2,2,2,2
24644000,0.014538068,0.01352412,0.0004235828,0.0,0.0,-2.3283064e-10,0,0,1,0,-2,0,-2,2,2,2,2,2,2,2,2,2,2,2,2
24844000,0.0150377,0.014017353,0.00020298552,0.0,0.0,5.820766e-10,0,0,1,0,-2,0,-2,2,2,2,2,2,2,2,2,2,2,2,2
25044000,0.014261057,0.012827532,0.00034623113,0.0,0.0,-3.4924597e-10,0,0,1,0,-2,0,-2,2,2,2,2,2,2,2,2,2,2,2,2
25244000,0.013444528,0.013682099,-0.0003478365,0.0,0.0,1.1641532e-10,0,0,1,0,-2,0,-2,2,2,2,2,2,2,2,2,2,2,2,2
25444000,0.013736453,0.013712514,0.00015976255,0.0,0.0,1.1641532e-10,0,0,1,0,-2,0,-2,2,2,2,2,2,2,2,2,2,2,2,2
25644000,0.013720504,0.014178855,1.6538112e-05,0.0,0.0,1.1641532e-10,0,0,1,0,-2,0,-2,2,2,2,2,2,2,2,2,2,2,2,2
25844000,0.01467558,0.014214546,-0.00026507964,0.0,0.0,1.1641532e-10,0,0,1,0,-2,0,-2,2,2,2,2,2,2,2,2,2,2,2,2
26044000,0.014387376,0.013936394,0.0010117469,0.0,0.0,1.1641532e-10,0,0,1,0,-2,0,-2,2,2,2,2,2,2,2,2,2,2,2,2
26244000,0.014477772,0.014145132,-0.000493286,0.0,0.0,1.1641532e-10,0,0,1,0,-2,0,-2,2,2,2,2,2,2,2,2,2,2,2,2
26444000,0.0150254825,0.013941511,5.8020934e-05,0.0,0.0,1.1641532e-10,0,0,1,0,-2,0,-2,2,2,2,2,2,2,2,2,2,2,2,2
26644000,0.014425432,0.013755542,-5.5150936e-06,0.0,0.0,1.1641532e-10,0,0,1,0,-2,0,-2,2,2,2,2,2,2,2,2,2,2,2,2
26844000,0.014620035,0.013077014,0.0002529354,0.0,0.0,1.1641532e-10,0,0,1,0,-2,0,-2,2,2,2,2,2,2,2,2,2,2,2,2
27044000,0.014660148,0.013242453,0.00010913421,0.0,0.0,1.1641532e-10,0,0,1,0,-2,0,-2,2,2,2,2,2,2,2,2,2,2,2,2
27244000,0.014816407,0.01302612,-0.0003588333,0.0,0.0,1.1641532e-10,0,0,1,0,-2,0,-2,2,2,2,2,2,2,2,2,2,2,2,2
27444000,0.014611582,0.012751414,0.0001693694,0.0,0.0,5.820766e-10,0,0,1,0,-2,0,-2,2,2,2,2,2,2,2,2,2,2,2,2
27644000,0.013961311,0.013262148,0.00043793904,0.0,0.0,1.1641532e-10,0,0,1,0,-2,0,-2,2,2,2,2,2,2,2,2,2,2,2,2
27844000,0.014029742,0.0137070045,-0.0002992263,0.0,0.0,-2.3283064e-10,0,0,1,0,-2,0,-2,2,2,2,2,2,2,2,2,2,2,2,2
28044000,0.014718676,0.013096042,-0.00023733346,0.0,0.0,1.1641532e-10,0,0,1,0,-2,0,-2,2,2,2,2,2,2,2,2,2,2,2,2
28244000,0.013186568,0.014680281,-0.00021547898,0.0,0.0,-2.3283064e-10,0,0,1,0,-2,0,-2,2,2,2,2,2,2,2,2,2,2,2,2
28444000,0.0136572225,0.014023058,0.00014869307,0.0,0.0,5.820766e-10,0,0,1,0,-2,0,-2,2,2,2,2,2,2,2,2,2,2,2,2
28644000,0.013511756,0.014348145,6.45158e-05,0.0,0.0,1.1641532e-10,0,0,1,0,-2,0,-2,2,2,2,2,2,2,2,2,2,2,2,2
28844000,0.014374056,0.013572802,3.8360467e-05,0.0,0.0,-2.3283064e-10,0,0,1,0,-2,0,-2,2,2,2,2,2,2,2,2,2,2,2,2
29044000,0.014122732,0.013826552,-4.290488e-05,0.0,0.0,1.1641532e-10,0,0,1,0,-2,0,-2,2,2,2,2,2,2,2,2,2,2,2,2
29244000,0.014145585,0.014783251,8.860702e-05,0.0,0.0,1.1641532e-10,0,0,1,0,-2,0,-2,2,2,2,2,2,2,2,2,2,2,2,2
29444000,0.0147140715,0.014262506,0.00018783874,0.0,0.0,5.820766e-10,0,0,1,0,-2,0,-2,2,2,2,2,2,2,2,2,2,2,2,2
29644000,0.014670328,0.01419729,-5.0044062e-05,0.0,0.0,1.1641532e-10,0,0,1,0,-2,0,-2,2,2,2,2,2,2,2,2,2,2,2,2
29844000,0.013732223,0.015092426,0.00010537891,0.0,0.0,5.820766e-10,0,0,1,0,-2,0,-2,2,2,2,2,2,2,2,2,2,2,2,2
30044000,0.014758748,0.014376319,6.685095e-05,0.0,0.0,-8.1490725e-10,0,0,1,0,-2,0,-2,2,2,2,2,2,2,2,2,2,2,2,2
30244000,0.014960318,0.014173276,4.0228584e-05,0.0,0.0,-2.3283064e-10,0,0,1,0,-2,0,-2,2,2,2,2,2,2,2,2,2,2,2,2
30444000,0.01407635,0.014486654,-0.00019016593,0.0,0.0,-2.3283064e-10,0,0,1,0,-2,0,-2,2,2,2,2,2,2,2,2,2,2,2,2
30644000,0.015164661,0.015161766,-0.00076108857,0.0,0.0,-2.3283064e-10,0,0,1,0,-2,0,-2,2,2,2,2,2,2,2,2,2,2,2,2
30844000,0.014467368,0.015227966,0.00070342683,0.0,0.0,3.4924597e-10,0,0,1,0,-2,0,-2,2,2,2,2,2,2,2,2,2,2,2,2
31044000,0.014602614,0.015910741,0.00020546169,0.0,0.0,-2.3283064e-10,0,0,1,0,-2,0,-2,2,2,2,2,2,2,2,2,2,2,2,2
31244000,0.015144415,0.014432713,0.00045393643,0.0,0.0,-2.3283064e-10,0,0,1,0,-2,0,-2,2,2,2,2,2,2,2,2,2,2,2,2
31444000,0.0,0.0,-4.0745363e-10,0.0,0.0,0.0,0,1,1,0,0,0,0,2,2,2,2,2,2,2,2,2,2,2,2
31644000,-1.8626451e-09,2.7939677e-09,-7.566996e-10,0.0,0.0,-3.7252903e-09,0,1,1,0,0,0,0,2,2,2,2,2,2,2,2,2,2,2,2
31844000,-1.8626451e-09,-1.8626451e-09,1.8626451e-09,0.0,0.0,0.0,0,1,1,0,0,0,0,2,2,2,2,2,2,2,2,2,2,2,2
32044000,1.8626451e-09,-1.0244548e-08,6.344635e-09,0.0,0.0,0.0,0,1,1,0,0,0,0,2,2,2,2,2,2,2,2,2,2,2,2
32244000,9.313226e-09,-1.21071935e-08,-4.438334e-09,0.0,0.0,0.0,0,1,1,0,0,0,0,2,2,2,2,2,2,2,2,2,2,2,2
32444000,-9.313226e-09,1.0244548e-08,-3.931291e-09,0.0,0.0,-2.9802322e-08,0,1,1,0,0,0,0,2,2,2,2,2,2,2,2,2,2,2,2
32644000,-3.7252903e-09,-1.3038516e-08,-5.0931703e-11,0.0,0.0,-2.9802322e-08,0,1,1,0,0,0,0,2,2,2,2,2,2,2,2,2,2,2,2
32844000,-1.8626451e-08,1.4901161e-08,1.7083948e-08,0.0,0.0,0.0,0,1,1,0,0,0,0,2,2,2,2,2,2,2,2,2,2,2,2
33044000,-4.8428774e-08,3.7252903e-09,1.0069925e-08,0.0,0.0,0.0,0,1,1,0,0,0,0,2,2,2,2,2,2,2,2,2,2,2,2
33244000,0.0,-1.1175871e-08,-3.446621e-08,0.0,0.0,0.0,0,1,1,0,0,0,0,2,2,2,2,2,2,2,2,2,2,2,2
33444000,-1.8626451e-08,1.6763806e-08,-6.199116e-09,0.0,0.0,-2.9802322e-08,0,1,1,0,0,0,0,2,2,2,2,2,2,2,2,2,2,2,2
33644000,-4.4703484e-08,7.450581e-09,-6.7666406e-09,0.0,0.0,0.0,0,1,1,0,0,0,0,2,2,2,2,2,2,2,2,2,2,2,2
33844000,-5.9604645e-08,-3.7252903e-08,1.0491931e-08,0.0,0.0,2.9802322e-08,0,1,1,0,0,0,0,2,2,2,2,2,2,2,2,2,2,2,2
34044000,1.4901161e-08,0.0,-2.7546776e-08,0.0,0.0,0.0,0,1,1,0,0,0,0,2,2,2,2,2,2,2,2,2,2,2,2
34244000,2.9802322e-08,2.7939677e-08,-3.5666744e-08,0.0,0.0,0.0,0,1,1,0,0,0,0,2,2,2,2,2,2,2,2,2,2,2,2
34444000,-2.9802322e-08,0.0,-1.6654667e-08,0.0,0.0,0.0,0,1,1,0,0,0,0,2,2,2,2,2,2,2,2,2,2,2,2
34644000,-1.1175871e-07,-3.7252903e-09,2.1893356e-08,0.0,0.0,0.0,0,1,1,0,0,0,0,2,2,2,2,2,2,2,2,2,2,2,2
34844000,7.4505806e-08,-3.7252903e-09,-4.947651e-09,0.0,0.0,-5.9604645e-08,0,1,1,0,0,0,0,2,2,2,2,2,2,2,2,2,2,2,2
35044000,2.0489097e-08,3.1664968e-08,1.816079e-08,0.0,0.0,-5.9604645e-08,0,1,1,0,0,0,0,2,2,2,2,2,2,2,2,2,2,2,2
35244000,-1.3038516e-08,2.8405339e-08,-2.9918738e-08,0.0,0.0,0.0,0,1,1,0,0,0,0,2,2,2,2,2,2,2,2,2,2,2,2
35444000,-2.561137e-08,-3.213063e-08,2.7386704e-08,0.0,0.0,-5.9604645e-08,0,1,1,0,0,0,0,2,2,2,2,2,2,2,2,2,2,2,2
35644000,1.1059456e-08,9.313226e-10,-2.728484e-10,0.0,0.0,-5.9604645e-08,0,1,1,0,0,0,0,2,2,2,2,2,2,2,2,2,2,2,2
35844000,-5.3902113e-08,-1.4901161e-08,2.3923349e-08,0.0,0.0,-5.9604645e-08,0,1,1,0,0,0,0,2,2,2,2,2,2,2,2,2,2,2,2
36044000,-2.142042e-08,1.5832484e-08,1.4770194e-08,0.0,0.0,-5.9604645e-08,0,1,1,0,0,0,0,2,2,2,2,2,2,2,2,2,2,2,2
36244000,7.124618e-08,-1.7695129e-08,-2.6193447e-09,0.0,0.0,-5.9604645e-08,0,1,1,0,0,0,0,2,2,2,2,2,2,2,2,2,2,2,2
36444000,1.094304e-08,-1.1641532e-08,7.945346e-09,0.0,0.0,-5.9604645e-08,0,1,1,0,0,0,0,2,2,2,2,2,2,2,2,2,2,2,2
36644000,-1.5777914e-08,-4.5634806e-08,5.7334546e-09,0.0,0.0,0.0,0,1,1,0,0,0,0,2,2,2,2,2,2,2,2,2,2,2,2
36844000,3.585592e-08,-3.3993274e-08,-8.971256e-09,0.0,0.0,-5.9604645e-08,0,1,1,0,0,0,0,2,2,2,2,2,2,2,2,2,2,2,2
37044000,-1.5832484e-08,-7.916242e-09,2.4345354e-08,0.0,0.0,-5.9604645e-08,0,1,1,0,0,0,0,2,2,2,2,2,2,2,2,2,2,2,2
37244000,-4.2491592e-08,1.3504177e-08,3.783498e-09,0.0,0.0,0.0,0,1,1,0,0,0,0,2,2,2,2,2,2,2,2,2,2,2,2
37444000,-6.9849193e-09,-3.4924597e-09,-7.3378033e-09,0.0,0.0,-5.9604645e-08,0,1,1,0,0,0,0,2,2,2,2,2,2,2,2,2,2,2,2
37644000,3.3265678e-08,1.5366822e-08,1.0099029e-08,0.0,0.0,0.0,0,1,1,0,0,0,0,2,2,2,2,2,2,2,2,2,2,2,2
37844000,-6.519258e-08,-4.8894435e-08,1.1350494e-09,0.0,0.0,-5.9604645e-08,0,1,1,0,0,0,0,2,2,2,2,2,2,2,2,2,2,2,2
38044000,-3.6903657e-08,-6.0535967e-09,-8.265488e-09,0.0,0.0,-5.9604645e-08,0,1,1,0,0,0,0,2,2,2,2,2,2,2,2,2,2,2,2
38244000,2.1012966e-08,-2.0256266e-08,1.884473e-09,0.0,0.0,0.0,0,1,1,0,0,0,0,2,2,2,2,2,2,2,2,2,2,2,2
38444000,5.797483e-08,-7.916242e-09,1.0353688e-08,0.0,0.0,-5.9604645e-08,0,1,1,0,0,0,0,2,2,2,2,2,2,2,2,2,2,2,2
38644000,5.273614e-08,2.4214387e-08,1.7156708e-08,0.0,0.0,-5.9604645e-08,0,1,1,0,0,0,0,2,2,2,2,2,2,2,2,2,2,2,2
38844000,-1.6123522e-08,-1.9324943e-08,-5.820766e-09,0.0,0.0,-5.9604645e-08,0,1,1,0,0,0,0,2,2,2,2,2,2,2,2,2,2,2,2
39044000,-5.2850737e-09,-3.0267984e-09,3.5448465e-08,0.0,0.0,-5.9604645e-08,0,1,1,0,0,0,0,2,2,2,2,2,2,2,2,2,2,2,2
39244000,-1.1175871e-08,3.7718564e-08,1.8102583e-08,0.0,0.0,-5.9604645e-08,0,1,1,0,0,0,0,2,2,2,2,2,2,2,2,2,2,2,2
39444000,-8.1490725e-10,-1.1175871e-08,-2.6877387e-08,0.0,0.0,-5.9604645e-08,0,1,1,0,0,0,0,2,2,2,2,2,2,2,2,2,2,2,2
39644000,-4.5401976e-09,-9.313226e-10,6.0608727e-09,0.0,0.0,-5.9604645e-08,0,1,1,0,0,0,0,2,2,2,2,2,2,2,2,2,2,2,2
39844000,4.48199e-08,-2.3283064e-08,3.0559022e-08,0.0,0.0,-5.9604645e-08,0,1,1,0,0,0,0,2,2,2,2,2,2,2,2,2,2,2,2
40044000,1.3969839e-09,-5.820766e-09,1.0910298e-08,0.0,0.0,0.0,0,1,1,0,0,0,0,2,2,2,2,2,2,2,2,2,2,2,2
40244000,1.3504177e-08,2.0954758e-08,-2.0991138e-08,0.0,0.0,0.0,0,1,1,0,0,0,0,2,2,2,2,2,2,2,2,2,2,2,2
40444000,6.2573235e-09,3.3993274e-08,-1.2194505e-08,0.0,0.0,0.0,0,1,1,0,0,0,0,2,2,2,2,2,2,2,2,2,2,2,2
40644000,1.6021659e-08,1.6298145e-08,1.4697434e-08,0.0,0.0,-5.9604645e-08,0,1,1,0,0,0,0,2,2,2,2,2,2,2,2,2,2,2,2
40844000,9.3947165e-08,-1.21071935e-08,6.504706e-09,0.0,0.0,-5.9604645e-08,0,1,1,0,0,0,0,2,2,2,2,2,2,2,2,2,2,2,2
41044000,2.8085196e-08,-7.916242e-09,-1.1612428e-08,0.0,0.0,0.0,0,1,1,0,0,0,0,2,2,2,2,2,2,2,2,2,2,2,2
41244000,-5.2226824e-08,-2.7939677e-08,-1.967419e-08,0.0,0.0,-5.9604645e-08,0,1,1,0,0,0,0,2,2,2,2,2,2,2,2,2,2,2,2
41444000,-1.1175871e-08,-3.213063e-08,1.2769306e-08,0.0,0.0,0.0,0,1,1,0,0,0,0,2,2,2,2,2,2,2,2,2,2,2,2
41644000,3.3469405e-08,3.1199306e-08,-1.5807018e-09,0.0,0.0,-5.9604645e-08,0,1,1,0,0,0,0,2,2,2,2,2,2,2,2,2,2,2,2
41844000,-4.5401976e-09,2.2351742e-08,1.0826625e-08,0.0,0.0,-5.9604645e-08,0,1,1,0,0,0,0,2,2,2,2,2,2,2,2,2,2,2,2
42044000,4.0512532e-08,-2.7939677e-09,-1.8349965e-08,0.0,0.0,0.0,0,1,1,0,0,0,0,2,2,2,2,2,2,2,2,2,2,2,2
42244000,-3.1664968e-08,2.7474016e-08,-2.7765054e-08,0.0,0.0,0.0,0,1,1,0,0,0,0,2,2,2,2,2,2,2,2,2,2,2,2
42444000,3.039895e-08,3.0267984e-08,-2.3166649e-08,0.0,0.0,0.0,0,1,1,0,0,0,0,2,2,2,2,2,2,2,2,2,2,2,2
42644000,5.745096e-08,-1.9790605e-08,5.005859e-09,0.0,0.0,0.0,0,1,1,0,0,0,0,2,2,2,2,2,2,2,2,2,2,2,2
42844000,-6.177288e-08,-1.44355e-08,9.313226e-09,0.0,0.0,-5.9604645e-08,0,1,1,0,0,0,0,2,2,2,2,2,2,2,2,2,2,2,2
43044000,7.0780516e-08,-1.3038516e-08,-4.4703484e-08,0.0,0.0,0.0,0,1,1,0,0,0,0,2,2,2,2,2,2,2,2,2,2,2,2
43244000,-3.0733645e-08,2.8871e-08,-4.4703484e-08,0.0,0.0,0.0,0,1,1,0,0,0,0,2,2,2,2,2,2,2,2,2,2,2,2
43444000,-6.3853804e-08,3.3527613e-08,1.5832484e-08,0.0,0.0,0.0,0,1,1,0,0,0,0,2,2,2,2,2,2,2,2,2,2,2,2
43644000,1.1594966e-07,3.7252903e-09,1.3969839e-08,0.0,0.0,0.0,0,1,1,0,0,0,0,2,2,2,2,2,2,2,2,2,2,2,2
43844000,-3.4458935e-08,3.7252903e-09,-1.44355e-08,0.0,0.0,-5.9604645e-08,0,1,1,0,0,0,0,2,2,2,2,2,2,2,2,2,2,2,2
44044000,-9.778887e-09,-1.3271347e-08,2.7939677e-08,0.0,0.0,0.0,0,1,1,0,0,0,0,2,2,2,2,2,2,2,2,2,2,2,2
44244000,-3.4691766e-08,-8.8475645e-09,3.7252903e-09,0.0,0.0,-5.9604645e-08,0,1,1,0,0,0,0,2,2,2,2,2,2,2,2,2,2,2,2
44444000,1.1641532e-08,2.3283064e-08,2.7241185e-08,0.0,0.0,-5.9604645e-08,0,1,1,0,0,0,0,2,2,2,2,2,2,2,2,2,2,2,2
44644000,9.126961e-08,-1.8626451e-09,2.9802322e-08,0.0,0.0,-5.9604645e-08,0,1,1,0,0,0,0,2,2,2,2,2,2,2,2,2,2,2,2
44844000,1.8335413e-08,2.9802322e-08,0.0,0.0,0.0,-5.9604645e-08,0,1,1,0,0,0,0,2,2,2,2,2,2,2,2,2,2,2,2
45044000,-4.1909516e-08,2.2351742e-08,3.9115548e-08,0.0,0.0,-5.9604645e-08,0,1,1,0,0,0,0,2,2,2,2,2,2,2,2,2,2,2,2
45244000,8.195639e-08,1.1175871e-08,6.9849193e-09,0.0,0.0,-5.9604645e-08,0,1,1,0,0,0,0,2,2,2,2,2,2,2,2,2,2,2,2
45444000,3.5390258e-08,9.313226e-09,-1.21071935e-08,0.0,0.0,-5.9604645e-08,0,1,1,0,0,0,0,2,2,2,2,2,2,2,2,2,2,2,2
45644000,-9.313226e-09,-2.2351742e-08,-2.142042e-08,0.0,0.0,-1.1920929e-07,0,1,1,0,0,0,0,2,2,2,2,2,2,2,2,2,2,2,2
45844000,-9.313226e-10,-2.9802322e-08,-1.0302756e-08,0.0,0.0,-1.1920929e-07,0,1,1,0,0,0,0,2,2,2,2,2,2,2,2,2,2,2,2
46044000,-4.1909516e-09,-4.656613e-09,-3.958121e-09,0.0,0.0,0.0,0,1,1,0,0,0,0,2,2,2,2,2,2,2,2,2,2,2,2
46244000,-8.1490725e-09,-1.1175871e-08,4.816684e-09,0.0,0.0,-5.9604645e-08,0,1,1,0,0,0,0,2,2,2,2,2,2,2,2,2,2,2,2
46444000,-8.940697e-08,-2.7939677e-08,-1.0302756e-08,0.0,0.0,0.0,0,1,1,0,0,0,0,2,2,2,2,2,2,2,2,2,2,2,2
46644000,-6.344635e-08,-1.8626451e-09,-1.1088559e-08,0.0,0.0,-5.9604645e-08,0,1,1,0,0,0,0,2,2,2,2,2,2,2,2,2,2,2,2
46844000,-7.124618e-08,5.5879354e-09,-2.0721927e-08,0.0,0.0,-5.9604645e-08,0,1,1,0,0,0,0,2,2,2,2,2,2,2,2,2,2,2,2
47044000,-1.679291e-08,-3.5390258e-08,-3.1475793e-08,0.0,0.0,0.0,0,1,1,0,0,0,0,2,2,2,2,2,2,2,2,2,2,2,2
47244000,3.562309e-08,3.7252903e-09,1.4610123e-08,0.0,0.0,-5.9604645e-08,0,1,1,0,0,0,0,2,2,2,2,2,2,2,2,2,2,2,2
47444000,-9.324867e-08,1.8626451e-09,1.5861588e-08,0.0,0.0,-5.9604645e-08,0,1,1,0,0,0,0,2,2,2,2,2,2,2,2,2,2,2,2
47644000,2.5844201e-08,-1.8626451e-09,1.4799298e-08,0.0,0.0,0.0,0,1,1,0,0,0,0,2,2,2,2,2,2,2,2,2,2,2,2
47844000,1.033186e-07,0.0,-4.307367e-08,0.0,0.0,-5.9604645e-08,0,1,1,0,0,0,0,2,2,2,2,2,2,2,2,2,2,2,2
48044000,1.010485e-07,5.5879354e-09,2.910383e-09,0.0,0.0,0.0,0,1,1,0,0,0,0,2,2,2,2,2,2,2,2,2,2,2,2
48244000,-2.910383e-08,-1.3038516e-08,-2.1944288e-08,0.0,0.0,-5.9604645e-08,0,1,1,0,0,0,0,2,2,2,2,2,2,2,2,2,2,2,2
48444000,-1.9790605e-08,1.8626451e-08,1.1568773e-08,0.0,0.0,0.0,0,1,1,0,0,0,0,2,2,2,2,2,2,2,2,2,2,2,2
48644000,3.562309e-08,1.6763806e-08,-2.4039764e-08,0.0,0.0,-5.9604645e-08,0,1,1,0,0,0,0,2,2,2,2,2,2,2,2,2,2,2,2
48844000,-3.457535e-08,1.8626451e-08,-1.6283593e-08,0.0,0.0,-5.9604645e-08,0,1,1,0,0,0,0,2,2,2,2,2,2,2,2,2,2,2,2
49044000,-1.8975697e-08,2.2351742e-08,-1.1874363e-08,0.0,0.0,-5.9604645e-08,0,1,1,0,0,0,0,2,2,2,2,2,2,2,2,2,2,2,2
49244000,2.2118911e-08,-2.2351742e-08,-3.5142875e-08,0.0,0.0,-5.9604645e-08,0,1,1,0,0,0,0,2,2,2,2,2,2,2,2,2,2,2,2
49444000,4.7148205e-09,3.1664968e-08,-2.7153874e-08,0.0,0.0,-5.9604645e-08,0,1,1,0,0,0,0,2,2,2,2,2,2,2,2,2,2,2,2
49644000,-4.4085027e-08,1.8626451e-09,-8.6729415e-09,0.0,0.0,-5.9604645e-08,0,1,1,0,0,0,0,2,2,2,2,2,2,2,2,2,2,2,2
49844000,-1.1874363e-08,3.7252903e-09,-9.604264e-10,0.0,0.0,0.0,0,1,1,0,0,0,0,2,2,2,2,2,2,2,2,2,2,2,2
50044000,-2.73576e-08,3.7252903e-09,-3.6146957e-08,0.0,0.0,0.0,0,1,1,0,0,0,0,2,2,2,2,2,2,2,2,2,2,2,2
50244000,4.9185473e-08,-5.5879354e-09,-7.9744495e-09,0.0,0.0,5.9604645e-08,0,1,1,0,0,0,0,2,2,2,2,2,2,2,2,2,2,2,2
50444000,-8.230563e-08,0.0,7.188646e-09,0.0,0.0,0.0,0,1,1,0,0,0,0,2,2,2,2,2,2,2,2,2,2,2,2
50644000,-4.004687e-08,1.8626451e-08,-7.841663e-09,0.0,0.0,0.0,0,1,1,0,0,0,0,2,2,2,2,2,2,2,2,2,2,2,2
50844000,-3.0500814e-08,3.7252903e-09,-3.3669494e-09,0.0,0.0,0.0,0,1,1,0,0,0,0,2,2,2,2,2,2,2,2,2,2,2,2
51044000,1.14087015e-08,1.1175871e-08,2.2150118e-08,0.0,0.0,-5.9604645e-08,0,1,1,0,0,0,0,2,2,2,2,2,2,2,2,2,2,2,2
51244000,4.5867637e-08,3.1664968e-08,1.0630174e-08,0.0,0.0,0.0,0,1,1,0,0,0,0,2,2,2,2,2,2,2,2,2,2,2,2
51444000,2.0561856e-08,9.313226e-09,-7.392373e-09,0.0,0.0,-5.9604645e-08,0,1,1,0,0,0,0,2,2,2,2,2,2,2,2,2,2,2,2
51644000,4.353933e-08,1.8626451e-09,9.633368e-09,0.0,0.0,-5.9604645e-08,0,1,1,0,0,0,0,2,2,2,2,2,2,2,2,2,2,2,2
51844000,-2.4680503e-08,1.3038516e-08,-1.8926585e-08,0.0,0.0,0.0,0,1,1,0,0,0,0,2,2,2,2,2,2,2,2,2,2,2,2
52044000,-1.6239937e-08,2.4214387e-08,-7.916242e-09,0.0,0.0,0.0,0,1,1,0,0,0,0,2,2,2,2,2,2,2,2,2,2,2,2
52244000,-2.8790964e-08,1.3038516e-08,-8.440111e-10,0.0,0.0,-5.9604645e-08,0,1,1,0,0,0,0,2,2,2,2,2,2,2,2,2,2,2,2
52444000,-1.641456e-08,-1.6763806e-08,-1.5279511e-08,0.0,0.0,0.0,0,1,1,0,0,0,0,2,2,2,2,2,2,2,2,2,2,2,2
52644000,-3.8620783e-08,5.5879354e-09,-2.2613676e-08,0.0,0.0,0.0,0,1,1,0,0,0,0,2,2,2,2,2,2,2,2,2,2,2,2
52844000,-1.1816155e-08,-2.9802322e-08,1.15833245e-08,0.0,0.0,0.0,0,1,1,0,0,0,0,2,2,2,2,2,2,2,2,2,2,2,2
53044000,-8.265488e-09,0.0,9.255018e-09,0.0,0.0,-5.9604645e-08,0,1,1,0,0,0,0,2,2,2,2,2,2,2,2,2,2,2,2
53244000,3.4153345e-08,-1.8626451e-09,-3.2581738e-08,0.0,0.0,0.0,0,1,1,0,0,0,0,2,2,2,2,2,2,2,2,2,2,2,2
53444000,2.6775524e-08,7.450581e-09,-2.0056177e-08,0.0,0.0,-5.9604645e-08,0,1,1,0,0,0,0,2,2,2,2,2,2,2,2,2,2,2,2
53644000,8.230563e-08,1.1175871e-08,2.9336661e-08,0.0,0.0,0.0,0,1,1,0,0,0,0,2,2,2,2,2,2,2,2,2,2,2,2
53844000,-2.9394869e-08,3.5390258e-08,-1.0681106e-08,0.0,0.0,-5.9604645e-08,0,1,1,0,0,0,0,2,2,2,2,2,2,2,2,2,2,2,2
54044000,-1.8510036e-08,2.0489097e-08,-1.6647391e-08,0.0,0.0,0.0,0,1,1,0,0,0,0,2,2,2,2,2,2,2,2,2,2,2,2
54244000,-1.4551915e-08,1.1175871e-08,-3.5273843e-08,0.0,0.0,0.0,0,1,1,0,0,0,0,2,2,2,2,2,2,2,2,2,2,2,2
54444000,-4.1123712e-08,1.3038516e-08,-2.4549081e-08,0.0,0.0,-5.9604645e-08,0,1,1,0,0,0,0,2,2,2,2,2,2,2,2,2,2,2,2
54644000,2.6077032e-08,2.7939677e-08,1.2412784e-08,0.0,0.0,0.0,0,1,1,0,0,0,0,2,2,2,2,2,2,2,2,2,2,2,2
54844000,7.482595e-08,-9.313226e-09,-1.3766112e-08,0.0,0.0,-5.9604645e-08,0,1,1,0,0,0,0,2,2,2,2,2,2,2,2,2,2,2,2
55044000,-9.567884e-09,7.450581e-09,-7.730705e-09,0.0,0.0,-5.9604645e-08,0,1,1,0,0,0,0,2,2,2,2,2,2,2,2,2,2,2,2
55244000,-7.36909e-08,5.5879354e-09,1.4086254e-08,0.0,0.0,-5.9604645e-08,0,1,1,0,0,0,0,2,2,2,2,2,2,2,2,2,2,2,2
55444000,-4.004687e-08,-9.313226e-09,1.5104888e-08,0.0,0.0,-5.9604645e-08,0,1,1,0,0,0,0,2,2,2,2,2,2,2,2,2,2,2,2
55644000,-3.480818e-08,1.8626451e-09,-1.3387762e-09,0.0,0.0,5.9604645e-08,0,1,1,0,0,0,0,2,2,2,2,2,2,2,2,2,2,2,2
55844000,-2.5815098e-08,-3.5390258e-08,6.868504e-09,0.0,0.0,0.0,0,1,1,0,0,0,0,2,2,2,2,2,2,2,2,2,2,2,2
56044000,-6.056507e-08,-1.1175871e-08,2.0278094e-08,0.0,0.0,0.0,0,1,1,0,0,0,0,2,2,2,2,2,2,2,2,2,2,2,2
56244000,-5.3201802e-08,5.5879354e-09,2.9453076e-08,0.0,0.0,-5.9604645e-08,0,1,1,0,0,0,0,2,2,2,2,2,2,2,2,2,2,2,2
56444000,8.73697e-08,-5.5879354e-09,-2.3719622e-09,0.0,0.0,-5.9604645e-08,0,1,1,0,0,0,0,2,2,2,2,2,2,2,2,2,2,2,2
56644000,5.273182e-08,2.9802322e-08,3.4633558e-09,0.0,0.0,-5.9604645e-08,0,1,1,0,0,0,0,2,2,2,2,2,2,2,2,2,2,2,2
56844000,-7.741619e-09,-2.7939677e-08,-2.2453605e-08,0.0,0.0,-5.9604645e-08,0,1,1,0,0,0,0,2,2,2,2,2,2,2,2,2,2,2,2
57044000,2.484012e-08,2.0489097e-08,-7.072231e-09,0.0,0.0,0.0,0,1,1,0,0,0,0,2,2,2,2,2,2,2,2,2,2,2,2
57244000,2.4680048e-08,2.9802322e-08,-6.184564e-10,0.0,0.0,-5.9604645e-08,0,1,1,0,0,0,0,2,2,2,2,2,2,2,2,2,2,2,2
57444000,9.563519e-08,1.1175871e-08,-1.5308615e-08,0.0,0.0,-5.9604645e-08,0,1,1,0,0,0,0,2,2,2,2,2,2,2,2,2,2,2,2
57644000,3.131572e-08,3.7252903e-09,-1.9208528e-09,0.0,0.0,-5.9604645e-08,0,1,1,0,0,0,0,2,2,2,2,2,2,2,2,2,2,2,2
57844000,-9.094947e-10,1.6763806e-08,-9.400537e-09,0.0,0.0,0.0,0,1,1,0,0,0,0,2,2,2,2,2,2,2,2,2,2,2,2
58044000,4.982212e-09,2.4214387e-08,0.0,0.0,0.0,-5.9604645e-08,0,1,1,0,0,0,0,2,2,2,2,2,2,2,2,2,2,2,2
58244000,-6.9034286e-08,1.8626451e-08,1.6676495e-08,0.0,0.0,0.0,0,1,1,0,0,0,0,2,2,2,2,2,2,2,2,2,2,2,2
58444000,2.7299393e-08,1.8626451e-09,-2.2584572e-08,0.0,0.0,0.0,0,1,1,0,0,0,0,2,2,2,2,2,2,2,2,2,2,2,2
58644000,-5.7742e-08,3.1664968e-08,1.1943484e-08,0.0,0.0,-5.9604645e-08,0,1,1,0,0,0,0,2,2,2,2,2,2,2,2,2,2,2,2
58844000,-5.2386895e-08,-1.3038516e-08,-3.3651304e-09,0.0,0.0,0.0,0,1,1,0,0,0,0,2,2,2,2,2,2,2,2,2,2,2,2
59044000,1.9266736e-08,2.2351742e-08,2.4127075e-08,0.0,0.0,-5.9604645e-08,0,1,1,0,0,0,0,2,2,2,2,2,2,2,2,2,2,2,2
59244000,2.1071173e-08,-2.0489097e-08,-7.3341653e-09,0.0,0.0,0.0,0,1,1,0,0,0,0,2,2,2,2,2,2,2,2,2,2,2,2
59444000,-1.6239937e-08,1.8626451e-09,1.2863893e-08,0.0,0.0,-5.9604645e-08,0,1,1,0,0,0,0,2,2,2,2,2,2,2,2,2,2,2,2
59644000,-6.298069e-08,1.8626451e-08,2.3515895e-08,0.0,0.0,0.0,0,1,1,0,0,0,0,2,2,2,2,2,2,2,2,2,2,2,2
59844000,3.0049705e-08,7.450581e-09,-1.27802195e-08,0.0,0.0,-5.9604645e-08,0,1,1,0,0,0,0,2,2,2,2,2,2,2,2,2,2,2,2
60044000,9.109499e-09,7.450581e-09,2.764864e-09,0.0,0.0,-5.9604645e-08,0,1,1,0,0,0,0,2,2,2,2,2,2,2,2,2,2,2,2
60244000,1.6065314e-08,1.8626451e-09,-2.75395e-08,0.0,0.0,-5.9604645e-08,0,1,1,0,0,0,0,2,2,2,2,2,2,2,2,2,2,2,2
60444000,-3.851892e-08,-1.8626451e-09,1.6021659e-08,0.0,0.0,-5.9604645e-08,0,1,1,0,0,0,0,2,2,2,2,2,2,2,2,2,2,2,2
60644000,5.0640665e-09,3.7252903e-09,-1.2136297e-08,0.0,0.0,-5.9604645e-08,0,1,1,0,0,0,0,2,2,2,2,2,2,2,2,2,2,2,2
60844000,3.632158e-08,1.8626451e-09,-2.9307557e-08,0.0,0.0,-5.9604645e-08,0,1,1,0,0,0,0,2,2,2,2,2,2,2,2,2,2,2,2
61044000,-7.508788e-08,0.0,-3.410969e-08,0.0,0.0,0.0,0,1,1,0,0,0,0,2,2,2,2,2,2,2,2,2,2,2,2
61244000,3.1432137e-08,-1.4901161e-08,-2.6862836e-08,0.0,0.0,-5.9604645e-08,0,1,1,0,0,0,0,2,2,2,2,2,2,2,2,2,2,2,2
61444000,-4.6100467e-08,-2.7939677e-08,2.2955646e-08,0.0,0.0,0.0,0,1,1,0,0,0,0,2,2,2,2,2,2,2,2,2,2,2,2
61644000,-5.820766e-11,-3.1664968e-08,8.745701e-09,0.0,0.0,0.0,0,1,1,0,0,0,0,2,2,2,2,2,2,2,2,2,2,2,2
61844000,4.5401976e-08,1.6763806e-08,-1.6851118e-08,0.0,0.0,-5.9604645e-08,0,1,1,0,0,0,0,2,2,2,2,2,2,2,2,2,2,2,2
62044000,3.8184226e-08,2.2584572e-08,5.9080776e-09,0.0,0.0,0.0,0,1,1,0,0,0,0,2,2,2,2,2,2,2,2,2,2,2,2
62244000,2.1187589e-08,-2.0489097e-08,-4.0745363e-10,0.0,0.0,0.0,0,1,1,0,0,0,0,2,2,2,2,2,2,2,2,2,2,2,2
62444000,5.1688403e-08,3.9115548e-08,1.967419e-08,0.0,0.0,0.0,0,1,1,0,0,0,0,2,2,2,2,2,2,2,2,2,2,2,2
62644000,1.792796e-08,-7.450581e-09,-1.3969839e-09,0.0,0.0,0.0,0,1,1,0,0,0,0,2,2,2,2,2,2,2,2,2,2,2,2
62844000,-3.7136488e-08,2.4214387e-08,1.2223609e-09,0.0,0.0,0.0,0,1,1,0,0,0,0,2,2,2,2,2,2,2,2,2,2,2,2
63044000,4.0628947e-08,4.377216e-08,1.5832484e-08,0.0,0.0,-5.9604645e-08,0,1,1,0,0,0,0,2,2,2,2,2,2,2,2,2,2,2,2
63244000,-5.9546437e-08,1.1175871e-08,-1.0302756e-08,0.0,0.0,-5.9604645e-08,0,1,1,0,0,0,0,2,2,2,2,2,2,2,2,2,2,2,2
63444000,-6.041955e-08,-1.1175871e-08,6.9085218e-09,0.0,0.0,0.0,0,1,1,0,0,0,0,2,2,2,2,2,2,2,2,2,2,2,2
63644000,-5.47152e-09,1.44355e-08,-9.022187e-09,0.0,0.0,-1.1920929e-07,0,1,1,0,0,0,0,2,2,2,2,2,2,2,2,2,2,2,2
63844000,-2.910383e-08,-1.0244548e-08,1.4144462e-08,0.0,0.0,-5.9604645e-08,0,1,1,0,0,0,0,2,2,2,2,2,2,2,2,2,2,2,2
64044000,1.9324943e-08,8.381903e-09,1.1525117e-08,0.0,0.0,-5.9604645e-08,0,1,1,0,0,0,0,2,2,2,2,2,2,2,2,2,2,2,2
64244000,-4.5634806e-08,-2.7241185e-08,-1.990702e-08,0.0,0.0,-5.9604645e-08,0,1,1,0,0,0,0,2,2,2,2,2,2,2,2,2,2,2,2
64444000,-3.1664968e-08,9.313226e-09,-7.450581e-09,0.0,0.0,0.0,0,1,1,0,0,0,0,2,2,2,2,2,2,2,2,2,2,2,2
64644000,-2.8405339e-08,3.8184226e-08,2.2351742e-08,0.0,0.0,-5.9604645e-08,0,1,1,0,0,0,0,2,2,2,2,2,2,2,2,2,2,2,2
64844000,1.5832484e-08,-2.3283064e-08,9.778887e-09,0.0,0.0,-5.9604645e-08,0,1,1,0,0,0,0,2,2,2,2,2,2,2,2,2,2,2,2
65044000,3.8184226e-08,4.8428774e-08,1.4551915e-11,0.0,0.0,0.0,0,1,1,0,0,0,0,2,2,2,2,2,2,2,2,2,2,2,2
65244000,2.9802322e-08,2.9802322e-08,1.5832484e-08,0.0,0.0,-5.9604645e-08,0,1,1,0,0,0,0,2,2,2,2,2,2,2,2,2,2,2,2
65444000,-1.1641532e-10,-1.8626451e-09,2.188608e-08,0.0,0.0,-5.9604645e-08,0,1,1,0,0,0,0,2,2,2,2,2,2,2,2,2,2,2,2
65644000,2.9802322e-08,-5.5879354e-09,2.0721927e-08,0.0,0.0,-5.9604645e-08,0,1,1,0,0,0,0,2,2,2,2,2,2,2,2,2,2,2,2
65844000,-2.0489097e-08,0.0,-1.7229468e-08,0.0,0.0,-5.9604645e-08,0,1,1,0,0,0,0,2,2,2,2,2,2,2,2,2,2,2,2
66044000,6.146729e-08,2.0780135e-08,5.122274e-09,0.0,0.0,-5.9604645e-08,0,1,1,0,0,0,0,2,2,2,2,2,2,2,2,2,2,2,2
66244000,1.2060627e-07,-6.519258e-09,1.7229468e-08,0.0,0.0,-5.9604645e-08,0,1,1,0,0,0,0,2,2,2,2,2,2,2,2,2,2,2,2
66444000,5.401671e-08,1.7229468e-08,-4.4703484e-08,0.0,0.0,0.0,0,1,1,0,0,0,0,2,2,2,2,2,2,2,2,2,2,2,2
66644000,-1.6763806e-08,2.7706847e-08,-7.450581e-09,0.0,0.0,-1.1920929e-07,0,1,1,0,0,0,0,2,2,2,2,2,2,2,2,2,2,2,2
66844000,2.0954758e-08,-3.7252903e-09,-2.7939677e-08,0.0,0.0,0.0,0,1,1,0,0,0,0,2,2,2,2,2,2,2,2,2,2,2,2
67044000,4.156027e-08,1.7229468e-08,9.778887e-09,0.0,0.0,0.0,0,1,1,0,0,0,0,2,2,2,2,2,2,2,2,2,2,2,2
67244000,3.5390258e-08,-3.1664968e-08,4.656613e-09,0.0,0.0,0.0,0,1,1,0,0,0,0,2,2,2,2,2,2,2,2,2,2,2,2
67444000,3.585592e-08,1.3038516e-08,-1.2572855e-08,0.0,0.0,-5.9604645e-08,0,1,1,0,0,0,0,2,2,2,2,2,2,2,2,2,2,2,2
67644000,3.3527613e-08,-1.1175871e-08,1.9790605e-09,0.0,0.0,-5.9604645e-08,0,1,1,0,0,0,0,2,2,2,2,2,2,2,2,2,2,2,2
67844000,3.9115548e-08,5.2154064e-08,-8.1490725e-10,0.0,0.0,-5.9604645e-08,0,1,1,0,0,0,0,2,2,2,2,2,2,2,2,2,2,2,2
68044000,-4.0919986e-08,-1.1175871e-08,1.8626451e-08,0.0,0.0,-5.9604645e-08,0,1,1,0,0,0,0,2,2,2,2,2,2,2,2,2,2,2,2
68244000,1.1175871e-08,9.313226e-09,-6.2282197e-09,0.0,0.0,-5.9604645e-08,0,1,1,0,0,0,0,2,2,2,2,2,2,2,2,2,2,2,2
68444000,1.094304e-08,9.313226e-09,-1.715307e-08,0.0,0.0,-5.9604645e-08,0,1,1,0,0,0,0,2,2,2,2,2,2,2,2,2,2,2,2
68644000,-6.0535967e-09,-7.450581e-09,-8.731149e-10,0.0,0.0,0.0,0,1,1,0,0,0,0,2,2,2,2,2,2,2,2,2,2,2,2
68844000,5.576294e-08,-9.313226e-09,-1.1110387e-08,0.0,0.0,-5.9604645e-08,0,1,1,0,0,0,0,2,2,2,2,2,2,2,2,2,2,2,2
69044000,-4.156027e-08,-2.4214387e-08,4.80577e-09,0.0,0.0,0.0,0,1,1,0,0,0,0,2,2,2,2,2,2,2,2,2,2,2,2
69244000,-3.7718564e-08,-3.5390258e-08,2.0008883e-11,0.0,0.0,-5.9604645e-08,0,1,1,0,0,0,0,2,2,2,2,2,2,2,2,2,2,2,2
69444000,1.816079e-08,7.450581e-09,-1.36788e-09,0.0,0.0,-5.9604645e-08,0,1,1,0,0,0,0,2,2,2,2,2,2,2,2,2,2,2,2
69644000,-3.8649887e-08,-7.450581e-09,-2.7517672e-08,0.0,0.0,-1.1920929e-07,0,1,1,0,0,0,0,2,2,2,2,2,2,2,2,2,2,2,2
69844000,1.0069925e-08,2.6077032e-08,-8.789357e-09,0.0,0.0,0.0,0,1,1,0,0,0,0,2,2,2,2,2,2,2,2,2,2,2,2
70044000,-5.7858415e-08,-3.3527613e-08,-2.3574103e-08,0.0,0.0,0.0,0,1,1,0,0,0,0,2,2,2,2,2,2,2,2,2,2,2,2
70244000,1.1874363e-08,1.8626451e-08,6.868504e-09,0.0,0.0,-5.9604645e-08,0,1,1,0,0,0,0,2,2,2,2,2,2,2,2,2,2,2,2
70444000,-1.4202669e-08,2.4214387e-08,-1.4842954e-09,0.0,0.0,-5.9604645e-08,0,1,1,0,0,0,0,2,2,2,2,2,2,2,2,2,2,2,2
70644000,1.1874363e-08,1.8626451e-08,-4.9185473e-09,0.0,0.0,-5.9604645e-08,0,1,1,0,0,0,0,2,2,2,2,2,2,2,2,2,2,2,2
70844000,1.3387762e-08,-2.3748726e-08,-1.169974e-08,0.0,0.0,-5.9604645e-08,0,1,1,0,0,0,0,2,2,2,2,2,2,2,2,2,2,2,2
71044000,-4.8894435e-08,-9.313226e-10,1.778244e-08,0.0,0.0,-5.9604645e-08,0,1,1,0,0,0,0,2,2,2,2,2,2,2,2,2,2,2,2
71244000,-1.21071935e-08,3.3527613e-08,-4.4237822e-09,0.0,0.0,-5.9604645e-08,0,1,1,0,0,0,0,2,2,2,2,2,2,2,2,2,2,2,2
71444000,-1.0128133e-07,0.0,-1.8626451e-08,0.0,0.0,-5.9604645e-08,0,1,1,0,0,0,0,2,2,2,2,2,2,2,2,2,2,2,2
71644000,1.1292286e-08,1.8626451e-09,2.5029294e-09,0.0,0.0,-5.9604645e-08,0,1,1,0,0,0,0,2,2,2,2,2,2,2,2,2,2,2,2
71844000,8.702045e-09,-4.656613e-09,1.929584e-08,0.0,0.0,0.0,0,1,1,0,0,0,0,2,2,2,2,2,2,2,2,2,2,2,2
72044000,2.910383e-08,-3.4458935e-08,-7.566996e-10,0.0,0.0,0.0,0,1,1,0,0,0,0,2,2,2,2,2,2,2,2,2,2,2,2
72244000,-2.7474016e-08,-1.9557774e-08,2.7011993e-10,0.0,0.0,0.0,0,1,1,0,0,0,0,2,2,2,2,2,2,2,2,2,2,2,2
72444000,5.3434633e-08,1.3969839e-09,-1.3082172e-08,0.0,0.0,0.0,0,1,1,0,0,0,0,2,2,2,2,2,2,2,2,2,2,2,2
72644000,6.9849193e-09,3.958121e-08,-2.0256266e-08,0.0,0.0,-5.9604645e-08,0,1,1,0,0,0,0,2,2,2,2,2,2,2,2,2,2,2,2
72844000,1.1641532e-08,-2.0023435e-08,-2.4447218e-09,0.0,0.0,0.0,0,1,1,0,0,0,0,2,2,2,2,2,2,2,2,2,2,2,2
73044000,-3.3032848e-08,-2.7474016e-08,1.1525117e-08,0.0,0.0,0.0,0,1,1,0,0,0,0,2,2,2,2,2,2,2,2,2,2,2,2
73244000,-3.0733645e-08,2.7474016e-08,1.4784746e-08,0.0,0.0,-5.9604645e-08,0,1,1,0,0,0,0,2,2,2,2,2,2,2,2,2,2,2,2
73444000,-4.4936314e-08,-1.8626451e-08,-5.7043508e-09,0.0,0.0,0.0,0,1,1,0,0,0,0,2,2,2,2,2,2,2,2,2,2,2,2
73644000,-1.8626451e-08,3.7252903e-09,-3.7252903e-08,0.0,0.0,-5.9604645e-08,0,1,1,0,0,0,0,2,2,2,2,2,2,2,2,2,2,2,2
73844000,-7.450581e-09,2.3748726e-08,4.4703484e-08,0.0,0.0,-5.9604645e-08,0,1,1,0,0,0,0,2,2,2,2,2,2,2,2,2,2,2,2
74044000,2.8871e-08,-1.3038516e-08,1.0244548e-08,0.0,0.0,-5.9604645e-08,0,1,1,0,0,0,0,2,2,2,2,2,2,2,2,2,2,2,2
74244000,1.21071935e-08,2.7939677e-08,-4.656613e-10,0.0,0.0,0.0,0,1,1,0,0,0,0,2,2,2,2,2,2,2,2,2,2,2,2
74444000,-6.798655e-08,1.5133992e-08,-1.5716068e-08,0.0,0.0,-5.9604645e-08,0,1,1,0,0,0,0,2,2,2,2,2,2,2,2,2,2,2,2
74644000,5.7392754e-08,-9.313226e-09,3.0500814e-08,0.0,0.0,-5.9604645e-08,0,1,1,0,0,0,0,2,2,2,2,2,2,2,2,2,2,2,2
74844000,5.122274e-09,3.678724e-08,-9.313226e-10,0.0,0.0,0.0,0,1,1,0,0,0,0,2,2,2,2,2,2,2,2,2,2,2,2
75044000,1.2572855e-08,-2.6077032e-08,2.7939677e-09,0.0,0.0,-5.9604645e-08,0,1,1,0,0,0,0,2,2,2,2,2,2,2,2,2,2,2,2
75244000,1.5832484e-08,-9.546056e-09,-2.7008355e-08,0.0,0.0,0.0,0,1,1,0,0,0,0,2,2,2,2,2,2,2,2,2,2,2,2
75444000,6.9849193e-09,-2.4214387e-08,-7.683411e-09,0.0,0.0,-5.9604645e-08,0,1,1,0,0,0,0,2,2,2,2,2,2,2,2,2,2,2,2
75644000,2.6077032e-08,4.656613e-09,-4.4703484e-08,0.0,0.0,0.0,0,1,1,0,0,0,0,2,2,2,2,2,2,2,2,2,2,2,2
75844000,-3.5390258e-08,-2.4214387e-08,-4.4703484e-08,0.0,0.0,0.0,0,1,1,0,0,0,0,2,2,2,2,2,2,2,2,2,2,2,2
76044000,4.0745363e-08,-2.0489097e-08,-5.5879354e-09,0.0,0.0,0.0,0,1,1,0,0,0,0,2,2,2,2,2,2,2,2,2,2,2,2
76244000,-6.2573235e-10,3.4924597e-08,-9.313226e-09,0.0,0.0,-1.1920929e-07,0,1,1,0,0,0,0,2,2,2,2,2,2,2,2,2,2,2,2
76444000,-2.188608e-08,-1.4901161e-08,4.004687e-08,0.0,0.0,-5.9604645e-08,0,1,1,0,0,0,0,2,2,2,2,2,2,2,2,2,2,2,2
76644000,2.2118911e-08,-7.450581e-09,-2.7474016e-08,0.0,0.0,0.0,0,1,1,0,0,0,0,2,2,2,2,2,2,2,2,2,2,2,2
76844000,-6.3329935e-08,1.8626451e-09,2.4447218e-09,0.0,0.0,-5.9604645e-08,0,1,1,0,0,0,0,2,2,2,2,2,2,2,2,2,2,2,2
77044000,-2.0489097e-08,7.450581e-09,2.240995e-08,0.0,0.0,-1.1920929e-07,0,1,1,0,0,0,0,2,2,2,2,2,2,2,2,2,2,2,2
77244000,1.4959369e-08,-1.9557774e-08,1.8626451e-09,0.0,0.0,0.0,0,1,1,0,0,0,0,2,2,2,2,2,2,2,2,2,2,2,2
77444000,-1.0244548e-08,-2.7939677e-08,8.934876e-09,0.0,0.0,-5.9604645e-08,0,1,1,0,0,0,0,2,2,2,2,2,2,2,2,2,2,2,2
77644000,2.2235326e-08,-3.5390258e-08,-8.1490725e-10,0.0,0.0,-5.9604645e-08,0,1,1,0,0,0,0,2,2,2,2,2,2,2,2,2,2,2,2
77844000,2.8754584e-08,2.7939677e-09,2.1260348e-08,0.0,0.0,-5.9604645e-08,0,1,1,0,0,0,0,2,2,2,2,2,2,2,2,2,2,2,2
78044000,3.410969e-08,-5.5879354e-09,1.1496013e-09,0.0,0.0,0.0,0,1,1,0,0,0,0,2,2,2,2,2,2,2,2,2,2,2,2
78244000,-2.6193447e-09,2.4214387e-08,1.2427336e-08,0.0,0.0,-5.9604645e-08,0,1,1,0,0,0,0,2,2,2,2,2,2,2,2,2,2,2,2
78444000,4.4237822e-08,-1.8626451e-09,-1.3460522e-08,0.0,0.0,-5.9604645e-08,0,1,1,0,0,0,0,2,2,2,2,2,2,2,2,2,2,2,2
78644000,9.701762e-08,0.0,-1.3969839e-09,0.0,0.0,-5.9604645e-08,0,1,1,0,0,0,0,2,2,2,2,2,2,2,2,2,2,2,2
78844000,-2.5785994e-08,4.284084e-08,-2.4272595e-08,0.0,0.0,-5.9604645e-08,0,1,1,0,0,0,0,2,2,2,2,2,2,2,2,2,2,2,2
79044000,-3.1490345e-08,-7.450581e-09,5.199581e-09,0.0,0.0,0.0,0,1,1,0,0,0,0,2,2,2,2,2,2,2,2,2,2,2,2
79244000,-3.221794e-08,-2.2351742e-08,1.2238161e-08,0.0,0.0,0.0,0,1,1,0,0,0,0,2,2,2,2,2,2,2,2,2,2,2,2
79444000,-1.9033905e-08,1.6763806e-08,-3.2356184e-08,0.0,0.0,-5.9604645e-08,0,1,1,0,0,0,0,2,2,2,2,2,2,2,2,2,2,2,2
79644000,-4.4790795e-08,3.5390258e-08,1.1350494e-08,0.0,0.0,0.0,0,1,1,0,0,0,0,2,2,2,2,2,2,2,2,2,2,2,2
79844000,-7.21775e-09,-1.8626451e-08,-1.3627869e-08,0.0,0.0,-5.9604645e-08,0,1,1,0,0,0,0,2,2,2,2,2,2,2,2,2,2,2,2
80044000,-1.2660166e-08,2.2351742e-08,3.3251126e-09,0.0,0.0,0.0,0,1,1,0,0,0,0,2,2,2,2,2,2,2,2,2,2,2,2
80244000,2.6717316e-08,-1.1175871e-08,-1.44355e-08,0.0,0.0,-5.9604645e-08,0,1,1,0,0,0,0,2,2,2,2,2,2,2,2,2,2,2,2
80444000,-2.6651833e-08,1.6763806e-08,5.5879354e-09,0.0,0.0,0.0,0,1,1,0,0,0,0,2,2,2,2,2,2,2,2,2,2,2,2
80644000,-7.8231096e-08,-1.4901161e-08,-1.3504177e-08,0.0,0.0,-5.9604645e-08,0,1,1,0,0,0,0,2,2,2,2,2,2,2,2,2,2,2,2
80844000,3.8504368e-08,1.8626451e-08,-4.5110937e-09,0.0,0.0,-5.9604645e-08,0,1,1,0,0,0,0,2,2,2,2,2,2,2,2,2,2,2,2
81044000,-7.2061084e-08,-2.9802322e-08,1.2136297e-08,0.0,0.0,-5.9604645e-08,0,1,1,0,0,0,0,2,2,2,2,2,2,2,2,2,2,2,2
81244000,1.1641532e-08,-3.7252903e-08,-1.4784746e-08,0.0,0.0,0.0,0,1,1,0,0,0,0,2,2,2,2,2,2,2,2,2,2,2,2
81444000,2.2555469e-08,-2.0489097e-08,2.5975169e-08,0.0,0.0,0.0,0,1,1,0,0,0,0,2,2,2,2,2,2,2,2,2,2,2,2
81644000,-2.7932401e-08,-7.450581e-09,-2.6255293e-08,0.0,0.0,0.0,0,1,1,0,0,0,0,2,2,2,2,2,2,2,2,2,2,2,2
81844000,5.4365955e-08,2.4214387e-08,1.565786e-08,0.0,0.0,0.0,0,1,1,0,0,0,0,2,2,2,2,2,2,2,2,2,2,2,2
82044000,2.6455382e-08,1.8626451e-09,-2.0401785e-08,0.0,0.0,-5.9604645e-08,0,1,1,0,0,0,0,2,2,2,2,2,2,2,2,2,2,2,2
82244000,-5.3842086e-09,4.284084e-08,2.4214387e-08,0.0,0.0,-1.1920929e-07,0,1,1,0,0,0,0,2,2,2,2,2,2,2,2,2,2,2,2
82444000,3.8475264e-08,-1.4901161e-08,-4.382673e-08,0.0,0.0,0.0,0,1,1,0,0,0,0,2,2,2,2,2,2,2,2,2,2,2,2
82644000,4.3655746e-08,3.7252903e-08,6.5774657e-09,0.0,0.0,0.0,0,1,1,0,0,0,0,2,2,2,2,2,2,2,2,2,2,2,2
82844000,1.1059456e-08,2.6077032e-08,-5.2386895e-10,0.0,0.0,0.0,0,1,1,0,0,0,0,2,2,2,2,2,2,2,2,2,2,2,2
83044000,2.8394425e-09,1.8626451e-09,-3.259629e-09,0.0,0.0,-5.9604645e-08,0,1,1,0,0,0,0,2,2,2,2,2,2,2,2,2,2,2,2
83244000,-5.5122655e-08,3.3527613e-08,1.146509e-08,0.0,0.0,-5.9604645e-08,0,1,1,0,0,0,0,2,2,2,2,2,2,2,2,2,2,2,2
83444000,-3.259629e-08,-4.7148205e-09,-1.15833245e-08,0.0,0.0,-1.1920929e-07,0,1,1,0,0,0,0,2,2,2,2,2,2,2,2,2,2,2,2
83644000,2.0023435e-08,-1.2805685e-08,-6.2573235e-10,0.0,0.0,0.0,0,1,1,0,0,0,0,2,2,2,2,2,2,2,2,2,2,2,2
83844000,-2.9802322e-08,1.8626451e-08,2.240995e-08,0.0,0.0,0.0,0,1,1,0,0,0,0,2,2,2,2,2,2,2,2,2,2,2,2
84044000,-2.7823262e-08,5.5879354e-09,-3.486639e-08,0.0,0.0,0.0,0,1,1,0,0,0,0,2,2,2,2,2,2,2,2,2,2,2,2
84244000,3.7951395e-08,1.0244548e-08,3.434252e-09,0.0,0.0,-5.9604645e-08,0,1,1,0,0,0,0,2,2,2,2,2,2,2,2,2,2,2,2
84444000,1.3154931e-08,3.7252903e-08,3.480818e-08,0.0,0.0,-5.9604645e-08,0,1,1,0,0,0,0,2,2,2,2,2,2,2,2,2,2,2,2
84644000,-2.4097972e-08,-4.0978193e-08,-5.529728e-09,0.0,0.0,0.0,0,1,1,0,0,0,0,2,2,2,2,2,2,2,2,2,2,2,2
84844000,-6.312621e-08,-2.7939677e-08,1.2209057e-08,0.0,0.0,0.0,0,1,1,0,0,0,0,2,2,2,2,2,2,2,2,2,2,2,2
85044000,-1.41590135e-08,1.21071935e-08,1.4144462e-08,0.0,0.0,-5.9604645e-08,0,1,1,0,0,0,0,2,2,2,2,2,2,2,2,2,2,2,2
85244000,4.307367e-08,-1.8626451e-09,6.8102963e-09,0.0,0.0,0.0,0,1,1,0,0,0,0,2,2,2,2,2,2,2,2,2,2,2,2
85444000,3.6030542e-08,9.778887e-09,-2.507295e-08,0.0,0.0,-5.9604645e-08,0,1,1,0,0,0,0,2,2,2,2,2,2,2,2,2,2,2,2
85644000,-3.4924597e-10,9.313226e-09,-1.9324943e-08,0.0,0.0,-1.1920929e-07,0,1,1,0,0,0,0,2,2,2,2,2,2,2,2,2,2,2,2
85844000,-3.1664968e-08,9.313226e-10,6.9849193e-10,0.0,0.0,0.0,0,1,1,0,0,0,0,2,2,2,2,2,2,2,2,2,2,2,2
86044000,-5.2154064e-08,3.7252903e-09,1.1175871e-08,0.0,0.0,-5.9604645e-08,0,1,1,0,0,0,0,2,2,2,2,2,2,2,2,2,2,2,2
86244000,-2.4214387e-08,-1.8626451e-09,2.2351742e-08,0.0,0.0,-5.9604645e-08,0,1,1,0,0,0,0,2,2,2,2,2,2,2,2,2,2,2,2
86444000,1.4901161e-08,2.6077032e-08,-2.4214387e-08,0.0,0.0,0.0,0,1,1,0,0,0,0,2,2,2,2,2,2,2,2,2,2,2,2
86644000,-5.401671e-08,1.3038516e-08,2.0489097e-08,0.0,0.0,0.0,0,1,1,0,0,0,0,2,2,2,2,2,2,2,2,2,2,2,2
86844000,-3.3527613e-08,-1.6763806e-08,-3.9115548e-08,0.0,0.0,0.0,0,1,1,0,0,0,0,2,2,2,2,2,2,2,2,2,2,2,2
87044000,9.313226e-10,1.4901161e-08,-1.5133992e-08,0.0,0.0,0.0,0,1,1,0,0,0,0,2,2,2,2,2,2,2,2,2,2,2,2
87244000,9.080395e-09,2.188608e-08,1.3860699e-08,0.0,0.0,0.0,0,1,1,0,0,0,0,2,2,2,2,2,2,2,2,2,2,2,2
87444000,2.6077032e-08,3.3527613e-08,-1.6298145e-08,0.0,0.0,-5.9604645e-08,0,1,1,0,0,0,0,2,2,2,2,2,2,2,2,2,2,2,2
87644000,8.381903e-09,3.3527613e-08,-1.8626451e-09,0.0,0.0,0.0,0,1,1,0,0,0,0,2,2,2,2,2,2,2,2,2,2,2,2
87844000,5.5879354e-09,-1.4319085e-08,-1.6298145e-09,0.0,0.0,0.0,0,1,1,0,0,0,0,2,2,2,2,2,2,2,2,2,2,2,2
88044000,-1.5832484e-08,-4.284084e-08,-1.4901161e-08,0.0,0.0,-5.9604645e-08,0,1,1,0,0,0,0,2,2,2,2,2,2,2,2,2,2,2,2
88244000,-1.8626451e-09,3.981404e-08,-7.450581e-09,0.0,0.0,-5.9604645e-08,0,1,1,0,0,0,0,2,2,2,2,2,2,2,2,2,2,2,2
88444000,-2.3283064e-08,-1.8626451e-08,-2.6077032e-08,0.0,0.0,0.0,0,1,1,0,0,0,0,2,2,2,2,2,2,2,2,2,2,2,2
88644000,1.5832484e-08,-2.7939677e-09,1.0244548e-08,0.0,0.0,-5.9604645e-08,0,1,1,0,0,0,0,2,2,2,2,2,2,2,2,2,2,2,2
88844000,-4.1909516e-09,4.656613e-09,2.142042e-08,0.0,0.0,-5.9604645e-08,0,1,1,0,0,0,0,2,2,2,2,2,2,2,2,2,2,2,2
89044000,-4.3975888e-08,-2.8871e-08,-1.0244548e-08,0.0,0.0,-5.9604645e-08,0,1,1,0,0,0,0,2,2,2,2,2,2,2,2,2,2,2,2
89244000,-7.450581e-09,2.7939677e-09,1.3969839e-09,0.0,0.0,-5.9604645e-08,0,1,1,0,0,0,0,2,2,2,2,2,2,2,2,2,2,2,2
89444000,1.8626451e-09,-2.0489097e-08,-2.0954758e-09,0.0,0.0,0.0,0,1,1,0,0,0,0,2,2,2,2,2,2,2,2,2,2,2,2
89644000,-9.313226e-10,5.5879354e-09,1.7811544e-08,0.0,0.0,-5.9604645e-08,0,1,1,0,0,0,0,2,2,2,2,2,2,2,2,2,2,2,2
89844000,-6.449409e-08,-4.0978193e-08,5.646143e-09,0.0,0.0,-5.9604645e-08,0,1,1,0,0,0,0,2,2,2,2,2,2,2,2,2,2,2,2
90044000,-3.064997e-08,2.6077032e-08,-8.221832e-09,0.0,0.0,-5.9604645e-08,0,1,1,0,0,0,0,2,2,2,2,2,2,2,2,2,2,2,2
90244000,-3.2188836e-08,-3.5390258e-08,-7.355993e-09,0.0,0.0,-5.9604645e-08,0,1,1,0,0,0,0,2,2,2,2,2,2,2,2,2,2,2,2
90444000,2.46946e-08,-1.1175871e-08,-2.1667802e-08,0.0,0.0,-5.9604645e-08,0,1,1,0,0,0,0,2,2,2,2,2,2,2,2,2,2,2,2
90644000,4.5256456e-09,-5.5879354e-09,-5.820766e-09,0.0,0.0,-5.9604645e-08,0,1,1,0,0,0,0,2,2,2,2,2,2,2,2,2,2,2,2
90844000,-1.7462298e-08,5.5879354e-09,3.4066034e-08,0.0,0.0,0.0,0,1,1,0,0,0,0,2,2,2,2,2,2,2,2,2,2,2,2
91044000,5.9138983e-08,2.4214387e-08,-2.0445441e-08,0.0,0.0,-5.9604645e-08,0,1,1,0,0,0,0,2,2,2,2,2,2,2,2,2,2,2,2
91244000,4.9127266e-08,-1.6763806e-08,6.8030204e-09,0.0,0.0,0.0,0,1,1,0,0,0,0,2,2,2,2,2,2,2,2,2,2,2,2
91444000,-2.3981556e-08,2.4214387e-08,1.46828825e-08,0.0,0.0,-5.9604645e-08,0,1,1,0,0,0,0,2,2,2,2,2,2,2,2,2,2,2,2
91644000,-1.8510036e-08,-2.7939677e-08,-2.226443e-08,0.0,0.0,0.0,0,1,1,0,0,0,0,2,2,2,2,2,2,2,2,2,2,2,2
91844000,2.415618e-08,-3.1664968e-08,-1.9863364e-08,0.0,0.0,0.0,0,1,1,0,0,0,0,2,2,2,2,2,2,2,2,2,2,2,2
92044000,9.778887e-09,-4.284084e-08,-8.96398e-09,0.0,0.0,-5.9604645e-08,0,1,1,0,0,0,0,2,2,2,2,2,2,2,2,2,2,2,2
92244000,-2.81143e-08,1.8626451e-09,1.1550583e-08,0.0,0.0,0.0,0,1,1,0,0,0,0,2,2,2,2,2,2,2,2,2,2,2,2
92444000,1.3737008e-08,2.9802322e-08,-2.0678272e-08,0.0,0.0,0.0,0,1,1,0,0,0,0,2,2,2,2,2,2,2,2,2,2,2,2
92644000,-5.980837e-08,-1.3038516e-08,3.2159733e-09,0.0,0.0,0.0,0,1,1,0,0,0,0,2,2,2,2,2,2,2,2,2,2,2,2
92844000,-3.7020072e-08,1.0244548e-08,-4.0745363e-09,0.0,0.0,0.0,0,1,1,0,0,0,0,2,2,2,2,2,2,2,2,2,2,2,2
93044000,-2.188608e-08,3.0733645e-08,4.474714e-09,0.0,0.0,0.0,0,1,1,0,0,0,0,2,2,2,2,2,2,2,2,2,2,2,2
93244000,1.816079e-08,3.7252903e-09,1.4260877e-08,0.0,0.0,-5.9604645e-08,0,1,1,0,0,0,0,2,2,2,2,2,2,2,2,2,2,2,2
93444000,-2.73576e-08,-2.9802322e-08,1.641456e-08,0.0,0.0,-5.9604645e-08,0,1,1,0,0,0,0,2,2,2,2,2,2,2,2,2,2,2,2
93644000,-9.298674e-09,3.259629e-08,-1.8146238e-08,0.0,0.0,-5.9604645e-08,0,1,1,0,0,0,0,2,2,2,2,2,2,2,2,2,2,2,2
93844000,6.3097104e-08,1.5832484e-08,1.1088559e-08,0.0,0.0,0.0,0,1,1,0,0,0,0,2,2,2,2,2,2,2,2,2,2,2,2
94044000,4.0978193e-08,-2.9802322e-08,-1.9790605e-08,0.0,0.0,0.0,0,1,1,0,0,0,0,2,2,2,2,2,2,2,2,2,2,2,2
94244000,1.39989424e-08,6.519258e-09,-2.066372e-08,0.0,0.0,0.0,0,1,1,0,0,0,0,2,2,2,2,2,2,2,2,2,2,2,2
94444000,-2.9685907e-08,-1.9557774e-08,-5.2532414e-09,0.0,0.0,5.9604645e-08,0,1,1,0,0,0,0,2,2,2,2,2,2,2,2,2,2,2,2
94644000,-4.924368e-08,-3.5390258e-08,-3.443347e-09,0.0,0.0,-5.9604645e-08,0,1,1,0,0,0,0,2,2,2,2,2,2,2,2,2,2,2,2
94844000,-8.381903e-09,-5.5879354e-09,1.3387762e-08,0.0,0.0,0.0,0,1,1,0,0,0,0,2,2,2,2,2,2,2,2,2,2,2,2
95044000,-3.3993274e-08,5.5879354e-09,-7.450581e-09,0.0,0.0,-5.9604645e-08,0,1,1,0,0,0,0,2,2,2,2,2,2,2,2,2,2,2,2
95244000,-1.2572855e-08,-2.3283064e-10,-5.820766e-10,0.0,0.0,0.0,0,1,1,0,0,0,0,2,2,2,2,2,2,2,2,2,2,2,2
95444000,3.9028237e-08,-1.6763806e-08,1.983426e-08,0.0,0.0,0.0,0,1,1,0,0,0,0,2,2,2,2,2,2,2,2,2,2,2,2
95644000,-3.0500814e-08,1.1874363e-08,5.689799e-09,0.0,0.0,0.0,0,1,1,0,0,0,0,2,2,2,2,2,2,2,2,2,2,2,2
95844000,6.670598e-08,-1.1874363e-08,-1.4901161e-08,0.0,0.0,-5.9604645e-08,0,1,1,0,0,0,0,2,2,2,2,2,2,2,2,2,2,2,2
96044000,-5.296897e-08,4.656613e-08,-1.8364517e-08,0.0,0.0,-5.9604645e-08,0,1,1,0,0,0,0,2,2,2,2,2,2,2,2,2,2,2,2
96244000,-5.1688403e-08,5.2852556e-08,5.9982995e-08,0.0,0.0,0.0,0,1,1,0,0,0,0,2,2,2,2,2,2,2,2,2,2,2,2
96444000,-3.2770913e-08,-1.3504177e-08,-1.8357241e-08,0.0,0.0,0.0,0,1,1,0,0,0,0,2,2,2,2,2,2,2,2,2,2,2,2
96644000,7.5859134e-08,-1.0011718e-08,1.621811e-08,0.0,0.0,-5.9604645e-08,0,1,1,0,0,0,0,2,2,2,2,2,2,2,2,2,2,2,2
96844000,2.0838343e-08,-1.9557774e-08,-1.504668e-08,0.0,0.0,-5.9604645e-08,0,1,1,0,0,0,0,2,2,2,2,2,2,2,2,2,2,2,2
97044000,2.9220246e-08,2.7008355e-08,2.3617758e-08,0.0,0.0,0.0,0,1,1,0,0,0,0,2,2,2,2,2,2,2,2,2,2,2,2
97244000,-2.7474016e-08,-2.514571e-08,-7.9744495e-09,0.0,0.0,-5.9604645e-08,0,1,1,0,0,0,0,2,2,2,2,2,2,2,2,2,2,2,2
97444000,5.029142e-08,-2.3283064e-08,-1.7571438e-08,0.0,0.0,-5.9604645e-08,0,1,1,0,0,0,0,2,2,2,2,2,2,2,2,2,2,2,2
97644000,1.839362e-08,1.4901161e-08,-2.689194e-08,0.0,0.0,-5.9604645e-08,0,1,1,0,0,0,0,2,2,2,2,2,2,2,2,2,2,2,2
97844000,5.052425e-08,3.9115548e-08,3.0966476e-08,0.0,0.0,-5.9604645e-08,0,1,1,0,0,0,0,2,2,2,2,2,2,2,2,2,2,2,2
98044000,4.202593e-08,-1.1874363e-08,4.0396117e-08,0.0,0.0,0.0,0,1,1,0,0,0,0,2,2,2,2,2,2,2,2,2,2,2,2
98244000,-2.8026989e-08,-1.44355e-08,-1.2223609e-09,0.0,0.0,-5.9604645e-08,0,1,1,0,0,0,0,2,2,2,2,2,2,2,2,2,2,2,2
98444000,-1.4202669e-08,-2.2351742e-08,-5.9135346e-09,0.0,0.0,0.0,0,1,1,0,0,0,0,2,2,2,2,2,2,2,2,2,2,2,2
98644000,4.452886e-08,-7.21775e-09,-7.028575e-09,0.0,0.0,0.0,0,1,1,0,0,0,0,2,2,2,2,2,2,2,2,2,2,2,2
98844000,3.3178367e-09,2.7939677e-09,1.7898856e-08,0.0,0.0,0.0,0,1,1,0,0,0,0,2,2,2,2,2,2,2,2,2,2,2,2
99044000,-3.463356e-08,-1.0244548e-08,-7.566996e-09,0.0,0.0,-5.9604645e-08,0,1,1,0,0,0,0,2,2,2,2,2,2,2,2,2,2,2,2
99244000,-2.1595042e-08,7.450581e-09,-1.4784746e-08,0.0,0.0,-5.9604645e-08,0,1,1,0,0,0,0,2,2,2,2,2,2,2,2,2,2,2,2
99444000,-9.313226e-10,-3.7252903e-09,2.1245796e-09,0.0,0.0,0.0,0,1,1,0,0,0,0,2,2,2,2,2,2,2,2,2,2,2,2
99644000,-4.924368e-08,-6.0535967e-09,1.7353159e-08,0.0,0.0,0.0,0,1,1,0,0,0,0,2,2,2,2,2,2,2,2,2,2,2,2
99844000,1.693843e-08,1.8626451e-08,7.392373e-09,0.0,0.0,-5.9604645e-08,0,1,1,0,0,0,0,2,2,2,2,2,2,2,2,2,2,2,2
100044000,-1.6007107e-09,2.3283064e-08,1.8044375e-08,0.0,0.0,-5.9604645e-08,0,1,1,0,0,0,0,2,2,2,2,2,2,2,2,2,2,2,2
100244000,-4.0745363e-09,2.0023435e-08,6.4173946e-09,0.0,0.0,0.0,0,1,1,0,0,0,0,2,2,2,2,2,2,2,2,2,2,2,2
100444000,1.094304e-08,4.656613e-10,5.806214e-09,0.0,0.0,-5.9604645e-08,0,1,1,0,0,0,0,2,2,2,2,2,2,2,2,2,2,2,2
100644000,-6.225309e-08,1.8626451e-08,-3.5703124e-08,0.0,0.0,0.0,0,1,1,0,0,0,0,2,2,2,2,2,2,2,2,2,2,2,2
100844000,-4.1909516e-09,9.313226e-10,2.0372681e-10,0.0,0.0,5.9604645e-08,0,1,1,0,0,0,0,2,2,2,2,2,2,2,2,2,2,2,2
101044000,1.9790605e-08,1.44355e-08,2.5160261e-08,0.0,0.0,0.0,0,1,1,0,0,0,0,2,2,2,2,2,2,2,2,2,2,2,2
101244000,-2.5727786e-08,0.0,-1.9179424e-08,0.0,0.0,-5.9604645e-08,0,1,1,0,0,0,0,2,2,2,2,2,2,2,2,2,2,2,2
101444000,-8.119969e-09,3.1664968e-08,1.24418875e-08,0.0,0.0,-1.1920929e-07,0,1,1,0,0,0,0,2,2,2,2,2,2,2,2,2,2,2,2
101644000,-3.9464794e-08,4.9825758e-08,-7.406925e-09,0.0,0.0,-5.9604645e-08,0,1,1,0,0,0,0,2,2,2,2,2,2,2,2,2,2,2,2
101844000,-2.863817e-08,2.0023435e-08,1.0055373e-08,0.0,0.0,0.0,0,1,1,0,0,0,0,2,2,2,2,2,2,2,2,2,2,2,2
102044000,3.981404e-08,2.6542693e-08,4.118192e-08,0.0,0.0,0.0,0,1,1,0,0,0,0,2,2,2,2,2,2,2,2,2,2,2,2
102244000,1.2922101e-08,-7.450581e-09,-1.5570549e-09,0.0,0.0,-5.9604645e-08,0,1,1,0,0,0,0,2,2,2,2,2,2,2,2,2,2,2,2
102444000,9.156065e-08,1.5366822e-08,2.6280759e-08,0.0,0.0,0.0,0,1,1,0,0,0,0,2,2,2,2,2,2,2,2,2,2,2,2
102644000,6.300979e-08,-6.9849193e-09,5.180482e-09,0.0,0.0,-5.9604645e-08,0,1,1,0,0,0,0,2,2,2,2,2,2,2,2,2,2,2,2
102844000,-4.8195943e-08,2.4214387e-08,3.3356628e-08,0.0,0.0,-5.9604645e-08,0,1,1,0,0,0,0,2,2,2,2,2,2,2,2,2,2,2,2
103044000,4.3713953e-08,1.3504177e-08,-1.4266334e-08,0.0,0.0,0.0,0,1,1,0,0,0,0,2,2,2,2,2,2,2,2,2,2,2,2
103244000,2.4796464e-08,-1.4901161e-08,-2.2126187e-08,0.0,0.0,-1.1920929e-07,0,1,1,0,0,0,0,2,2,2,2,2,2,2,2,2,2,2,2
103444000,-8.381903e-09,2.4680048e-08,-1.7607817e-09,0.0,0.0,-5.9604645e-08,0,1,1,0,0,0,0,2,2,2,2,2,2,2,2,2,2,2,2
103644000,-6.0535967e-09,2.0954758e-08,-1.193257e-09,0.0,0.0,0.0,0,1,1,0,0,0,0,2,2,2,2,2,2,2,2,2,2,2,2
103844000,3.6350684e-08,1.3504177e-08,-3.1926902e-08,0.0,0.0,-5.9604645e-08,0,1,1,0,0,0,0,2,2,2,2,2,2,2,2,2,2,2,2
104044000,-7.799827e-09,-1.6298145e-08,-4.773028e-09,0.0,0.0,-5.9604645e-08,0,1,1,0,0,0,0,2,2,2,2,2,2,2,2,2,2,2,2
104244000,-6.9121597e-09,1.0244548e-08,3.2887328e-09,0.0,0.0,0.0,0,1,1,0,0,0,0,2,2,2,2,2,2,2,2,2,2,2,2
104444000,1.9557774e-08,-1.4202669e-08,-2.226443e-08,0.0,0.0,0.0,0,1,1,0,0,0,0,2,2,2,2,2,2,2,2,2,2,2,2
104644000,1.7811544e-08,-1.21071935e-08,-1.9659637e-08,0.0,0.0,0.0,0,1,1,0,0,0,0,2,2,2,2,2,2,2,2,2,2,2,2
104844000,1.14087015e-08,-2.4680048e-08,-2.2118911e-09,0.0,0.0,-5.9604645e-08,0,1,1,0,0,0,0,2,2,2,2,2,2,2,2,2,2,2,2
105044000,-1.2165401e-08,3.259629e-09,3.2887328e-09,0.0,0.0,5.9604645e-08,0,1,1,0,0,0,0,2,2,2,2,2,2,2,2,2,2,2,2
105244000,3.678724e-08,-1.6298145e-08,-1.4202669e-08,0.0,0.0,0.0,0,1,1,0,0,0,0,2,2,2,2,2,2,2,2,2,2,2,2
105444000,2.6106136e-08,-2.4214387e-08,1.8422725e-08,0.0,0.0,0.0,0,1,1,0,0,0,0,2,2,2,2,2,2,2,2,2,2,2,2
105644000,-2.2700988e-08,1.3969839e-08,-6.868504e-09,0.0,0.0,-1.1920929e-07,0,1,1,0,0,0,0,2,2,2,2,2,2,2,2,2,2,2,2
105844000,-6.810296e-08,2.4447218e-08,1.9281288e-08,0.0,0.0,0.0,0,1,1,0,0,0,0,2,2,2,2,2,2,2,2,2,2,2,2
106044000,6.2864274e-08,-3.306195e-08,2.5436748e-08,0.0,0.0,0.0,0,1,1,0,0,0,0,2,2,2,2,2,2,2,2,2,2,2,2
106244000,-1.8975697e-08,2.188608e-08,-3.9872248e-09,0.0,0.0,0.0,0,1,1,0,0,0,0,2,2,2,2,2,2,2,2,2,2,2,2
106444000,-3.9115548e-08,-2.0023435e-08,2.9802322e-08,0.0,0.0,-5.9604645e-08,0,1,1,0,0,0,0,2,2,2,2,2,2,2,2,2,2,2,2
106644000,-5.3085387e-08,1.3969839e-09,3.7252903e-08,0.0,0.0,0.0,0,1,1,0,0,0,0,2,2,2,2,2,2,2,2,2,2,2,2
106844000,3.387686e-08,2.2351742e-08,2.7939677e-09,0.0,0.0,0.0,0,1,1,0,0,0,0,2,2,2,2,2,2,2,2,2,2,2,2
107044000,9.313226e-09,-1.1175871e-08,1.7229468e-08,0.0,0.0,0.0,0,1,1,0,0,0,0,2,2,2,2,2,2,2,2,2,2,2,2
107244000,3.1664968e-08,-3.8940925e-08,-3.7252903e-09,0.0,0.0,0.0,0,1,1,0,0,0,0,2,2,2,2,2,2,2,2,2,2,2,2
107444000,4.004687e-08,-3.5390258e-08,1.4377292e-08,0.0,0.0,0.0,0,1,1,0,0,0,0,2,2,2,2,2,2,2,2,2,2,2,2
107644000,5.122274e-09,-1.8626451e-09,1.3271347e-08,0.0,0.0,0.0,0,1,1,0,0,0,0,2,2,2,2,2,2,2,2,2,2,2,2
107844000,-1.8015271e-08,-1.6763806e-08,3.585592e-08,0.0,0.0,-5.9604645e-08,0,1,1,0,0,0,0,2,2,2,2,2,2,2,2,2,2,2,2
108044000,-9.313226e-09,-2.4680048e-08,4.1909516e-09,0.0,0.0,-5.9604645e-08,0,1,1,0,0,0,0,2,2,2,2,2,2,2,2,2,2,2,2
108244000,-3.8184226e-08,2.7939677e-09,3.7252903e-08,0.0,0.0,0.0,0,1,1,0,0,0,0,2,2,2,2,2,2,2,2,2,2,2,2
108444000,-3.7252903e-08,-5.9604645e-08,2.9802322e-08,0.0,0.0,0.0,0,1,1,0,0,0,0,2,2,2,2,2,2,2,2,2,2,2,2
108644000,-1.0430813e-07,1.6763806e-08,-3.7252903e-09,0.0,0.0,-5.9604645e-08,0,1,1,0,0,0,0,2,2,2,2,2,2,2,2,2,2,2,2
108844000,4.1909516e-08,5.5879354e-09,-3.1723175e-08,0.0,0.0,-5.9604645e-08,0,1,1,0,0,0,0,2,2,2,2,2,2,2,2,2,2,2,2
109044000,-3.8184226e-08,-1.8626451e-08,-1.8626451e-09,0.0,0.0,-5.9604645e-08,0,1,1,0,0,0,0,2,2,2,2,2,2,2,2,2,2,2,2
109244000,1.6298145e-08,4.004687e-08,-5.122274e-09,0.0,0.0,-5.9604645e-08,0,1,1,0,0,0,0,2,2,2,2,2,2,2,2,2,2,2,2
109444000,-5.5879354e-08,-1.1175871e-08,-4.656613e-09,0.0,0.0,-5.9604645e-08,0,1,1,0,0,0,0,2,2,2,2,2,2,2,2,2,2,2,2
109644000,-2.7350552e-08,-2.4214387e-08,2.4447218e-08,0.0,0.0,0.0,0,1,1,0,0,0,0,2,2,2,2,2,2,2,2,2,2,2,2
109844000,-1.2398232e-08,2.4214387e-08,-1.1088559e-08,0.0,0.0,0.0,0,1,1,0,0,0,0,2,2,2,2,2,2,2,2,2,2,2,2
110044000,-2.7939677e-09,1.8626451e-08,9.080395e-09,0.0,0.0,-5.9604645e-08,0,1,1,0,0,0,0,2,2,2,2,2,2,2,2,2,2,2,2
110244000,2.7008355e-08,-5.5879354e-09,-1.7361344e-08,0.0,0.0,0.0,0,1,1,0,0,0,0,2,2,2,2,2,2,2,2,2,2,2,2
110444000,1.5366822e-08,-1.1175871e-08,2.590241e-09,0.0,0.0,0.0,0,1,1,0,0,0,0,2,2,2,2,2,2,2,2,2,2,2,2
110644000,3.57104e-08,2.6077032e-08,2.438901e-08,0.0,0.0,-5.9604645e-08,0,1,1,0,0,0,0,2,2,2,2,2,2,2,2,2,2,2,2
110844000,-5.349284e-08,-1.3038516e-08,-8.556526e-09,0.0,0.0,-5.9604645e-08,0,1,1,0,0,0,0,2,2,2,2,2,2,2,2,2,2,2,2
111044000,-5.948823e-08,1.8626451e-08,3.11411e-08,0.0,0.0,0.0,0,1,1,0,0,0,0,2,2,2,2,2,2,2,2,2,2,2,2
111244000,5.5253622e-08,2.4214387e-08,-1.7793354e-08,0.0,0.0,0.0,0,1,1,0,0,0,0,2,2,2,2,2,2,2,2,2,2,2,2
111444000,-2.613524e-08,-5.5879354e-08,-3.0267984e-09,0.0,0.0,0.0,0,1,1,0,0,0,0,2,2,2,2,2,2,2,2,2,2,2,2
111644000,4.7613867e-08,2.9802322e-08,-6.171831e-09,0.0,0.0,-5.9604645e-08,0,1,1,0,0,0,0,2,2,2,2,2,2,2,2,2,2,2,2
111844000,1.9790605e-09,1.8626451e-08,-1.1525117e-08,0.0,0.0,-5.9604645e-08,0,1,1,0,0,0,0,2,2,2,2,2,2,2,2,2,2,2,2
112044000,7.450581e-09,-2.6077032e-08,-8.301868e-09,0.0,0.0,0.0,0,1,1,0,0,0,0,2,2,2,2,2,2,2,2,2,2,2,2
112244000,3.541936e-08,-3.7252903e-09,-2.2100721e-09,0.0,0.0,-5.9604645e-08,0,1,1,0,0,0,0,2,2,2,2,2,2,2,2,2,2,2,2
112444000,1.2427336e-08,9.313226e-09,-3.8817234e-09,0.0,0.0,0.0,0,1,1,0,0,0,0,2,2,2,2,2,2,2,2,2,2,2,2
112644000,-1.0035001e-07,-3.7252903e-09,1.65237e-08,0.0,0.0,-5.9604645e-08,0,1,1,0,0,0,0,2,2,2,2,2,2,2,2,2,2,2,2
112844000,-7.3050614e-08,1.1175871e-08,2.1318556e-08,0.0,0.0,0.0,0,1,1,0,0,0,0,2,2,2,2,2,2,2,2,2,2,2,2
113044000,-6.7579094e-08,-2.6077032e-08,-1.1728844e-08,0.0,0.0,-5.9604645e-08,0,1,1,0,0,0,0,2,2,2,2,2,2,2,2,2,2,2,2
113244000,-4.610081e-08,-2.4214387e-08,-2.325396e-08,0.0,0.0,-5.9604645e-08,0,1,1,0,0,0,0,2,2,2,2,2,2,2,2,2,2,2,2
