timestamp,timestamp_sample,control[0],control[1],control[2],control[3],control[4],control[5],control[6],control[7],control[8],control[9],control[10],control[11],reversible_flags
3448000,3448000,8.367351e-11,0.0,0.0,0.0,nan,nan,nan,nan,nan,nan,nan,nan,0
3452000,3452000,0.0,0.0,0.0,6.150609e-11,nan,nan,nan,nan,nan,nan,nan,nan,0
3548000,3548000,0.0,0.0,3.4152438e-12,0.0,nan,nan,nan,nan,nan,nan,nan,nan,0
3648000,3648000,0.0,0.0,0.0,0.0,nan,nan,nan,nan,nan,nan,nan,nan,0
3748000,3748000,0.0,0.0,0.0,0.0,nan,nan,nan,nan,nan,nan,nan,nan,0
3848000,3848000,0.0,8.5662276e-11,0.0,0.0,nan,nan,nan,nan,nan,nan,nan,nan,0
3948000,3948000,0.0,0.0,0.0,0.0,nan,nan,nan,nan,nan,nan,nan,nan,0
4048000,4048000,3.6379788e-11,0.0,0.0,9.507251e-12,nan,nan,nan,nan,nan,nan,nan,nan,0
4148000,4148000,0.0020000036,1.8626451e-09,0.001999999,0.0,nan,nan,nan,nan,nan,nan,nan,nan,0
4248000,4248000,0.0019999985,1.8626451e-09,0.0019999985,0.0,nan,nan,nan,nan,nan,nan,nan,nan,0
4348000,4348000,0.0019999975,1.8626451e-09,0.0019999994,0.0,nan,nan,nan,nan,nan,nan,nan,nan,0
4448000,4448000,0.0019999985,0.0,0.0020000022,0.0,nan,nan,nan,nan,nan,nan,nan,nan,0
4544000,4544000,0.0020000003,0.0,0.0020000003,0.0,nan,nan,nan,nan,nan,nan,nan,nan,0
4648000,4648000,0.0020000022,0.0,0.0019999985,0.0,nan,nan,nan,nan,nan,nan,nan,nan,0
4748000,4748000,0.0020000003,0.0,0.0020000003,0.0,nan,nan,nan,nan,nan,nan,nan,nan,0
4848000,4848000,0.0020000006,0.0,0.0019999985,1.8626451e-09,nan,nan,nan,nan,nan,nan,nan,nan,0
4948000,4948000,0.0020000022,0.0,0.0020000022,0.0,nan,nan,nan,nan,nan,nan,nan,nan,0
5044000,5044000,0.0020000013,0.0,0.0020000013,0.0,nan,nan,nan,nan,nan,nan,nan,nan,0
5148000,5148000,0.0020000003,0.0,0.0020000003,0.0,nan,nan,nan,nan,nan,nan,nan,nan,0
5248000,5248000,0.0020000022,0.0,0.0019999985,0.0,nan,nan,nan,nan,nan,nan,nan,nan,0
5348000,5348000,0.0020000027,9.313226e-10,0.001999999,0.0,nan,nan,nan,nan,nan,nan,nan,nan,0
5448000,5448000,0.0019999994,0.0,0.0020000013,0.0,nan,nan,nan,nan,nan,nan,nan,nan,0
5544000,5544000,0.0020000013,0.0,0.0020000013,0.0,nan,nan,nan,nan,nan,nan,nan,nan,0
5648000,5648000,0.0020000013,0.0,0.0019999994,0.0,nan,nan,nan,nan,nan,nan,nan,nan,0
5748000,5748000,0.0020000003,0.0,0.0020000003,0.0,nan,nan,nan,nan,nan,nan,nan,nan,0
5848000,5848000,0.0019999975,9.313226e-10,0.002,0.0,nan,nan,nan,nan,nan,nan,nan,nan,0
5948000,5948000,0.0020000015,0.0,0.002,0.0,nan,nan,nan,nan,nan,nan,nan,nan,0
6048000,6048000,0.0020000013,0.0,0.0019999994,0.0,nan,nan,nan,nan,nan,nan,nan,nan,0
6148000,6148000,0.0019999996,0.0,0.0019999973,3.7252903e-09,nan,nan,nan,nan,nan,nan,nan,nan,0
6248000,6248000,0.0020000013,0.0,0.0020000013,0.0,nan,nan,nan,nan,nan,nan,nan,nan,0
6348000,6348000,0.0020000003,0.0,0.0020000003,0.0,nan,nan,nan,nan,nan,nan,nan,nan,0
6444000,6444000,0.0020000013,0.0,0.0019999994,1.8626451e-09,nan,nan,nan,nan,nan,nan,nan,nan,0
6548000,6548000,0.0020000013,0.0,0.0019999994,1.8626451e-09,nan,nan,nan,nan,nan,nan,nan,nan,0
6648000,6648000,0.0020000003,0.0,0.0020000003,0.0,nan,nan,nan,nan,nan,nan,nan,nan,0
6748000,6748000,0.0019999994,0.0,0.0019999994,0.0,nan,nan,nan,nan,nan,nan,nan,nan,0
6848000,6848000,0.0020000003,0.0,0.0020000003,0.0,nan,nan,nan,nan,nan,nan,nan,nan,0
6948000,6948000,0.0019999994,0.0,0.0020000013,0.0,nan,nan,nan,nan,nan,nan,nan,nan,0
7048000,7048000,0.0020000013,0.0,0.0019999994,0.0,nan,nan,nan,nan,nan,nan,nan,nan,0
7148000,7148000,0.0020000013,0.0,0.0019999994,0.0,nan,nan,nan,nan,nan,nan,nan,nan,0
7248000,7248000,0.0019999996,0.0,0.002000002,0.0,nan,nan,nan,nan,nan,nan,nan,nan,0
7348000,7348000,0.0020000003,0.0,0.0020000003,1.8626451e-09,nan,nan,nan,nan,nan,nan,nan,nan,0
7448000,7448000,0.0020000017,0.0,0.002,0.0,nan,nan,nan,nan,nan,nan,nan,nan,0
7544000,7544000,0.0019999994,0.0,0.0020000013,0.0,nan,nan,nan,nan,nan,nan,nan,nan,0
7648000,7648000,0.002000002,9.313226e-10,0.001999998,0.0,nan,nan,nan,nan,nan,nan,nan,nan,0
7748000,7748000,0.0020000034,3.7252903e-09,0.0019999936,0.0,nan,nan,nan,nan,nan,nan,nan,nan,0
7848000,7848000,0.0020000013,0.0,0.0019999994,0.0,nan,nan,nan,nan,nan,nan,nan,nan,0
7948000,7948000,0.0019999994,0.0,0.0020000013,0.0,nan,nan,nan,nan,nan,nan,nan,nan,0
8044000,8044000,0.0019999994,0.0,0.0019999994,0.0,nan,nan,nan,nan,nan,nan,nan,nan,0
8148000,8148000,0.0020000038,0.0,0.001999998,0.0,nan,nan,nan,nan,nan,nan,nan,nan,0
8248000,8248000,0.0019999994,0.0,0.0020000013,0.0,nan,nan,nan,nan,nan,nan,nan,nan,0
8348000,8348000,0.0019999999,0.0,0.0020000015,0.0,nan,nan,nan,nan,nan,nan,nan,nan,0
8448000,8448000,0.002000001,0.0,0.0020000006,0.0,nan,nan,nan,nan,nan,nan,nan,nan,0
8548000,8548000,0.0020000017,0.0,0.0019999999,0.0,nan,nan,nan,nan,nan,nan,nan,nan,0
8648000,8648000,0.0019999978,0.0,0.002000001,1.8626451e-09,nan,nan,nan,nan,nan,nan,nan,nan,0
8748000,8748000,0.0020000013,0.0,0.0020000013,0.0,nan,nan,nan,nan,nan,nan,nan,nan,0
8848000,8848000,0.0019999994,0.0,0.0019999994,0.0,nan,nan,nan,nan,nan,nan,nan,nan,0
8948000,8948000,0.0019999994,0.0,0.0019999994,0.0,nan,nan,nan,nan,nan,nan,nan,nan,0
9048000,9048000,0.0019999994,0.0,0.0020000013,0.0,nan,nan,nan,nan,nan,nan,nan,nan,0
9144000,9144000,0.0020000013,0.0,0.0019999994,0.0,nan,nan,nan,nan,nan,nan,nan,nan,0
9248000,9248000,0.0020000013,0.0,0.0019999994,0.0,nan,nan,nan,nan,nan,nan,nan,nan,0
9348000,9348000,0.0020000013,0.0,0.0020000013,0.0,nan,nan,nan,nan,nan,nan,nan,nan,0
9448000,9448000,0.0019999961,0.0,0.0020000008,1.8626451e-09,nan,nan,nan,nan,nan,nan,nan,nan,0
9548000,9548000,0.002000002,0.0,0.0019999996,0.0,nan,nan,nan,nan,nan,nan,nan,nan,0
9648000,9648000,0.0020000013,0.0,0.0019999994,0.0,nan,nan,nan,nan,nan,nan,nan,nan,0
9748000,9748000,0.0020000013,0.0,0.0020000013,0.0,nan,nan,nan,nan,nan,nan,nan,nan,0
9848000,9848000,0.002000001,1.8626451e-09,0.0019999978,0.0,nan,nan,nan,nan,nan,nan,nan,nan,0
9944000,9944000,0.0020000013,0.0,0.0019999994,0.0,nan,nan,nan,nan,nan,nan,nan,nan,0
10044000,10044000,0.0020000013,0.0,0.0019999994,1.8626451e-09,nan,nan,nan,nan,nan,nan,nan,nan,0
10148000,10148000,0.0020000013,0.0,0.0019999994,0.0,nan,nan,nan,nan,nan,nan,nan,nan,0
10248000,10248000,0.0020000006,9.313226e-10,0.002000001,0.0,nan,nan,nan,nan,nan,nan,nan,nan,0
10348000,10348000,0.0019999994,0.0,0.0019999994,0.0,nan,nan,nan,nan,nan,nan,nan,nan,0
10448000,10448000,0.0019999994,0.0,0.0020000013,0.0,nan,nan,nan,nan,nan,nan,nan,nan,0
10548000,10548000,0.0019999975,1.8626451e-09,0.0020000013,0.0,nan,nan,nan,nan,nan,nan,nan,nan,0
10648000,10648000,0.001999998,0.0,0.0020000027,1.8626451e-09,nan,nan,nan,nan,nan,nan,nan,nan,0
10748000,10748000,0.0019999994,0.0,0.0020000013,0.0,nan,nan,nan,nan,nan,nan,nan,nan,0
10848000,10848000,0.0020000013,0.0,0.0019999994,1.8626451e-09,nan,nan,nan,nan,nan,nan,nan,nan,0
10948000,10948000,0.0020000013,0.0,0.0019999994,0.0,nan,nan,nan,nan,nan,nan,nan,nan,0
11048000,11048000,0.0020000013,0.0,0.0019999994,0.0,nan,nan,nan,nan,nan,nan,nan,nan,0
11148000,11148000,0.0019999975,1.8626451e-09,0.0019999994,0.0,nan,nan,nan,nan,nan,nan,nan,nan,0
11248000,11248000,0.0019999975,1.8626451e-09,0.0020000013,0.0,nan,nan,nan,nan,nan,nan,nan,nan,0
11348000,11348000,0.002000001,1.8626451e-09,0.0019999978,0.0,nan,nan,nan,nan,nan,nan,nan,nan,0
11444000,11444000,0.0019999994,0.0,0.0020000013,0.0,nan,nan,nan,nan,nan,nan,nan,nan,0
11548000,11548000,0.0019999975,1.8626451e-09,0.0019999994,0.0,nan,nan,nan,nan,nan,nan,nan,nan,0
11648000,11648000,0.0020000013,0.0,0.0019999994,0.0,nan,nan,nan,nan,nan,nan,nan,nan,0
11748000,11748000,0.0020000013,0.0,0.0019999994,0.0,nan,nan,nan,nan,nan,nan,nan,nan,0
11848000,11848000,0.001999997,0.0,0.002000001,9.313226e-10,nan,nan,nan,nan,nan,nan,nan,nan,0
11948000,11948000,0.0020000017,1.8626451e-09,0.0019999952,0.0,nan,nan,nan,nan,nan,nan,nan,nan,0
12048000,12048000,0.0019999992,1.8626451e-09,0.0019999996,0.0,nan,nan,nan,nan,nan,nan,nan,nan,0
12144000,12144000,0.0019999994,0.0,0.0020000013,0.0,nan,nan,nan,nan,nan,nan,nan,nan,0
12248000,12248000,0.0019999987,0.0,0.002,1.8626451e-09,nan,nan,nan,nan,nan,nan,nan,nan,0
12348000,12348000,0.0020000013,0.0,0.0020000013,0.0,nan,nan,nan,nan,nan,nan,nan,nan,0
12448000,12448000,0.0020000027,1.8626451e-09,0.001999998,0.0,nan,nan,nan,nan,nan,nan,nan,nan,0
12548000,12548000,0.0020000013,0.0,0.0019999994,0.0,nan,nan,nan,nan,nan,nan,nan,nan,0
12648000,12648000,0.0019999992,3.7252903e-09,0.0019999996,0.0,nan,nan,nan,nan,nan,nan,nan,nan,0
12748000,12748000,0.0020000013,0.0,0.0019999994,0.0,nan,nan,nan,nan,nan,nan,nan,nan,0
12848000,12848000,0.0019999994,0.0,0.0020000013,0.0,nan,nan,nan,nan,nan,nan,nan,nan,0
12944000,12944000,0.0020000013,0.0,0.0019999994,0.0,nan,nan,nan,nan,nan,nan,nan,nan,0
13048000,13048000,0.002,0.0,0.0019999996,0.0,nan,nan,nan,nan,nan,nan,nan,nan,0
13148000,13148000,0.0019999994,0.0,0.0020000013,0.0,nan,nan,nan,nan,nan,nan,nan,nan,0
13248000,13248000,0.0019999996,0.0,0.0019999992,1.8626451e-09,nan,nan,nan,nan,nan,nan,nan,nan,0
13348000,13348000,0.0019999996,0.0,0.0019999992,1.8626451e-09,nan,nan,nan,nan,nan,nan,nan,nan,0
13448000,13448000,0.0019999978,0.0,0.002000001,1.8626451e-09,nan,nan,nan,nan,nan,nan,nan,nan,0
13548000,13548000,0.0019999994,1.8626451e-09,0.0020000013,0.0,nan,nan,nan,nan,nan,nan,nan,nan,0
13648000,13648000,0.0019999994,0.0,0.0019999994,0.0,nan,nan,nan,nan,nan,nan,nan,nan,0
13748000,13748000,0.0019999975,1.8626451e-09,0.0019999994,0.0,nan,nan,nan,nan,nan,nan,nan,nan,0
13848000,13848000,0.0020000003,0.0,0.0020000003,0.0,nan,nan,nan,nan,nan,nan,nan,nan,0
13948000,13948000,0.002000001,1.8626451e-09,0.0019999978,0.0,nan,nan,nan,nan,nan,nan,nan,nan,0
14048000,14048000,0.0019999985,9.313226e-10,0.0019999994,0.0,nan,nan,nan,nan,nan,nan,nan,nan,0
14148000,14148000,0.0020000013,0.0,0.0020000013,0.0,nan,nan,nan,nan,nan,nan,nan,nan,0
14248000,14248000,0.002,0.0,0.0020000015,0.0,nan,nan,nan,nan,nan,nan,nan,nan,0
14348000,14348000,0.0020000013,0.0,0.0019999994,0.0,nan,nan,nan,nan,nan,nan,nan,nan,0
14448000,14448000,0.0019999994,0.0,0.0020000013,0.0,nan,nan,nan,nan,nan,nan,nan,nan,0
14548000,14548000,0.0019999985,0.0,0.0020000003,0.0,nan,nan,nan,nan,nan,nan,nan,nan,0
14648000,14648000,0.0020000017,9.313226e-10,0.001999998,0.0,nan,nan,nan,nan,nan,nan,nan,nan,0
14748000,14748000,0.0019999978,0.0,0.0019999973,3.7252903e-09,nan,nan,nan,nan,nan,nan,nan,nan,0
14848000,14848000,0.0020000008,0.0,0.0020000008,0.0,nan,nan,nan,nan,nan,nan,nan,nan,0
14944000,14944000,0.0019999994,0.0,0.0020000013,0.0,nan,nan,nan,nan,nan,nan,nan,nan,0
15048000,15048000,0.002,0.0,0.0019999996,0.0,nan,nan,nan,nan,nan,nan,nan,nan,0
15144000,15144000,0.0020000013,0.0,0.0020000013,0.0,nan,nan,nan,nan,nan,nan,nan,nan,0
15248000,15248000,0.002,9.313226e-10,0.0019999996,0.0,nan,nan,nan,nan,nan,nan,nan,nan,0
15348000,15348000,0.0020000017,0.0,0.002,0.0,nan,nan,nan,nan,nan,nan,nan,nan,0
15448000,15448000,0.002000001,1.8626451e-09,0.0019999978,0.0,nan,nan,nan,nan,nan,nan,nan,nan,0
15544000,15544000,0.0019999999,0.0,0.0020000017,0.0,nan,nan,nan,nan,nan,nan,nan,nan,0
15648000,15648000,0.0019999996,0.0,0.002000001,1.8626451e-09,nan,nan,nan,nan,nan,nan,nan,nan,0
15748000,15748000,0.0019999975,1.8626451e-09,0.0019999994,0.0,nan,nan,nan,nan,nan,nan,nan,nan,0
15848000,15848000,0.0019999985,0.0,0.0020000003,1.8626451e-09,nan,nan,nan,nan,nan,nan,nan,nan,0
15948000,15948000,0.0019999994,0.0,0.0020000013,0.0,nan,nan,nan,nan,nan,nan,nan,nan,0
16048000,16048000,0.002000002,0.0,0.0019999996,0.0,nan,nan,nan,nan,nan,nan,nan,nan,0
16148000,16148000,0.0019999992,1.8626451e-09,0.0019999996,0.0,nan,nan,nan,nan,nan,nan,nan,nan,0
16248000,16248000,0.0019999994,0.0,0.0019999994,1.8626451e-09,nan,nan,nan,nan,nan,nan,nan,nan,0
16348000,16348000,0.0019999961,0.0,0.0020000027,1.8626451e-09,nan,nan,nan,nan,nan,nan,nan,nan,0
16448000,16448000,0.002,0.0,0.0020000017,0.0,nan,nan,nan,nan,nan,nan,nan,nan,0
16548000,16548000,0.0019999985,0.0,0.0019999985,0.0,nan,nan,nan,nan,nan,nan,nan,nan,0
16648000,16648000,0.0019999994,0.0,0.0020000013,0.0,nan,nan,nan,nan,nan,nan,nan,nan,0
16748000,16748000,0.0019999999,0.0,0.0020000017,0.0,nan,nan,nan,nan,nan,nan,nan,nan,0
16848000,16848000,0.002000002,0.0,0.0019999996,0.0,nan,nan,nan,nan,nan,nan,nan,nan,0
16944000,16944000,0.0019999994,0.0,0.0020000013,0.0,nan,nan,nan,nan,nan,nan,nan,nan,0
17048000,17048000,0.002000001,1.8626451e-09,0.0019999978,0.0,nan,nan,nan,nan,nan,nan,nan,nan,0
17148000,17148000,0.0019999985,1.8626451e-09,0.0020000003,0.0,nan,nan,nan,nan,nan,nan,nan,nan,0
17248000,17248000,0.0019999994,0.0,0.0020000013,0.0,nan,nan,nan,nan,nan,nan,nan,nan,0
17348000,17348000,0.0020000027,1.8626451e-09,0.001999998,0.0,nan,nan,nan,nan,nan,nan,nan,nan,0
17448000,17448000,0.0020000008,1.8626451e-09,0.0019999961,0.0,nan,nan,nan,nan,nan,nan,nan,nan,0
17548000,17548000,0.002000002,9.313226e-10,0.0019999996,0.0,nan,nan,nan,nan,nan,nan,nan,nan,0
17648000,17648000,0.001999997,0.0,0.0019999999,1.8626451e-09,nan,nan,nan,nan,nan,nan,nan,nan,0
17748000,17748000,0.0019999994,0.0,0.0020000013,0.0,nan,nan,nan,nan,nan,nan,nan,nan,0
17848000,17848000,0.0020000013,0.0,0.0019999975,0.0,nan,nan,nan,nan,nan,nan,nan,nan,0
17948000,17948000,0.0019999994,0.0,0.0020000013,0.0,nan,nan,nan,nan,nan,nan,nan,nan,0
18048000,18048000,0.0019999994,0.0,0.0019999985,9.313226e-10,nan,nan,nan,nan,nan,nan,nan,nan,0
18148000,18148000,0.0019999994,0.0,0.0020000003,0.0,nan,nan,nan,nan,nan,nan,nan,nan,0
18248000,18248000,0.0020000022,0.0,0.0019999985,0.0,nan,nan,nan,nan,nan,nan,nan,nan,0
18348000,18348000,0.0019999994,0.0,0.0020000013,0.0,nan,nan,nan,nan,nan,nan,nan,nan,0
18448000,18448000,0.0019999994,0.0,0.0020000013,0.0,nan,nan,nan,nan,nan,nan,nan,nan,0
18548000,18548000,0.0020000027,1.8626451e-09,0.001999998,0.0,nan,nan,nan,nan,nan,nan,nan,nan,0
18648000,18648000,0.0019999994,0.0,0.0019999994,0.0,nan,nan,nan,nan,nan,nan,nan,nan,0
18748000,18748000,0.0020000003,0.0,0.0019999985,0.0,nan,nan,nan,nan,nan,nan,nan,nan,0
18844000,18844000,0.0020000013,0.0,0.0019999994,0.0,nan,nan,nan,nan,nan,nan,nan,nan,0
18948000,18948000,0.0020000003,0.0,0.0020000003,0.0,nan,nan,nan,nan,nan,nan,nan,nan,0
19044000,19044000,0.0019999994,0.0,0.0020000013,0.0,nan,nan,nan,nan,nan,nan,nan,nan,0
19148000,19148000,0.0020000003,0.0,0.0020000003,0.0,nan,nan,nan,nan,nan,nan,nan,nan,0
19248000,19248000,0.0020000003,0.0,0.0020000003,0.0,nan,nan,nan,nan,nan,nan,nan,nan,0
19348000,19348000,0.0020000013,0.0,0.0019999994,0.0,nan,nan,nan,nan,nan,nan,nan,nan,0
19448000,19448000,0.0020000013,0.0,0.0019999994,0.0,nan,nan,nan,nan,nan,nan,nan,nan,0
19544000,19544000,0.0019999985,9.313226e-10,0.0020000013,0.0,nan,nan,nan,nan,nan,nan,nan,nan,0
19648000,19648000,0.001999997,0.0,0.0020000017,1.8626451e-09,nan,nan,nan,nan,nan,nan,nan,nan,0
19748000,19748000,0.002,9.313226e-10,0.0019999996,0.0,nan,nan,nan,nan,nan,nan,nan,nan,0
19844000,19844000,0.0020000003,0.0,0.0020000003,0.0,nan,nan,nan,nan,nan,nan,nan,nan,0
19944000,19944000,0.0020000003,0.0,0.0020000003,0.0,nan,nan,nan,nan,nan,nan,nan,nan,0
20048000,20048000,0.0020000013,0.0,0.0019999994,0.0,nan,nan,nan,nan,nan,nan,nan,nan,0
20148000,20148000,0.0020000013,9.313226e-10,0.0019999978,0.0,nan,nan,nan,nan,nan,nan,nan,nan,0
20248000,20248000,0.0020000003,0.0,0.0020000003,0.0,nan,nan,nan,nan,nan,nan,nan,nan,0
20348000,20348000,0.0019999987,0.0,0.002000002,9.313226e-10,nan,nan,nan,nan,nan,nan,nan,nan,0
20448000,20448000,0.0019999994,0.0,0.0019999975,1.8626451e-09,nan,nan,nan,nan,nan,nan,nan,nan,0
20544000,20544000,0.0019999994,0.0,0.0020000013,0.0,nan,nan,nan,nan,nan,nan,nan,nan,0
20648000,20648000,0.0019999994,0.0,0.0020000003,9.313226e-10,nan,nan,nan,nan,nan,nan,nan,nan,0
20748000,20748000,0.0019999999,0.0,0.0020000015,0.0,nan,nan,nan,nan,nan,nan,nan,nan,0
20848000,20848000,0.0019999999,1.8626451e-09,0.001999999,0.0,nan,nan,nan,nan,nan,nan,nan,nan,0
20948000,20948000,0.0020000003,9.313226e-10,0.0019999978,0.0,nan,nan,nan,nan,nan,nan,nan,nan,0
21048000,21048000,0.0019999994,0.0,0.0020000013,0.0,nan,nan,nan,nan,nan,nan,nan,nan,0
21148000,21148000,0.001999997,0.0,0.0019999999,1.8626451e-09,nan,nan,nan,nan,nan,nan,nan,nan,0
21244000,21244000,0.0020000008,1.8626451e-09,0.001999997,0.0,nan,nan,nan,nan,nan,nan,nan,nan,0
21348000,21348000,0.0020000013,0.0,0.0019999994,0.0,nan,nan,nan,nan,nan,nan,nan,nan,0
21448000,21448000,0.0019999985,9.313226e-10,0.0020000013,0.0,nan,nan,nan,nan,nan,nan,nan,nan,0
21548000,21548000,0.0019999985,0.0,0.0019999985,0.0,nan,nan,nan,nan,nan,nan,nan,nan,0
21648000,21648000,0.0019999975,1.8626451e-09,0.0020000013,0.0,nan,nan,nan,nan,nan,nan,nan,nan,0
21748000,21748000,0.0019999994,0.0,0.0020000013,0.0,nan,nan,nan,nan,nan,nan,nan,nan,0
21848000,21848000,0.0020000003,0.0,0.0020000003,0.0,nan,nan,nan,nan,nan,nan,nan,nan,0
21948000,21948000,0.0020000003,0.0,0.0019999985,0.0,nan,nan,nan,nan,nan,nan,nan,nan,0
22044000,22044000,0.0019999994,0.0,0.0019999994,0.0,nan,nan,nan,nan,nan,nan,nan,nan,0
22144000,22144000,0.0019999994,0.0,0.0020000013,0.0,nan,nan,nan,nan,nan,nan,nan,nan,0
22248000,22248000,0.0020000003,9.313226e-10,0.0019999975,0.0,nan,nan,nan,nan,nan,nan,nan,nan,0
22348000,22348000,0.0019999985,1.8626451e-09,0.0019999985,0.0,nan,nan,nan,nan,nan,nan,nan,nan,0
22448000,22448000,0.0020000003,0.0,0.0020000022,0.0,nan,nan,nan,nan,nan,nan,nan,nan,0
22548000,22548000,0.0019999994,0.0,0.0020000013,0.0,nan,nan,nan,nan,nan,nan,nan,nan,0
22648000,22648000,0.0019999985,0.0,0.0019999985,0.0,nan,nan,nan,nan,nan,nan,nan,nan,0
22748000,22748000,0.0019999985,0.0,0.0020000003,0.0,nan,nan,nan,nan,nan,nan,nan,nan,0
22844000,22844000,0.0020000022,0.0,0.0020000022,0.0,nan,nan,nan,nan,nan,nan,nan,nan,0
22948000,22948000,0.002,9.313226e-10,0.0019999978,0.0,nan,nan,nan,nan,nan,nan,nan,nan,0
23048000,23048000,0.0019999994,0.0,0.0020000022,0.0,nan,nan,nan,nan,nan,nan,nan,nan,0
23144000,23144000,0.0019999994,0.0,0.0020000013,0.0,nan,nan,nan,nan,nan,nan,nan,nan,0
23248000,23248000,0.0019999994,0.0,0.0020000013,0.0,nan,nan,nan,nan,nan,nan,nan,nan,0
23344000,23344000,0.0020000003,0.0,0.0020000003,0.0,nan,nan,nan,nan,nan,nan,nan,nan,0
23448000,23448000,0.0019999994,0.0,0.0020000013,0.0,nan,nan,nan,nan,nan,nan,nan,nan,0
23548000,23548000,0.0019999985,1.8626451e-09,0.0019999985,0.0,nan,nan,nan,nan,nan,nan,nan,nan,0
23648000,23648000,0.0019999994,0.0,0.0019999994,0.0,nan,nan,nan,nan,nan,nan,nan,nan,0
23748000,23748000,0.0019999975,1.8626451e-09,0.0019999994,0.0,nan,nan,nan,nan,nan,nan,nan,nan,0
23848000,23848000,0.0020000022,0.0,0.0020000022,0.0,nan,nan,nan,nan,nan,nan,nan,nan,0
23948000,23948000,0.0019999994,0.0,0.0020000013,0.0,nan,nan,nan,nan,nan,nan,nan,nan,0
24048000,24048000,0.0019999994,0.0,0.0020000013,0.0,nan,nan,nan,nan,nan,nan,nan,nan,0
24148000,24148000,0.0019999994,0.0,0.0020000013,0.0,nan,nan,nan,nan,nan,nan,nan,nan,0
24244000,24244000,0.0019999994,0.0,0.0020000013,0.0,nan,nan,nan,nan,nan,nan,nan,nan,0
24348000,24348000,0.0019999985,9.313226e-10,0.0019999994,0.0,nan,nan,nan,nan,nan,nan,nan,nan,0
24448000,24448000,0.0020000003,0.0,0.0020000003,0.0,nan,nan,nan,nan,nan,nan,nan,nan,0
24548000,24548000,0.0020000003,0.0,0.0020000003,0.0,nan,nan,nan,nan,nan,nan,nan,nan,0
24648000,24648000,0.0020000003,0.0,0.0020000022,0.0,nan,nan,nan,nan,nan,nan,nan,nan,0
24748000,24748000,0.002000002,9.313226e-10,0.0019999996,0.0,nan,nan,nan,nan,nan,nan,nan,nan,0
24848000,24848000,0.0019999985,9.313226e-10,0.0019999994,0.0,nan,nan,nan,nan,nan,nan,nan,nan,0
24948000,24948000,0.0020000003,0.0,0.0020000003,0.0,nan,nan,nan,nan,nan,nan,nan,nan,0
25048000,25048000,0.0020000022,0.0,0.0020000003,0.0,nan,nan,nan,nan,nan,nan,nan,nan,0
25148000,25148000,0.0020000022,0.0,0.0020000022,0.0,nan,nan,nan,nan,nan,nan,nan,nan,0
25248000,25248000,0.0019999994,0.0,0.0019999985,9.313226e-10,nan,nan,nan,nan,nan,nan,nan,nan,0
25344000,25344000,0.0019999985,0.0,0.0020000003,0.0,nan,nan,nan,nan,nan,nan,nan,nan,0
25448000,25448000,0.0019999999,1.8626451e-09,0.001999999,0.0,nan,nan,nan,nan,nan,nan,nan,nan,0
25548000,25548000,0.0019999994,0.0,0.0020000013,0.0,nan,nan,nan,nan,nan,nan,nan,nan,0
25648000,25648000,0.0020000022,9.313226e-10,0.0019999996,0.0,nan,nan,nan,nan,nan,nan,nan,nan,0
25748000,25748000,0.0020000003,0.0,0.0020000003,0.0,nan,nan,nan,nan,nan,nan,nan,nan,0
25848000,25848000,0.0020000013,0.0,0.0019999994,0.0,nan,nan,nan,nan,nan,nan,nan,nan,0
25948000,25948000,0.0020000003,0.0,0.0020000022,0.0,nan,nan,nan,nan,nan,nan,nan,nan,0
26048000,26048000,0.0019999994,0.0,0.0020000013,0.0,nan,nan,nan,nan,nan,nan,nan,nan,0
26148000,26148000,0.0020000003,0.0,0.0020000003,0.0,nan,nan,nan,nan,nan,nan,nan,nan,0
26244000,26244000,0.0020000003,0.0,0.0020000003,0.0,nan,nan,nan,nan,nan,nan,nan,nan,0
26348000,26348000,0.0020000022,0.0,0.0020000003,0.0,nan,nan,nan,nan,nan,nan,nan,nan,0
26448000,26448000,0.0019999987,0.0,0.002,9.313226e-10,nan,nan,nan,nan,nan,nan,nan,nan,0
26548000,26548000,0.0020000003,0.0,0.0019999985,0.0,nan,nan,nan,nan,nan,nan,nan,nan,0
26648000,26648000,0.0019999985,0.0,0.0020000003,0.0,nan,nan,nan,nan,nan,nan,nan,nan,0
26748000,26748000,0.0020000003,0.0,0.0020000003,0.0,nan,nan,nan,nan,nan,nan,nan,nan,0
26844000,26844000,0.0020000013,0.0,0.0019999994,0.0,nan,nan,nan,nan,nan,nan,nan,nan,0
26948000,26948000,0.0019999994,0.0,0.0020000013,0.0,nan,nan,nan,nan,nan,nan,nan,nan,0
27048000,27048000,0.002,9.313226e-10,0.0019999987,0.0,nan,nan,nan,nan,nan,nan,nan,nan,0
27148000,27148000,0.002000002,9.313226e-10,0.0019999996,0.0,nan,nan,nan,nan,nan,nan,nan,nan,0
27244000,27244000,0.0020000022,0.0,0.0019999985,0.0,nan,nan,nan,nan,nan,nan,nan,nan,0
27348000,27348000,0.0020000003,1.8626451e-09,0.0019999985,0.0,nan,nan,nan,nan,nan,nan,nan,nan,0
27448000,27448000,0.0019999994,0.0,0.0020000013,0.0,nan,nan,nan,nan,nan,nan,nan,nan,0
27548000,27548000,0.0019999985,9.313226e-10,0.0020000013,0.0,nan,nan,nan,nan,nan,nan,nan,nan,0
27648000,27648000,0.0020000013,0.0,0.0019999994,0.0,nan,nan,nan,nan,nan,nan,nan,nan,0
27748000,27748000,0.0019999994,0.0,0.0019999994,0.0,nan,nan,nan,nan,nan,nan,nan,nan,0
27848000,27848000,0.0019999994,0.0,0.0020000003,9.313226e-10,nan,nan,nan,nan,nan,nan,nan,nan,0
27944000,27944000,0.0020000013,0.0,0.0019999994,0.0,nan,nan,nan,nan,nan,nan,nan,nan,0
28048000,28048000,0.0020000003,1.8626451e-09,0.0019999994,0.0,nan,nan,nan,nan,nan,nan,nan,nan,0
28148000,28148000,0.0020000003,0.0,0.0020000022,0.0,nan,nan,nan,nan,nan,nan,nan,nan,0
28248000,28248000,0.0020000013,0.0,0.0019999994,0.0,nan,nan,nan,nan,nan,nan,nan,nan,0
28348000,28348000,0.0020000013,0.0,0.0019999994,0.0,nan,nan,nan,nan,nan,nan,nan,nan,0
28448000,28448000,0.0020000013,0.0,0.0019999994,0.0,nan,nan,nan,nan,nan,nan,nan,nan,0
28548000,28548000,0.0020000003,0.0,0.0020000003,0.0,nan,nan,nan,nan,nan,nan,nan,nan,0
28648000,28648000,0.0019999994,0.0,0.0020000013,0.0,nan,nan,nan,nan,nan,nan,nan,nan,0
28748000,28748000,0.002,0.0,0.0020000017,0.0,nan,nan,nan,nan,nan,nan,nan,nan,0
28848000,28848000,0.0019999985,0.0,0.0020000003,0.0,nan,nan,nan,nan,nan,nan,nan,nan,0
28944000,28944000,0.0019999994,0.0,0.0020000013,0.0,nan,nan,nan,nan,nan,nan,nan,nan,0
29048000,29048000,0.0019999985,9.313226e-10,0.0020000013,0.0,nan,nan,nan,nan,nan,nan,nan,nan,0
29148000,29148000,0.0020000022,0.0,0.0020000003,0.0,nan,nan,nan,nan,nan,nan,nan,nan,0
29248000,29248000,0.002,9.313226e-10,0.0019999978,0.0,nan,nan,nan,nan,nan,nan,nan,nan,0
29348000,29348000,0.0019999994,0.0,0.0020000013,0.0,nan,nan,nan,nan,nan,nan,nan,nan,0
29448000,29448000,0.0019999994,0.0,0.0019999994,0.0,nan,nan,nan,nan,nan,nan,nan,nan,0
29548000,29548000,0.0019999966,9.313226e-10,0.0020000003,0.0,nan,nan,nan,nan,nan,nan,nan,nan,0
29648000,29648000,0.002,9.313226e-10,0.0019999978,0.0,nan,nan,nan,nan,nan,nan,nan,nan,0
29748000,29748000,0.0019999994,0.0,0.0019999985,9.313226e-10,nan,nan,nan,nan,nan,nan,nan,nan,0
29848000,29848000,0.0020000003,0.0,0.0019999985,0.0,nan,nan,nan,nan,nan,nan,nan,nan,0
29944000,29944000,0.0020000003,0.0,0.0019999985,0.0,nan,nan,nan,nan,nan,nan,nan,nan,0
30048000,30048000,0.0019999994,0.0,0.0019999994,0.0,nan,nan,nan,nan,nan,nan,nan,nan,0
30148000,30148000,0.0020000003,0.0,0.0019999985,1.8626451e-09,nan,nan,nan,nan,nan,nan,nan,nan,0
30244000,30244000,0.0019999994,0.0,0.0019999994,0.0,nan,nan,nan,nan,nan,nan,nan,nan,0
30348000,30348000,0.0019999985,0.0,0.0020000022,0.0,nan,nan,nan,nan,nan,nan,nan,nan,0
30444000,30444000,0.0019999994,0.0,0.0019999994,0.0,nan,nan,nan,nan,nan,nan,nan,nan,0
30544000,30544000,0.0020000003,9.313226e-10,0.0020000013,0.0,nan,nan,nan,nan,nan,nan,nan,nan,0
30644000,30644000,0.0019999985,0.0,0.0020000003,0.0,nan,nan,nan,nan,nan,nan,nan,nan,0
30748000,30748000,0.0020000003,0.0,0.0020000022,0.0,nan,nan,nan,nan,nan,nan,nan,nan,0
30848000,30848000,0.0020000003,0.0,0.0020000003,0.0,nan,nan,nan,nan,nan,nan,nan,nan,0
30948000,30948000,0.0019999994,0.0,0.0020000013,0.0,nan,nan,nan,nan,nan,nan,nan,nan,0
31048000,31048000,0.0020000003,0.0,0.0020000003,0.0,nan,nan,nan,nan,nan,nan,nan,nan,0
31148000,31148000,0.0019999994,0.0,0.0020000013,0.0,nan,nan,nan,nan,nan,nan,nan,nan,0
31248000,31248000,0.0020000017,1.8626451e-09,0.001999997,0.0,nan,nan,nan,nan,nan,nan,nan,nan,0
31348000,31348000,0.0019999999,1.8626451e-09,0.001999999,0.0,nan,nan,nan,nan,nan,nan,nan,nan,0
31448000,31448000,0.019857684,0.028375084,0.039282043,0.0065934705,nan,nan,nan,nan,nan,nan,nan,nan,0
31548000,31548000,0.038595527,0.038953472,0.05161169,0.02513067,nan,nan,nan,nan,nan,nan,nan,nan,0
31648000,31648000,0.052944526,0.05609086,0.0673201,0.04043404,nan,nan,nan,nan,nan,nan,nan,nan,0
31748000,31748000,0.07197852,0.07389253,0.086473666,0.059432212,nan,nan,nan,nan,nan,nan,nan,nan,0
31848000,31848000,0.09095756,0.09352653,0.10556165,0.07812771,nan,nan,nan,nan,nan,nan,nan,nan,0
31944000,31944000,0.1128275,0.11365026,0.12722084,0.098784514,nan,nan,nan,nan,nan,nan,nan,nan,0
32048000,32048000,0.13608861,0.13855357,0.15208599,0.12360681,nan,nan,nan,nan,nan,nan,nan,nan,0
32148000,32148000,0.16230664,0.16518396,0.17938207,0.14920007,nan,nan,nan,nan,nan,nan,nan,nan,0
32248000,32248000,0.18902442,0.19117022,0.20762047,0.17347181,nan,nan,nan,nan,nan,nan,nan,nan,0
32348000,32348000,0.21959881,0.22343661,0.2394327,0.20139202,nan,nan,nan,nan,nan,nan,nan,nan,0
32448000,32448000,0.24831775,0.2534625,0.2725174,0.22904807,nan,nan,nan,nan,nan,nan,nan,nan,0
32548000,32548000,0.280767,0.2892259,0.30966234,0.25947964,nan,nan,nan,nan,nan,nan,nan,nan,0
32648000,32648000,0.31332523,0.3227497,0.34594214,0.29056522,nan,nan,nan,nan,nan,nan,nan,nan,0
32744000,32744000,0.3397529,0.3521177,0.3753118,0.31595805,nan,nan,nan,nan,nan,nan,nan,nan,0
32848000,32848000,0.350137,0.3636033,0.38788888,0.32451794,nan,nan,nan,nan,nan,nan,nan,nan,0
32944000,32944000,0.36015353,0.37386456,0.40223095,0.33159977,nan,nan,nan,nan,nan,nan,nan,nan,0
33048000,33048000,0.37060887,0.3881477,0.4164818,0.34117484,nan,nan,nan,nan,nan,nan,nan,nan,0
33148000,33148000,0.3805948,0.40167534,0.42927977,0.35160694,nan,nan,nan,nan,nan,nan,nan,nan,0
33248000,33248000,0.39280763,0.41504005,0.44488433,0.36193922,nan,nan,nan,nan,nan,nan,nan,nan,0
33348000,33348000,0.40339047,0.42831695,0.45955017,0.37248957,nan,nan,nan,nan,nan,nan,nan,nan,0
33448000,33448000,0.41740403,0.44369137,0.47633854,0.38276866,nan,nan,nan,nan,nan,nan,nan,nan,0
33548000,33548000,0.42813575,0.4592464,0.49253583,0.3940153,nan,nan,nan,nan,nan,nan,nan,nan,0
33644000,33644000,0.4432717,0.47420084,0.51044536,0.40651184,nan,nan,nan,nan,nan,nan,nan,nan,0
33748000,33748000,0.45459372,0.49020392,0.5250677,0.419227,nan,nan,nan,nan,nan,nan,nan,nan,0
33848000,33848000,0.47066253,0.5067605,0.54470426,0.43256363,nan,nan,nan,nan,nan,nan,nan,nan,0
33948000,33948000,0.4838126,0.52429444,0.5628848,0.44547296,nan,nan,nan,nan,nan,nan,nan,nan,0
34048000,34048000,0.50050604,0.54168105,0.58127075,0.46101832,nan,nan,nan,nan,nan,nan,nan,nan,0
34148000,34148000,0.51353234,0.55950147,0.59861755,0.47314447,nan,nan,nan,nan,nan,nan,nan,nan,0
34248000,34248000,0.5287159,0.5804575,0.6179002,0.49084407,nan,nan,nan,nan,nan,nan,nan,nan,0
34348000,34348000,0.5429566,0.5999014,0.6354697,0.50507027,nan,nan,nan,nan,nan,nan,nan,nan,0
34448000,34448000,0.5865408,0.64411056,0.68357617,0.5482289,nan,nan,nan,nan,nan,nan,nan,nan,0
34548000,34548000,0.6017077,0.66424364,0.7029256,0.5606431,nan,nan,nan,nan,nan,nan,nan,nan,0
34648000,34648000,0.6193231,0.6864435,0.72541845,0.58127034,nan,nan,nan,nan,nan,nan,nan,nan,0
34748000,34748000,0.63688654,0.706192,0.7436713,0.598705,nan,nan,nan,nan,nan,nan,nan,nan,0
34848000,34848000,0.66685843,0.7103903,0.7497021,0.62751997,nan,nan,nan,nan,nan,nan,nan,nan,0
34948000,34948000,0.6988093,0.7015807,0.7409779,0.6597202,nan,nan,nan,nan,nan,nan,nan,nan,0
35044000,35044000,0.7346337,0.69082284,0.7373267,0.7081918,nan,nan,nan,nan,nan,nan,nan,nan,0
35148000,35148000,0.73919094,0.71791,0.71889955,0.7509366,nan,nan,nan,nan,nan,nan,nan,nan,0
35244000,35244000,0.7459763,0.74092835,0.7372008,0.7533976,nan,nan,nan,nan,nan,nan,nan,nan,0
35348000,35348000,0.7462157,0.74616563,0.7494013,0.745519,nan,nan,nan,nan,nan,nan,nan,nan,0
35448000,35448000,0.7523287,0.7522476,0.76186955,0.74490625,nan,nan,nan,nan,nan,nan,nan,nan,0
35544000,35544000,0.7539676,0.74908346,0.75964504,0.7460136,nan,nan,nan,nan,nan,nan,nan,nan,0
35648000,35648000,0.7597263,0.74991757,0.7617583,0.748692,nan,nan,nan,nan,nan,nan,nan,nan,0
35748000,35748000,0.75479656,0.7484591,0.75696194,0.74655443,nan,nan,nan,nan,nan,nan,nan,nan,0
35844000,35844000,0.75860363,0.7526323,0.75962734,0.75390387,nan,nan,nan,nan,nan,nan,nan,nan,0
35948000,35948000,0.73789656,0.734919,0.7401051,0.7335558,nan,nan,nan,nan,nan,nan,nan,nan,0
36048000,36048000,0.7316469,0.7254703,0.7337975,0.7240786,nan,nan,nan,nan,nan,nan,nan,nan,0
36148000,36148000,0.73129696,0.72548276,0.7335433,0.72509253,nan,nan,nan,nan,nan,nan,nan,nan,0
36248000,36248000,0.73676854,0.73339367,0.7387019,0.73059666,nan,nan,nan,nan,nan,nan,nan,nan,0
36348000,36348000,0.73458624,0.7305939,0.7356094,0.72939885,nan,nan,nan,nan,nan,nan,nan,nan,0
36448000,36448000,0.74102247,0.7320914,0.73960096,0.73446804,nan,nan,nan,nan,nan,nan,nan,nan,0
36548000,36548000,0.7373088,0.7297716,0.7369071,0.7289491,nan,nan,nan,nan,nan,nan,nan,nan,0
36648000,36648000,0.73962057,0.73443705,0.7398514,0.73454607,nan,nan,nan,nan,nan,nan,nan,nan,0
36748000,36748000,0.7353512,0.7315361,0.7365851,0.7299299,nan,nan,nan,nan,nan,nan,nan,nan,0
36848000,36848000,0.74018097,0.7340552,0.7402619,0.73389095,nan,nan,nan,nan,nan,nan,nan,nan,0
36944000,36944000,0.73854697,0.73139864,0.7393146,0.73035383,nan,nan,nan,nan,nan,nan,nan,nan,0
37048000,37048000,0.7404711,0.73321927,0.7409727,0.73397106,nan,nan,nan,nan,nan,nan,nan,nan,0
37148000,37148000,0.7365179,0.73001635,0.7360186,0.7310111,nan,nan,nan,nan,nan,nan,nan,nan,0
37248000,37248000,0.74140203,0.7337341,0.74000835,0.7333943,nan,nan,nan,nan,nan,nan,nan,nan,0
37348000,37348000,0.73665804,0.72895914,0.7361134,0.73062074,nan,nan,nan,nan,nan,nan,nan,nan,0
37448000,37448000,0.7385832,0.7354401,0.74044245,0.7336105,nan,nan,nan,nan,nan,nan,nan,nan,0
37548000,37548000,0.73563486,0.7293814,0.7365913,0.7300121,nan,nan,nan,nan,nan,nan,nan,nan,0
37648000,37648000,0.7403936,0.7327046,0.74156153,0.7338605,nan,nan,nan,nan,nan,nan,nan,nan,0
37744000,37744000,0.736651,0.7295696,0.7364292,0.7297256,nan,nan,nan,nan,nan,nan,nan,nan,0
37848000,37848000,0.7404088,0.733714,0.7395807,0.7351374,nan,nan,nan,nan,nan,nan,nan,nan,0
37948000,37948000,0.736251,0.7308815,0.7360008,0.7301145,nan,nan,nan,nan,nan,nan,nan,nan,0
38044000,38044000,0.7433996,0.73166966,0.7417998,0.7322274,nan,nan,nan,nan,nan,nan,nan,nan,0
38148000,38148000,0.7357836,0.7302317,0.7347095,0.7297042,nan,nan,nan,nan,nan,nan,nan,nan,0
38248000,38248000,0.73889285,0.7355317,0.7386345,0.7359427,nan,nan,nan,nan,nan,nan,nan,nan,0
38348000,38348000,0.7350614,0.7319425,0.7348946,0.7309953,nan,nan,nan,nan,nan,nan,nan,nan,0
38448000,38448000,0.7429673,0.7316317,0.73989195,0.73497576,nan,nan,nan,nan,nan,nan,nan,nan,0
38548000,38548000,0.73625004,0.72914684,0.73601997,0.72940385,nan,nan,nan,nan,nan,nan,nan,nan,0
38648000,38648000,0.7425075,0.73546183,0.74309033,0.73551357,nan,nan,nan,nan,nan,nan,nan,nan,0
38748000,38748000,0.73446095,0.73230827,0.7341688,0.72964185,nan,nan,nan,nan,nan,nan,nan,nan,0
38848000,38848000,0.74199224,0.7360236,0.7414624,0.73566926,nan,nan,nan,nan,nan,nan,nan,nan,0
38948000,38948000,0.73727626,0.72836345,0.7349425,0.72882897,nan,nan,nan,nan,nan,nan,nan,nan,0
39048000,39048000,0.7424661,0.73653245,0.7415779,0.73583156,nan,nan,nan,nan,nan,nan,nan,nan,0
39144000,39144000,0.7391476,0.7329251,0.73906267,0.73404455,nan,nan,nan,nan,nan,nan,nan,nan,0
39244000,39244000,0.7410014,0.7363793,0.74354786,0.7360478,nan,nan,nan,nan,nan,nan,nan,nan,0
39348000,39348000,0.7354796,0.728846,0.7365286,0.72873557,nan,nan,nan,nan,nan,nan,nan,nan,0
39448000,39448000,0.74406636,0.73264503,0.7429736,0.73524934,nan,nan,nan,nan,nan,nan,nan,nan,0
39544000,39544000,0.73549217,0.72849244,0.7354531,0.72992694,nan,nan,nan,nan,nan,nan,nan,nan,0
39648000,39648000,0.74332124,0.7350014,0.74131733,0.73580676,nan,nan,nan,nan,nan,nan,nan,nan,0
39748000,39748000,0.7357543,0.72718346,0.7362078,0.7285044,nan,nan,nan,nan,nan,nan,nan,nan,0
39848000,39848000,0.74146676,0.7359454,0.7426331,0.73613745,nan,nan,nan,nan,nan,nan,nan,nan,0
39944000,39944000,0.736014,0.72865534,0.7359665,0.72955614,nan,nan,nan,nan,nan,nan,nan,nan,0
40048000,40048000,0.7415405,0.7381607,0.74189657,0.73617923,nan,nan,nan,nan,nan,nan,nan,nan,0
40144000,40144000,0.7397276,0.7322523,0.7383686,0.7324556,nan,nan,nan,nan,nan,nan,nan,nan,0
40248000,40248000,0.7433588,0.7342199,0.742425,0.73560107,nan,nan,nan,nan,nan,nan,nan,nan,0
40348000,40348000,0.7360111,0.72868633,0.73505956,0.729226,nan,nan,nan,nan,nan,nan,nan,nan,0
40448000,40448000,0.7421393,0.73629963,0.74152166,0.73646986,nan,nan,nan,nan,nan,nan,nan,nan,0
40548000,40548000,0.7346545,0.729514,0.73535323,0.7290464,nan,nan,nan,nan,nan,nan,nan,nan,0
40648000,40648000,0.74257845,0.73609143,0.74271077,0.7360521,nan,nan,nan,nan,nan,nan,nan,nan,0
40744000,40744000,0.73644674,0.7298755,0.73630893,0.72991234,nan,nan,nan,nan,nan,nan,nan,nan,0
40844000,40844000,0.742752,0.736485,0.7430642,0.7356479,nan,nan,nan,nan,nan,nan,nan,nan,0
40948000,40948000,0.7356336,0.7289687,0.73473424,0.72861934,nan,nan,nan,nan,nan,nan,nan,nan,0
41048000,41048000,0.7424835,0.73482555,0.74183375,0.73541534,nan,nan,nan,nan,nan,nan,nan,nan,0
41148000,41148000,0.7360435,0.7283042,0.7360951,0.7293155,nan,nan,nan,nan,nan,nan,nan,nan,0
41248000,41248000,0.74375874,0.73544645,0.74391645,0.7335658,nan,nan,nan,nan,nan,nan,nan,nan,0
41348000,41348000,0.73586625,0.72951216,0.7358658,0.728255,nan,nan,nan,nan,nan,nan,nan,nan,0
41448000,41448000,0.73053813,0.7233908,0.7303651,0.7238204,nan,nan,nan,nan,nan,nan,nan,nan,0
41548000,41548000,0.7013771,0.69655925,0.70238966,0.69814306,nan,nan,nan,nan,nan,nan,nan,nan,0
41648000,41648000,0.7139592,0.708146,0.7147611,0.7074571,nan,nan,nan,nan,nan,nan,nan,nan,0
41748000,41748000,0.708087,0.702676,0.70925194,0.7030372,nan,nan,nan,nan,nan,nan,nan,nan,0
41848000,41848000,0.7180268,0.71092355,0.71735585,0.711726,nan,nan,nan,nan,nan,nan,nan,nan,0
41948000,41948000,0.7115532,0.7051756,0.71193683,0.70459515,nan,nan,nan,nan,nan,nan,nan,nan,0
42048000,42048000,0.7161789,0.71127635,0.7187035,0.70941085,nan,nan,nan,nan,nan,nan,nan,nan,0
42144000,42144000,0.70786816,0.702245,0.7078839,0.7012981,nan,nan,nan,nan,nan,nan,nan,nan,0
42244000,42244000,0.714713,0.7076593,0.71447027,0.7085847,nan,nan,nan,nan,nan,nan,nan,nan,0
42348000,42348000,0.7075602,0.7027796,0.7079229,0.7026521,nan,nan,nan,nan,nan,nan,nan,nan,0
42444000,42444000,0.7121388,0.70588255,0.71302044,0.7067869,nan,nan,nan,nan,nan,nan,nan,nan,0
42548000,42548000,0.704055,0.69845,0.7030527,0.6982221,nan,nan,nan,nan,nan,nan,nan,nan,0
42648000,42648000,0.710046,0.70258856,0.70879793,0.7031694,nan,nan,nan,nan,nan,nan,nan,nan,0
42748000,42748000,0.7058244,0.696788,0.7052436,0.6977857,nan,nan,nan,nan,nan,nan,nan,nan,0
42848000,42848000,0.7085741,0.70170534,0.70958894,0.70139635,nan,nan,nan,nan,nan,nan,nan,nan,0
42948000,42948000,0.7028915,0.6959831,0.70233965,0.69811165,nan,nan,nan,nan,nan,nan,nan,nan,0
43048000,43048000,0.6272082,0.61296797,0.71090937,0.75824624,nan,nan,nan,nan,nan,nan,nan,nan,0
43144000,43144000,0.57055336,0.5609212,0.7674953,0.8231569,nan,nan,nan,nan,nan,nan,nan,nan,0
43248000,43248000,0.6131383,0.6142579,0.7418014,0.7539374,nan,nan,nan,nan,nan,nan,nan,nan,0
43348000,43348000,0.63280123,0.57951486,0.7631785,0.7379267,nan,nan,nan,nan,nan,nan,nan,nan,0
43444000,43444000,0.6827763,0.65976936,0.70293087,0.68489856,nan,nan,nan,nan,nan,nan,nan,nan,0
43548000,43548000,0.6714127,0.6680086,0.7046016,0.71509016,nan,nan,nan,nan,nan,nan,nan,nan,0
43648000,43648000,0.69383824,0.7132109,0.67491055,0.69615513,nan,nan,nan,nan,nan,nan,nan,nan,0
43748000,43748000,0.6828196,0.6928227,0.6975806,0.7172022,nan,nan,nan,nan,nan,nan,nan,nan,0
43848000,43848000,0.699663,0.7097794,0.7014107,0.67892134,nan,nan,nan,nan,nan,nan,nan,nan,0
43948000,43948000,0.69950885,0.6875259,0.7208898,0.6998733,nan,nan,nan,nan,nan,nan,nan,nan,0
44048000,44048000,0.7350857,0.7427994,0.7288918,0.724251,nan,nan,nan,nan,nan,nan,nan,nan,0
44148000,44148000,0.7443982,0.73065466,0.75891405,0.7603206,nan,nan,nan,nan,nan,nan,nan,nan,0
44248000,44248000,0.7367671,0.7450265,0.73213786,0.74188405,nan,nan,nan,nan,nan,nan,nan,nan,0
44348000,44348000,0.7176123,0.7140524,0.7410734,0.7548389,nan,nan,nan,nan,nan,nan,nan,nan,0
44448000,44448000,0.71657777,0.74273235,0.7261515,0.7392601,nan,nan,nan,nan,nan,nan,nan,nan,0
44548000,44548000,0.71057296,0.71596026,0.73708034,0.74812627,nan,nan,nan,nan,nan,nan,nan,nan,0
44648000,44648000,0.7807864,0.81956226,0.66717696,0.6567734,nan,nan,nan,nan,nan,nan,nan,nan,0
44744000,44744000,0.7965923,0.78195775,0.6729401,0.6432054,nan,nan,nan,nan,nan,nan,nan,nan,0
44844000,44844000,0.784501,0.7955432,0.6642811,0.6401504,nan,nan,nan,nan,nan,nan,nan,nan,0
44948000,44948000,0.74931306,0.7568139,0.68254226,0.69032,nan,nan,nan,nan,nan,nan,nan,nan,0
45048000,45048000,0.7294017,0.75123626,0.6886801,0.71846807,nan,nan,nan,nan,nan,nan,nan,nan,0
45148000,45148000,0.7120719,0.72808427,0.7114553,0.7344376,nan,nan,nan,nan,nan,nan,nan,nan,0
45248000,45248000,0.69629955,0.7345338,0.7233338,0.7300616,nan,nan,nan,nan,nan,nan,nan,nan,0
45348000,45348000,0.708131,0.707504,0.7162069,0.7322304,nan,nan,nan,nan,nan,nan,nan,nan,0
45448000,45448000,0.70533055,0.703651,0.7061296,0.73999494,nan,nan,nan,nan,nan,nan,nan,nan,0
45548000,45548000,0.7039373,0.69955635,0.7108149,0.7374533,nan,nan,nan,nan,nan,nan,nan,nan,0
45648000,45648000,0.6675155,0.74979734,0.70581836,0.7426844,nan,nan,nan,nan,nan,nan,nan,nan,0
45748000,45748000,0.6843241,0.7420941,0.70253783,0.73272854,nan,nan,nan,nan,nan,nan,nan,nan,0
45848000,45848000,0.7013207,0.72951144,0.69862425,0.7337841,nan,nan,nan,nan,nan,nan,nan,nan,0
45948000,45948000,0.7130163,0.71449125,0.7071378,0.72587526,nan,nan,nan,nan,nan,nan,nan,nan,0
46044000,46044000,0.7036797,0.72381765,0.71193033,0.7228329,nan,nan,nan,nan,nan,nan,nan,nan,0
46148000,46148000,0.70434767,0.7243207,0.70677763,0.7222031,nan,nan,nan,nan,nan,nan,nan,nan,0
46244000,46244000,0.7019324,0.72956353,0.7006723,0.73163277,nan,nan,nan,nan,nan,nan,nan,nan,0
46348000,46348000,0.7073759,0.7220705,0.70713097,0.7264054,nan,nan,nan,nan,nan,nan,nan,nan,0
46448000,46448000,0.7022123,0.7291482,0.7090049,0.72596693,nan,nan,nan,nan,nan,nan,nan,nan,0
46548000,46548000,0.7048783,0.7241259,0.70980084,0.72269857,nan,nan,nan,nan,nan,nan,nan,nan,0
46644000,46644000,0.7041226,0.7289008,0.7033634,0.73092943,nan,nan,nan,nan,nan,nan,nan,nan,0
46744000,46744000,0.70811844,0.72306144,0.70698905,0.7263714,nan,nan,nan,nan,nan,nan,nan,nan,0
46848000,46848000,0.7003278,0.73001444,0.7051363,0.72674316,nan,nan,nan,nan,nan,nan,nan,nan,0
46948000,46948000,0.70295566,0.7219321,0.7055828,0.7199063,nan,nan,nan,nan,nan,nan,nan,nan,0
47048000,47048000,0.7006792,0.72697663,0.70055693,0.72747797,nan,nan,nan,nan,nan,nan,nan,nan,0
47148000,47148000,0.70710593,0.72048897,0.70616174,0.72289085,nan,nan,nan,nan,nan,nan,nan,nan,0
47248000,47248000,0.70246303,0.725651,0.7062396,0.7236173,nan,nan,nan,nan,nan,nan,nan,nan,0
47348000,47348000,0.704859,0.72198284,0.7066078,0.71970546,nan,nan,nan,nan,nan,nan,nan,nan,0
47444000,47444000,0.70314217,0.72713435,0.70281476,0.7283551,nan,nan,nan,nan,nan,nan,nan,nan,0
47548000,47548000,0.7064596,0.7248479,0.707571,0.7246447,nan,nan,nan,nan,nan,nan,nan,nan,0
47648000,47648000,0.7016801,0.72879714,0.70446795,0.72566026,nan,nan,nan,nan,nan,nan,nan,nan,0
47748000,47748000,0.70275193,0.7228442,0.70652866,0.72057426,nan,nan,nan,nan,nan,nan,nan,nan,0
47844000,47844000,0.70371985,0.72869956,0.7011845,0.72703826,nan,nan,nan,nan,nan,nan,nan,nan,0
47944000,47944000,0.70623547,0.724246,0.7060657,0.72455776,nan,nan,nan,nan,nan,nan,nan,nan,0
48048000,48048000,0.703547,0.72278,0.70699096,0.7211547,nan,nan,nan,nan,nan,nan,nan,nan,0
48148000,48148000,0.70298356,0.722736,0.70333105,0.7221221,nan,nan,nan,nan,nan,nan,nan,nan,0
48244000,48244000,0.70052195,0.72723603,0.7016997,0.7270444,nan,nan,nan,nan,nan,nan,nan,nan,0
48348000,48348000,0.70574456,0.72350365,0.7066377,0.72290856,nan,nan,nan,nan,nan,nan,nan,nan,0
48444000,48444000,0.7025231,0.7278471,0.7064128,0.72461784,nan,nan,nan,nan,nan,nan,nan,nan,0
48548000,48548000,0.70341814,0.7228353,0.7061178,0.72111505,nan,nan,nan,nan,nan,nan,nan,nan,0
48648000,48648000,0.7018902,0.7304266,0.7018888,0.7286043,nan,nan,nan,nan,nan,nan,nan,nan,0
48744000,48744000,0.708159,0.7227178,0.70920384,0.72389674,nan,nan,nan,nan,nan,nan,nan,nan,0
48848000,48848000,0.7018197,0.7296257,0.7034702,0.7277322,nan,nan,nan,nan,nan,nan,nan,nan,0
48948000,48948000,0.7027213,0.72319704,0.70476675,0.72258925,nan,nan,nan,nan,nan,nan,nan,nan,0
49048000,49048000,0.70168185,0.7274724,0.7019371,0.72820187,nan,nan,nan,nan,nan,nan,nan,nan,0
49144000,49144000,0.7018404,0.72986126,0.7024651,0.7297153,nan,nan,nan,nan,nan,nan,nan,nan,0
49248000,49248000,0.702915,0.7271719,0.70512366,0.7248098,nan,nan,nan,nan,nan,nan,nan,nan,0
49348000,49348000,0.70390624,0.7233889,0.703924,0.72234106,nan,nan,nan,nan,nan,nan,nan,nan,0
49444000,49444000,0.7007108,0.7303795,0.7004631,0.72948027,nan,nan,nan,nan,nan,nan,nan,nan,0
49548000,49548000,0.7063705,0.7256209,0.70573175,0.7248638,nan,nan,nan,nan,nan,nan,nan,nan,0
49648000,49648000,0.70205826,0.7295078,0.70157206,0.7300325,nan,nan,nan,nan,nan,nan,nan,nan,0
49748000,49748000,0.7049338,0.7229349,0.7059131,0.72079355,nan,nan,nan,nan,nan,nan,nan,nan,0
49848000,49848000,0.701421,0.72903574,0.70310026,0.72853976,nan,nan,nan,nan,nan,nan,nan,nan,0
49948000,49948000,0.7059079,0.725185,0.70598364,0.7248639,nan,nan,nan,nan,nan,nan,nan,nan,0
50048000,50048000,0.7012765,0.727993,0.70331883,0.72780615,nan,nan,nan,nan,nan,nan,nan,nan,0
50148000,50148000,0.7029301,0.7225712,0.70541054,0.7215009,nan,nan,nan,nan,nan,nan,nan,nan,0
50248000,50248000,0.7011505,0.728058,0.7014096,0.7287913,nan,nan,nan,nan,nan,nan,nan,nan,0
50348000,50348000,0.70618016,0.72341675,0.7061283,0.72508603,nan,nan,nan,nan,nan,nan,nan,nan,0
50448000,50448000,0.7019403,0.728207,0.70187837,0.7271908,nan,nan,nan,nan,nan,nan,nan,nan,0
50548000,50548000,0.7017114,0.7219157,0.70229304,0.72279537,nan,nan,nan,nan,nan,nan,nan,nan,0
50648000,50648000,0.6994083,0.7287525,0.7009253,0.7272157,nan,nan,nan,nan,nan,nan,nan,nan,0
50748000,50748000,0.7049915,0.7244672,0.70487165,0.7247342,nan,nan,nan,nan,nan,nan,nan,nan,0
50848000,50848000,0.7002804,0.7296199,0.70138013,0.7275521,nan,nan,nan,nan,nan,nan,nan,nan,0
50948000,50948000,0.7026986,0.72230184,0.7030994,0.72295004,nan,nan,nan,nan,nan,nan,nan,nan,0
51048000,51048000,0.70212984,0.72819424,0.7022495,0.7281432,nan,nan,nan,nan,nan,nan,nan,nan,0
51144000,51144000,0.70243645,0.73132366,0.70199525,0.7312457,nan,nan,nan,nan,nan,nan,nan,nan,0
51248000,51248000,0.70206237,0.7295244,0.702869,0.72898644,nan,nan,nan,nan,nan,nan,nan,nan,0
51344000,51344000,0.7019032,0.72749734,0.7027813,0.72699594,nan,nan,nan,nan,nan,nan,nan,nan,0
51448000,51448000,0.7025093,0.7299804,0.70208347,0.728036,nan,nan,nan,nan,nan,nan,nan,nan,0
51548000,51548000,0.70734096,0.72545624,0.70698637,0.72475535,nan,nan,nan,nan,nan,nan,nan,nan,0
51648000,51648000,0.7037626,0.7266907,0.70345,0.7285208,nan,nan,nan,nan,nan,nan,nan,nan,0
51748000,51748000,0.7031818,0.72272795,0.7055033,0.72318786,nan,nan,nan,nan,nan,nan,nan,nan,0
51848000,51848000,0.70059645,0.72969055,0.70175886,0.72934973,nan,nan,nan,nan,nan,nan,nan,nan,0
51944000,51944000,0.7064329,0.72439706,0.70696294,0.72432345,nan,nan,nan,nan,nan,nan,nan,nan,0
52044000,52044000,0.7015425,0.72897106,0.7006259,0.7289725,nan,nan,nan,nan,nan,nan,nan,nan,0
52148000,52148000,0.7029692,0.72403437,0.7037062,0.7222029,nan,nan,nan,nan,nan,nan,nan,nan,0
52248000,52248000,0.7006048,0.72935486,0.70149183,0.72921765,nan,nan,nan,nan,nan,nan,nan,nan,0
52344000,52344000,0.70742035,0.7238117,0.7079954,0.7228703,nan,nan,nan,nan,nan,nan,nan,nan,0
52448000,52448000,0.70075995,0.729906,0.70232975,0.7288743,nan,nan,nan,nan,nan,nan,nan,nan,0
52548000,52548000,0.7038608,0.72221863,0.70410347,0.72181016,nan,nan,nan,nan,nan,nan,nan,nan,0
52648000,52648000,0.70111626,0.7287453,0.7022268,0.72815734,nan,nan,nan,nan,nan,nan,nan,nan,0
52748000,52748000,0.7051077,0.72584677,0.70594263,0.72525597,nan,nan,nan,nan,nan,nan,nan,nan,0
52848000,52848000,0.70240057,0.7304119,0.70235145,0.72832,nan,nan,nan,nan,nan,nan,nan,nan,0
52948000,52948000,0.7045658,0.7228291,0.7048074,0.7224181,nan,nan,nan,nan,nan,nan,nan,nan,0
53048000,53048000,0.70238763,0.72979516,0.7013577,0.7284905,nan,nan,nan,nan,nan,nan,nan,nan,0
53148000,53148000,0.7063613,0.7257461,0.70707154,0.72486407,nan,nan,nan,nan,nan,nan,nan,nan,0
53248000,53248000,0.702608,0.72856253,0.70245993,0.7292529,nan,nan,nan,nan,nan,nan,nan,nan,0
53344000,53344000,0.70446366,0.7223766,0.70680577,0.72247076,nan,nan,nan,nan,nan,nan,nan,nan,0
53448000,53448000,0.70292354,0.7294521,0.7024171,0.7292639,nan,nan,nan,nan,nan,nan,nan,nan,0
53548000,53548000,0.70486027,0.72741926,0.70565516,0.7267585,nan,nan,nan,nan,nan,nan,nan,nan,0
53648000,53648000,0.70099396,0.72969514,0.70336807,0.7298244,nan,nan,nan,nan,nan,nan,nan,nan,0
53748000,53748000,0.70366514,0.7222834,0.70477855,0.72289413,nan,nan,nan,nan,nan,nan,nan,nan,0
53844000,53844000,0.7008785,0.7303264,0.701191,0.72889477,nan,nan,nan,nan,nan,nan,nan,nan,0
53944000,53944000,0.70320725,0.72984636,0.70385563,0.7307241,nan,nan,nan,nan,nan,nan,nan,nan,0
54044000,54044000,0.7011784,0.72966075,0.7028507,0.72839147,nan,nan,nan,nan,nan,nan,nan,nan,0
54148000,54148000,0.7045183,0.7225247,0.7042831,0.7215577,nan,nan,nan,nan,nan,nan,nan,nan,0
54244000,54244000,0.69895566,0.7299671,0.70123166,0.73023576,nan,nan,nan,nan,nan,nan,nan,nan,0
54348000,54348000,0.7058254,0.72450423,0.7059117,0.7264885,nan,nan,nan,nan,nan,nan,nan,nan,0
54444000,54444000,0.7028421,0.72796816,0.7023045,0.7279065,nan,nan,nan,nan,nan,nan,nan,nan,0
54548000,54548000,0.70227855,0.7236412,0.7039289,0.7225061,nan,nan,nan,nan,nan,nan,nan,nan,0
54648000,54648000,0.7002711,0.72872555,0.70139325,0.7288646,nan,nan,nan,nan,nan,nan,nan,nan,0
54748000,54748000,0.70687085,0.72277915,0.7079925,0.72340906,nan,nan,nan,nan,nan,nan,nan,nan,0
54844000,54844000,0.7022487,0.7270062,0.7034144,0.7274148,nan,nan,nan,nan,nan,nan,nan,nan,0
54948000,54948000,0.7031252,0.7229067,0.70215577,0.72242,nan,nan,nan,nan,nan,nan,nan,nan,0
55048000,55048000,0.7002475,0.7288488,0.6998213,0.72919565,nan,nan,nan,nan,nan,nan,nan,nan,0
55148000,55148000,0.70456153,0.7250233,0.7054639,0.7255291,nan,nan,nan,nan,nan,nan,nan,nan,0
55248000,55248000,0.70157355,0.72797805,0.70210534,0.7282099,nan,nan,nan,nan,nan,nan,nan,nan,0
55348000,55348000,0.7025565,0.72156435,0.7035718,0.720239,nan,nan,nan,nan,nan,nan,nan,nan,0
55448000,55448000,0.7005,0.7281623,0.70059925,0.72709984,nan,nan,nan,nan,nan,nan,nan,nan,0
55548000,55548000,0.7045354,0.7247685,0.7045604,0.72648054,nan,nan,nan,nan,nan,nan,nan,nan,0
55648000,55648000,0.7007905,0.7294244,0.7021647,0.7278751,nan,nan,nan,nan,nan,nan,nan,nan,0
55748000,55748000,0.70280814,0.7220638,0.7038125,0.7219342,nan,nan,nan,nan,nan,nan,nan,nan,0
55844000,55844000,0.7006338,0.7292523,0.700786,0.72880614,nan,nan,nan,nan,nan,nan,nan,nan,0
55944000,55944000,0.70269877,0.7300151,0.7034721,0.72990936,nan,nan,nan,nan,nan,nan,nan,nan,0
56048000,56048000,0.70191956,0.7297548,0.70203704,0.73016137,nan,nan,nan,nan,nan,nan,nan,nan,0
56148000,56148000,0.70491886,0.7221906,0.7039559,0.72260547,nan,nan,nan,nan,nan,nan,nan,nan,0
56244000,56244000,0.70048505,0.7298069,0.7010472,0.7284586,nan,nan,nan,nan,nan,nan,nan,nan,0
56348000,56348000,0.70546544,0.72540617,0.70656157,0.72405016,nan,nan,nan,nan,nan,nan,nan,nan,0
56444000,56444000,0.7026371,0.72897565,0.7037314,0.72842777,nan,nan,nan,nan,nan,nan,nan,nan,0
56544000,56544000,0.7052528,0.7233848,0.7056332,0.72299534,nan,nan,nan,nan,nan,nan,nan,nan,0
56644000,56644000,0.7015914,0.73050094,0.7018801,0.7308774,nan,nan,nan,nan,nan,nan,nan,nan,0
56748000,56748000,0.7060041,0.7268671,0.7067456,0.7266161,nan,nan,nan,nan,nan,nan,nan,nan,0
56848000,56848000,0.70332104,0.729123,0.70246196,0.7291923,nan,nan,nan,nan,nan,nan,nan,nan,0
56948000,56948000,0.7034424,0.7228089,0.70399326,0.7228684,nan,nan,nan,nan,nan,nan,nan,nan,0
57048000,57048000,0.70046294,0.72874266,0.70141274,0.7295978,nan,nan,nan,nan,nan,nan,nan,nan,0
57148000,57148000,0.70485085,0.7256951,0.7051847,0.7252449,nan,nan,nan,nan,nan,nan,nan,nan,0
57248000,57248000,0.7029077,0.7273169,0.703551,0.7248806,nan,nan,nan,nan,nan,nan,nan,nan,0
57348000,57348000,0.7043339,0.72004265,0.705085,0.72018313,nan,nan,nan,nan,nan,nan,nan,nan,0
57448000,57448000,0.6990465,0.72964275,0.6987603,0.72899127,nan,nan,nan,nan,nan,nan,nan,nan,0
57548000,57548000,0.7048591,0.72505397,0.70385164,0.72494084,nan,nan,nan,nan,nan,nan,nan,nan,0
57644000,57644000,0.70125985,0.7293339,0.70131505,0.72680604,nan,nan,nan,nan,nan,nan,nan,nan,0
57748000,57748000,0.70403177,0.7212376,0.70289224,0.72133833,nan,nan,nan,nan,nan,nan,nan,nan,0
57848000,57848000,0.7000581,0.7282452,0.7003673,0.7283615,nan,nan,nan,nan,nan,nan,nan,nan,0
57948000,57948000,0.7069147,0.72318375,0.70663553,0.722553,nan,nan,nan,nan,nan,nan,nan,nan,0
58048000,58048000,0.7012867,0.72831756,0.70151126,0.72874874,nan,nan,nan,nan,nan,nan,nan,nan,0
58144000,58144000,0.7032434,0.7213477,0.70477164,0.7220005,nan,nan,nan,nan,nan,nan,nan,nan,0
58248000,58248000,0.69960636,0.72855,0.70104694,0.7290354,nan,nan,nan,nan,nan,nan,nan,nan,0
58348000,58348000,0.70506614,0.7255044,0.70540494,0.7252666,nan,nan,nan,nan,nan,nan,nan,nan,0
58448000,58448000,0.70178175,0.72785896,0.70183986,0.7276441,nan,nan,nan,nan,nan,nan,nan,nan,0
58548000,58548000,0.7018612,0.72319585,0.70360166,0.7223409,nan,nan,nan,nan,nan,nan,nan,nan,0
58648000,58648000,0.70106876,0.72926897,0.70109504,0.72827625,nan,nan,nan,nan,nan,nan,nan,nan,0
58748000,58748000,0.70546347,0.72332346,0.705872,0.7250663,nan,nan,nan,nan,nan,nan,nan,nan,0
58844000,58844000,0.6998072,0.7296949,0.7012105,0.72813237,nan,nan,nan,nan,nan,nan,nan,nan,0
58948000,58948000,0.7020444,0.72231805,0.70210576,0.7223601,nan,nan,nan,nan,nan,nan,nan,nan,0
59048000,59048000,0.7003175,0.7285104,0.7007855,0.7273843,nan,nan,nan,nan,nan,nan,nan,nan,0
59148000,59148000,0.7056311,0.72317946,0.7050356,0.7237705,nan,nan,nan,nan,nan,nan,nan,nan,0
59248000,59248000,0.7017853,0.7284939,0.70150816,0.72836745,nan,nan,nan,nan,nan,nan,nan,nan,0
59348000,59348000,0.70422184,0.7221717,0.7045956,0.7219914,nan,nan,nan,nan,nan,nan,nan,nan,0
59448000,59448000,0.7006671,0.7294206,0.70148206,0.727918,nan,nan,nan,nan,nan,nan,nan,nan,0
59548000,59548000,0.706931,0.7240624,0.7063807,0.7242957,nan,nan,nan,nan,nan,nan,nan,nan,0
59648000,59648000,0.70116127,0.7276867,0.70272917,0.728114,nan,nan,nan,nan,nan,nan,nan,nan,0
59744000,59744000,0.70002615,0.7271557,0.7006876,0.7268762,nan,nan,nan,nan,nan,nan,nan,nan,0
59848000,59848000,0.7016133,0.72690076,0.7015468,0.7271219,nan,nan,nan,nan,nan,nan,nan,nan,0
59948000,59948000,0.70578265,0.7236166,0.70455724,0.7238285,nan,nan,nan,nan,nan,nan,nan,nan,0
60048000,60048000,0.70052373,0.7283664,0.7013016,0.7280921,nan,nan,nan,nan,nan,nan,nan,nan,0
60148000,60148000,0.70322376,0.7208939,0.70368665,0.7212691,nan,nan,nan,nan,nan,nan,nan,nan,0
60248000,60248000,0.70029795,0.72725725,0.7002741,0.7272346,nan,nan,nan,nan,nan,nan,nan,nan,0
60348000,60348000,0.7036995,0.7247392,0.7048785,0.7233982,nan,nan,nan,nan,nan,nan,nan,nan,0
60444000,60444000,0.70064926,0.7281817,0.70073825,0.7277687,nan,nan,nan,nan,nan,nan,nan,nan,0
60548000,60548000,0.7035088,0.720181,0.70480937,0.7207233,nan,nan,nan,nan,nan,nan,nan,nan,0
60644000,60644000,0.7015103,0.7286478,0.70185035,0.72743946,nan,nan,nan,nan,nan,nan,nan,nan,0
60744000,60744000,0.70156187,0.73088485,0.70201325,0.72919583,nan,nan,nan,nan,nan,nan,nan,nan,0
60848000,60848000,0.7000467,0.7293005,0.70084804,0.72882617,nan,nan,nan,nan,nan,nan,nan,nan,0
60948000,60948000,0.70323277,0.7218209,0.70342326,0.7235479,nan,nan,nan,nan,nan,nan,nan,nan,0
61048000,61048000,0.70154226,0.72665346,0.70083296,0.72867215,nan,nan,nan,nan,nan,nan,nan,nan,0
61148000,61148000,0.7053666,0.7250263,0.70666766,0.72248703,nan,nan,nan,nan,nan,nan,nan,nan,0
61248000,61248000,0.70205635,0.72947997,0.7020482,0.7297106,nan,nan,nan,nan,nan,nan,nan,nan,0
61348000,61348000,0.70502245,0.7220462,0.70616084,0.7231829,nan,nan,nan,nan,nan,nan,nan,nan,0
61448000,61448000,0.70055497,0.7300808,0.7019226,0.7293956,nan,nan,nan,nan,nan,nan,nan,nan,0
61548000,61548000,0.70469254,0.72691476,0.7063844,0.72481984,nan,nan,nan,nan,nan,nan,nan,nan,0
61644000,61644000,0.70337754,0.72827554,0.703432,0.72762465,nan,nan,nan,nan,nan,nan,nan,nan,0
61748000,61748000,0.7047064,0.72234577,0.7044641,0.72302103,nan,nan,nan,nan,nan,nan,nan,nan,0
61844000,61844000,0.7007972,0.731112,0.70150125,0.7293134,nan,nan,nan,nan,nan,nan,nan,nan,0
61948000,61948000,0.720636,0.7020828,0.72043586,0.70069855,nan,nan,nan,nan,nan,nan,nan,nan,0
62048000,62048000,0.7058454,0.7110172,0.71291333,0.70616966,nan,nan,nan,nan,nan,nan,nan,nan,0
62148000,62148000,0.70138574,0.7149186,0.70393187,0.71270436,nan,nan,nan,nan,nan,nan,nan,nan,0
62248000,62248000,0.6908391,0.7291573,0.692096,0.7247117,nan,nan,nan,nan,nan,nan,nan,nan,0
62348000,62348000,0.6888099,0.7307591,0.6789955,0.7385587,nan,nan,nan,nan,nan,nan,nan,nan,0
62448000,62448000,0.68911827,0.7235138,0.68871355,0.7284815,nan,nan,nan,nan,nan,nan,nan,nan,0
62544000,62544000,0.6943008,0.7146347,0.7000937,0.7165562,nan,nan,nan,nan,nan,nan,nan,nan,0
62648000,62648000,0.69882745,0.7135258,0.7027777,0.71292305,nan,nan,nan,nan,nan,nan,nan,nan,0
62744000,62744000,0.69770026,0.7162259,0.7013479,0.7166213,nan,nan,nan,nan,nan,nan,nan,nan,0
62848000,62848000,0.69871545,0.7162487,0.69750726,0.71929806,nan,nan,nan,nan,nan,nan,nan,nan,0
62948000,62948000,0.6982559,0.7134635,0.70451707,0.71634436,nan,nan,nan,nan,nan,nan,nan,nan,0
63048000,63048000,0.6991227,0.71856815,0.70204884,0.717871,nan,nan,nan,nan,nan,nan,nan,nan,0
63148000,63148000,0.702044,0.71662074,0.70534,0.7183257,nan,nan,nan,nan,nan,nan,nan,nan,0
63248000,63248000,0.70383984,0.71667385,0.7038442,0.71613246,nan,nan,nan,nan,nan,nan,nan,nan,0
63348000,63348000,0.7022631,0.7120018,0.7071753,0.716181,nan,nan,nan,nan,nan,nan,nan,nan,0
63448000,63448000,0.7019628,0.7182714,0.7043783,0.71659285,nan,nan,nan,nan,nan,nan,nan,nan,0
63548000,63548000,0.7042011,0.7154952,0.7091382,0.71651524,nan,nan,nan,nan,nan,nan,nan,nan,0
63648000,63648000,0.70576453,0.7147182,0.7059407,0.7165345,nan,nan,nan,nan,nan,nan,nan,nan,0
63748000,63748000,0.70379806,0.7088762,0.7111193,0.7164424,nan,nan,nan,nan,nan,nan,nan,nan,0
63848000,63848000,0.7054291,0.71603775,0.7075956,0.714298,nan,nan,nan,nan,nan,nan,nan,nan,0
63948000,63948000,0.701827,0.7186968,0.71043056,0.7147195,nan,nan,nan,nan,nan,nan,nan,nan,0
64048000,64048000,0.70380896,0.71907693,0.70597136,0.71277535,nan,nan,nan,nan,nan,nan,nan,nan,0
64148000,64148000,0.70220435,0.7106596,0.7087493,0.7135892,nan,nan,nan,nan,nan,nan,nan,nan,0
64248000,64248000,0.71081865,0.70988363,0.7047055,0.71222705,nan,nan,nan,nan,nan,nan,nan,nan,0
64348000,64348000,0.70162445,0.71700543,0.7012097,0.71782404,nan,nan,nan,nan,nan,nan,nan,nan,0
64444000,64444000,0.78095245,0.80273455,0.65762985,0.5885338,nan,nan,nan,nan,nan,nan,nan,nan,0
64548000,64548000,0.82189214,0.82046634,0.62248933,0.55486315,nan,nan,nan,nan,nan,nan,nan,nan,0
64648000,64648000,0.7640091,0.76078236,0.6579046,0.6484728,nan,nan,nan,nan,nan,nan,nan,nan,0
64748000,64748000,0.758862,0.78004724,0.65034354,0.6653037,nan,nan,nan,nan,nan,nan,nan,nan,0
64848000,64848000,0.71820855,0.7263699,0.7063481,0.7330501,nan,nan,nan,nan,nan,nan,nan,nan,0
64948000,64948000,0.7237604,0.73307765,0.6623394,0.73259246,nan,nan,nan,nan,nan,nan,nan,nan,0
65048000,65048000,0.7035017,0.719373,0.69606495,0.73420143,nan,nan,nan,nan,nan,nan,nan,nan,0
65148000,65148000,0.73804456,0.7224956,0.7089818,0.69133,nan,nan,nan,nan,nan,nan,nan,nan,0
65248000,65248000,0.7252131,0.6811679,0.7332659,0.7010282,nan,nan,nan,nan,nan,nan,nan,nan,0
65348000,65348000,0.7318629,0.6995995,0.7111021,0.6850462,nan,nan,nan,nan,nan,nan,nan,nan,0
65448000,65448000,0.70692515,0.6974363,0.7135944,0.70927083,nan,nan,nan,nan,nan,nan,nan,nan,0
65548000,65548000,0.7168646,0.7256994,0.70069796,0.6872222,nan,nan,nan,nan,nan,nan,nan,nan,0
65648000,65648000,0.6873112,0.72940814,0.7009489,0.71027607,nan,nan,nan,nan,nan,nan,nan,nan,0
65748000,65748000,0.6863282,0.76597476,0.6799501,0.6952168,nan,nan,nan,nan,nan,nan,nan,nan,0
65844000,65844000,0.6839491,0.7506788,0.70110005,0.70971245,nan,nan,nan,nan,nan,nan,nan,nan,0
65948000,65948000,0.73593974,0.7328943,0.68755525,0.69396013,nan,nan,nan,nan,nan,nan,nan,nan,0
66044000,66044000,0.7301662,0.7080049,0.6958008,0.7201856,nan,nan,nan,nan,nan,nan,nan,nan,0
66148000,66148000,0.73909175,0.7232978,0.69571817,0.6992002,nan,nan,nan,nan,nan,nan,nan,nan,0
66248000,66248000,0.71597534,0.7314873,0.7079509,0.73093903,nan,nan,nan,nan,nan,nan,nan,nan,0
66348000,66348000,0.73595834,0.74659216,0.7060906,0.7095315,nan,nan,nan,nan,nan,nan,nan,nan,0
66448000,66448000,0.6726445,0.65190256,0.7747477,0.8110603,nan,nan,nan,nan,nan,nan,nan,nan,0
66548000,66548000,0.66504616,0.65374583,0.7892496,0.7958295,nan,nan,nan,nan,nan,nan,nan,nan,0
66648000,66648000,0.65902346,0.6518551,0.80566245,0.79922307,nan,nan,nan,nan,nan,nan,nan,nan,0
66748000,66748000,0.69180566,0.6932614,0.77385634,0.7545607,nan,nan,nan,nan,nan,nan,nan,nan,0
66844000,66844000,0.70661414,0.72164977,0.7452068,0.76720864,nan,nan,nan,nan,nan,nan,nan,nan,0
66944000,66944000,0.72617483,0.73197526,0.7328491,0.7283326,nan,nan,nan,nan,nan,nan,nan,nan,0
67048000,67048000,0.72938323,0.7372592,0.7201369,0.72600836,nan,nan,nan,nan,nan,nan,nan,nan,0
67144000,67144000,0.732896,0.7417683,0.712972,0.7192215,nan,nan,nan,nan,nan,nan,nan,nan,0
67244000,67244000,0.7223797,0.74462044,0.70321995,0.7323633,nan,nan,nan,nan,nan,nan,nan,nan,0
67348000,67348000,0.7207433,0.7362908,0.7054958,0.72168046,nan,nan,nan,nan,nan,nan,nan,nan,0
67448000,67448000,0.71342605,0.7353485,0.70554245,0.72518265,nan,nan,nan,nan,nan,nan,nan,nan,0
67548000,67548000,0.72416687,0.71691144,0.7025181,0.72223186,nan,nan,nan,nan,nan,nan,nan,nan,0
67648000,67648000,0.7156943,0.7100177,0.6965242,0.7275365,nan,nan,nan,nan,nan,nan,nan,nan,0
67748000,67748000,0.7001913,0.7196618,0.69373983,0.7312853,nan,nan,nan,nan,nan,nan,nan,nan,0
67844000,67844000,0.6728614,0.751803,0.6896405,0.7410275,nan,nan,nan,nan,nan,nan,nan,nan,0
67948000,67948000,0.68507504,0.74543816,0.70028025,0.7240256,nan,nan,nan,nan,nan,nan,nan,nan,0
68048000,68048000,0.70501375,0.7261886,0.69906986,0.72042555,nan,nan,nan,nan,nan,nan,nan,nan,0
68148000,68148000,0.71349704,0.7105021,0.70546407,0.71209407,nan,nan,nan,nan,nan,nan,nan,nan,0
68248000,68248000,0.7062058,0.7200845,0.7020079,0.7230886,nan,nan,nan,nan,nan,nan,nan,nan,0
68348000,68348000,0.7066876,0.7205935,0.70559,0.720803,nan,nan,nan,nan,nan,nan,nan,nan,0
68444000,68444000,0.7004282,0.7277731,0.6994571,0.7289555,nan,nan,nan,nan,nan,nan,nan,nan,0
68548000,68548000,0.7038135,0.72028935,0.70374066,0.72148526,nan,nan,nan,nan,nan,nan,nan,nan,0
68648000,68648000,0.70061207,0.72726053,0.7021371,0.7239732,nan,nan,nan,nan,nan,nan,nan,nan,0
68748000,68748000,0.70672286,0.71856916,0.7084893,0.7160083,nan,nan,nan,nan,nan,nan,nan,nan,0
68844000,68844000,0.70096177,0.72553265,0.6990585,0.7272341,nan,nan,nan,nan,nan,nan,nan,nan,0
