timestamp,timestamp_sample,gps_hvel[0],gps_hvel[1],gps_vvel,gps_hpos[0],gps_hpos[1],gps_vpos,ev_hvel[0],ev_hvel[1],ev_vvel,ev_hpos[0],ev_hpos[1],ev_vpos,rng_vpos,baro_vpos,aux_hvel[0],aux_hvel[1],aux_vvel,flow[0],flow[1],terr_flow[0],terr_flow[1],heading,mag_field[0],mag_field[1],mag_field[2],gravity[0],gravity[1],gravity[2],drag[0],drag[1],airspeed,beta,hagl,hagl_rate
3748000,3668000,1.6309189e-08,0.0,1.1066732e-05,3.5430523e-11,0.0,93.5142,0.0,0.0,0.0,0.0,0.0,0.0,0.0,1.2890759e-07,0.0,0.0,nan,0.0,0.0,0.0,0.0,0.0,0.0,0.0,0.0,0.00011216112,0.0,0.0,0.0,0.0,0.0,0.0,0.0,0.0
4252000,4172000,1.7850416e-06,0.0,2.0595608e-05,4.829431e-09,0.0,277.58838,0.0,0.0,0.0,0.0,0.0,0.0,0.0,6.6148874e-05,0.0,0.0,nan,0.0,0.0,0.0,0.0,0.0,0.0,0.0,0.0,1.0772498e-05,0.0,0.0,0.0,0.0,0.0,0.0,0.0,0.0
4748000,4668000,3.6490968e-07,0.0,0.00020218022,1.7387129e-10,0.0,5.3631124e-11,0.0,0.0,0.0,0.0,0.0,0.0,0.0,4.6336875e-11,0.0,0.0,nan,0.0,0.0,0.0,0.0,0.0,0.0,0.0,0.0,0.00018807483,0.0,0.0,0.0,0.0,0.0,0.0,0.0,0.0
5252000,5172000,2.02637e-06,0.0,2.007937e-05,2.46441e-06,0.0,8.86407e-08,0.0,0.0,0.0,0.0,0.0,0.0,0.0,3.6921966e-07,0.0,0.0,nan,0.0,0.0,0.0,0.0,0.0,0.0,0.0,0.0,0.00065820897,0.0,0.0,0.0,0.0,0.0,0.0,0.0,0.0
5748000,5668000,5.5433422e-05,0.0,0.0004882814,2.2188062e-06,0.0,3.0176216e-06,0.0,0.0,0.0,0.0,0.0,0.0,0.0,1.0904805e-06,0.0,0.0,nan,0.0,0.0,0.0,0.0,0.0,0.0,0.0,0.0,2.4123461e-05,0.0,0.0,0.0,0.0,0.0,0.0,0.0,0.0
6244000,6164000,3.702864e-05,0.0,3.1108568e-06,2.1409203e-06,0.0,2.6955684e-06,0.0,0.0,0.0,0.0,0.0,0.0,0.0,9.336735e-08,0.0,0.0,nan,0.0,0.0,0.0,0.0,0.0,0.0,0.0,0.0,0.0004312874,0.0,0.0,0.0,0.0,0.0,0.0,0.0,0.0
6748000,6668000,1.0497866e-07,0.0,8.4355e-05,2.2614092e-06,0.0,5.97975e-06,0.0,0.0,0.0,0.0,0.0,0.0,0.0,7.635168e-06,0.0,0.0,nan,0.0,0.0,0.0,0.0,0.0,0.0,0.0,0.0,0.0007429434,0.0,0.0,0.0,0.0,0.0,0.0,0.0,0.0
7252000,7172000,8.376403e-05,0.0,9.694421e-07,2.0985751e-06,0.0,1.18864264e-07,0.0,0.0,0.0,0.0,0.0,0.0,0.0,8.155813e-08,0.0,0.0,nan,0.0,0.0,0.0,0.0,0.0,0.0,0.0,0.0,6.910483e-05,0.0,0.0,0.0,0.0,0.0,0.0,0.0,0.0
7748000,7668000,3.1660315e-05,0.0,0.0006607024,1.3950968e-06,0.0,1.3532065e-08,0.0,0.0,0.0,0.0,0.0,0.0,0.0,1.125706e-05,0.0,0.0,nan,0.0,0.0,0.0,0.0,0.0,0.0,0.0,0.0,0.00014502888,0.0,0.0,0.0,0.0,0.0,0.0,0.0,0.0
8244000,8164000,3.6285415e-05,0.0,0.00012895859,1.7374053e-06,0.0,3.3695034e-07,0.0,0.0,0.0,0.0,0.0,0.0,0.0,3.7821067e-07,0.0,0.0,nan,0.0,0.0,0.0,0.0,0.0,0.0,0.0,0.0,0.0002860869,0.0,0.0,0.0,0.0,0.0,0.0,0.0,0.0
8748000,8668000,0.0002040076,0.0,9.43089e-06,2.1211788e-06,0.0,1.797549e-07,0.0,0.0,0.0,0.0,0.0,0.0,0.0,3.240103e-06,0.0,0.0,nan,0.0,0.0,0.0,0.0,0.0,0.0,0.0,0.0,5.109799e-05,0.0,0.0,0.0,0.0,0.0,0.0,0.0,0.0
9252000,9172000,2.5954744e-06,0.0,6.5631043e-06,2.0451073e-06,0.0,2.482955e-06,0.0,0.0,0.0,0.0,0.0,0.0,0.0,3.745947e-05,0.0,0.0,nan,0.0,0.0,0.0,0.0,0.0,0.0,0.0,0.0,0.000635225,0.0,0.0,0.0,0.0,0.0,0.0,0.0,0.0
9748000,9668000,0.00021575845,0.0,2.04145e-06,1.9726092e-06,0.0,1.0239487e-09,0.0,0.0,0.0,0.0,0.0,0.0,0.0,3.7612306e-05,0.0,0.0,nan,0.0,0.0,0.0,0.0,0.0,0.0,0.0,0.0,1.9041106e-05,0.0,0.0,0.0,0.0,0.0,0.0,0.0,0.0
10252000,10172000,0.00024332525,0.0,0.0001635684,1.9855877e-06,0.0,6.7803967e-07,0.0,0.0,0.0,0.0,0.0,0.0,0.0,1.6795544e-05,0.0,0.0,nan,0.0,0.0,0.0,0.0,0.0,0.0,0.0,0.0,4.9905324e-05,0.0,0.0,0.0,0.0,0.0,0.0,0.0,0.0
10748000,10668000,0.00017336906,0.0,8.9011e-07,8.8067245e-06,0.0,4.7352603e-07,0.0,0.0,0.0,0.0,0.0,0.0,0.0,3.0874776e-06,0.0,0.0,nan,0.0,0.0,0.0,0.0,0.0,0.0,0.0,0.0,1.23813015e-05,0.0,0.0,0.0,0.0,0.0,0.0,0.0,0.0
11244000,11164000,0.00012558694,0.0,1.6327964e-06,2.5837287e-06,0.0,8.977477e-07,0.0,0.0,0.0,0.0,0.0,0.0,0.0,5.9753984e-06,0.0,0.0,nan,0.0,0.0,0.0,0.0,0.0,0.0,0.0,0.0,0.00028305588,0.0,0.0,0.0,0.0,0.0,0.0,0.0,0.0
11748000,11668000,6.630489e-05,0.0,1.7799915e-05,2.6499033e-06,0.0,1.9355804e-05,0.0,0.0,0.0,0.0,0.0,0.0,0.0,1.7529334e-07,0.0,0.0,nan,0.0,0.0,0.0,0.0,0.0,0.0,0.0,0.0,6.572089e-05,0.0,0.0,0.0,0.0,0.0,0.0,0.0,0.0
12252000,12172000,4.273332e-06,0.0,3.719977e-05,4.58265e-06,0.0,1.5663452e-05,0.0,0.0,0.0,0.0,0.0,0.0,0.0,1.2704538e-06,0.0,0.0,nan,0.0,0.0,0.0,0.0,0.0,0.0,0.0,0.0,6.827854e-05,0.0,0.0,0.0,0.0,0.0,0.0,0.0,0.0
12748000,12668000,3.0082438e-06,0.0,2.8332272e-05,2.3884436e-06,0.0,5.3575454e-06,0.0,0.0,0.0,0.0,0.0,0.0,0.0,1.123531e-05,0.0,0.0,nan,0.0,0.0,0.0,0.0,0.0,0.0,0.0,0.0,0.00016768996,0.0,0.0,0.0,0.0,0.0,0.0,0.0,0.0
13252000,13172000,3.9704846e-05,0.0,1.2006466e-06,1.6686622e-06,0.0,8.366747e-06,0.0,0.0,0.0,0.0,0.0,0.0,0.0,9.563615e-07,0.0,0.0,nan,0.0,0.0,0.0,0.0,0.0,0.0,0.0,0.0,0.00074001274,0.0,0.0,0.0,0.0,0.0,0.0,0.0,0.0
13748000,13668000,0.00044300465,0.0,0.0002017714,1.6907401e-06,0.0,1.6570768e-05,0.0,0.0,0.0,0.0,0.0,0.0,0.0,1.5693195e-05,0.0,0.0,nan,0.0,0.0,0.0,0.0,0.0,0.0,0.0,0.0,0.0011251536,0.0,0.0,0.0,0.0,0.0,0.0,0.0,0.0
14252000,14172000,7.65952e-05,0.0,7.843331e-05,8.270559e-06,0.0,1.4939482e-05,0.0,0.0,0.0,0.0,0.0,0.0,0.0,8.344911e-06,0.0,0.0,nan,0.0,0.0,0.0,0.0,0.0,0.0,0.0,0.0,0.00047871773,0.0,0.0,0.0,0.0,0.0,0.0,0.0,0.0
14748000,14668000,3.1136737e-05,0.0,7.711058e-05,6.567498e-09,0.0,1.7993982e-05,0.0,0.0,0.0,0.0,0.0,0.0,0.0,6.8314384e-06,0.0,0.0,nan,0.0,0.0,0.0,0.0,0.0,0.0,0.0,0.0,0.000629143,0.0,0.0,0.0,0.0,0.0,0.0,0.0,0.0
15252000,15172000,0.00014713581,0.0,0.00013389166,2.3819155e-06,0.0,1.208022e-05,0.0,0.0,0.0,0.0,0.0,0.0,0.0,1.3602162e-05,0.0,0.0,nan,0.0,0.0,0.0,0.0,0.0,0.0,0.0,0.0,0.0006782139,0.0,0.0,0.0,0.0,0.0,0.0,0.0,0.0
15748000,15668000,5.6545512e-05,0.0,9.17801e-06,2.2683962e-06,0.0,2.2436754e-05,0.0,0.0,0.0,0.0,0.0,0.0,0.0,8.336832e-06,0.0,0.0,nan,0.0,0.0,0.0,0.0,0.0,0.0,0.0,0.0,0.00023944289,0.0,0.0,0.0,0.0,0.0,0.0,0.0,0.0
16252000,16172000,2.3539846e-07,0.0,6.162596e-05,2.0026227e-09,0.0,1.3410155e-06,0.0,0.0,0.0,0.0,0.0,0.0,0.0,3.681832e-05,0.0,0.0,nan,0.0,0.0,0.0,0.0,0.0,0.0,0.0,0.0,0.00071196264,0.0,0.0,0.0,0.0,0.0,0.0,0.0,0.0
16748000,16668000,6.2370505e-05,0.0,7.010569e-05,5.0612243e-09,0.0,5.2583437e-06,0.0,0.0,0.0,0.0,0.0,0.0,0.0,4.2192137e-06,0.0,0.0,nan,0.0,0.0,0.0,0.0,0.0,0.0,0.0,0.0,0.00014146639,0.0,0.0,0.0,0.0,0.0,0.0,0.0,0.0
17252000,17172000,3.525347e-06,0.0,3.469378e-05,2.630289e-06,0.0,2.5673064e-06,0.0,0.0,0.0,0.0,0.0,0.0,0.0,5.15239e-06,0.0,0.0,nan,0.0,0.0,0.0,0.0,0.0,0.0,0.0,0.0,0.0007732943,0.0,0.0,0.0,0.0,0.0,0.0,0.0,0.0
17748000,17668000,3.7238894e-06,0.0,2.3052687e-06,2.6305254e-06,0.0,7.337e-06,0.0,0.0,0.0,0.0,0.0,0.0,0.0,5.655655e-07,0.0,0.0,nan,0.0,0.0,0.0,0.0,0.0,0.0,0.0,0.0,0.0001790229,0.0,0.0,0.0,0.0,0.0,0.0,0.0,0.0
18244000,18164000,4.581066e-05,0.0,0.0006975982,2.4202725e-06,0.0,6.0705293e-06,0.0,0.0,0.0,0.0,0.0,0.0,0.0,1.5933516e-05,0.0,0.0,nan,0.0,0.0,0.0,0.0,0.0,0.0,0.0,0.0,0.00035883082,0.0,0.0,0.0,0.0,0.0,0.0,0.0,0.0
18748000,18668000,2.1442283e-06,0.0,2.9453375e-05,2.5077975e-06,0.0,4.681528e-06,0.0,0.0,0.0,0.0,0.0,0.0,0.0,6.8488393e-06,0.0,0.0,nan,0.0,0.0,0.0,0.0,0.0,0.0,0.0,0.0,0.0005745888,0.0,0.0,0.0,0.0,0.0,0.0,0.0,0.0
19244000,19164000,4.1497507e-05,0.0,3.490856e-05,3.3281406e-06,0.0,2.9785529e-06,0.0,0.0,0.0,0.0,0.0,0.0,0.0,2.0074944e-05,0.0,0.0,nan,0.0,0.0,0.0,0.0,0.0,0.0,0.0,0.0,0.00040158944,0.0,0.0,0.0,0.0,0.0,0.0,0.0,0.0
19748000,19668000,0.00017315563,0.0,2.9748935e-05,3.0859462e-06,0.0,5.6751255e-06,0.0,0.0,0.0,0.0,0.0,0.0,0.0,5.4418535e-07,0.0,0.0,nan,0.0,0.0,0.0,0.0,0.0,0.0,0.0,0.0,0.00048955233,0.0,0.0,0.0,0.0,0.0,0.0,0.0,0.0
20244000,20164000,0.00016734703,0.0,0.00032461807,2.810284e-06,0.0,1.5233726e-06,0.0,0.0,0.0,0.0,0.0,0.0,0.0,2.847205e-05,0.0,0.0,nan,0.0,0.0,0.0,0.0,0.0,0.0,0.0,0.0,2.644836e-05,0.0,0.0,0.0,0.0,0.0,0.0,0.0,0.0
20748000,20668000,5.7423294e-05,0.0,7.523172e-05,2.589732e-06,0.0,1.613059e-05,0.0,0.0,0.0,0.0,0.0,0.0,0.0,6.528805e-07,0.0,0.0,nan,0.0,0.0,0.0,0.0,0.0,0.0,0.0,0.0,0.0006045222,0.0,0.0,0.0,0.0,0.0,0.0,0.0,0.0
21244000,21164000,1.2607881e-05,0.0,0.00032916016,2.1181509e-06,0.0,9.293209e-06,0.0,0.0,0.0,0.0,0.0,0.0,0.0,2.7089593e-05,0.0,0.0,nan,0.0,0.0,0.0,0.0,0.0,0.0,0.0,0.0,0.00070735835,0.0,0.0,0.0,0.0,0.0,0.0,0.0,0.0
21748000,21668000,6.1650735e-06,0.0,3.1025305e-05,1.9180409e-06,0.0,2.2601895e-05,0.0,0.0,0.0,0.0,0.0,0.0,0.0,7.2642756e-06,0.0,0.0,nan,0.0,0.0,0.0,0.0,0.0,0.0,0.0,0.0,0.0009768108,0.0,0.0,0.0,0.0,0.0,0.0,0.0,0.0
22252000,22172000,7.3911683e-06,0.0,8.7078166e-05,8.603635e-06,0.0,5.5332275e-06,0.0,0.0,0.0,0.0,0.0,0.0,0.0,2.8157742e-06,0.0,0.0,nan,0.0,0.0,0.0,0.0,0.0,0.0,0.0,0.0,0.00035826556,0.0,0.0,0.0,0.0,0.0,0.0,0.0,0.0
22748000,22668000,1.2287583e-05,0.0,8.812067e-07,2.1538299e-06,0.0,2.8373806e-06,0.0,0.0,0.0,0.0,0.0,0.0,0.0,1.6371799e-06,0.0,0.0,nan,0.0,0.0,0.0,0.0,0.0,0.0,0.0,0.0,0.00029804432,0.0,0.0,0.0,0.0,0.0,0.0,0.0,0.0
23244000,23164000,0.00019773166,0.0,5.5853685e-05,2.3456512e-06,0.0,1.3281588e-05,0.0,0.0,0.0,0.0,0.0,0.0,0.0,8.340929e-06,0.0,0.0,nan,0.0,0.0,0.0,0.0,0.0,0.0,0.0,0.0,0.0012615853,0.0,0.0,0.0,0.0,0.0,0.0,0.0,0.0
23748000,23668000,4.812797e-05,0.0,5.9065052e-05,5.596258e-09,0.0,7.0409906e-06,0.0,0.0,0.0,0.0,0.0,0.0,0.0,9.546975e-06,0.0,0.0,nan,0.0,0.0,0.0,0.0,0.0,0.0,0.0,0.0,0.00064491044,0.0,0.0,0.0,0.0,0.0,0.0,0.0,0.0
24252000,24172000,0.0001572432,0.0,0.00013157682,1.5888316e-09,0.0,7.0004585e-06,0.0,0.0,0.0,0.0,0.0,0.0,0.0,8.322058e-06,0.0,0.0,nan,0.0,0.0,0.0,0.0,0.0,0.0,0.0,0.0,0.00086179347,0.0,0.0,0.0,0.0,0.0,0.0,0.0,0.0
24748000,24668000,4.094453e-05,0.0,0.0007912265,2.1906778e-06,0.0,7.388492e-06,0.0,0.0,0.0,0.0,0.0,0.0,0.0,2.1371436e-05,0.0,0.0,nan,0.0,0.0,0.0,0.0,0.0,0.0,0.0,0.0,0.0011235647,0.0,0.0,0.0,0.0,0.0,0.0,0.0,0.0
25244000,25164000,2.7903412e-05,0.0,4.1711715e-05,2.6003718e-06,0.0,5.500171e-07,0.0,0.0,0.0,0.0,0.0,0.0,0.0,1.6960801e-05,0.0,0.0,nan,0.0,0.0,0.0,0.0,0.0,0.0,0.0,0.0,0.0002640242,0.0,0.0,0.0,0.0,0.0,0.0,0.0,0.0
25748000,25668000,3.68339e-05,0.0,6.222005e-06,2.33583e-06,0.0,6.4950646e-06,0.0,0.0,0.0,0.0,0.0,0.0,0.0,3.3137476e-06,0.0,0.0,nan,0.0,0.0,0.0,0.0,0.0,0.0,0.0,0.0,0.00031713914,0.0,0.0,0.0,0.0,0.0,0.0,0.0,0.0
26252000,26172000,7.6267264e-05,0.0,0.00022795598,2.0091748e-06,0.0,8.866753e-06,0.0,0.0,0.0,0.0,0.0,0.0,0.0,4.0091194e-07,0.0,0.0,nan,0.0,0.0,0.0,0.0,0.0,0.0,0.0,0.0,0.00062617,0.0,0.0,0.0,0.0,0.0,0.0,0.0,0.0
26748000,26668000,0.00023900927,0.0,0.00027289044,1.6957057e-06,0.0,9.064907e-07,0.0,0.0,0.0,0.0,0.0,0.0,0.0,1.8112173e-06,0.0,0.0,nan,0.0,0.0,0.0,0.0,0.0,0.0,0.0,0.0,0.00024001014,0.0,0.0,0.0,0.0,0.0,0.0,0.0,0.0
27252000,27172000,1.32303385e-05,0.0,5.4493612e-05,1.701763e-06,0.0,9.664549e-06,0.0,0.0,0.0,0.0,0.0,0.0,0.0,1.41230405e-08,0.0,0.0,nan,0.0,0.0,0.0,0.0,0.0,0.0,0.0,0.0,0.00022124048,0.0,0.0,0.0,0.0,0.0,0.0,0.0,0.0
27748000,27668000,8.148036e-06,0.0,0.000118106305,1.6457948e-06,0.0,2.577494e-06,0.0,0.0,0.0,0.0,0.0,0.0,0.0,3.6600193e-07,0.0,0.0,nan,0.0,0.0,0.0,0.0,0.0,0.0,0.0,0.0,0.00029401536,0.0,0.0,0.0,0.0,0.0,0.0,0.0,0.0
28252000,28172000,8.194646e-05,0.0,8.045383e-05,5.6694244e-06,0.0,5.6335773e-07,0.0,0.0,0.0,0.0,0.0,0.0,0.0,1.4168242e-05,0.0,0.0,nan,0.0,0.0,0.0,0.0,0.0,0.0,0.0,0.0,9.420371e-05,0.0,0.0,0.0,0.0,0.0,0.0,0.0,0.0
28748000,28668000,0.00012582703,0.0,0.00050898106,1.087716e-06,0.0,2.019804e-05,0.0,0.0,0.0,0.0,0.0,0.0,0.0,7.3846372e-06,0.0,0.0,nan,0.0,0.0,0.0,0.0,0.0,0.0,0.0,0.0,0.00012489183,0.0,0.0,0.0,0.0,0.0,0.0,0.0,0.0
29252000,29172000,1.846356e-05,0.0,0.0010355163,1.7916716e-06,0.0,1.430091e-05,0.0,0.0,0.0,0.0,0.0,0.0,0.0,2.5425486e-05,0.0,0.0,nan,0.0,0.0,0.0,0.0,0.0,0.0,0.0,0.0,0.00055247894,0.0,0.0,0.0,0.0,0.0,0.0,0.0,0.0
29748000,29668000,0.00011027739,0.0,0.00028530174,2.0343502e-06,0.0,2.5469712e-05,0.0,0.0,0.0,0.0,0.0,0.0,0.0,9.1275034e-08,0.0,0.0,nan,0.0,0.0,0.0,0.0,0.0,0.0,0.0,0.0,0.002437789,0.0,0.0,0.0,0.0,0.0,0.0,0.0,0.0
30252000,30172000,9.093429e-06,0.0,7.660609e-05,2.4641536e-06,0.0,6.922518e-06,0.0,0.0,0.0,0.0,0.0,0.0,0.0,5.4979256e-07,0.0,0.0,nan,0.0,0.0,0.0,0.0,0.0,0.0,0.0,0.0,0.000633198,0.0,0.0,0.0,0.0,0.0,0.0,0.0,0.0
30748000,30668000,0.00023690016,0.0,0.0001398368,3.754836e-06,0.0,7.752477e-06,0.0,0.0,0.0,0.0,0.0,0.0,0.0,6.028574e-07,0.0,0.0,nan,0.0,0.0,0.0,0.0,0.0,0.0,0.0,0.0,0.0019973235,0.0,0.0,0.0,0.0,0.0,0.0,0.0,0.0
31252000,31172000,8.975295e-05,0.0,0.00025791957,3.0130777e-06,0.0,1.6848593e-05,0.0,0.0,0.0,0.0,0.0,0.0,0.0,1.885736e-08,0.0,0.0,nan,0.0,0.0,0.0,0.0,0.0,0.0,0.0,0.0,0.0005173992,0.0,0.0,0.0,0.0,0.0,0.0,0.0,0.0
31748000,31668000,1.0949528e-05,0.0,1.472132e-06,2.8796921e-06,0.0,9.085144e-06,0.0,0.0,0.0,0.0,0.0,0.0,0.0,4.009998e-08,0.0,0.0,nan,0.0,0.0,0.0,0.0,0.0,0.0,0.0,0.0,0.00084692397,0.0,0.0,0.0,0.0,0.0,0.0,0.0,0.0
32244000,32164000,8.93846e-05,0.0,2.6621624e-06,2.9117305e-06,0.0,1.3898565e-05,0.0,0.0,0.0,0.0,0.0,0.0,0.0,4.3129926e-06,0.0,0.0,nan,0.0,0.0,0.0,0.0,0.0,0.0,0.0,0.0,0.0014041271,0.0,0.0,0.0,0.0,0.0,0.0,0.0,0.0
32748000,32668000,0.0005563695,0.0,0.00010207098,3.6434415e-06,0.0,2.0908277e-05,0.0,0.0,0.0,0.0,0.0,0.0,0.0,2.1725244e-05,0.0,0.0,nan,0.0,0.0,0.0,0.0,0.0,0.0,0.0,0.0,0.0003188548,0.0,0.0,0.0,0.0,0.0,0.0,0.0,0.0
33244000,33164000,0.0001094946,0.0,1.0580336e-05,1.4890045e-05,0.0,2.6804175e-05,0.0,0.0,0.0,0.0,0.0,0.0,0.0,1.5240012e-05,0.0,0.0,nan,0.0,0.0,0.0,0.0,0.0,0.0,0.0,0.0,0.00031234763,0.0,0.0,0.0,0.0,0.0,0.0,0.0,0.0
33748000,33668000,4.7565623e-05,0.0,0.00022459301,4.8728198e-05,0.0,5.4560434e-05,0.0,0.0,0.0,0.0,0.0,0.0,0.0,2.1078058e-06,0.0,0.0,nan,0.0,0.0,0.0,0.0,0.0,0.0,0.0,0.0,3.5905152e-05,0.0,0.0,0.0,0.0,0.0,0.0,0.0,0.0
34252000,34172000,5.4311186e-05,0.0,0.0034989521,5.4381235e-05,0.0,6.8670706e-05,0.0,0.0,0.0,0.0,0.0,0.0,0.0,3.1646941e-06,0.0,0.0,nan,0.0,0.0,0.0,0.0,0.0,0.0,0.0,0.0,0.00048565335,0.0,0.0,0.0,0.0,0.0,0.0,0.0,0.0
34748000,34668000,0.00015263946,0.0,0.00041648236,8.311602e-05,0.0,0.00019118654,0.0,0.0,0.0,0.0,0.0,0.0,0.0,4.9837e-06,0.0,0.0,nan,0.0,0.0,0.0,0.0,0.0,0.0,0.0,0.0,0.0022750315,0.0,0.0,0.0,0.0,0.0,0.0,0.0,0.0
35244000,35164000,3.4053483e-05,0.0,8.799053e-05,0.000112410744,0.0,0.00017441748,0.0,0.0,0.0,0.0,0.0,0.0,0.0,3.983564e-06,0.0,0.0,nan,0.0,0.0,0.0,0.0,0.0,0.0,0.0,0.0,0.54094005,0.0,0.0,0.0,0.0,0.0,0.0,0.0,0.0
35748000,35668000,0.00445277,0.0,0.0001937816,4.222026e-07,0.0,0.00015589864,0.0,0.0,0.0,0.0,0.0,0.0,0.0,4.3354717e-06,0.0,0.0,nan,0.0,0.0,0.0,0.0,0.0,0.0,0.0,0.0,0.008899931,0.0,0.0,0.0,0.0,0.0,0.0,0.0,0.0
36244000,36164000,0.0015784563,0.0,0.0001742584,9.525497e-05,0.0,0.00010283368,0.0,0.0,0.0,0.0,0.0,0.0,0.0,2.7988076e-08,0.0,0.0,nan,0.0,0.0,0.0,0.0,0.0,0.0,0.0,0.0,0.08862948,0.0,0.0,0.0,0.0,0.0,0.0,0.0,0.0
36748000,36668000,0.00024485312,0.0,8.099172e-05,0.0001796734,0.0,0.00016579119,0.0,0.0,0.0,0.0,0.0,0.0,0.0,2.5799683e-05,0.0,0.0,nan,0.0,0.0,0.0,0.0,0.0,0.0,0.0,0.0,0.05880577,0.0,0.0,0.0,0.0,0.0,0.0,0.0,0.0
37252000,37172000,0.0008472391,0.0,4.4241016e-05,8.4316685e-05,0.0,8.4601656e-05,0.0,0.0,0.0,0.0,0.0,0.0,0.0,3.137826e-06,0.0,0.0,nan,0.0,0.0,0.0,0.0,0.0,0.0,0.0,0.0,0.037574373,0.0,0.0,0.0,0.0,0.0,0.0,0.0,0.0
37748000,37668000,0.0016180363,0.0,2.5817952e-05,3.4230623e-05,0.0,9.5828225e-05,0.0,0.0,0.0,0.0,0.0,0.0,0.0,1.6817108e-05,0.0,0.0,nan,0.0,0.0,0.0,0.0,0.0,0.0,0.0,0.0,0.006378237,0.0,0.0,0.0,0.0,0.0,0.0,0.0,0.0
38244000,38164000,0.0026212025,0.0,0.00024117374,2.4633446e-05,0.0,7.349414e-05,0.0,0.0,0.0,0.0,0.0,0.0,0.0,8.356353e-06,0.0,0.0,nan,0.0,0.0,0.0,0.0,0.0,0.0,0.0,0.0,0.0013155341,0.0,0.0,0.0,0.0,0.0,0.0,0.0,0.0
38748000,38668000,0.0019145581,0.0,0.0007052419,8.773693e-05,0.0,0.00011936332,0.0,0.0,0.0,0.0,0.0,0.0,0.0,5.6368062e-06,0.0,0.0,nan,0.0,0.0,0.0,0.0,0.0,0.0,0.0,0.0,0.0036918947,0.0,0.0,0.0,0.0,0.0,0.0,0.0,0.0
39244000,39164000,0.0011643581,0.0,0.0006933097,0.00019657827,0.0,0.00012845933,0.0,0.0,0.0,0.0,0.0,0.0,0.0,6.545495e-07,0.0,0.0,nan,0.0,0.0,0.0,0.0,0.0,0.0,0.0,0.0,0.0003311549,0.0,0.0,0.0,0.0,0.0,0.0,0.0,0.0
39748000,39668000,0.001163564,0.0,0.0012315945,0.00020748812,0.0,0.0002384521,0.0,0.0,0.0,0.0,0.0,0.0,0.0,1.6068077e-05,0.0,0.0,nan,0.0,0.0,0.0,0.0,0.0,0.0,0.0,0.0,0.0038023067,0.0,0.0,0.0,0.0,0.0,0.0,0.0,0.0
40252000,40172000,0.0007865221,0.0,0.0011778938,0.00019797302,0.0,0.00019279816,0.0,0.0,0.0,0.0,0.0,0.0,0.0,1.3234736e-06,0.0,0.0,nan,0.0,0.0,0.0,0.0,0.0,0.0,0.0,0.0,0.0016863652,0.0,0.0,0.0,0.0,0.0,0.0,0.0,0.0
40748000,40668000,0.0004479896,0.0,0.0005126753,0.00017320731,0.0,0.00028661225,0.0,0.0,0.0,0.0,0.0,0.0,0.0,6.3164534e-06,0.0,0.0,nan,0.0,0.0,0.0,0.0,0.0,0.0,0.0,0.0,5.751552e-05,0.0,0.0,0.0,0.0,0.0,0.0,0.0,0.0
41244000,41164000,0.00036565016,0.0,0.0018766709,0.00010796675,0.0,0.00044116608,0.0,0.0,0.0,0.0,0.0,0.0,0.0,2.1051736e-05,0.0,0.0,nan,0.0,0.0,0.0,0.0,0.0,0.0,0.0,0.0,0.00040971607,0.0,0.0,0.0,0.0,0.0,0.0,0.0,0.0
41748000,41668000,0.00025418264,0.0,0.0025122864,8.629063e-05,0.0,0.0008517176,0.0,0.0,0.0,0.0,0.0,0.0,0.0,0.00017986348,0.0,0.0,nan,0.0,0.0,0.0,0.0,0.0,0.0,0.0,0.0,0.0012185358,0.0,0.0,0.0,0.0,0.0,0.0,0.0,0.0
42244000,42164000,0.0002594959,0.0,0.003047088,6.935673e-05,0.0,0.0011775437,0.0,0.0,0.0,0.0,0.0,0.0,0.0,6.1736144e-05,0.0,0.0,nan,0.0,0.0,0.0,0.0,0.0,0.0,0.0,0.0,0.0017965004,0.0,0.0,0.0,0.0,0.0,0.0,0.0,0.0
42748000,42668000,0.0002984594,0.0,0.004530277,7.1134426e-05,0.0,0.0013730376,0.0,0.0,0.0,0.0,0.0,0.0,0.0,6.798187e-05,0.0,0.0,nan,0.0,0.0,0.0,0.0,0.0,0.0,0.0,0.0,0.0002324309,0.0,0.0,0.0,0.0,0.0,0.0,0.0,0.0
43244000,43164000,0.00044895962,0.0,0.0045573846,7.982436e-05,0.0,0.002163691,0.0,0.0,0.0,0.0,0.0,0.0,0.0,2.7265338e-05,0.0,0.0,nan,0.0,0.0,0.0,0.0,0.0,0.0,0.0,0.0,0.025010489,0.0,0.0,0.0,0.0,0.0,0.0,0.0,0.0
43748000,43668000,0.02276267,0.0,0.004620986,9.587101e-05,0.0,0.0024739928,0.0,0.0,0.0,0.0,0.0,0.0,0.0,6.209365e-05,0.0,0.0,nan,0.0,0.0,0.0,0.0,0.0,0.0,0.0,0.0,2.284523,0.0,0.0,0.0,0.0,0.0,0.0,0.0,0.0
44252000,44172000,0.24152991,0.0,0.005841593,0.0010676801,0.0,0.0027011496,0.0,0.0,0.0,0.0,0.0,0.0,0.0,3.189233e-05,0.0,0.0,nan,0.0,0.0,0.0,0.0,0.0,0.0,0.0,0.0,6.90352,0.0,0.0,0.0,0.0,0.0,0.0,0.0,0.0
44748000,44668000,0.92037,0.0,0.005224797,0.0071779652,0.0,0.0028589002,0.0,0.0,0.0,0.0,0.0,0.0,0.0,2.1366186e-05,0.0,0.0,nan,0.0,0.0,0.0,0.0,0.0,0.0,0.0,0.0,6.150691,0.0,0.0,0.0,0.0,0.0,0.0,0.0,0.0
45252000,45172000,3.1990535,0.0,0.0040549724,0.07082537,0.0,0.0029383237,0.0,0.0,0.0,0.0,0.0,0.0,0.0,1.1842411e-05,0.0,0.0,nan,0.0,0.0,0.0,0.0,0.0,0.0,0.0,0.0,1.4074377,0.0,0.0,0.0,0.0,0.0,0.0,0.0,0.0
45748000,45668000,3.9488633,0.0,0.0013229481,0.14478077,0.0,0.0030252354,0.0,0.0,0.0,0.0,0.0,0.0,0.0,4.86334e-05,0.0,0.0,nan,0.0,0.0,0.0,0.0,0.0,0.0,0.0,0.0,0.40680334,0.0,0.0,0.0,0.0,0.0,0.0,0.0,0.0
46252000,46172000,3.8399453,0.0,0.002964579,0.23898478,0.0,0.0028795865,0.0,0.0,0.0,0.0,0.0,0.0,0.0,2.485318e-06,0.0,0.0,nan,0.0,0.0,0.0,0.0,0.0,0.0,0.0,0.0,0.3094086,0.0,0.0,0.0,0.0,0.0,0.0,0.0,0.0
46748000,46668000,3.7333841,0.0,0.00080964126,0.34696522,0.0,0.002882807,0.0,0.0,0.0,0.0,0.0,0.0,0.0,0.00014975658,0.0,0.0,nan,0.0,0.0,0.0,0.0,0.0,0.0,0.0,0.0,0.16430825,0.0,0.0,0.0,0.0,0.0,0.0,0.0,0.0
47244000,47164000,3.5228987,0.0,0.0007912821,0.59672886,0.0,0.0026096576,0.0,0.0,0.0,0.0,0.0,0.0,0.0,4.710372e-06,0.0,0.0,nan,0.0,0.0,0.0,0.0,0.0,0.0,0.0,0.0,0.08904677,0.0,0.0,0.0,0.0,0.0,0.0,0.0,0.0
47748000,47668000,3.330659,0.0,0.001234355,0.7333873,0.0,0.0027056567,0.0,0.0,0.0,0.0,0.0,0.0,0.0,1.2897047e-05,0.0,0.0,nan,0.0,0.0,0.0,0.0,0.0,0.0,0.0,0.0,0.016133789,0.0,0.0,0.0,0.0,0.0,0.0,0.0,0.0
48252000,48172000,3.1197362,0.0,0.002851238,0.8734524,0.0,0.0026021358,0.0,0.0,0.0,0.0,0.0,0.0,0.0,2.828913e-07,0.0,0.0,nan,0.0,0.0,0.0,0.0,0.0,0.0,0.0,0.0,0.006383157,0.0,0.0,0.0,0.0,0.0,0.0,0.0,0.0
48748000,48668000,2.8588698,0.0,0.00077241036,1.0171174,0.0,0.0025109083,0.0,0.0,0.0,0.0,0.0,0.0,0.0,4.3932898e-05,0.0,0.0,nan,0.0,0.0,0.0,0.0,0.0,0.0,0.0,0.0,0.010366658,0.0,0.0,0.0,0.0,0.0,0.0,0.0,0.0
49252000,49172000,2.4038117,0.0,0.0010671755,1.3015906,0.0,0.0021737039,0.0,0.0,0.0,0.0,0.0,0.0,0.0,2.0840398e-06,0.0,0.0,nan,0.0,0.0,0.0,0.0,0.0,0.0,0.0,0.0,0.016804613,0.0,0.0,0.0,0.0,0.0,0.0,0.0,0.0
49748000,49668000,2.1481137,0.0,0.00043162997,1.4364606,0.0,0.002218874,0.0,0.0,0.0,0.0,0.0,0.0,0.0,2.47498e-06,0.0,0.0,nan,0.0,0.0,0.0,0.0,0.0,0.0,0.0,0.0,0.04446317,0.0,0.0,0.0,0.0,0.0,0.0,0.0,0.0
50252000,50172000,1.8776153,0.0,0.0012313586,1.7602834,0.0,0.0021423036,0.0,0.0,0.0,0.0,0.0,0.0,0.0,3.8607523e-05,0.0,0.0,nan,0.0,0.0,0.0,0.0,0.0,0.0,0.0,0.0,0.051702727,0.0,0.0,0.0,0.0,0.0,0.0,0.0,0.0
50748000,50668000,1.6500577,0.0,0.0022987747,2.1238003,0.0,0.0021045383,0.0,0.0,0.0,0.0,0.0,0.0,0.0,1.6668695e-05,0.0,0.0,nan,0.0,0.0,0.0,0.0,0.0,0.0,0.0,0.0,0.06636704,0.0,0.0,0.0,0.0,0.0,0.0,0.0,0.0
51244000,51164000,1.2428299,0.0,0.0008837725,2.9692836,0.0,0.0021001424,0.0,0.0,0.0,0.0,0.0,0.0,0.0,3.8129064e-09,0.0,0.0,nan,0.0,0.0,0.0,0.0,0.0,0.0,0.0,0.0,0.07801939,0.0,0.0,0.0,0.0,0.0,0.0,0.0,0.0
51748000,51668000,1.0732101,0.0,0.0014124752,3.4762375,0.0,0.0022682613,0.0,0.0,0.0,0.0,0.0,0.0,0.0,6.416056e-05,0.0,0.0,nan,0.0,0.0,0.0,0.0,0.0,0.0,0.0,0.0,0.09214911,0.0,0.0,0.0,0.0,0.0,0.0,0.0,0.0
52244000,52164000,0.9051097,0.0,0.0017647179,4.00622,0.0,0.0024018856,0.0,0.0,0.0,0.0,0.0,0.0,0.0,2.3774008e-05,0.0,0.0,nan,0.0,0.0,0.0,0.0,0.0,0.0,0.0,0.0,0.06792506,0.0,0.0,0.0,0.0,0.0,0.0,0.0,0.0
52748000,52668000,0.8424477,0.0,0.0023986076,4.571039,0.0,0.0023083729,0.0,0.0,0.0,0.0,0.0,0.0,0.0,4.667055e-07,0.0,0.0,nan,0.0,0.0,0.0,0.0,0.0,0.0,0.0,0.0,0.056627583,0.0,0.0,0.0,0.0,0.0,0.0,0.0,0.0
53244000,53164000,0.90830517,0.0,0.0013047457,5.8849177,0.0,0.0026410003,0.0,0.0,0.0,0.0,0.0,0.0,0.0,1.06631105e-05,0.0,0.0,nan,0.0,0.0,0.0,0.0,0.0,0.0,0.0,0.0,0.05764299,0.0,0.0,0.0,0.0,0.0,0.0,0.0,0.0
53748000,53668000,0.9404332,0.0,0.0020368316,6.594732,0.0,0.002928087,0.0,0.0,0.0,0.0,0.0,0.0,0.0,1.0619268e-05,0.0,0.0,nan,0.0,0.0,0.0,0.0,0.0,0.0,0.0,0.0,0.083305456,0.0,0.0,0.0,0.0,0.0,0.0,0.0,0.0
54252000,54172000,0.99294776,0.0,0.0025411174,7.3506594,0.0,0.0028343813,0.0,0.0,0.0,0.0,0.0,0.0,0.0,8.7048375e-06,0.0,0.0,nan,0.0,0.0,0.0,0.0,0.0,0.0,0.0,0.0,0.083890654,0.0,0.0,0.0,0.0,0.0,0.0,0.0,0.0
54748000,54668000,1.0258636,0.0,0.002767311,8.159997,0.0,0.003015424,0.0,0.0,0.0,0.0,0.0,0.0,0.0,3.3092667e-05,0.0,0.0,nan,0.0,0.0,0.0,0.0,0.0,0.0,0.0,0.0,0.095097244,0.0,0.0,0.0,0.0,0.0,0.0,0.0,0.0
55252000,55172000,1.0341872,0.0,0.005561238,9.210727,0.0,0.0033360794,0.0,0.0,0.0,0.0,0.0,0.0,0.0,2.4330416e-06,0.0,0.0,nan,0.0,0.0,0.0,0.0,0.0,0.0,0.0,0.0,0.11311221,0.0,0.0,0.0,0.0,0.0,0.0,0.0,0.0
55748000,55668000,1.0720752,0.0,0.004910393,10.13701,0.0,0.0036402459,0.0,0.0,0.0,0.0,0.0,0.0,0.0,4.8673006e-05,0.0,0.0,nan,0.0,0.0,0.0,0.0,0.0,0.0,0.0,0.0,0.12738451,0.0,0.0,0.0,0.0,0.0,0.0,0.0,0.0
56252000,56172000,1.1139961,0.0,0.004182393,11.030539,0.0,0.003885534,0.0,0.0,0.0,0.0,0.0,0.0,0.0,1.5677122e-05,0.0,0.0,nan,0.0,0.0,0.0,0.0,0.0,0.0,0.0,0.0,0.13468824,0.0,0.0,0.0,0.0,0.0,0.0,0.0,0.0
56748000,56668000,1.1916474,0.0,0.0018520987,12.012533,0.0,0.0040030126,0.0,0.0,0.0,0.0,0.0,0.0,0.0,2.2160042e-05,0.0,0.0,nan,0.0,0.0,0.0,0.0,0.0,0.0,0.0,0.0,0.15166552,0.0,0.0,0.0,0.0,0.0,0.0,0.0,0.0
57252000,57172000,1.3393093,0.0,0.0043352386,14.151417,0.0,0.004167177,0.0,0.0,0.0,0.0,0.0,0.0,0.0,2.8858349e-06,0.0,0.0,nan,0.0,0.0,0.0,0.0,0.0,0.0,0.0,0.0,0.1686717,0.0,0.0,0.0,0.0,0.0,0.0,0.0,0.0
57748000,57668000,1.3870958,0.0,0.004529177,15.239822,0.0,0.004198593,0.0,0.0,0.0,0.0,0.0,0.0,0.0,1.7088018e-05,0.0,0.0,nan,0.0,0.0,0.0,0.0,0.0,0.0,0.0,0.0,0.20233394,0.0,0.0,0.0,0.0,0.0,0.0,0.0,0.0
58252000,58172000,1.4222246,0.0,0.002663534,16.395712,0.0,0.00417287,0.0,0.0,0.0,0.0,0.0,0.0,0.0,5.6131903e-05,0.0,0.0,nan,0.0,0.0,0.0,0.0,0.0,0.0,0.0,0.0,0.16515632,0.0,0.0,0.0,0.0,0.0,0.0,0.0,0.0
58748000,58668000,1.4685748,0.0,0.0034108574,17.652464,0.0,0.0042109727,0.0,0.0,0.0,0.0,0.0,0.0,0.0,1.1553422e-05,0.0,0.0,nan,0.0,0.0,0.0,0.0,0.0,0.0,0.0,0.0,0.15832576,0.0,0.0,0.0,0.0,0.0,0.0,0.0,0.0
59252000,59172000,1.6377169,0.0,0.002252975,20.229414,0.0,0.0043738945,0.0,0.0,0.0,0.0,0.0,0.0,0.0,3.53862e-06,0.0,0.0,nan,0.0,0.0,0.0,0.0,0.0,0.0,0.0,0.0,0.1645866,0.0,0.0,0.0,0.0,0.0,0.0,0.0,0.0
59748000,59668000,1.7376139,0.0,0.0035059664,21.554653,0.0,0.0040491596,0.0,0.0,0.0,0.0,0.0,0.0,0.0,1.0718385e-05,0.0,0.0,nan,0.0,0.0,0.0,0.0,0.0,0.0,0.0,0.0,0.13177724,0.0,0.0,0.0,0.0,0.0,0.0,0.0,0.0
60244000,60164000,1.7282362,0.0,0.0027992676,21.429384,0.0,0.0040012533,0.0,0.0,0.0,0.0,0.0,0.0,0.0,2.3435483e-05,0.0,0.0,nan,0.0,0.0,0.0,0.0,0.0,0.0,0.0,0.0,0.151964,0.0,0.0,0.0,0.0,0.0,0.0,0.0,0.0
60748000,60668000,1.7794832,0.0,0.0026880295,22.814888,0.0,0.0040282793,0.0,0.0,0.0,0.0,0.0,0.0,0.0,3.3790224e-07,0.0,0.0,nan,0.0,0.0,0.0,0.0,0.0,0.0,0.0,0.0,0.17480865,0.0,0.0,0.0,0.0,0.0,0.0,0.0,0.0
61252000,61172000,1.9283206,0.0,0.0013447388,25.75865,0.0,0.0033932985,0.0,0.0,0.0,0.0,0.0,0.0,0.0,1.46661905e-05,0.0,0.0,nan,0.0,0.0,0.0,0.0,0.0,0.0,0.0,0.0,0.16427499,0.0,0.0,0.0,0.0,0.0,0.0,0.0,0.0
61748000,61668000,2.0461495,0.0,0.0024391622,27.389322,0.0,0.0031771325,0.0,0.0,0.0,0.0,0.0,0.0,0.0,2.030855e-05,0.0,0.0,nan,0.0,0.0,0.0,0.0,0.0,0.0,0.0,0.0,0.17539835,0.0,0.0,0.0,0.0,0.0,0.0,0.0,0.0
62244000,62164000,2.1110976,0.0,0.0014469438,28.917568,0.0,0.002860832,0.0,0.0,0.0,0.0,0.0,0.0,0.0,9.6977055e-06,0.0,0.0,nan,0.0,0.0,0.0,0.0,0.0,0.0,0.0,0.0,0.97914547,0.0,0.0,0.0,0.0,0.0,0.0,0.0,0.0
62748000,62668000,2.1508029,0.0,0.0017001443,30.664799,0.0,0.0028561994,0.0,0.0,0.0,0.0,0.0,0.0,0.0,6.590107e-06,0.0,0.0,nan,0.0,0.0,0.0,0.0,0.0,0.0,0.0,0.0,3.4792318,0.0,0.0,0.0,0.0,0.0,0.0,0.0,0.0
63252000,63172000,1.6784267,0.0,0.0037667209,33.75333,0.0,0.0031353561,0.0,0.0,0.0,0.0,0.0,0.0,0.0,2.067172e-05,0.0,0.0,nan,0.0,0.0,0.0,0.0,0.0,0.0,0.0,0.0,3.2821827,0.0,0.0,0.0,0.0,0.0,0.0,0.0,0.0
63748000,63668000,1.493013,0.0,0.0046707387,35.19658,0.0,0.0034583407,0.0,0.0,0.0,0.0,0.0,0.0,0.0,2.0667057e-06,0.0,0.0,nan,0.0,0.0,0.0,0.0,0.0,0.0,0.0,0.0,3.0000021,0.0,0.0,0.0,0.0,0.0,0.0,0.0,0.0
64244000,64164000,1.3561549,0.0,0.0068778265,36.521126,0.0,0.004098623,0.0,0.0,0.0,0.0,0.0,0.0,0.0,2.1196662e-05,0.0,0.0,nan,0.0,0.0,0.0,0.0,0.0,0.0,0.0,0.0,2.2193544,0.0,0.0,0.0,0.0,0.0,0.0,0.0,0.0
64748000,64668000,1.7453607,0.0,0.0060567865,37.853146,0.0,0.004364943,0.0,0.0,0.0,0.0,0.0,0.0,0.0,8.9745794e-07,0.0,0.0,nan,0.0,0.0,0.0,0.0,0.0,0.0,0.0,0.0,1.594967,0.0,0.0,0.0,0.0,0.0,0.0,0.0,0.0
65252000,65172000,2.3366616,0.0,0.0065719527,37.300793,0.0,0.005142714,0.0,0.0,0.0,0.0,0.0,0.0,0.0,9.4958705e-06,0.0,0.0,nan,0.0,0.0,0.0,0.0,0.0,0.0,0.0,0.0,5.7387314,0.0,0.0,0.0,0.0,0.0,0.0,0.0,0.0
65748000,65668000,2.2761292,0.0,0.010419876,37.479187,0.0,0.005351191,0.0,0.0,0.0,0.0,0.0,0.0,0.0,1.3054224e-05,0.0,0.0,nan,0.0,0.0,0.0,0.0,0.0,0.0,0.0,0.0,0.22360548,0.0,0.0,0.0,0.0,0.0,0.0,0.0,0.0
66252000,66172000,2.1689534,0.0,0.0057295617,37.566017,0.0,0.005362794,0.0,0.0,0.0,0.0,0.0,0.0,0.0,3.781959e-05,0.0,0.0,nan,0.0,0.0,0.0,0.0,0.0,0.0,0.0,0.0,0.732275,0.0,0.0,0.0,0.0,0.0,0.0,0.0,0.0
66748000,66668000,1.8980482,0.0,0.0056193685,37.6839,0.0,0.005103886,0.0,0.0,0.0,0.0,0.0,0.0,0.0,1.4342525e-05,0.0,0.0,nan,0.0,0.0,0.0,0.0,0.0,0.0,0.0,0.0,3.7180514,0.0,0.0,0.0,0.0,0.0,0.0,0.0,0.0
67252000,67172000,0.6233803,0.0,0.0010318911,36.869286,0.0,0.0037306387,0.0,0.0,0.0,0.0,0.0,0.0,0.0,7.0186496e-07,0.0,0.0,nan,0.0,0.0,0.0,0.0,0.0,0.0,0.0,0.0,2.016752,0.0,0.0,0.0,0.0,0.0,0.0,0.0,0.0
67748000,67668000,0.44768193,0.0,4.054573e-05,36.172516,0.0,0.0026739512,0.0,0.0,0.0,0.0,0.0,0.0,0.0,7.807542e-07,0.0,0.0,nan,0.0,0.0,0.0,0.0,0.0,0.0,0.0,0.0,0.13457684,0.0,0.0,0.0,0.0,0.0,0.0,0.0,0.0
68244000,68164000,0.48879823,0.0,6.385538e-05,35.464657,0.0,0.0018071192,0.0,0.0,0.0,0.0,0.0,0.0,0.0,3.6861074e-05,0.0,0.0,nan,0.0,0.0,0.0,0.0,0.0,0.0,0.0,0.0,0.2383884,0.0,0.0,0.0,0.0,0.0,0.0,0.0,0.0
68748000,68668000,0.4094743,0.0,0.00018209449,34.90949,0.0,0.0013894499,0.0,0.0,0.0,0.0,0.0,0.0,0.0,0.000120479795,0.0,0.0,nan,0.0,0.0,0.0,0.0,0.0,0.0,0.0,0.0,0.14588998,0.0,0.0,0.0,0.0,0.0,0.0,0.0,0.0
69244000,69164000,0.3671863,0.0,8.148828e-05,34.246323,0.0,0.00044453563,0.0,0.0,0.0,0.0,0.0,0.0,0.0,7.88924e-05,0.0,0.0,nan,0.0,0.0,0.0,0.0,0.0,0.0,0.0,0.0,0.12362624,0.0,0.0,0.0,0.0,0.0,0.0,0.0,0.0
69748000,69668000,0.33286342,0.0,5.277793e-05,33.979355,0.0,0.00031900214,0.0,0.0,0.0,0.0,0.0,0.0,0.0,0.00018506782,0.0,0.0,nan,0.0,0.0,0.0,0.0,0.0,0.0,0.0,0.0,0.124376625,0.0,0.0,0.0,0.0,0.0,0.0,0.0,0.0
70244000,70164000,0.30125928,0.0,8.265965e-06,31.615479,0.0,0.00022624618,0.0,0.0,0.0,0.0,0.0,0.0,0.0,0.000102609,0.0,0.0,nan,0.0,0.0,0.0,0.0,0.0,0.0,0.0,0.0,0.11955789,0.0,0.0,0.0,0.0,0.0,0.0,0.0,0.0
70748000,70668000,0.2823439,0.0,9.877319e-08,31.392286,0.0,0.00013168328,0.0,0.0,0.0,0.0,0.0,0.0,0.0,0.00034761347,0.0,0.0,nan,0.0,0.0,0.0,0.0,0.0,0.0,0.0,0.0,0.14405441,0.0,0.0,0.0,0.0,0.0,0.0,0.0,0.0
71252000,71172000,0.6717655,0.0,1.7069665e-07,31.177237,0.0,9.314218e-05,0.0,0.0,0.0,0.0,0.0,0.0,0.0,2.5493075e-05,0.0,0.0,nan,0.0,0.0,0.0,0.0,0.0,0.0,0.0,0.0,1.7496964,0.0,0.0,0.0,0.0,0.0,0.0,0.0,0.0
71748000,71668000,0.7869654,0.0,0.00018878488,31.193916,0.0,7.417019e-05,0.0,0.0,0.0,0.0,0.0,0.0,0.0,0.00013343948,0.0,0.0,nan,0.0,0.0,0.0,0.0,0.0,0.0,0.0,0.0,2.7535574,0.0,0.0,0.0,0.0,0.0,0.0,0.0,0.0
72252000,72172000,0.86510664,0.0,0.001036558,31.400978,0.0,0.00017684973,0.0,0.0,0.0,0.0,0.0,0.0,0.0,0.00010251299,0.0,0.0,nan,0.0,0.0,0.0,0.0,0.0,0.0,0.0,0.0,2.7232606,0.0,0.0,0.0,0.0,0.0,0.0,0.0,0.0
72748000,72668000,0.96706,0.0,0.0025815358,31.831226,0.0,0.0002712809,0.0,0.0,0.0,0.0,0.0,0.0,0.0,1.9172335e-06,0.0,0.0,nan,0.0,0.0,0.0,0.0,0.0,0.0,0.0,0.0,2.527447,0.0,0.0,0.0,0.0,0.0,0.0,0.0,0.0
73244000,73164000,1.203038,0.0,0.00484107,32.936924,0.0,0.0011619927,0.0,0.0,0.0,0.0,0.0,0.0,0.0,1.549314e-06,0.0,0.0,nan,0.0,0.0,0.0,0.0,0.0,0.0,0.0,0.0,2.199372,0.0,0.0,0.0,0.0,0.0,0.0,0.0,0.0
73748000,73668000,1.3219393,0.0,0.007162928,33.57295,0.0,0.0018347811,0.0,0.0,0.0,0.0,0.0,0.0,0.0,4.656318e-05,0.0,0.0,nan,0.0,0.0,0.0,0.0,0.0,0.0,0.0,0.0,0.3274196,0.0,0.0,0.0,0.0,0.0,0.0,0.0,0.0
74252000,74172000,1.3540384,0.0,0.008291607,34.241528,0.0,0.002725651,0.0,0.0,0.0,0.0,0.0,0.0,0.0,5.5927067e-05,0.0,0.0,nan,0.0,0.0,0.0,0.0,0.0,0.0,0.0,0.0,3.4905787,0.0,0.0,0.0,0.0,0.0,0.0,0.0,0.0
74748000,74668000,0.841147,0.0,0.00623028,34.91663,0.0,0.0031769585,0.0,0.0,0.0,0.0,0.0,0.0,0.0,1.7298413e-05,0.0,0.0,nan,0.0,0.0,0.0,0.0,0.0,0.0,0.0,0.0,2.4573936,0.0,0.0,0.0,0.0,0.0,0.0,0.0,0.0
75244000,75164000,1.095482,0.0,0.0069305156,34.37271,0.0,0.0039354675,0.0,0.0,0.0,0.0,0.0,0.0,0.0,4.52868e-06,0.0,0.0,nan,0.0,0.0,0.0,0.0,0.0,0.0,0.0,0.0,0.39471322,0.0,0.0,0.0,0.0,0.0,0.0,0.0,0.0
75748000,75668000,0.9671814,0.0,0.0047384845,34.805065,0.0,0.0037378024,0.0,0.0,0.0,0.0,0.0,0.0,0.0,1.3691411e-05,0.0,0.0,nan,0.0,0.0,0.0,0.0,0.0,0.0,0.0,0.0,1.371246,0.0,0.0,0.0,0.0,0.0,0.0,0.0,0.0
76252000,76172000,0.59002596,0.0,0.0013009466,34.940735,0.0,0.0030994038,0.0,0.0,0.0,0.0,0.0,0.0,0.0,8.8835066e-07,0.0,0.0,nan,0.0,0.0,0.0,0.0,0.0,0.0,0.0,0.0,2.0809283,0.0,0.0,0.0,0.0,0.0,0.0,0.0,0.0
76748000,76668000,0.2205783,0.0,1.7337914e-05,34.79559,0.0,0.0021630626,0.0,0.0,0.0,0.0,0.0,0.0,0.0,1.1306435e-05,0.0,0.0,nan,0.0,0.0,0.0,0.0,0.0,0.0,0.0,0.0,0.2091105,0.0,0.0,0.0,0.0,0.0,0.0,0.0,0.0
77244000,77164000,0.042968355,0.0,0.00040944043,33.622616,0.0,0.0006025655,0.0,0.0,0.0,0.0,0.0,0.0,0.0,4.3970485e-05,0.0,0.0,nan,0.0,0.0,0.0,0.0,0.0,0.0,0.0,0.0,1.1378858,0.0,0.0,0.0,0.0,0.0,0.0,0.0,0.0
77748000,77668000,0.01020087,0.0,0.0004362574,32.727093,0.0,0.00028021305,0.0,0.0,0.0,0.0,0.0,0.0,0.0,0.00026840635,0.0,0.0,nan,0.0,0.0,0.0,0.0,0.0,0.0,0.0,0.0,0.5201059,0.0,0.0,0.0,0.0,0.0,0.0,0.0,0.0
78244000,78164000,0.0018427196,0.0,8.5555905e-05,31.739882,0.0,0.00013763846,0.0,0.0,0.0,0.0,0.0,0.0,0.0,8.265912e-05,0.0,0.0,nan,0.0,0.0,0.0,0.0,0.0,0.0,0.0,0.0,0.404465,0.0,0.0,0.0,0.0,0.0,0.0,0.0,0.0
78748000,78668000,0.012704094,0.0,0.00017725282,30.6488,0.0,4.9360948e-05,0.0,0.0,0.0,0.0,0.0,0.0,0.0,7.0232076e-05,0.0,0.0,nan,0.0,0.0,0.0,0.0,0.0,0.0,0.0,0.0,0.3594529,0.0,0.0,0.0,0.0,0.0,0.0,0.0,0.0
79252000,79172000,0.116646074,0.0,8.1693484e-05,28.204077,0.0,3.5885334e-06,0.0,0.0,0.0,0.0,0.0,0.0,0.0,0.00017642783,0.0,0.0,nan,0.0,0.0,0.0,0.0,0.0,0.0,0.0,0.0,0.369269,0.0,0.0,0.0,0.0,0.0,0.0,0.0,0.0
79748000,79668000,0.21106409,0.0,0.00023775603,26.85795,0.0,7.296318e-08,0.0,0.0,0.0,0.0,0.0,0.0,0.0,8.710286e-05,0.0,0.0,nan,0.0,0.0,0.0,0.0,0.0,0.0,0.0,0.0,0.30538484,0.0,0.0,0.0,0.0,0.0,0.0,0.0,0.0
80244000,80164000,0.3488385,0.0,0.00016953413,25.496576,0.0,5.0962385e-06,0.0,0.0,0.0,0.0,0.0,0.0,0.0,1.6432745e-05,0.0,0.0,nan,0.0,0.0,0.0,0.0,0.0,0.0,0.0,0.0,0.3071041,0.0,0.0,0.0,0.0,0.0,0.0,0.0,0.0
80748000,80668000,0.43256876,0.0,7.5682896e-05,23.178568,0.0,3.6348127e-05,0.0,0.0,0.0,0.0,0.0,0.0,0.0,1.0028939e-05,0.0,0.0,nan,0.0,0.0,0.0,0.0,0.0,0.0,0.0,0.0,0.34632355,0.0,0.0,0.0,0.0,0.0,0.0,0.0,0.0
81244000,81164000,0.7898614,0.0,0.00031679866,20.777306,0.0,1.4824162e-05,0.0,0.0,0.0,0.0,0.0,0.0,0.0,4.3866905e-05,0.0,0.0,nan,0.0,0.0,0.0,0.0,0.0,0.0,0.0,0.0,0.2590826,0.0,0.0,0.0,0.0,0.0,0.0,0.0,0.0
81748000,81668000,1.005045,0.0,0.00024378108,20.776289,0.0,7.531961e-05,0.0,0.0,0.0,0.0,0.0,0.0,0.0,5.931634e-05,0.0,0.0,nan,0.0,0.0,0.0,0.0,0.0,0.0,0.0,0.0,0.2883215,0.0,0.0,0.0,0.0,0.0,0.0,0.0,0.0
82252000,82172000,1.2817702,0.0,0.0002236293,20.70659,0.0,0.0001328885,0.0,0.0,0.0,0.0,0.0,0.0,0.0,3.452343e-05,0.0,0.0,nan,0.0,0.0,0.0,0.0,0.0,0.0,0.0,0.0,0.23468678,0.0,0.0,0.0,0.0,0.0,0.0,0.0,0.0
82748000,82668000,1.5282953,0.0,0.000519115,20.614882,0.0,0.00016134711,0.0,0.0,0.0,0.0,0.0,0.0,0.0,1.1178603e-05,0.0,0.0,nan,0.0,0.0,0.0,0.0,0.0,0.0,0.0,0.0,0.21445861,0.0,0.0,0.0,0.0,0.0,0.0,0.0,0.0
83244000,83164000,2.0768046,0.0,0.0013759842,20.290287,0.0,0.00038855645,0.0,0.0,0.0,0.0,0.0,0.0,0.0,3.7428912e-05,0.0,0.0,nan,0.0,0.0,0.0,0.0,0.0,0.0,0.0,0.0,0.24158461,0.0,0.0,0.0,0.0,0.0,0.0,0.0,0.0
83748000,83668000,2.3609269,0.0,0.000805113,20.111675,0.0,0.00048009254,0.0,0.0,0.0,0.0,0.0,0.0,0.0,3.2665232e-06,0.0,0.0,nan,0.0,0.0,0.0,0.0,0.0,0.0,0.0,0.0,0.719552,0.0,0.0,0.0,0.0,0.0,0.0,0.0,0.0
84244000,84164000,2.529943,0.0,0.0020538035,19.885637,0.0,0.00051347836,0.0,0.0,0.0,0.0,0.0,0.0,0.0,1.0621945e-05,0.0,0.0,nan,0.0,0.0,0.0,0.0,0.0,0.0,0.0,0.0,3.5757294,0.0,0.0,0.0,0.0,0.0,0.0,0.0,0.0
84748000,84668000,2.346942,0.0,0.0033301618,19.75257,0.0,0.0008341183,0.0,0.0,0.0,0.0,0.0,0.0,0.0,5.3765916e-09,0.0,0.0,nan,0.0,0.0,0.0,0.0,0.0,0.0,0.0,0.0,3.2534935,0.0,0.0,0.0,0.0,0.0,0.0,0.0,0.0
85252000,85172000,2.1842883,0.0,0.004947715,19.870703,0.0,0.0015366618,0.0,0.0,0.0,0.0,0.0,0.0,0.0,4.73584e-06,0.0,0.0,nan,0.0,0.0,0.0,0.0,0.0,0.0,0.0,0.0,3.0472987,0.0,0.0,0.0,0.0,0.0,0.0,0.0,0.0
85748000,85668000,2.016056,0.0,0.009267185,19.374876,0.0,0.0022351223,0.0,0.0,0.0,0.0,0.0,0.0,0.0,8.4332277e-07,0.0,0.0,nan,0.0,0.0,0.0,0.0,0.0,0.0,0.0,0.0,2.5147982,0.0,0.0,0.0,0.0,0.0,0.0,0.0,0.0
86252000,86172000,2.0764935,0.0,0.008921325,19.627476,0.0,0.0027349812,0.0,0.0,0.0,0.0,0.0,0.0,0.0,9.7946424e-05,0.0,0.0,nan,0.0,0.0,0.0,0.0,0.0,0.0,0.0,0.0,0.49605763,0.0,0.0,0.0,0.0,0.0,0.0,0.0,0.0
86748000,86668000,2.179512,0.0,0.007602293,19.926245,0.0,0.0035791667,0.0,0.0,0.0,0.0,0.0,0.0,0.0,0.00014027518,0.0,0.0,nan,0.0,0.0,0.0,0.0,0.0,0.0,0.0,0.0,5.0342517,0.0,0.0,0.0,0.0,0.0,0.0,0.0,0.0
87244000,87164000,2.654916,0.0,0.0106883515,20.399536,0.0,0.0041711377,0.0,0.0,0.0,0.0,0.0,0.0,0.0,0.000105277606,0.0,0.0,nan,0.0,0.0,0.0,0.0,0.0,0.0,0.0,0.0,2.4186463,0.0,0.0,0.0,0.0,0.0,0.0,0.0,0.0
87748000,87668000,2.5431345,0.0,0.008252723,20.575766,0.0,0.004792971,0.0,0.0,0.0,0.0,0.0,0.0,0.0,8.798074e-05,0.0,0.0,nan,0.0,0.0,0.0,0.0,0.0,0.0,0.0,0.0,0.34155738,0.0,0.0,0.0,0.0,0.0,0.0,0.0,0.0
88244000,88164000,2.30393,0.0,0.0070529496,20.632086,0.0,0.004581294,0.0,0.0,0.0,0.0,0.0,0.0,0.0,0.00012329251,0.0,0.0,nan,0.0,0.0,0.0,0.0,0.0,0.0,0.0,0.0,2.5347502,0.0,0.0,0.0,0.0,0.0,0.0,0.0,0.0
88748000,88668000,1.6474282,0.0,0.0034421915,20.506756,0.0,0.004292528,0.0,0.0,0.0,0.0,0.0,0.0,0.0,1.2214894e-05,0.0,0.0,nan,0.0,0.0,0.0,0.0,0.0,0.0,0.0,0.0,3.2235515,0.0,0.0,0.0,0.0,0.0,0.0,0.0,0.0
89252000,89172000,0.48170617,0.0,0.0015621029,19.42493,0.0,0.0030037465,0.0,0.0,0.0,0.0,0.0,0.0,0.0,1.71273e-05,0.0,0.0,nan,0.0,0.0,0.0,0.0,0.0,0.0,0.0,0.0,0.19822164,0.0,0.0,0.0,0.0,0.0,0.0,0.0,0.0
89748000,89668000,0.31045523,0.0,0.0014276906,18.57083,0.0,0.002239593,0.0,0.0,0.0,0.0,0.0,0.0,0.0,4.118657e-06,0.0,0.0,nan,0.0,0.0,0.0,0.0,0.0,0.0,0.0,0.0,0.38246632,0.0,0.0,0.0,0.0,0.0,0.0,0.0,0.0
90252000,90172000,0.16370149,0.0,0.00028134818,17.621035,0.0,0.0015540973,0.0,0.0,0.0,0.0,0.0,0.0,0.0,3.4629596e-05,0.0,0.0,nan,0.0,0.0,0.0,0.0,0.0,0.0,0.0,0.0,0.09269448,0.0,0.0,0.0,0.0,0.0,0.0,0.0,0.0
90748000,90668000,0.12175968,0.0,0.0004712116,16.562735,0.0,0.0013536616,0.0,0.0,0.0,0.0,0.0,0.0,0.0,7.1699837e-06,0.0,0.0,nan,0.0,0.0,0.0,0.0,0.0,0.0,0.0,0.0,0.06449776,0.0,0.0,0.0,0.0,0.0,0.0,0.0,0.0
91244000,91164000,0.1328076,0.0,0.00035551304,14.061287,0.0,0.0011306348,0.0,0.0,0.0,0.0,0.0,0.0,0.0,2.5867067e-07,0.0,0.0,nan,0.0,0.0,0.0,0.0,0.0,0.0,0.0,0.0,0.038311522,0.0,0.0,0.0,0.0,0.0,0.0,0.0,0.0
91748000,91668000,0.14642401,0.0,0.0002215383,12.916296,0.0,0.0008907292,0.0,0.0,0.0,0.0,0.0,0.0,0.0,1.125559e-05,0.0,0.0,nan,0.0,0.0,0.0,0.0,0.0,0.0,0.0,0.0,0.048324984,0.0,0.0,0.0,0.0,0.0,0.0,0.0,0.0
92244000,92164000,0.16119367,0.0,0.00062735414,11.739451,0.0,0.0006813907,0.0,0.0,0.0,0.0,0.0,0.0,0.0,1.2003603e-07,0.0,0.0,nan,0.0,0.0,0.0,0.0,0.0,0.0,0.0,0.0,0.07965129,0.0,0.0,0.0,0.0,0.0,0.0,0.0,0.0
92748000,92668000,0.23264569,0.0,0.0003659404,10.555429,0.0,0.0007220914,0.0,0.0,0.0,0.0,0.0,0.0,0.0,7.654064e-08,0.0,0.0,nan,0.0,0.0,0.0,0.0,0.0,0.0,0.0,0.0,0.114479795,0.0,0.0,0.0,0.0,0.0,0.0,0.0,0.0
93252000,93172000,0.61268044,0.0,0.0002635562,8.312238,0.0,0.0006130165,0.0,0.0,0.0,0.0,0.0,0.0,0.0,3.6552437e-06,0.0,0.0,nan,0.0,0.0,0.0,0.0,0.0,0.0,0.0,0.0,2.1083853,0.0,0.0,0.0,0.0,0.0,0.0,0.0,0.0
93748000,93668000,0.675581,0.0,0.00077535486,7.9417167,0.0,0.00068834575,0.0,0.0,0.0,0.0,0.0,0.0,0.0,4.2067408e-05,0.0,0.0,nan,0.0,0.0,0.0,0.0,0.0,0.0,0.0,0.0,2.0961635,0.0,0.0,0.0,0.0,0.0,0.0,0.0,0.0
94244000,94164000,0.7856537,0.0,0.0024749043,8.142938,0.0,0.0007458679,0.0,0.0,0.0,0.0,0.0,0.0,0.0,2.128928e-06,0.0,0.0,nan,0.0,0.0,0.0,0.0,0.0,0.0,0.0,0.0,1.8285134,0.0,0.0,0.0,0.0,0.0,0.0,0.0,0.0
94748000,94668000,0.8848523,0.0,0.0009890153,8.292214,0.0,0.0011316035,0.0,0.0,0.0,0.0,0.0,0.0,0.0,4.6281214e-09,0.0,0.0,nan,0.0,0.0,0.0,0.0,0.0,0.0,0.0,0.0,1.6724998,0.0,0.0,0.0,0.0,0.0,0.0,0.0,0.0
95244000,95164000,1.1029872,0.0,0.003796579,8.379661,0.0,0.0015557675,0.0,0.0,0.0,0.0,0.0,0.0,0.0,3.6118447e-05,0.0,0.0,nan,0.0,0.0,0.0,0.0,0.0,0.0,0.0,0.0,1.3497434,0.0,0.0,0.0,0.0,0.0,0.0,0.0,0.0
95748000,95668000,1.1810371,0.0,0.0025591585,8.369645,0.0,0.001981628,0.0,0.0,0.0,0.0,0.0,0.0,0.0,0.00012324404,0.0,0.0,nan,0.0,0.0,0.0,0.0,0.0,0.0,0.0,0.0,0.89017195,0.0,0.0,0.0,0.0,0.0,0.0,0.0,0.0
96244000,96164000,1.2279689,0.0,0.001642855,8.269653,0.0,0.0023879772,0.0,0.0,0.0,0.0,0.0,0.0,0.0,1.7210486e-06,0.0,0.0,nan,0.0,0.0,0.0,0.0,0.0,0.0,0.0,0.0,0.6737004,0.0,0.0,0.0,0.0,0.0,0.0,0.0,0.0
96748000,96668000,1.1917343,0.0,0.00073112285,7.6110415,0.0,0.0024367871,0.0,0.0,0.0,0.0,0.0,0.0,0.0,1.5679932e-05,0.0,0.0,nan,0.0,0.0,0.0,0.0,0.0,0.0,0.0,0.0,0.47225866,0.0,0.0,0.0,0.0,0.0,0.0,0.0,0.0
97244000,97164000,1.1488372,0.0,0.0018690983,7.3198566,0.0,0.0017991045,0.0,0.0,0.0,0.0,0.0,0.0,0.0,4.120653e-05,0.0,0.0,nan,0.0,0.0,0.0,0.0,0.0,0.0,0.0,0.0,0.67367375,0.0,0.0,0.0,0.0,0.0,0.0,0.0,0.0
97748000,97668000,1.1197363,0.0,0.005367669,7.123869,0.0,0.0016506823,0.0,0.0,0.0,0.0,0.0,0.0,0.0,8.712914e-05,0.0,0.0,nan,0.0,0.0,0.0,0.0,0.0,0.0,0.0,0.0,0.25458705,0.0,0.0,0.0,0.0,0.0,0.0,0.0,0.0
98244000,98164000,1.1906548,0.0,0.0032996691,6.9875383,0.0,0.0020468496,0.0,0.0,0.0,0.0,0.0,0.0,0.0,6.179665e-05,0.0,0.0,nan,0.0,0.0,0.0,0.0,0.0,0.0,0.0,0.0,0.1386306,0.0,0.0,0.0,0.0,0.0,0.0,0.0,0.0
98748000,98668000,1.2248335,0.0,0.002174336,6.935557,0.0,0.0026748916,0.0,0.0,0.0,0.0,0.0,0.0,0.0,7.07004e-05,0.0,0.0,nan,0.0,0.0,0.0,0.0,0.0,0.0,0.0,0.0,0.13034993,0.0,0.0,0.0,0.0,0.0,0.0,0.0,0.0
99252000,99172000,1.2155087,0.0,0.002127479,6.920982,0.0,0.0024831304,0.0,0.0,0.0,0.0,0.0,0.0,0.0,8.644449e-05,0.0,0.0,nan,0.0,0.0,0.0,0.0,0.0,0.0,0.0,0.0,0.12613346,0.0,0.0,0.0,0.0,0.0,0.0,0.0,0.0
99748000,99668000,1.1604829,0.0,0.0067883115,6.95496,0.0,0.0020062604,0.0,0.0,0.0,0.0,0.0,0.0,0.0,3.7416314e-05,0.0,0.0,nan,0.0,0.0,0.0,0.0,0.0,0.0,0.0,0.0,0.08943643,0.0,0.0,0.0,0.0,0.0,0.0,0.0,0.0
100244000,100164000,1.0946965,0.0,0.0027616548,7.0634556,0.0,0.0026320645,0.0,0.0,0.0,0.0,0.0,0.0,0.0,5.8295627e-05,0.0,0.0,nan,0.0,0.0,0.0,0.0,0.0,0.0,0.0,0.0,0.06780531,0.0,0.0,0.0,0.0,0.0,0.0,0.0,0.0
100748000,100668000,0.9916569,0.0,0.0038484763,7.1662397,0.0,0.002579685,0.0,0.0,0.0,0.0,0.0,0.0,0.0,3.4374265e-05,0.0,0.0,nan,0.0,0.0,0.0,0.0,0.0,0.0,0.0,0.0,0.1125598,0.0,0.0,0.0,0.0,0.0,0.0,0.0,0.0
101252000,101172000,0.80287784,0.0,0.0034407608,6.9381137,0.0,0.002865235,0.0,0.0,0.0,0.0,0.0,0.0,0.0,9.093114e-05,0.0,0.0,nan,0.0,0.0,0.0,0.0,0.0,0.0,0.0,0.0,0.1530175,0.0,0.0,0.0,0.0,0.0,0.0,0.0,0.0
101748000,101668000,0.7128048,0.0,0.0029226695,7.1253905,0.0,0.0023803106,0.0,0.0,0.0,0.0,0.0,0.0,0.0,7.2443254e-06,0.0,0.0,nan,0.0,0.0,0.0,0.0,0.0,0.0,0.0,0.0,0.16638193,0.0,0.0,0.0,0.0,0.0,0.0,0.0,0.0
102244000,102164000,0.60612,0.0,0.0035876331,7.357686,0.0,0.0027681058,0.0,0.0,0.0,0.0,0.0,0.0,0.0,5.068443e-05,0.0,0.0,nan,0.0,0.0,0.0,0.0,0.0,0.0,0.0,0.0,0.19401863,0.0,0.0,0.0,0.0,0.0,0.0,0.0,0.0
102748000,102668000,0.50324017,0.0,0.0048144953,7.622409,0.0,0.0034410541,0.0,0.0,0.0,0.0,0.0,0.0,0.0,1.092031e-05,0.0,0.0,nan,0.0,0.0,0.0,0.0,0.0,0.0,0.0,0.0,0.26972362,0.0,0.0,0.0,0.0,0.0,0.0,0.0,0.0
103244000,103164000,0.30891204,0.0,0.0050858282,8.16757,0.0,0.0036672626,0.0,0.0,0.0,0.0,0.0,0.0,0.0,2.2879569e-05,0.0,0.0,nan,0.0,0.0,0.0,0.0,0.0,0.0,0.0,0.0,0.32575607,0.0,0.0,0.0,0.0,0.0,0.0,0.0,0.0
103748000,103668000,0.22770381,0.0,0.0077497014,8.443694,0.0,0.003519538,0.0,0.0,0.0,0.0,0.0,0.0,0.0,2.1359958e-05,0.0,0.0,nan,0.0,0.0,0.0,0.0,0.0,0.0,0.0,0.0,0.41237447,0.0,0.0,0.0,0.0,0.0,0.0,0.0,0.0
104244000,104164000,0.17047483,0.0,0.002102699,8.750512,0.0,0.0040707276,0.0,0.0,0.0,0.0,0.0,0.0,0.0,2.136405e-05,0.0,0.0,nan,0.0,0.0,0.0,0.0,0.0,0.0,0.0,0.0,0.38715973,0.0,0.0,0.0,0.0,0.0,0.0,0.0,0.0
104748000,104668000,0.22785942,0.0,0.0026980317,9.063505,0.0,0.0043577375,0.0,0.0,0.0,0.0,0.0,0.0,0.0,3.0108726e-08,0.0,0.0,nan,0.0,0.0,0.0,0.0,0.0,0.0,0.0,0.0,0.4196011,0.0,0.0,0.0,0.0,0.0,0.0,0.0,0.0
105244000,105164000,0.3600082,0.0,0.0036371592,9.708337,0.0,0.0044630757,0.0,0.0,0.0,0.0,0.0,0.0,0.0,1.5390942e-05,0.0,0.0,nan,0.0,0.0,0.0,0.0,0.0,0.0,0.0,0.0,0.37697878,0.0,0.0,0.0,0.0,0.0,0.0,0.0,0.0
105748000,105668000,0.4231016,0.0,0.0044817575,10.022374,0.0,0.0044849827,0.0,0.0,0.0,0.0,0.0,0.0,0.0,6.0504446e-09,0.0,0.0,nan,0.0,0.0,0.0,0.0,0.0,0.0,0.0,0.0,0.46216783,0.0,0.0,0.0,0.0,0.0,0.0,0.0,0.0
106252000,106172000,0.48230097,0.0,0.0028739222,10.306511,0.0,0.0043771532,0.0,0.0,0.0,0.0,0.0,0.0,0.0,1.9279634e-05,0.0,0.0,nan,0.0,0.0,0.0,0.0,0.0,0.0,0.0,0.0,0.47384763,0.0,0.0,0.0,0.0,0.0,0.0,0.0,0.0
106748000,106668000,0.5365795,0.0,0.0019057026,10.057391,0.0,0.004347887,0.0,0.0,0.0,0.0,0.0,0.0,0.0,1.8979463e-05,0.0,0.0,nan,0.0,0.0,0.0,0.0,0.0,0.0,0.0,0.0,1.2695813,0.0,0.0,0.0,0.0,0.0,0.0,0.0,0.0
107252000,107172000,0.63662344,0.0,0.0012021338,10.608594,0.0,0.004113917,0.0,0.0,0.0,0.0,0.0,0.0,0.0,2.7464235e-08,0.0,0.0,nan,0.0,0.0,0.0,0.0,0.0,0.0,0.0,0.0,4.039621,0.0,0.0,0.0,0.0,0.0,0.0,0.0,0.0
107748000,107668000,0.4791313,0.0,0.0014661766,10.795752,0.0,0.003839181,0.0,0.0,0.0,0.0,0.0,0.0,0.0,2.7395066e-05,0.0,0.0,nan,0.0,0.0,0.0,0.0,0.0,0.0,0.0,0.0,6.996487,0.0,0.0,0.0,0.0,0.0,0.0,0.0,0.0
108244000,108164000,0.39310867,0.0,2.3602024e-05,10.846232,0.0,0.00324824,0.0,0.0,0.0,0.0,0.0,0.0,0.0,1.4020091e-07,0.0,0.0,nan,0.0,0.0,0.0,0.0,0.0,0.0,0.0,0.0,5.672771,0.0,0.0,0.0,0.0,0.0,0.0,0.0,0.0
108748000,108668000,0.68535924,0.0,2.3625795e-07,10.767,0.0,0.0028268765,0.0,0.0,0.0,0.0,0.0,0.0,0.0,5.5032447e-06,0.0,0.0,nan,0.0,0.0,0.0,0.0,0.0,0.0,0.0,0.0,3.9272695,0.0,0.0,0.0,0.0,0.0,0.0,0.0,0.0
109244000,109164000,0.6928542,0.0,0.0016253009,10.410462,0.0,0.0018732457,0.0,0.0,0.0,0.0,0.0,0.0,0.0,2.1117874e-05,0.0,0.0,nan,0.0,0.0,0.0,0.0,0.0,0.0,0.0,0.0,1.0244563,0.0,0.0,0.0,0.0,0.0,0.0,0.0,0.0
109748000,109668000,0.52521,0.0,0.00063311134,10.1531725,0.0,0.001678567,0.0,0.0,0.0,0.0,0.0,0.0,0.0,9.171549e-06,0.0,0.0,nan,0.0,0.0,0.0,0.0,0.0,0.0,0.0,0.0,0.9305168,0.0,0.0,0.0,0.0,0.0,0.0,0.0,0.0
110244000,110164000,0.39553183,0.0,0.0014342307,9.831545,0.0,0.0013838096,0.0,0.0,0.0,0.0,0.0,0.0,0.0,8.51512e-05,0.0,0.0,nan,0.0,0.0,0.0,0.0,0.0,0.0,0.0,0.0,0.8462599,0.0,0.0,0.0,0.0,0.0,0.0,0.0,0.0
110748000,110668000,0.3601243,0.0,0.00011065058,9.456645,0.0,0.0010152983,0.0,0.0,0.0,0.0,0.0,0.0,0.0,2.9979344e-06,0.0,0.0,nan,0.0,0.0,0.0,0.0,0.0,0.0,0.0,0.0,0.8089205,0.0,0.0,0.0,0.0,0.0,0.0,0.0,0.0
111252000,111172000,0.27597687,0.0,0.0003221131,8.5570135,0.0,0.00034453333,0.0,0.0,0.0,0.0,0.0,0.0,0.0,0.00036598797,0.0,0.0,nan,0.0,0.0,0.0,0.0,0.0,0.0,0.0,0.0,0.8288237,0.0,0.0,0.0,0.0,0.0,0.0,0.0,0.0
111748000,111668000,0.23472907,0.0,2.9715115e-05,8.048053,0.0,0.00014736204,0.0,0.0,0.0,0.0,0.0,0.0,0.0,0.00023756704,0.0,0.0,nan,0.0,0.0,0.0,0.0,0.0,0.0,0.0,0.0,0.95274436,0.0,0.0,0.0,0.0,0.0,0.0,0.0,0.0
112252000,112172000,0.23948012,0.0,0.00071649754,7.4243,0.0,6.7539644e-05,0.0,0.0,0.0,0.0,0.0,0.0,0.0,0.00010804219,0.0,0.0,nan,0.0,0.0,0.0,0.0,0.0,0.0,0.0,0.0,0.9312508,0.0,0.0,0.0,0.0,0.0,0.0,0.0,0.0
112748000,112668000,0.20593905,0.0,0.0001112858,6.8930783,0.0,5.6848717e-06,0.0,0.0,0.0,0.0,0.0,0.0,0.0,0.00021316051,0.0,0.0,nan,0.0,0.0,0.0,0.0,0.0,0.0,0.0,0.0,0.9397177,0.0,0.0,0.0,0.0,0.0,0.0,0.0,0.0
113244000,113164000,0.13094537,0.0,6.349686e-05,5.8034887,0.0,3.217288e-05,0.0,0.0,0.0,0.0,0.0,0.0,0.0,0.00020058641,0.0,0.0,nan,0.0,0.0,0.0,0.0,0.0,0.0,0.0,0.0,0.8734034,0.0,0.0,0.0,0.0,0.0,0.0,0.0,0.0
113748000,113668000,0.10107785,0.0,5.42578e-06,5.253995,0.0,4.0653034e-05,0.0,0.0,0.0,0.0,0.0,0.0,0.0,0.00013416236,0.0,0.0,nan,0.0,0.0,0.0,0.0,0.0,0.0,0.0,0.0,0.84899133,0.0,0.0,0.0,0.0,0.0,0.0,0.0,0.0
114244000,114164000,0.06744973,0.0,3.8026767e-06,4.7007966,0.0,5.0856193e-05,0.0,0.0,0.0,0.0,0.0,0.0,0.0,0.00015209008,0.0,0.0,nan,0.0,0.0,0.0,0.0,0.0,0.0,0.0,0.0,0.85463446,0.0,0.0,0.0,0.0,0.0,0.0,0.0,0.0
114748000,114668000,0.049936377,0.0,0.00050829066,4.1587005,0.0,6.147998e-05,0.0,0.0,0.0,0.0,0.0,0.0,0.0,0.00014661645,0.0,0.0,nan,0.0,0.0,0.0,0.0,0.0,0.0,0.0,0.0,0.85966474,0.0,0.0,0.0,0.0,0.0,0.0,0.0,0.0
115244000,115164000,0.12045497,0.0,6.602199e-05,3.144434,0.0,3.376315e-05,0.0,0.0,0.0,0.0,0.0,0.0,0.0,5.2699346e-05,0.0,0.0,nan,0.0,0.0,0.0,0.0,0.0,0.0,0.0,0.0,0.7324463,0.0,0.0,0.0,0.0,0.0,0.0,0.0,0.0
115748000,115668000,0.19205722,0.0,0.0006930082,2.6661894,0.0,2.3080784e-07,0.0,0.0,0.0,0.0,0.0,0.0,0.0,4.1737367e-05,0.0,0.0,nan,0.0,0.0,0.0,0.0,0.0,0.0,0.0,0.0,2.7511368,0.0,0.0,0.0,0.0,0.0,0.0,0.0,0.0
116252000,116172000,0.47876444,0.0,0.0021675695,2.221365,0.0,2.0431062e-06,0.0,0.0,0.0,0.0,0.0,0.0,0.0,9.710351e-06,0.0,0.0,nan,0.0,0.0,0.0,0.0,0.0,0.0,0.0,0.0,2.652108,0.0,0.0,0.0,0.0,0.0,0.0,0.0,0.0
116748000,116668000,0.903171,0.0,0.0014267311,1.8250164,0.0,4.8231537e-05,0.0,0.0,0.0,0.0,0.0,0.0,0.0,8.674342e-06,0.0,0.0,nan,0.0,0.0,0.0,0.0,0.0,0.0,0.0,0.0,2.4593482,0.0,0.0,0.0,0.0,0.0,0.0,0.0,0.0
117244000,117164000,2.0846193,0.0,0.0053012283,1.2332284,0.0,0.0005058891,0.0,0.0,0.0,0.0,0.0,0.0,0.0,1.22073825e-05,0.0,0.0,nan,0.0,0.0,0.0,0.0,0.0,0.0,0.0,0.0,2.2394097,0.0,0.0,0.0,0.0,0.0,0.0,0.0,0.0
117748000,117668000,2.763771,0.0,0.005405459,0.9716063,0.0,0.0009631206,0.0,0.0,0.0,0.0,0.0,0.0,0.0,1.5495615e-06,0.0,0.0,nan,0.0,0.0,0.0,0.0,0.0,0.0,0.0,0.0,1.530319,0.0,0.0,0.0,0.0,0.0,0.0,0.0,0.0
118252000,118172000,3.3735578,0.0,0.0066568037,0.75468713,0.0,0.0015192365,0.0,0.0,0.0,0.0,0.0,0.0,0.0,7.3401934e-05,0.0,0.0,nan,0.0,0.0,0.0,0.0,0.0,0.0,0.0,0.0,1.1786344,0.0,0.0,0.0,0.0,0.0,0.0,0.0,0.0
118748000,118668000,3.9612782,0.0,0.014902544,0.8297572,0.0,0.0021199845,0.0,0.0,0.0,0.0,0.0,0.0,0.0,8.191668e-05,0.0,0.0,nan,0.0,0.0,0.0,0.0,0.0,0.0,0.0,0.0,3.2366235,0.0,0.0,0.0,0.0,0.0,0.0,0.0,0.0
119244000,119164000,5.29016,0.0,0.0084708175,1.0597947,0.0,0.0048275203,0.0,0.0,0.0,0.0,0.0,0.0,0.0,0.00019029074,0.0,0.0,nan,0.0,0.0,0.0,0.0,0.0,0.0,0.0,0.0,2.530063,0.0,0.0,0.0,0.0,0.0,0.0,0.0,0.0
119748000,119668000,5.7671213,0.0,0.0112012485,1.1934493,0.0,0.0053502596,0.0,0.0,0.0,0.0,0.0,0.0,0.0,0.00012823631,0.0,0.0,nan,0.0,0.0,0.0,0.0,0.0,0.0,0.0,0.0,0.40513888,0.0,0.0,0.0,0.0,0.0,0.0,0.0,0.0
120252000,120172000,5.6433425,0.0,0.012144774,1.3122429,0.0,0.0053126086,0.0,0.0,0.0,0.0,0.0,0.0,0.0,4.882202e-05,0.0,0.0,nan,0.0,0.0,0.0,0.0,0.0,0.0,0.0,0.0,0.4594915,0.0,0.0,0.0,0.0,0.0,0.0,0.0,0.0
120748000,120668000,5.3277826,0.0,0.013171767,1.41703,0.0,0.0058923666,0.0,0.0,0.0,0.0,0.0,0.0,0.0,0.00011355679,0.0,0.0,nan,0.0,0.0,0.0,0.0,0.0,0.0,0.0,0.0,0.42313838,0.0,0.0,0.0,0.0,0.0,0.0,0.0,0.0
121244000,121164000,4.402126,0.0,0.012349185,1.5512623,0.0,0.0067474456,0.0,0.0,0.0,0.0,0.0,0.0,0.0,3.4146037e-06,0.0,0.0,nan,0.0,0.0,0.0,0.0,0.0,0.0,0.0,0.0,0.41823548,0.0,0.0,0.0,0.0,0.0,0.0,0.0,0.0
121748000,121668000,3.9566064,0.0,0.008394558,1.5651863,0.0,0.006589181,0.0,0.0,0.0,0.0,0.0,0.0,0.0,0.00012427314,0.0,0.0,nan,0.0,0.0,0.0,0.0,0.0,0.0,0.0,0.0,0.3425557,0.0,0.0,0.0,0.0,0.0,0.0,0.0,0.0
122244000,122164000,3.4719794,0.0,0.011751269,1.5636587,0.0,0.007339224,0.0,0.0,0.0,0.0,0.0,0.0,0.0,9.637416e-05,0.0,0.0,nan,0.0,0.0,0.0,0.0,0.0,0.0,0.0,0.0,0.28942773,0.0,0.0,0.0,0.0,0.0,0.0,0.0,0.0
122748000,122668000,3.1742156,0.0,0.011103976,1.6486057,0.0,0.00724782,0.0,0.0,0.0,0.0,0.0,0.0,0.0,8.667413e-05,0.0,0.0,nan,0.0,0.0,0.0,0.0,0.0,0.0,0.0,0.0,0.22987995,0.0,0.0,0.0,0.0,0.0,0.0,0.0,0.0
123252000,123172000,2.367206,0.0,0.010349313,1.5265574,0.0,0.0077037085,0.0,0.0,0.0,0.0,0.0,0.0,0.0,8.827603e-05,0.0,0.0,nan,0.0,0.0,0.0,0.0,0.0,0.0,0.0,0.0,0.1737813,0.0,0.0,0.0,0.0,0.0,0.0,0.0,0.0
123748000,123668000,2.0197618,0.0,0.014767099,1.4459435,0.0,0.008229608,0.0,0.0,0.0,0.0,0.0,0.0,0.0,3.9932504e-05,0.0,0.0,nan,0.0,0.0,0.0,0.0,0.0,0.0,0.0,0.0,0.13951282,0.0,0.0,0.0,0.0,0.0,0.0,0.0,0.0
124244000,124164000,1.6973754,0.0,0.008621641,1.3517445,0.0,0.0076792464,0.0,0.0,0.0,0.0,0.0,0.0,0.0,2.8662225e-05,0.0,0.0,nan,0.0,0.0,0.0,0.0,0.0,0.0,0.0,0.0,0.13289754,0.0,0.0,0.0,0.0,0.0,0.0,0.0,0.0
124748000,124668000,1.3962266,0.0,0.007035649,1.2544396,0.0,0.008248811,0.0,0.0,0.0,0.0,0.0,0.0,0.0,7.1972856e-05,0.0,0.0,nan,0.0,0.0,0.0,0.0,0.0,0.0,0.0,0.0,0.09817136,0.0,0.0,0.0,0.0,0.0,0.0,0.0,0.0
125252000,125172000,0.9102891,0.0,0.0097698,1.0445617,0.0,0.008349358,0.0,0.0,0.0,0.0,0.0,0.0,0.0,0.000117101794,0.0,0.0,nan,0.0,0.0,0.0,0.0,0.0,0.0,0.0,0.0,0.123562895,0.0,0.0,0.0,0.0,0.0,0.0,0.0,0.0
125748000,125668000,0.70805013,0.0,0.008574198,0.9408811,0.0,0.008147149,0.0,0.0,0.0,0.0,0.0,0.0,0.0,6.1379156e-05,0.0,0.0,nan,0.0,0.0,0.0,0.0,0.0,0.0,0.0,0.0,0.12098619,0.0,0.0,0.0,0.0,0.0,0.0,0.0,0.0
126244000,126164000,0.530687,0.0,0.008294981,0.8371758,0.0,0.008945377,0.0,0.0,0.0,0.0,0.0,0.0,0.0,3.80546e-06,0.0,0.0,nan,0.0,0.0,0.0,0.0,0.0,0.0,0.0,0.0,0.13289839,0.0,0.0,0.0,0.0,0.0,0.0,0.0,0.0
126748000,126668000,0.38250676,0.0,0.007903659,0.7371544,0.0,0.008814762,0.0,0.0,0.0,0.0,0.0,0.0,0.0,3.8242033e-05,0.0,0.0,nan,0.0,0.0,0.0,0.0,0.0,0.0,0.0,0.0,0.14875044,0.0,0.0,0.0,0.0,0.0,0.0,0.0,0.0
127252000,127172000,0.3504222,0.0,0.0069060936,0.593069,0.0,0.0086004,0.0,0.0,0.0,0.0,0.0,0.0,0.0,4.028665e-05,0.0,0.0,nan,0.0,0.0,0.0,0.0,0.0,0.0,0.0,0.0,0.19136502,0.0,0.0,0.0,0.0,0.0,0.0,0.0,0.0
127748000,127668000,0.3855926,0.0,0.0058907988,0.5013326,0.0,0.008417242,0.0,0.0,0.0,0.0,0.0,0.0,0.0,1.2793414e-06,0.0,0.0,nan,0.0,0.0,0.0,0.0,0.0,0.0,0.0,0.0,0.19394231,0.0,0.0,0.0,0.0,0.0,0.0,0.0,0.0
128252000,128172000,0.38931847,0.0,0.0043165092,0.41638342,0.0,0.00760394,0.0,0.0,0.0,0.0,0.0,0.0,0.0,1.92487e-05,0.0,0.0,nan,0.0,0.0,0.0,0.0,0.0,0.0,0.0,0.0,0.1763086,0.0,0.0,0.0,0.0,0.0,0.0,0.0,0.0
128748000,128668000,0.4144728,0.0,0.0041986126,0.33921245,0.0,0.0076343734,0.0,0.0,0.0,0.0,0.0,0.0,0.0,1.4945208e-05,0.0,0.0,nan,0.0,0.0,0.0,0.0,0.0,0.0,0.0,0.0,0.19860333,0.0,0.0,0.0,0.0,0.0,0.0,0.0,0.0
129244000,129164000,0.3973939,0.0,0.003750413,0.20710373,0.0,0.0067415386,0.0,0.0,0.0,0.0,0.0,0.0,0.0,2.7731949e-06,0.0,0.0,nan,0.0,0.0,0.0,0.0,0.0,0.0,0.0,0.0,0.22140494,0.0,0.0,0.0,0.0,0.0,0.0,0.0,0.0
129748000,129668000,0.40137357,0.0,0.0047013545,0.15327853,0.0,0.006524317,0.0,0.0,0.0,0.0,0.0,0.0,0.0,4.2421048e-06,0.0,0.0,nan,0.0,0.0,0.0,0.0,0.0,0.0,0.0,0.0,0.18871562,0.0,0.0,0.0,0.0,0.0,0.0,0.0,0.0
130252000,130172000,0.41296855,0.0,0.003796567,0.1512721,0.0,0.0061897584,0.0,0.0,0.0,0.0,0.0,0.0,0.0,1.3419317e-06,0.0,0.0,nan,0.0,0.0,0.0,0.0,0.0,0.0,0.0,0.0,0.20274326,0.0,0.0,0.0,0.0,0.0,0.0,0.0,0.0
130748000,130668000,0.3992302,0.0,0.0014035675,0.15508462,0.0,0.0059109163,0.0,0.0,0.0,0.0,0.0,0.0,0.0,2.1372316e-06,0.0,0.0,nan,0.0,0.0,0.0,0.0,0.0,0.0,0.0,0.0,0.2136622,0.0,0.0,0.0,0.0,0.0,0.0,0.0,0.0
131252000,131172000,0.35955328,0.0,0.0004158768,0.15915944,0.0,0.004059088,0.0,0.0,0.0,0.0,0.0,0.0,0.0,4.2013224e-05,0.0,0.0,nan,0.0,0.0,0.0,0.0,0.0,0.0,0.0,0.0,0.18843965,0.0,0.0,0.0,0.0,0.0,0.0,0.0,0.0
131748000,131668000,0.3455518,0.0,0.0003024129,0.15928128,0.0,0.003545103,0.0,0.0,0.0,0.0,0.0,0.0,0.0,1.5818573e-06,0.0,0.0,nan,0.0,0.0,0.0,0.0,0.0,0.0,0.0,0.0,0.16339271,0.0,0.0,0.0,0.0,0.0,0.0,0.0,0.0
132252000,132172000,0.3352178,0.0,0.0012545715,0.15825623,0.0,0.0029985616,0.0,0.0,0.0,0.0,0.0,0.0,0.0,1.6000439e-06,0.0,0.0,nan,0.0,0.0,0.0,0.0,0.0,0.0,0.0,0.0,0.18948507,0.0,0.0,0.0,0.0,0.0,0.0,0.0,0.0
132748000,132668000,0.38945234,0.0,5.4114367e-05,0.16773114,0.0,0.0025850998,0.0,0.0,0.0,0.0,0.0,0.0,0.0,0.00012567789,0.0,0.0,nan,0.0,0.0,0.0,0.0,0.0,0.0,0.0,0.0,0.20319152,0.0,0.0,0.0,0.0,0.0,0.0,0.0,0.0
133252000,133172000,0.4915241,0.0,0.0005419194,0.15995736,0.0,0.0025928295,0.0,0.0,0.0,0.0,0.0,0.0,0.0,7.8638375e-05,0.0,0.0,nan,0.0,0.0,0.0,0.0,0.0,0.0,0.0,0.0,0.204651,0.0,0.0,0.0,0.0,0.0,0.0,0.0,0.0
133748000,133668000,0.5304233,0.0,9.009171e-06,0.15410066,0.0,0.0017586381,0.0,0.0,0.0,0.0,0.0,0.0,0.0,7.704803e-05,0.0,0.0,nan,0.0,0.0,0.0,0.0,0.0,0.0,0.0,0.0,0.18282203,0.0,0.0,0.0,0.0,0.0,0.0,0.0,0.0
134244000,134164000,0.5835065,0.0,0.00028411148,0.14740764,0.0,0.0013870399,0.0,0.0,0.0,0.0,0.0,0.0,0.0,9.1317495e-05,0.0,0.0,nan,0.0,0.0,0.0,0.0,0.0,0.0,0.0,0.0,0.19834697,0.0,0.0,0.0,0.0,0.0,0.0,0.0,0.0
134748000,134668000,0.6315081,0.0,1.717552e-05,0.140239,0.0,0.0013323567,0.0,0.0,0.0,0.0,0.0,0.0,0.0,8.92925e-05,0.0,0.0,nan,0.0,0.0,0.0,0.0,0.0,0.0,0.0,0.0,0.1631293,0.0,0.0,0.0,0.0,0.0,0.0,0.0,0.0
135252000,135172000,0.6913776,0.0,0.00015063155,0.12277416,0.0,0.0005979677,0.0,0.0,0.0,0.0,0.0,0.0,0.0,7.187453e-05,0.0,0.0,nan,0.0,0.0,0.0,0.0,0.0,0.0,0.0,0.0,0.14715417,0.0,0.0,0.0,0.0,0.0,0.0,0.0,0.0
135748000,135668000,0.71725214,0.0,2.7805534e-06,0.114745416,0.0,0.00065815664,0.0,0.0,0.0,0.0,0.0,0.0,0.0,0.00016016017,0.0,0.0,nan,0.0,0.0,0.0,0.0,0.0,0.0,0.0,0.0,0.15971917,0.0,0.0,0.0,0.0,0.0,0.0,0.0,0.0
136252000,136172000,0.72391135,0.0,4.5511038e-06,0.13272403,0.0,0.00030104342,0.0,0.0,0.0,0.0,0.0,0.0,0.0,0.00019041856,0.0,0.0,nan,0.0,0.0,0.0,0.0,0.0,0.0,0.0,0.0,0.16107203,0.0,0.0,0.0,0.0,0.0,0.0,0.0,0.0
136748000,136668000,0.74011654,0.0,1.3252952e-05,0.15126306,0.0,0.000276285,0.0,0.0,0.0,0.0,0.0,0.0,0.0,0.000104576175,0.0,0.0,nan,0.0,0.0,0.0,0.0,0.0,0.0,0.0,0.0,0.08405938,0.0,0.0,0.0,0.0,0.0,0.0,0.0,0.0
137252000,137172000,0.717533,0.0,3.058593e-05,0.18151096,0.0,0.00010167177,0.0,0.0,0.0,0.0,0.0,0.0,0.0,0.00012745139,0.0,0.0,nan,0.0,0.0,0.0,0.0,0.0,0.0,0.0,0.0,0.08020535,0.0,0.0,0.0,0.0,0.0,0.0,0.0,0.0
137748000,137668000,0.6968591,0.0,0.00014989564,0.1939098,0.0,4.5867346e-05,0.0,0.0,0.0,0.0,0.0,0.0,0.0,0.00015423099,0.0,0.0,nan,0.0,0.0,0.0,0.0,0.0,0.0,0.0,0.0,0.07814317,0.0,0.0,0.0,0.0,0.0,0.0,0.0,0.0
138244000,138164000,0.7018981,0.0,3.4843095e-05,0.2204771,0.0,3.9437373e-06,0.0,0.0,0.0,0.0,0.0,0.0,0.0,8.004356e-05,0.0,0.0,nan,0.0,0.0,0.0,0.0,0.0,0.0,0.0,0.0,0.073240474,0.0,0.0,0.0,0.0,0.0,0.0,0.0,0.0
138748000,138668000,0.68742514,0.0,0.00012538787,0.22925955,0.0,1.538543e-05,0.0,0.0,0.0,0.0,0.0,0.0,0.0,3.2045813e-05,0.0,0.0,nan,0.0,0.0,0.0,0.0,0.0,0.0,0.0,0.0,0.06666222,0.0,0.0,0.0,0.0,0.0,0.0,0.0,0.0
139244000,139164000,0.6243998,0.0,0.0005169453,0.23812535,0.0,3.8745573e-10,0.0,0.0,0.0,0.0,0.0,0.0,0.0,5.939999e-05,0.0,0.0,nan,0.0,0.0,0.0,0.0,0.0,0.0,0.0,0.0,0.058297344,0.0,0.0,0.0,0.0,0.0,0.0,0.0,0.0
139748000,139668000,0.57411903,0.0,0.0008460717,0.23891535,0.0,1.7377238e-06,0.0,0.0,0.0,0.0,0.0,0.0,0.0,0.00014354971,0.0,0.0,nan,0.0,0.0,0.0,0.0,0.0,0.0,0.0,0.0,0.047174633,0.0,0.0,0.0,0.0,0.0,0.0,0.0,0.0
140252000,140172000,0.54534256,0.0,1.721214e-07,0.23875248,0.0,6.4728765e-06,0.0,0.0,0.0,0.0,0.0,0.0,0.0,4.6805137e-05,0.0,0.0,nan,0.0,0.0,0.0,0.0,0.0,0.0,0.0,0.0,0.04259352,0.0,0.0,0.0,0.0,0.0,0.0,0.0,0.0
140748000,140668000,0.5093861,0.0,0.000115561,0.23427033,0.0,1.565377e-05,0.0,0.0,0.0,0.0,0.0,0.0,0.0,3.3812932e-05,0.0,0.0,nan,0.0,0.0,0.0,0.0,0.0,0.0,0.0,0.0,0.027578434,0.0,0.0,0.0,0.0,0.0,0.0,0.0,0.0
141244000,141164000,0.43438908,0.0,0.0008824943,0.2198112,0.0,2.4216735e-05,0.0,0.0,0.0,0.0,0.0,0.0,0.0,6.974529e-05,0.0,0.0,nan,0.0,0.0,0.0,0.0,0.0,0.0,0.0,0.0,0.03417028,0.0,0.0,0.0,0.0,0.0,0.0,0.0,0.0
141748000,141668000,0.39598313,0.0,0.00046454446,0.21052971,0.0,6.5539876e-05,0.0,0.0,0.0,0.0,0.0,0.0,0.0,2.6414682e-05,0.0,0.0,nan,0.0,0.0,0.0,0.0,0.0,0.0,0.0,0.0,0.033647418,0.0,0.0,0.0,0.0,0.0,0.0,0.0,0.0
142244000,142164000,0.3552885,0.0,9.736597e-06,0.2009055,0.0,0.00010570861,0.0,0.0,0.0,0.0,0.0,0.0,0.0,0.00020628145,0.0,0.0,nan,0.0,0.0,0.0,0.0,0.0,0.0,0.0,0.0,0.03187851,0.0,0.0,0.0,0.0,0.0,0.0,0.0,0.0
142748000,142668000,0.31506276,0.0,0.00089462433,0.18919742,0.0,0.00019667484,0.0,0.0,0.0,0.0,0.0,0.0,0.0,4.445165e-08,0.0,0.0,nan,0.0,0.0,0.0,0.0,0.0,0.0,0.0,0.0,0.027648032,0.0,0.0,0.0,0.0,0.0,0.0,0.0,0.0
143244000,143164000,0.2449207,0.0,0.0015704851,0.17833893,0.0,0.00053760974,0.0,0.0,0.0,0.0,0.0,0.0,0.0,1.1147162e-05,0.0,0.0,nan,0.0,0.0,0.0,0.0,0.0,0.0,0.0,0.0,0.031437516,0.0,0.0,0.0,0.0,0.0,0.0,0.0,0.0
143748000,143668000,0.2214883,0.0,0.002529733,0.16422676,0.0,0.0006628639,0.0,0.0,0.0,0.0,0.0,0.0,0.0,3.7859096e-05,0.0,0.0,nan,0.0,0.0,0.0,0.0,0.0,0.0,0.0,0.0,0.02031465,0.0,0.0,0.0,0.0,0.0,0.0,0.0,0.0
144252000,144172000,0.18887138,0.0,0.0019428423,0.14968908,0.0,0.0008560678,0.0,0.0,0.0,0.0,0.0,0.0,0.0,2.3413685e-07,0.0,0.0,nan,0.0,0.0,0.0,0.0,0.0,0.0,0.0,0.0,0.015976556,0.0,0.0,0.0,0.0,0.0,0.0,0.0,0.0
144748000,144668000,0.15853383,0.0,0.001517023,0.13561799,0.0,0.0010319491,0.0,0.0,0.0,0.0,0.0,0.0,0.0,7.665486e-08,0.0,0.0,nan,0.0,0.0,0.0,0.0,0.0,0.0,0.0,0.0,0.0234869,0.0,0.0,0.0,0.0,0.0,0.0,0.0,0.0
145252000,145172000,0.10678073,0.0,0.0013645143,0.107984856,0.0,0.0012443656,0.0,0.0,0.0,0.0,0.0,0.0,0.0,8.633994e-07,0.0,0.0,nan,0.0,0.0,0.0,0.0,0.0,0.0,0.0,0.0,0.022880832,0.0,0.0,0.0,0.0,0.0,0.0,0.0,0.0
145748000,145668000,0.08063322,0.0,0.001695971,0.09520299,0.0,0.0013028812,0.0,0.0,0.0,0.0,0.0,0.0,0.0,3.42508e-05,0.0,0.0,nan,0.0,0.0,0.0,0.0,0.0,0.0,0.0,0.0,0.020196484,0.0,0.0,0.0,0.0,0.0,0.0,0.0,0.0
146244000,146164000,0.06328439,0.0,0.00046542689,0.08261038,0.0,0.0012642471,0.0,0.0,0.0,0.0,0.0,0.0,0.0,6.124396e-05,0.0,0.0,nan,0.0,0.0,0.0,0.0,0.0,0.0,0.0,0.0,0.017450143,0.0,0.0,0.0,0.0,0.0,0.0,0.0,0.0
146748000,146668000,0.051067982,0.0,0.0020477471,0.07137914,0.0,0.0013554088,0.0,0.0,0.0,0.0,0.0,0.0,0.0,5.1127776e-05,0.0,0.0,nan,0.0,0.0,0.0,0.0,0.0,0.0,0.0,0.0,0.002739127,0.0,0.0,0.0,0.0,0.0,0.0,0.0,0.0
147244000,147164000,9.972533e-05,0.0,0.0003496141,0.00058781926,0.0,0.00024330334,0.0,0.0,0.0,0.0,0.0,0.0,0.0,1.9850606e-06,0.0,0.0,nan,0.0,0.0,0.0,0.0,0.0,0.0,0.0,0.0,0.0017451806,0.0,0.0,0.0,0.0,0.0,0.0,0.0,0.0
147748000,147668000,2.3128412e-06,0.0,0.00026947408,0.0006580181,0.0,0.00020743498,0.0,0.0,0.0,0.0,0.0,0.0,0.0,1.6248728e-06,0.0,0.0,nan,0.0,0.0,0.0,0.0,0.0,0.0,0.0,0.0,0.0004367529,0.0,0.0,0.0,0.0,0.0,0.0,0.0,0.0
148244000,148164000,0.0002063757,0.0,0.00060589024,0.0006582937,0.0,0.00014689096,0.0,0.0,0.0,0.0,0.0,0.0,0.0,2.6006293e-05,0.0,0.0,nan,0.0,0.0,0.0,0.0,0.0,0.0,0.0,0.0,0.0005836612,0.0,0.0,0.0,0.0,0.0,0.0,0.0,0.0
148748000,148668000,2.6722895e-05,0.0,8.348861e-05,0.00066033803,0.0,0.00014737509,0.0,0.0,0.0,0.0,0.0,0.0,0.0,1.0123443e-06,0.0,0.0,nan,0.0,0.0,0.0,0.0,0.0,0.0,0.0,0.0,0.04459508,0.0,0.0,0.0,0.0,0.0,0.0,0.0,0.0
149252000,149172000,0.0009659749,0.0,1.6441989e-05,0.0006668196,0.0,0.0001048439,0.0,0.0,0.0,0.0,0.0,0.0,0.0,4.081685e-06,0.0,0.0,nan,0.0,0.0,0.0,0.0,0.0,0.0,0.0,0.0,0.002556239,0.0,0.0,0.0,0.0,0.0,0.0,0.0,0.0
