timestamp,timestamp_sample,lat,lon,alt,alt_ellipsoid,delta_alt,eph,epv,terrain_alt,lat_lon_reset_counter,alt_reset_counter,terrain_alt_valid,dead_reckoning
3448000,0,47.3977508,8.5456074,488.104,0.0,0.0,0.0,0.0,0.0,0,0,0,0
3452000,0,47.3977508,8.5456074,488.104,0.0,0.0,0.0,0.0,0.0,0,0,0,0
3548000,0,47.3977508,8.5456074,488.104,0.0,0.0,0.0,0.0,0.0,0,0,0,0
3648000,0,47.3977508,8.5456074,488.104,0.0,0.0,0.0,0.0,0.0,0,0,0,0
3748000,0,47.3977508,8.5456074,488.104,0.0,0.0,0.0,0.0,0.0,0,0,0,0
3848000,0,47.3977508,8.5456074,488.104,0.0,0.0,0.0,0.0,0.0,0,0,0,0
3948000,0,47.3977508,8.5456074,488.104,0.0,0.0,0.0,0.0,0.0,0,0,0,0
4048000,0,47.3977508,8.5456074,488.104,0.0,0.0,0.0,0.0,0.0,0,0,0,0
4148000,0,47.3977508,8.5456074,488.104,0.0,0.0,0.0,0.0,0.0,0,0,0,0
4248000,0,47.3977508,8.5456074,488.104,0.0,0.0,0.0,0.0,0.0,0,0,0,0
4348000,0,47.3977508,8.5456074,488.104,0.0,0.0,0.0,0.0,0.0,0,0,0,0
4448000,0,47.3977508,8.5456074,488.104,0.0,0.0,0.0,0.0,0.0,0,0,0,0
4548000,0,47.3977508,8.5456074,488.104,0.0,0.0,0.0,0.0,0.0,0,0,0,0
4648000,0,47.3977508,8.5456074,488.104,0.0,0.0,0.0,0.0,0.0,0,0,0,0
4748000,0,47.3977508,8.5456074,488.104,0.0,0.0,0.0,0.0,0.0,0,0,0,0
4848000,0,47.3977508,8.5456074,488.104,0.0,0.0,0.0,0.0,0.0,0,0,0,0
4948000,0,47.3977508,8.5456074,488.104,0.0,0.0,0.0,0.0,0.0,0,0,0,0
5048000,0,47.3977508,8.5456074,488.104,0.0,0.0,0.0,0.0,0.0,0,0,0,0
5148000,0,47.3977508,8.5456074,488.104,0.0,0.0,0.0,0.0,0.0,0,0,0,0
5248000,0,47.3977508,8.5456074,488.104,0.0,0.0,0.0,0.0,0.0,0,0,0,0
5348000,0,47.3977508,8.5456074,488.104,0.0,0.0,0.0,0.0,0.0,0,0,0,0
5448000,0,47.3977508,8.5456074,488.104,0.0,0.0,0.0,0.0,0.0,0,0,0,0
5548000,0,47.3977508,8.5456074,488.104,0.0,0.0,0.0,0.0,0.0,0,0,0,0
5648000,0,47.3977508,8.5456074,488.104,0.0,0.0,0.0,0.0,0.0,0,0,0,0
5748000,0,47.3977508,8.5456074,488.104,0.0,0.0,0.0,0.0,0.0,0,0,0,0
5848000,0,47.3977508,8.5456074,488.104,0.0,0.0,0.0,0.0,0.0,0,0,0,0
5948000,0,47.3977508,8.5456074,488.104,0.0,0.0,0.0,0.0,0.0,0,0,0,0
6048000,0,47.3977508,8.5456074,488.104,0.0,0.0,0.0,0.0,0.0,0,0,0,0
6148000,0,47.3977508,8.5456074,488.104,0.0,0.0,0.0,0.0,0.0,0,0,0,0
6248000,0,47.3977508,8.5456074,488.104,0.0,0.0,0.0,0.0,0.0,0,0,0,0
6348000,0,47.3977508,8.5456074,488.104,0.0,0.0,0.0,0.0,0.0,0,0,0,0
6448000,0,47.3977508,8.5456074,488.104,0.0,0.0,0.0,0.0,0.0,0,0,0,0
6548000,0,47.3977508,8.5456074,488.104,0.0,0.0,0.0,0.0,0.0,0,0,0,0
6648000,0,47.3977508,8.5456074,488.104,0.0,0.0,0.0,0.0,0.0,0,0,0,0
6748000,0,47.3977508,8.5456074,488.104,0.0,0.0,0.0,0.0,0.0,0,0,0,0
6848000,0,47.3977508,8.5456074,488.104,0.0,0.0,0.0,0.0,0.0,0,0,0,0
6948000,0,47.3977508,8.5456074,488.104,0.0,0.0,0.0,0.0,0.0,0,0,0,0
7048000,0,47.3977508,8.5456074,488.104,0.0,0.0,0.0,0.0,0.0,0,0,0,0
7148000,0,47.3977508,8.5456074,488.104,0.0,0.0,0.0,0.0,0.0,0,0,0,0
7248000,0,47.3977508,8.5456074,488.104,0.0,0.0,0.0,0.0,0.0,0,0,0,0
7348000,0,47.3977508,8.5456074,488.104,0.0,0.0,0.0,0.0,0.0,0,0,0,0
7448000,0,47.3977508,8.5456074,488.104,0.0,0.0,0.0,0.0,0.0,0,0,0,0
7548000,0,47.3977508,8.5456074,488.104,0.0,0.0,0.0,0.0,0.0,0,0,0,0
7648000,0,47.3977508,8.5456074,488.104,0.0,0.0,0.0,0.0,0.0,0,0,0,0
7748000,0,47.3977508,8.5456074,488.104,0.0,0.0,0.0,0.0,0.0,0,0,0,0
7848000,0,47.3977508,8.5456074,488.104,0.0,0.0,0.0,0.0,0.0,0,0,0,0
7948000,0,47.3977508,8.5456074,488.104,0.0,0.0,0.0,0.0,0.0,0,0,0,0
8048000,0,47.3977508,8.5456074,488.104,0.0,0.0,0.0,0.0,0.0,0,0,0,0
8148000,0,47.3977508,8.5456074,488.104,0.0,0.0,0.0,0.0,0.0,0,0,0,0
8248000,0,47.3977508,8.5456074,488.104,0.0,0.0,0.0,0.0,0.0,0,0,0,0
8348000,0,47.3977508,8.5456074,488.104,0.0,0.0,0.0,0.0,0.0,0,0,0,0
8448000,0,47.3977508,8.5456074,488.104,0.0,0.0,0.0,0.0,0.0,0,0,0,0
8548000,0,47.3977508,8.5456074,488.104,0.0,0.0,0.0,0.0,0.0,0,0,0,0
8648000,0,47.3977508,8.5456074,488.104,0.0,0.0,0.0,0.0,0.0,0,0,0,0
8748000,0,47.3977508,8.5456074,488.104,0.0,0.0,0.0,0.0,0.0,0,0,0,0
8848000,0,47.3977508,8.5456074,488.104,0.0,0.0,0.0,0.0,0.0,0,0,0,0
8948000,0,47.3977508,8.5456074,488.104,0.0,0.0,0.0,0.0,0.0,0,0,0,0
9048000,0,47.3977508,8.5456074,488.104,0.0,0.0,0.0,0.0,0.0,0,0,0,0
9148000,0,47.3977508,8.5456074,488.104,0.0,0.0,0.0,0.0,0.0,0,0,0,0
9248000,0,47.3977508,8.5456074,488.104,0.0,0.0,0.0,0.0,0.0,0,0,0,0
9348000,0,47.3977508,8.5456074,488.104,0.0,0.0,0.0,0.0,0.0,0,0,0,0
9448000,0,47.3977508,8.5456074,488.104,0.0,0.0,0.0,0.0,0.0,0,0,0,0
9548000,0,47.3977508,8.5456074,488.104,0.0,0.0,0.0,0.0,0.0,0,0,0,0
9648000,0,47.3977508,8.5456074,488.104,0.0,0.0,0.0,0.0,0.0,0,0,0,0
9748000,0,47.3977508,8.5456074,488.104,0.0,0.0,0.0,0.0,0.0,0,0,0,0
9848000,0,47.3977508,8.5456074,488.104,0.0,0.0,0.0,0.0,0.0,0,0,0,0
9948000,0,47.3977508,8.5456074,488.104,0.0,0.0,0.0,0.0,0.0,0,0,0,0
10048000,0,47.3977508,8.5456074,488.104,0.0,0.0,0.0,0.0,0.0,0,0,0,0
10148000,0,47.3977508,8.5456074,488.104,0.0,0.0,0.0,0.0,0.0,0,0,0,0
10248000,0,47.3977508,8.5456074,488.104,0.0,0.0,0.0,0.0,0.0,0,0,0,0
10348000,0,47.3977508,8.5456074,488.104,0.0,0.0,0.0,0.0,0.0,0,0,0,0
10448000,0,47.3977508,8.5456074,488.104,0.0,0.0,0.0,0.0,0.0,0,0,0,0
10548000,0,47.3977508,8.5456074,488.104,0.0,0.0,0.0,0.0,0.0,0,0,0,0
10648000,0,47.3977508,8.5456074,488.104,0.0,0.0,0.0,0.0,0.0,0,0,0,0
10748000,0,47.3977508,8.5456074,488.104,0.0,0.0,0.0,0.0,0.0,0,0,0,0
10848000,0,47.3977508,8.5456074,488.104,0.0,0.0,0.0,0.0,0.0,0,0,0,0
10948000,0,47.3977508,8.5456074,488.104,0.0,0.0,0.0,0.0,0.0,0,0,0,0
11048000,0,47.3977508,8.5456074,488.104,0.0,0.0,0.0,0.0,0.0,0,0,0,0
11148000,0,47.3977508,8.5456074,488.104,0.0,0.0,0.0,0.0,0.0,0,0,0,0
11248000,0,47.3977508,8.5456074,488.104,0.0,0.0,0.0,0.0,0.0,0,0,0,0
11348000,0,47.3977508,8.5456074,488.104,0.0,0.0,0.0,0.0,0.0,0,0,0,0
11448000,0,47.3977508,8.5456074,488.104,0.0,0.0,0.0,0.0,0.0,0,0,0,0
11548000,0,47.3977508,8.5456074,488.104,0.0,0.0,0.0,0.0,0.0,0,0,0,0
11648000,0,47.3977508,8.5456074,488.104,0.0,0.0,0.0,0.0,0.0,0,0,0,0
11748000,0,47.3977508,8.5456074,488.104,0.0,0.0,0.0,0.0,0.0,0,0,0,0
11848000,0,47.3977508,8.5456074,488.104,0.0,0.0,0.0,0.0,0.0,0,0,0,0
11948000,0,47.3977508,8.5456074,488.104,0.0,0.0,0.0,0.0,0.0,0,0,0,0
12048000,0,47.3977508,8.5456074,488.104,0.0,0.0,0.0,0.0,0.0,0,0,0,0
12148000,0,47.3977508,8.5456074,488.104,0.0,0.0,0.0,0.0,0.0,0,0,0,0
12248000,0,47.3977508,8.5456074,488.104,0.0,0.0,0.0,0.0,0.0,0,0,0,0
12348000,0,47.3977508,8.5456074,488.104,0.0,0.0,0.0,0.0,0.0,0,0,0,0
12448000,0,47.3977508,8.5456074,488.104,0.0,0.0,0.0,0.0,0.0,0,0,0,0
12548000,0,47.3977508,8.5456074,488.104,0.0,0.0,0.0,0.0,0.0,0,0,0,0
12648000,0,47.3977508,8.5456074,488.104,0.0,0.0,0.0,0.0,0.0,0,0,0,0
12748000,0,47.3977508,8.5456074,488.104,0.0,0.0,0.0,0.0,0.0,0,0,0,0
12848000,0,47.3977508,8.5456074,488.104,0.0,0.0,0.0,0.0,0.0,0,0,0,0
12948000,0,47.3977508,8.5456074,488.104,0.0,0.0,0.0,0.0,0.0,0,0,0,0
13048000,0,47.3977508,8.5456074,488.104,0.0,0.0,0.0,0.0,0.0,0,0,0,0
13148000,0,47.3977508,8.5456074,488.104,0.0,0.0,0.0,0.0,0.0,0,0,0,0
13248000,0,47.3977508,8.5456074,488.104,0.0,0.0,0.0,0.0,0.0,0,0,0,0
13348000,0,47.3977508,8.5456074,488.104,0.0,0.0,0.0,0.0,0.0,0,0,0,0
13448000,0,47.3977508,8.5456074,488.104,0.0,0.0,0.0,0.0,0.0,0,0,0,0
13548000,0,47.3977508,8.5456074,488.104,0.0,0.0,0.0,0.0,0.0,0,0,0,0
13648000,0,47.3977508,8.5456074,488.104,0.0,0.0,0.0,0.0,0.0,0,0,0,0
13748000,0,47.3977508,8.5456074,488.104,0.0,0.0,0.0,0.0,0.0,0,0,0,0
13848000,0,47.3977508,8.5456074,488.104,0.0,0.0,0.0,0.0,0.0,0,0,0,0
13948000,0,47.3977508,8.5456074,488.104,0.0,0.0,0.0,0.0,0.0,0,0,0,0
14048000,0,47.3977508,8.5456074,488.104,0.0,0.0,0.0,0.0,0.0,0,0,0,0
14148000,0,47.3977508,8.5456074,488.104,0.0,0.0,0.0,0.0,0.0,0,0,0,0
14248000,0,47.3977508,8.5456074,488.104,0.0,0.0,0.0,0.0,0.0,0,0,0,0
14348000,0,47.3977508,8.5456074,488.104,0.0,0.0,0.0,0.0,0.0,0,0,0,0
14448000,0,47.3977508,8.5456074,488.104,0.0,0.0,0.0,0.0,0.0,0,0,0,0
14548000,0,47.3977508,8.5456074,488.104,0.0,0.0,0.0,0.0,0.0,0,0,0,0
14648000,0,47.3977508,8.5456074,488.104,0.0,0.0,0.0,0.0,0.0,0,0,0,0
14748000,0,47.3977508,8.5456074,488.104,0.0,0.0,0.0,0.0,0.0,0,0,0,0
14848000,0,47.3977508,8.5456074,488.104,0.0,0.0,0.0,0.0,0.0,0,0,0,0
14948000,0,47.3977508,8.5456074,488.104,0.0,0.0,0.0,0.0,0.0,0,0,0,0
15048000,0,47.3977508,8.5456074,488.104,0.0,0.0,0.0,0.0,0.0,0,0,0,0
15148000,0,47.3977508,8.5456074,488.104,0.0,0.0,0.0,0.0,0.0,0,0,0,0
15248000,0,47.3977508,8.5456074,488.104,0.0,0.0,0.0,0.0,0.0,0,0,0,0
15348000,0,47.3977508,8.5456074,488.104,0.0,0.0,0.0,0.0,0.0,0,0,0,0
15448000,0,47.3977508,8.5456074,488.104,0.0,0.0,0.0,0.0,0.0,0,0,0,0
15548000,0,47.3977508,8.5456074,488.104,0.0,0.0,0.0,0.0,0.0,0,0,0,0
15648000,0,47.3977508,8.5456074,488.104,0.0,0.0,0.0,0.0,0.0,0,0,0,0
15748000,0,47.3977508,8.5456074,488.104,0.0,0.0,0.0,0.0,0.0,0,0,0,0
15848000,0,47.3977508,8.5456074,488.104,0.0,0.0,0.0,0.0,0.0,0,0,0,0
15948000,0,47.3977508,8.5456074,488.104,0.0,0.0,0.0,0.0,0.0,0,0,0,0
16048000,0,47.3977508,8.5456074,488.104,0.0,0.0,0.0,0.0,0.0,0,0,0,0
16148000,0,47.3977508,8.5456074,488.104,0.0,0.0,0.0,0.0,0.0,0,0,0,0
16248000,0,47.3977508,8.5456074,488.104,0.0,0.0,0.0,0.0,0.0,0,0,0,0
16348000,0,47.3977508,8.5456074,488.104,0.0,0.0,0.0,0.0,0.0,0,0,0,0
16448000,0,47.3977508,8.5456074,488.104,0.0,0.0,0.0,0.0,0.0,0,0,0,0
16548000,0,47.3977508,8.5456074,488.104,0.0,0.0,0.0,0.0,0.0,0,0,0,0
16648000,0,47.3977508,8.5456074,488.104,0.0,0.0,0.0,0.0,0.0,0,0,0,0
16748000,0,47.3977508,8.5456074,488.104,0.0,0.0,0.0,0.0,0.0,0,0,0,0
16848000,0,47.3977508,8.5456074,488.104,0.0,0.0,0.0,0.0,0.0,0,0,0,0
16948000,0,47.3977508,8.5456074,488.104,0.0,0.0,0.0,0.0,0.0,0,0,0,0
17048000,0,47.3977508,8.5456074,488.104,0.0,0.0,0.0,0.0,0.0,0,0,0,0
17148000,0,47.3977508,8.5456074,488.104,0.0,0.0,0.0,0.0,0.0,0,0,0,0
17248000,0,47.3977508,8.5456074,488.104,0.0,0.0,0.0,0.0,0.0,0,0,0,0
17348000,0,47.3977508,8.5456074,488.104,0.0,0.0,0.0,0.0,0.0,0,0,0,0
17448000,0,47.3977508,8.5456074,488.104,0.0,0.0,0.0,0.0,0.0,0,0,0,0
17548000,0,47.3977508,8.5456074,488.104,0.0,0.0,0.0,0.0,0.0,0,0,0,0
17648000,0,47.3977508,8.5456074,488.104,0.0,0.0,0.0,0.0,0.0,0,0,0,0
17748000,0,47.3977508,8.5456074,488.104,0.0,0.0,0.0,0.0,0.0,0,0,0,0
17848000,0,47.3977508,8.5456074,488.104,0.0,0.0,0.0,0.0,0.0,0,0,0,0
17948000,0,47.3977508,8.5456074,488.104,0.0,0.0,0.0,0.0,0.0,0,0,0,0
18048000,0,47.3977508,8.5456074,488.104,0.0,0.0,0.0,0.0,0.0,0,0,0,0
18148000,0,47.3977508,8.5456074,488.104,0.0,0.0,0.0,0.0,0.0,0,0,0,0
18248000,0,47.3977508,8.5456074,488.104,0.0,0.0,0.0,0.0,0.0,0,0,0,0
18348000,0,47.3977508,8.5456074,488.104,0.0,0.0,0.0,0.0,0.0,0,0,0,0
18448000,0,47.3977508,8.5456074,488.104,0.0,0.0,0.0,0.0,0.0,0,0,0,0
18548000,0,47.3977508,8.5456074,488.104,0.0,0.0,0.0,0.0,0.0,0,0,0,0
18648000,0,47.3977508,8.5456074,488.104,0.0,0.0,0.0,0.0,0.0,0,0,0,0
18748000,0,47.3977508,8.5456074,488.104,0.0,0.0,0.0,0.0,0.0,0,0,0,0
18848000,0,47.3977508,8.5456074,488.104,0.0,0.0,0.0,0.0,0.0,0,0,0,0
18948000,0,47.3977508,8.5456074,488.104,0.0,0.0,0.0,0.0,0.0,0,0,0,0
19048000,0,47.3977508,8.5456074,488.104,0.0,0.0,0.0,0.0,0.0,0,0,0,0
19148000,0,47.3977508,8.5456074,488.104,0.0,0.0,0.0,0.0,0.0,0,0,0,0
19248000,0,47.3977508,8.5456074,488.104,0.0,0.0,0.0,0.0,0.0,0,0,0,0
19348000,0,47.3977508,8.5456074,488.104,0.0,0.0,0.0,0.0,0.0,0,0,0,0
19448000,0,47.3977508,8.5456074,488.104,0.0,0.0,0.0,0.0,0.0,0,0,0,0
19548000,0,47.3977508,8.5456074,488.104,0.0,0.0,0.0,0.0,0.0,0,0,0,0
19648000,0,47.3977508,8.5456074,488.104,0.0,0.0,0.0,0.0,0.0,0,0,0,0
19748000,0,47.3977508,8.5456074,488.104,0.0,0.0,0.0,0.0,0.0,0,0,0,0
19848000,0,47.3977508,8.5456074,488.104,0.0,0.0,0.0,0.0,0.0,0,0,0,0
19948000,0,47.3977508,8.5456074,488.104,0.0,0.0,0.0,0.0,0.0,0,0,0,0
20048000,0,47.3977508,8.5456074,488.104,0.0,0.0,0.0,0.0,0.0,0,0,0,0
20148000,0,47.3977508,8.5456074,488.104,0.0,0.0,0.0,0.0,0.0,0,0,0,0
20248000,0,47.3977508,8.5456074,488.104,0.0,0.0,0.0,0.0,0.0,0,0,0,0
20348000,0,47.3977508,8.5456074,488.104,0.0,0.0,0.0,0.0,0.0,0,0,0,0
20448000,0,47.3977508,8.5456074,488.104,0.0,0.0,0.0,0.0,0.0,0,0,0,0
20548000,0,47.3977508,8.5456074,488.104,0.0,0.0,0.0,0.0,0.0,0,0,0,0
20648000,0,47.3977508,8.5456074,488.104,0.0,0.0,0.0,0.0,0.0,0,0,0,0
20748000,0,47.3977508,8.5456074,488.104,0.0,0.0,0.0,0.0,0.0,0,0,0,0
20848000,0,47.3977508,8.5456074,488.104,0.0,0.0,0.0,0.0,0.0,0,0,0,0
20948000,0,47.3977508,8.5456074,488.104,0.0,0.0,0.0,0.0,0.0,0,0,0,0
21048000,0,47.3977508,8.5456074,488.104,0.0,0.0,0.0,0.0,0.0,0,0,0,0
21148000,0,47.3977508,8.5456074,488.104,0.0,0.0,0.0,0.0,0.0,0,0,0,0
21248000,0,47.3977508,8.5456074,488.104,0.0,0.0,0.0,0.0,0.0,0,0,0,0
21348000,0,47.3977508,8.5456074,488.104,0.0,0.0,0.0,0.0,0.0,0,0,0,0
21448000,0,47.3977508,8.5456074,488.104,0.0,0.0,0.0,0.0,0.0,0,0,0,0
21548000,0,47.3977508,8.5456074,488.104,0.0,0.0,0.0,0.0,0.0,0,0,0,0
21648000,0,47.3977508,8.5456074,488.104,0.0,0.0,0.0,0.0,0.0,0,0,0,0
21748000,0,47.3977508,8.5456074,488.104,0.0,0.0,0.0,0.0,0.0,0,0,0,0
21848000,0,47.3977508,8.5456074,488.104,0.0,0.0,0.0,0.0,0.0,0,0,0,0
21948000,0,47.3977508,8.5456074,488.104,0.0,0.0,0.0,0.0,0.0,0,0,0,0
22048000,0,47.3977508,8.5456074,488.104,0.0,0.0,0.0,0.0,0.0,0,0,0,0
22148000,0,47.3977508,8.5456074,488.104,0.0,0.0,0.0,0.0,0.0,0,0,0,0
22248000,0,47.3977508,8.5456074,488.104,0.0,0.0,0.0,0.0,0.0,0,0,0,0
22348000,0,47.3977508,8.5456074,488.104,0.0,0.0,0.0,0.0,0.0,0,0,0,0
22448000,0,47.3977508,8.5456074,488.104,0.0,0.0,0.0,0.0,0.0,0,0,0,0
22548000,0,47.3977508,8.5456074,488.104,0.0,0.0,0.0,0.0,0.0,0,0,0,0
22648000,0,47.3977508,8.5456074,488.104,0.0,0.0,0.0,0.0,0.0,0,0,0,0
22748000,0,47.3977508,8.5456074,488.104,0.0,0.0,0.0,0.0,0.0,0,0,0,0
22848000,0,47.3977508,8.5456074,488.104,0.0,0.0,0.0,0.0,0.0,0,0,0,0
22948000,0,47.3977508,8.5456074,488.104,0.0,0.0,0.0,0.0,0.0,0,0,0,0
23048000,0,47.3977508,8.5456074,488.104,0.0,0.0,0.0,0.0,0.0,0,0,0,0
23148000,0,47.3977508,8.5456074,488.104,0.0,0.0,0.0,0.0,0.0,0,0,0,0
23248000,0,47.3977508,8.5456074,488.104,0.0,0.0,0.0,0.0,0.0,0,0,0,0
23348000,0,47.3977508,8.5456074,488.104,0.0,0.0,0.0,0.0,0.0,0,0,0,0
23448000,0,47.3977508,8.5456074,488.104,0.0,0.0,0.0,0.0,0.0,0,0,0,0
23548000,0,47.3977508,8.5456074,488.104,0.0,0.0,0.0,0.0,0.0,0,0,0,0
23648000,0,47.3977508,8.5456074,488.104,0.0,0.0,0.0,0.0,0.0,0,0,0,0
23748000,0,47.3977508,8.5456074,488.104,0.0,0.0,0.0,0.0,0.0,0,0,0,0
23848000,0,47.3977508,8.5456074,488.104,0.0,0.0,0.0,0.0,0.0,0,0,0,0
23948000,0,47.3977508,8.5456074,488.104,0.0,0.0,0.0,0.0,0.0,0,0,0,0
24048000,0,47.3977508,8.5456074,488.104,0.0,0.0,0.0,0.0,0.0,0,0,0,0
24148000,0,47.3977508,8.5456074,488.104,0.0,0.0,0.0,0.0,0.0,0,0,0,0
24248000,0,47.3977508,8.5456074,488.104,0.0,0.0,0.0,0.0,0.0,0,0,0,0
24348000,0,47.3977508,8.5456074,488.104,0.0,0.0,0.0,0.0,0.0,0,0,0,0
24448000,0,47.3977508,8.5456074,488.104,0.0,0.0,0.0,0.0,0.0,0,0,0,0
24548000,0,47.3977508,8.5456074,488.104,0.0,0.0,0.0,0.0,0.0,0,0,0,0
24648000,0,47.3977508,8.5456074,488.104,0.0,0.0,0.0,0.0,0.0,0,0,0,0
24748000,0,47.3977508,8.5456074,488.104,0.0,0.0,0.0,0.0,0.0,0,0,0,0
24848000,0,47.3977508,8.5456074,488.104,0.0,0.0,0.0,0.0,0.0,0,0,0,0
24948000,0,47.3977508,8.5456074,488.104,0.0,0.0,0.0,0.0,0.0,0,0,0,0
25048000,0,47.3977508,8.5456074,488.104,0.0,0.0,0.0,0.0,0.0,0,0,0,0
25148000,0,47.3977508,8.5456074,488.104,0.0,0.0,0.0,0.0,0.0,0,0,0,0
25248000,0,47.3977508,8.5456074,488.104,0.0,0.0,0.0,0.0,0.0,0,0,0,0
25348000,0,47.3977508,8.5456074,488.104,0.0,0.0,0.0,0.0,0.0,0,0,0,0
25448000,0,47.3977508,8.5456074,488.104,0.0,0.0,0.0,0.0,0.0,0,0,0,0
25548000,0,47.3977508,8.5456074,488.104,0.0,0.0,0.0,0.0,0.0,0,0,0,0
25648000,0,47.3977508,8.5456074,488.104,0.0,0.0,0.0,0.0,0.0,0,0,0,0
25748000,0,47.3977508,8.5456074,488.104,0.0,0.0,0.0,0.0,0.0,0,0,0,0
25848000,0,47.3977508,8.5456074,488.104,0.0,0.0,0.0,0.0,0.0,0,0,0,0
25948000,0,47.3977508,8.5456074,488.104,0.0,0.0,0.0,0.0,0.0,0,0,0,0
26048000,0,47.3977508,8.5456074,488.104,0.0,0.0,0.0,0.0,0.0,0,0,0,0
26148000,0,47.3977508,8.5456074,488.104,0.0,0.0,0.0,0.0,0.0,0,0,0,0
26248000,0,47.3977508,8.5456074,488.104,0.0,0.0,0.0,0.0,0.0,0,0,0,0
26348000,0,47.3977508,8.5456074,488.104,0.0,0.0,0.0,0.0,0.0,0,0,0,0
26448000,0,47.3977508,8.5456074,488.104,0.0,0.0,0.0,0.0,0.0,0,0,0,0
26548000,0,47.3977508,8.5456074,488.104,0.0,0.0,0.0,0.0,0.0,0,0,0,0
26648000,0,47.3977508,8.5456074,488.104,0.0,0.0,0.0,0.0,0.0,0,0,0,0
26748000,0,47.3977508,8.5456074,488.104,0.0,0.0,0.0,0.0,0.0,0,0,0,0
26848000,0,47.3977508,8.5456074,488.104,0.0,0.0,0.0,0.0,0.0,0,0,0,0
26948000,0,47.3977508,8.5456074,488.104,0.0,0.0,0.0,0.0,0.0,0,0,0,0
27048000,0,47.3977508,8.5456074,488.104,0.0,0.0,0.0,0.0,0.0,0,0,0,0
27148000,0,47.3977508,8.5456074,488.104,0.0,0.0,0.0,0.0,0.0,0,0,0,0
27248000,0,47.3977508,8.5456074,488.104,0.0,0.0,0.0,0.0,0.0,0,0,0,0
27348000,0,47.3977508,8.5456074,488.104,0.0,0.0,0.0,0.0,0.0,0,0,0,0
27448000,0,47.3977508,8.5456074,488.104,0.0,0.0,0.0,0.0,0.0,0,0,0,0
27548000,0,47.3977508,8.5456074,488.104,0.0,0.0,0.0,0.0,0.0,0,0,0,0
27648000,0,47.3977508,8.5456074,488.104,0.0,0.0,0.0,0.0,0.0,0,0,0,0
27748000,0,47.3977508,8.5456074,488.104,0.0,0.0,0.0,0.0,0.0,0,0,0,0
27848000,0,47.3977508,8.5456074,488.104,0.0,0.0,0.0,0.0,0.0,0,0,0,0
27948000,0,47.3977508,8.5456074,488.104,0.0,0.0,0.0,0.0,0.0,0,0,0,0
28048000,0,47.3977508,8.5456074,488.104,0.0,0.0,0.0,0.0,0.0,0,0,0,0
28148000,0,47.3977508,8.5456074,488.104,0.0,0.0,0.0,0.0,0.0,0,0,0,0
28248000,0,47.3977508,8.5456074,488.104,0.0,0.0,0.0,0.0,0.0,0,0,0,0
28348000,0,47.3977508,8.5456074,488.104,0.0,0.0,0.0,0.0,0.0,0,0,0,0
28448000,0,47.3977508,8.5456074,488.104,0.0,0.0,0.0,0.0,0.0,0,0,0,0
28548000,0,47.3977508,8.5456074,488.104,0.0,0.0,0.0,0.0,0.0,0,0,0,0
28648000,0,47.3977508,8.5456074,488.104,0.0,0.0,0.0,0.0,0.0,0,0,0,0
28748000,0,47.3977508,8.5456074,488.104,0.0,0.0,0.0,0.0,0.0,0,0,0,0
28848000,0,47.3977508,8.5456074,488.104,0.0,0.0,0.0,0.0,0.0,0,0,0,0
28948000,0,47.3977508,8.5456074,488.104,0.0,0.0,0.0,0.0,0.0,0,0,0,0
29048000,0,47.3977508,8.5456074,488.104,0.0,0.0,0.0,0.0,0.0,0,0,0,0
29148000,0,47.3977508,8.5456074,488.104,0.0,0.0,0.0,0.0,0.0,0,0,0,0
29248000,0,47.3977508,8.5456074,488.104,0.0,0.0,0.0,0.0,0.0,0,0,0,0
29348000,0,47.3977508,8.5456074,488.104,0.0,0.0,0.0,0.0,0.0,0,0,0,0
29448000,0,47.3977508,8.5456074,488.104,0.0,0.0,0.0,0.0,0.0,0,0,0,0
29548000,0,47.3977508,8.5456074,488.104,0.0,0.0,0.0,0.0,0.0,0,0,0,0
29648000,0,47.3977508,8.5456074,488.104,0.0,0.0,0.0,0.0,0.0,0,0,0,0
29748000,0,47.3977508,8.5456074,488.104,0.0,0.0,0.0,0.0,0.0,0,0,0,0
29848000,0,47.3977508,8.5456074,488.104,0.0,0.0,0.0,0.0,0.0,0,0,0,0
29948000,0,47.3977508,8.5456074,488.104,0.0,0.0,0.0,0.0,0.0,0,0,0,0
30048000,0,47.3977508,8.5456074,488.104,0.0,0.0,0.0,0.0,0.0,0,0,0,0
30148000,0,47.3977508,8.5456074,488.104,0.0,0.0,0.0,0.0,0.0,0,0,0,0
30248000,0,47.3977508,8.5456074,488.104,0.0,0.0,0.0,0.0,0.0,0,0,0,0
30348000,0,47.3977508,8.5456074,488.104,0.0,0.0,0.0,0.0,0.0,0,0,0,0
30448000,0,47.3977508,8.5456074,488.104,0.0,0.0,0.0,0.0,0.0,0,0,0,0
30548000,0,47.3977508,8.5456074,488.104,0.0,0.0,0.0,0.0,0.0,0,0,0,0
30648000,0,47.3977508,8.5456074,488.104,0.0,0.0,0.0,0.0,0.0,0,0,0,0
30748000,0,47.3977508,8.5456074,488.104,0.0,0.0,0.0,0.0,0.0,0,0,0,0
30848000,0,47.3977508,8.5456074,488.104,0.0,0.0,0.0,0.0,0.0,0,0,0,0
30948000,0,47.3977508,8.5456074,488.104,0.0,0.0,0.0,0.0,0.0,0,0,0,0
31048000,0,47.3977508,8.5456074,488.104,0.0,0.0,0.0,0.0,0.0,0,0,0,0
31148000,0,47.3977508,8.5456074,488.104,0.0,0.0,0.0,0.0,0.0,0,0,0,0
31248000,0,47.3977508,8.5456074,488.104,0.0,0.0,0.0,0.0,0.0,0,0,0,0
31348000,0,47.3977508,8.5456074,488.104,0.0,0.0,0.0,0.0,0.0,0,0,0,0
31448000,0,47.3977508,8.5456074,488.104,0.0,0.0,0.0,0.0,0.0,0,0,0,0
31548000,0,47.3977508,8.5456074,488.104,0.0,0.0,0.0,0.0,0.0,0,0,0,0
31648000,0,47.3977508,8.5456074,488.104,0.0,0.0,0.0,0.0,0.0,0,0,0,0
31748000,0,47.3977508,8.5456074,488.104,0.0,0.0,0.0,0.0,0.0,0,0,0,0
31848000,0,47.3977508,8.5456074,488.104,0.0,0.0,0.0,0.0,0.0,0,0,0,0
31948000,0,47.3977508,8.5456074,488.104,0.0,0.0,0.0,0.0,0.0,0,0,0,0
32048000,0,47.3977508,8.5456074,488.104,0.0,0.0,0.0,0.0,0.0,0,0,0,0
32148000,0,47.3977508,8.5456074,488.104,0.0,0.0,0.0,0.0,0.0,0,0,0,0
32248000,0,47.3977508,8.5456074,488.104,0.0,0.0,0.0,0.0,0.0,0,0,0,0
32348000,0,47.3977508,8.5456074,488.104,0.0,0.0,0.0,0.0,0.0,0,0,0,0
32448000,0,47.3977508,8.5456074,488.104,0.0,0.0,0.0,0.0,0.0,0,0,0,0
32548000,0,47.3977508,8.5456074,488.104,0.0,0.0,0.0,0.0,0.0,0,0,0,0
32648000,0,47.3977508,8.5456074,488.104,0.0,0.0,0.0,0.0,0.0,0,0,0,0
32748000,0,47.3977508,8.5456074,488.104,0.0,0.0,0.0,0.0,0.0,0,0,0,0
32848000,0,47.3977508,8.5456074,488.104,0.0,0.0,0.0,0.0,0.0,0,0,0,0
32948000,0,47.3977508,8.5456074,488.104,0.0,0.0,0.0,0.0,0.0,0,0,0,0
33048000,0,47.3977508,8.5456074,488.104,0.0,0.0,0.0,0.0,0.0,0,0,0,0
33148000,0,47.3977508,8.5456074,488.104,0.0,0.0,0.0,0.0,0.0,0,0,0,0
33248000,0,47.3977508,8.5456074,488.104,0.0,0.0,0.0,0.0,0.0,0,0,0,0
33348000,0,47.3977508,8.5456074,488.104,0.0,0.0,0.0,0.0,0.0,0,0,0,0
33448000,0,47.3977508,8.5456074,488.104,0.0,0.0,0.0,0.0,0.0,0,0,0,0
33548000,0,47.3977508,8.5456074,488.104,0.0,0.0,0.0,0.0,0.0,0,0,0,0
33648000,0,47.3977508,8.5456074,488.104,0.0,0.0,0.0,0.0,0.0,0,0,0,0
33748000,0,47.3977508,8.5456074,488.104,0.0,0.0,0.0,0.0,0.0,0,0,0,0
33848000,0,47.3977508,8.5456074,488.104,0.0,0.0,0.0,0.0,0.0,0,0,0,0
33948000,0,47.3977508,8.5456074,488.104,0.0,0.0,0.0,0.0,0.0,0,0,0,0
34048000,0,47.3977508,8.5456074,488.104,0.0,0.0,0.0,0.0,0.0,0,0,0,0
34148000,0,47.3977508,8.5456074,488.104,0.0,0.0,0.0,0.0,0.0,0,0,0,0
34248000,0,47.3977508,8.5456074,488.104,0.0,0.0,0.0,0.0,0.0,0,0,0,0
34348000,0,47.3977508,8.5456074,488.104,0.0,0.0,0.0,0.0,0.0,0,0,0,0
34448000,0,47.3977508,8.5456074,488.104,0.0,0.0,0.0,0.0,0.0,0,0,0,0
34548000,0,47.3977508,8.5456074,488.104,0.0,0.0,0.0,0.0,0.0,0,0,0,0
34648000,0,47.3977508,8.5456074,488.104,0.0,0.0,0.0,0.0,0.0,0,0,0,0
34748000,0,47.3977508,8.5456074,488.104,0.0,0.0,0.0,0.0,0.0,0,0,0,0
34848000,0,47.3977508,8.5456074,488.106,0.0,0.0,0.0,0.0,0.0,0,0,0,0
34948000,0,47.3977508,8.5456074,488.11,0.0,0.0,0.0,0.0,0.0,0,0,0,0
35048000,0,47.3977508,8.5456074,488.118,0.0,0.0,0.0,0.0,0.0,0,0,0,0
35148000,0,47.397750699999996,8.5456074,488.127,0.0,0.0,0.0,0.0,0.0,0,0,0,0
35248000,0,47.397750599999995,8.5456074,488.141,0.0,0.0,0.0,0.0,0.0,0,0,0,0
35348000,0,47.3977504,8.5456074,488.163,0.0,0.0,0.0,0.0,0.0,0,0,0,0
35448000,0,47.397750099999996,8.5456073,488.193,0.0,0.0,0.0,0.0,0.0,0,0,0,0
35548000,0,47.3977499,8.5456072,488.233,0.0,0.0,0.0,0.0,0.0,0,0,0,0
35648000,0,47.3977496,8.5456072,488.279,0.0,0.0,0.0,0.0,0.0,0,0,0,0
35748000,0,47.397749399999995,8.5456071,488.339,0.0,0.0,0.0,0.0,0.0,0,0,0,0
35848000,0,47.3977491,8.545607,488.406,0.0,0.0,0.0,0.0,0.0,0,0,0,0
35948000,0,47.397748899999996,8.545607,488.478,0.0,0.0,0.0,0.0,0.0,0,0,0,0
36048000,0,47.3977487,8.5456069,488.562,0.0,0.0,0.0,0.0,0.0,0,0,0,0
36148000,0,47.3977486,8.5456069,488.645,0.0,0.0,0.0,0.0,0.0,0,0,0,0
36248000,0,47.3977484,8.5456069,488.731,0.0,0.0,0.0,0.0,0.0,0,0,0,0
36348000,0,47.397748299999996,8.5456068,488.818,0.0,0.0,0.0,0.0,0.0,0,0,0,0
36448000,0,47.397748199999995,8.5456068,488.909,0.0,0.0,0.0,0.0,0.0,0,0,0,0
36548000,0,47.397748199999995,8.5456068,489.003,0.0,0.0,0.0,0.0,0.0,0,0,0,0
36648000,0,47.3977481,8.5456068,489.095,0.0,0.0,0.0,0.0,0.0,0,0,0,0
36748000,0,47.3977481,8.5456068,489.198,0.0,0.0,0.0,0.0,0.0,0,0,0,0
36848000,0,47.3977481,8.5456068,489.296,0.0,0.0,0.0,0.0,0.0,0,0,0,0
36948000,0,47.397748199999995,8.5456068,489.4,0.0,0.0,0.0,0.0,0.0,0,0,0,0
37048000,0,47.397748199999995,8.5456068,489.511,0.0,0.0,0.0,0.0,0.0,0,0,0,0
37148000,0,47.397748299999996,8.5456068,489.62,0.0,0.0,0.0,0.0,0.0,0,0,0,0
37248000,0,47.3977484,8.5456069,489.732,0.0,0.0,0.0,0.0,0.0,0,0,0,0
37348000,0,47.3977484,8.5456069,489.845,0.0,0.0,0.0,0.0,0.0,0,0,0,0
37448000,0,47.3977485,8.5456069,489.956,0.0,0.0,0.0,0.0,0.0,0,0,0,0
37548000,0,47.3977486,8.545607,490.078,0.0,0.0,0.0,0.0,0.0,0,0,0,0
37648000,0,47.397748799999995,8.545607,490.198,0.0,0.0,0.0,0.0,0.0,0,0,0,0
37748000,0,47.397748899999996,8.545607,490.319,0.0,0.0,0.0,0.0,0.0,0,0,0,0
37848000,0,47.397749,8.5456071,490.442,0.0,0.0,0.0,0.0,0.0,0,0,0,0
37948000,0,47.3977491,8.5456071,490.566,0.0,0.0,0.0,0.0,0.0,0,0,0,0
38048000,0,47.3977492,8.5456072,490.688,0.0,0.0,0.0,0.0,0.0,0,0,0,0
38148000,0,47.3977493,8.5456072,490.815,0.0,0.0,0.0,0.0,0.0,0,0,0,0
38248000,0,47.397749399999995,8.5456072,490.95,0.0,0.0,0.0,0.0,0.0,0,0,0,0
38348000,0,47.397749499999996,8.5456073,491.08,0.0,0.0,0.0,0.0,0.0,0,0,0,0
38448000,0,47.3977496,8.5456073,491.213,0.0,0.0,0.0,0.0,0.0,0,0,0,0
38548000,0,47.3977497,8.5456073,491.346,0.0,0.0,0.0,0.0,0.0,0,0,0,0
38648000,0,47.3977498,8.5456073,491.48,0.0,0.0,0.0,0.0,0.0,0,0,0,0
38748000,0,47.3977499,8.5456074,491.616,0.0,0.0,0.0,0.0,0.0,0,0,0,0
38848000,0,47.397749999999995,8.5456074,491.753,0.0,0.0,0.0,0.0,0.0,0,0,0,0
38948000,0,47.397750099999996,8.5456073,491.892,0.0,0.0,0.0,0.0,0.0,0,0,0,0
39048000,0,47.397750099999996,8.5456073,492.026,0.0,0.0,0.0,0.0,0.0,0,0,0,0
39148000,0,47.3977502,8.5456073,492.166,0.0,0.0,0.0,0.0,0.0,0,0,0,0
39248000,0,47.3977503,8.5456073,492.313,0.0,0.0,0.0,0.0,0.0,0,0,0,0
39348000,0,47.3977504,8.5456073,492.45,0.0,0.0,0.0,0.0,0.0,0,0,0,0
39448000,0,47.3977505,8.5456073,492.6,0.0,0.0,0.0,0.0,0.0,0,0,0,0
39548000,0,47.3977505,8.5456073,492.738,0.0,0.0,0.0,0.0,0.0,0,0,0,0
39648000,0,47.397750599999995,8.5456072,492.89,0.0,0.0,0.0,0.0,0.0,0,0,0,0
39748000,0,47.397750599999995,8.5456072,493.036,0.0,0.0,0.0,0.0,0.0,0,0,0,0
39848000,0,47.397750699999996,8.5456072,493.183,0.0,0.0,0.0,0.0,0.0,0,0,0,0
39948000,0,47.397750699999996,8.5456072,493.324,0.0,0.0,0.0,0.0,0.0,0,0,0,0
40048000,0,47.3977508,8.5456071,493.473,0.0,0.0,0.0,0.0,0.0,0,0,0,0
40148000,0,47.3977508,8.5456071,493.628,0.0,0.0,0.0,0.0,0.0,0,0,0,0
40248000,0,47.3977508,8.5456071,493.777,0.0,0.0,0.0,0.0,0.0,0,0,0,0
40348000,0,47.3977509,8.5456071,493.928,0.0,0.0,0.0,0.0,0.0,0,0,0,0
40448000,0,47.3977509,8.545607,494.079,0.0,0.0,0.0,0.0,0.0,0,0,0,0
40548000,0,47.3977509,8.545607,494.231,0.0,0.0,0.0,0.0,0.0,0,0,0,0
40648000,0,47.3977509,8.545607,494.383,0.0,0.0,0.0,0.0,0.0,0,0,0,0
40748000,0,47.3977509,8.545607,494.529,0.0,0.0,0.0,0.0,0.0,0,0,0,0
40848000,0,47.3977509,8.5456069,494.689,0.0,0.0,0.0,0.0,0.0,0,0,0,0
40948000,0,47.3977509,8.5456069,494.843,0.0,0.0,0.0,0.0,0.0,0,0,0,0
41048000,0,47.3977509,8.5456069,494.997,0.0,0.0,0.0,0.0,0.0,0,0,0,0
41148000,0,47.3977509,8.5456069,495.152,0.0,0.0,0.0,0.0,0.0,0,0,0,0
41248000,0,47.3977509,8.5456069,495.307,0.0,0.0,0.0,0.0,0.0,0,0,0,0
41348000,0,47.3977509,8.5456069,495.457,0.0,0.0,0.0,0.0,0.0,0,0,0,0
41448000,0,47.3977509,8.5456069,495.619,0.0,0.0,0.0,0.0,0.0,0,0,0,0
41548000,0,47.3977509,8.5456069,495.774,0.0,0.0,0.0,0.0,0.0,0,0,0,0
41648000,0,47.3977509,8.5456069,495.924,0.0,0.0,0.0,0.0,0.0,0,0,0,0
41748000,0,47.3977509,8.5456069,496.062,0.0,0.0,0.0,0.0,0.0,0,0,0,0
41848000,0,47.3977509,8.5456069,496.206,0.0,0.0,0.0,0.0,0.0,0,0,0,0
41948000,0,47.3977508,8.5456069,496.34,0.0,0.0,0.0,0.0,0.0,0,0,0,0
42048000,0,47.3977508,8.5456069,496.47,0.0,0.0,0.0,0.0,0.0,0,0,0,0
42148000,0,47.3977508,8.5456069,496.59,0.0,0.0,0.0,0.0,0.0,0,0,0,0
42248000,0,47.3977508,8.5456069,496.712,0.0,0.0,0.0,0.0,0.0,0,0,0,0
42348000,0,47.3977508,8.5456069,496.833,0.0,0.0,0.0,0.0,0.0,0,0,0,0
42448000,0,47.3977508,8.545607,496.946,0.0,0.0,0.0,0.0,0.0,0,0,0,0
42548000,0,47.3977508,8.545607,497.05,0.0,0.0,0.0,0.0,0.0,0,0,0,0
42648000,0,47.3977508,8.545607,497.157,0.0,0.0,0.0,0.0,0.0,0,0,0,0
42748000,0,47.3977508,8.545607,497.256,0.0,0.0,0.0,0.0,0.0,0,0,0,0
42848000,0,47.3977508,8.545607,497.346,0.0,0.0,0.0,0.0,0.0,0,0,0,0
42948000,0,47.397750699999996,8.545607,497.439,0.0,0.0,0.0,0.0,0.0,0,0,0,0
43048000,0,47.397750699999996,8.545607,497.524,0.0,0.0,0.0,0.0,0.0,0,0,0,0
43148000,0,47.397750699999996,8.545607,497.6,0.0,0.0,0.0,0.0,0.0,0,0,0,0
43248000,0,47.3977508,8.545607,497.67,0.0,0.0,0.0,0.0,0.0,0,0,0,0
43348000,0,47.3977508,8.5456071,497.733,0.0,0.0,0.0,0.0,0.0,0,0,0,0
43448000,0,47.397751,8.5456073,497.788,0.0,0.0,0.0,0.0,0.0,0,0,0,0
43548000,0,47.397751199999995,8.5456075,497.833,0.0,0.0,0.0,0.0,0.0,0,0,0,0
43648000,0,47.3977517,8.5456079,497.874,0.0,0.0,0.0,0.0,0.0,0,0,0,0
43748000,0,47.3977523,8.545608399999999,497.907,0.0,0.0,0.0,0.0,0.0,0,0,0,0
43848000,0,47.397753099999996,8.5456089,497.932,0.0,0.0,0.0,0.0,0.0,0,0,0,0
43948000,0,47.3977541,8.5456094,497.95,0.0,0.0,0.0,0.0,0.0,0,0,0,0
44048000,0,47.3977554,8.5456101,497.961,0.0,0.0,0.0,0.0,0.0,0,0,0,0
44148000,0,47.3977569,8.5456108,497.969,0.0,0.0,0.0,0.0,0.0,0,0,0,0
44248000,0,47.3977589,8.545611599999999,497.979,0.0,0.0,0.0,0.0,0.0,0,0,0,0
44348000,0,47.397760899999994,8.545612499999999,497.989,0.0,0.0,0.0,0.0,0.0,0,0,0,0
44448000,0,47.3977633,8.5456135,497.999,0.0,0.0,0.0,0.0,0.0,0,0,0,0
44548000,0,47.397765899999996,8.5456145,498.008,0.0,0.0,0.0,0.0,0.0,0,0,0,0
44648000,0,47.3977686,8.5456156,498.014,0.0,0.0,0.0,0.0,0.0,0,0,0,0
44748000,0,47.3977718,8.5456168,498.019,0.0,0.0,0.0,0.0,0.0,0,0,0,0
44848000,0,47.3977751,8.5456181,498.022,0.0,0.0,0.0,0.0,0.0,0,0,0,0
44948000,0,47.3977784,8.545619499999999,498.022,0.0,0.0,0.0,0.0,0.0,0,0,0,0
45048000,0,47.397782199999995,8.5456211,498.018,0.0,0.0,0.0,0.0,0.0,0,0,0,0
45148000,0,47.397785899999995,8.5456228,498.013,0.0,0.0,0.0,0.0,0.0,0,0,0,0
45248000,0,47.3977898,8.5456246,498.007,0.0,0.0,0.0,0.0,0.0,0,0,0,0
45348000,0,47.3977937,8.5456266,498.0,0.0,0.0,0.0,0.0,0.0,0,0,0,0
45448000,0,47.3977977,8.5456287,497.993,0.0,0.0,0.0,0.0,0.0,0,0,0,0
45548000,0,47.3978016,8.545630899999999,497.985,0.0,0.0,0.0,0.0,0.0,0,0,0,0
45648000,0,47.3978056,8.5456332,497.977,0.0,0.0,0.0,0.0,0.0,0,0,0,0
45748000,0,47.3978095,8.5456355,497.97,0.0,0.0,0.0,0.0,0.0,0,0,0,0
45848000,0,47.3978134,8.5456378,497.965,0.0,0.0,0.0,0.0,0.0,0,0,0,0
45948000,0,47.3978172,8.5456402,497.961,0.0,0.0,0.0,0.0,0.0,0,0,0,0
46048000,0,47.397821,8.545642599999999,497.958,0.0,0.0,0.0,0.0,0.0,0,0,0,0
46148000,0,47.397824799999995,8.5456451,497.955,0.0,0.0,0.0,0.0,0.0,0,0,0,0
46248000,0,47.3978286,8.545647599999999,497.953,0.0,0.0,0.0,0.0,0.0,0,0,0,0
46348000,0,47.3978323,8.5456501,497.952,0.0,0.0,0.0,0.0,0.0,0,0,0,0
46448000,0,47.3978361,8.5456527,497.951,0.0,0.0,0.0,0.0,0.0,0,0,0,0
46548000,0,47.3978396,8.545655199999999,497.951,0.0,0.0,0.0,0.0,0.0,0,0,0,0
46648000,0,47.3978435,8.5456579,497.952,0.0,0.0,0.0,0.0,0.0,0,0,0,0
46748000,0,47.3978472,8.5456606,497.953,0.0,0.0,0.0,0.0,0.0,0,0,0,0
46848000,0,47.3978508,8.545663099999999,497.955,0.0,0.0,0.0,0.0,0.0,0,0,0,0
46948000,0,47.397854699999996,8.5456659,497.957,0.0,0.0,0.0,0.0,0.0,0,0,0,0
47048000,0,47.397858299999996,8.5456685,497.959,0.0,0.0,0.0,0.0,0.0,0,0,0,0
47148000,0,47.397861999999996,8.5456712,497.961,0.0,0.0,0.0,0.0,0.0,0,0,0,0
47248000,0,47.3978657,8.545673899999999,497.963,0.0,0.0,0.0,0.0,0.0,0,0,0,0
47348000,0,47.3978695,8.5456766,497.964,0.0,0.0,0.0,0.0,0.0,0,0,0,0
47448000,0,47.397873399999995,8.5456795,497.966,0.0,0.0,0.0,0.0,0.0,0,0,0,0
47548000,0,47.397877099999995,8.5456822,497.968,0.0,0.0,0.0,0.0,0.0,0,0,0,0
47648000,0,47.3978809,8.5456849,497.969,0.0,0.0,0.0,0.0,0.0,0,0,0,0
47748000,0,47.3978847,8.545687599999999,497.972,0.0,0.0,0.0,0.0,0.0,0,0,0,0
47848000,0,47.3978885,8.5456903,497.974,0.0,0.0,0.0,0.0,0.0,0,0,0,0
47948000,0,47.397892299999995,8.545692899999999,497.975,0.0,0.0,0.0,0.0,0.0,0,0,0,0
48048000,0,47.3978961,8.5456956,497.978,0.0,0.0,0.0,0.0,0.0,0,0,0,0
48148000,0,47.3978998,8.5456981,497.98,0.0,0.0,0.0,0.0,0.0,0,0,0,0
48248000,0,47.397903799999995,8.545700799999999,497.981,0.0,0.0,0.0,0.0,0.0,0,0,0,0
48348000,0,47.3979077,8.545703399999999,497.983,0.0,0.0,0.0,0.0,0.0,0,0,0,0
48448000,0,47.3979116,8.545706,497.984,0.0,0.0,0.0,0.0,0.0,0,0,0,0
48548000,0,47.397915499999996,8.5457086,497.986,0.0,0.0,0.0,0.0,0.0,0,0,0,0
48648000,0,47.3979192,8.545710999999999,497.987,0.0,0.0,0.0,0.0,0.0,0,0,0,0
48748000,0,47.397923299999995,8.5457137,497.988,0.0,0.0,0.0,0.0,0.0,0,0,0,0
48848000,0,47.3979271,8.5457161,497.989,0.0,0.0,0.0,0.0,0.0,0,0,0,0
48948000,0,47.3979311,8.545718599999999,497.99,0.0,0.0,0.0,0.0,0.0,0,0,0,0
49048000,0,47.3979351,8.5457211,497.991,0.0,0.0,0.0,0.0,0.0,0,0,0,0
49148000,0,47.3979393,8.5457237,497.992,0.0,0.0,0.0,0.0,0.0,0,0,0,0
49248000,0,47.3979431,8.5457261,497.993,0.0,0.0,0.0,0.0,0.0,0,0,0,0
49348000,0,47.3979473,8.5457286,497.994,0.0,0.0,0.0,0.0,0.0,0,0,0,0
49448000,0,47.397951299999995,8.5457311,497.995,0.0,0.0,0.0,0.0,0.0,0,0,0,0
49548000,0,47.3979554,8.5457336,497.996,0.0,0.0,0.0,0.0,0.0,0,0,0,0
49648000,0,47.3979594,8.545736,497.997,0.0,0.0,0.0,0.0,0.0,0,0,0,0
49748000,0,47.397963399999995,8.5457384,497.999,0.0,0.0,0.0,0.0,0.0,0,0,0,0
49848000,0,47.3979675,8.5457409,498.001,0.0,0.0,0.0,0.0,0.0,0,0,0,0
49948000,0,47.3979715,8.5457433,498.002,0.0,0.0,0.0,0.0,0.0,0,0,0,0
50048000,0,47.397975599999995,8.5457457,498.004,0.0,0.0,0.0,0.0,0.0,0,0,0,0
50148000,0,47.3979795,8.545748,498.006,0.0,0.0,0.0,0.0,0.0,0,0,0,0
50248000,0,47.3979837,8.5457505,498.008,0.0,0.0,0.0,0.0,0.0,0,0,0,0
50348000,0,47.3979876,8.5457529,498.01,0.0,0.0,0.0,0.0,0.0,0,0,0,0
50448000,0,47.3979918,8.5457554,498.012,0.0,0.0,0.0,0.0,0.0,0,0,0,0
50548000,0,47.397995699999996,8.5457577,498.014,0.0,0.0,0.0,0.0,0.0,0,0,0,0
50648000,0,47.397999899999995,8.5457602,498.015,0.0,0.0,0.0,0.0,0.0,0,0,0,0
50748000,0,47.398004,8.5457626,498.016,0.0,0.0,0.0,0.0,0.0,0,0,0,0
50848000,0,47.3980081,8.545765,498.018,0.0,0.0,0.0,0.0,0.0,0,0,0,0
50948000,0,47.3980122,8.5457675,498.019,0.0,0.0,0.0,0.0,0.0,0,0,0,0
51048000,0,47.3980161,8.5457698,498.02,0.0,0.0,0.0,0.0,0.0,0,0,0,0
51148000,0,47.3980203,8.5457723,498.021,0.0,0.0,0.0,0.0,0.0,0,0,0,0
51248000,0,47.3980244,8.5457748,498.022,0.0,0.0,0.0,0.0,0.0,0,0,0,0
51348000,0,47.398028499999995,8.5457772,498.023,0.0,0.0,0.0,0.0,0.0,0,0,0,0
51448000,0,47.3980326,8.545779699999999,498.024,0.0,0.0,0.0,0.0,0.0,0,0,0,0
51548000,0,47.3980367,8.5457821,498.025,0.0,0.0,0.0,0.0,0.0,0,0,0,0
51648000,0,47.398040599999995,8.5457845,498.027,0.0,0.0,0.0,0.0,0.0,0,0,0,0
51748000,0,47.398044899999995,8.5457871,498.029,0.0,0.0,0.0,0.0,0.0,0,0,0,0
51848000,0,47.398049,8.5457895,498.03,0.0,0.0,0.0,0.0,0.0,0,0,0,0
51948000,0,47.3980531,8.545792,498.032,0.0,0.0,0.0,0.0,0.0,0,0,0,0
52048000,0,47.398056999999994,8.5457944,498.034,0.0,0.0,0.0,0.0,0.0,0,0,0,0
52148000,0,47.398061299999995,8.545797,498.036,0.0,0.0,0.0,0.0,0.0,0,0,0,0
52248000,0,47.3980653,8.5457994,498.037,0.0,0.0,0.0,0.0,0.0,0,0,0,0
52348000,0,47.3980695,8.545802,498.039,0.0,0.0,0.0,0.0,0.0,0,0,0,0
52448000,0,47.398073499999995,8.5458044,498.04,0.0,0.0,0.0,0.0,0.0,0,0,0,0
52548000,0,47.3980776,8.545806899999999,498.042,0.0,0.0,0.0,0.0,0.0,0,0,0,0
52648000,0,47.3980819,8.545809499999999,498.043,0.0,0.0,0.0,0.0,0.0,0,0,0,0
52748000,0,47.398086,8.545812,498.045,0.0,0.0,0.0,0.0,0.0,0,0,0,0
52848000,0,47.398089999999996,8.5458144,498.046,0.0,0.0,0.0,0.0,0.0,0,0,0,0
52948000,0,47.3980943,8.545817,498.048,0.0,0.0,0.0,0.0,0.0,0,0,0,0
53048000,0,47.398098399999995,8.5458195,498.049,0.0,0.0,0.0,0.0,0.0,0,0,0,0
53148000,0,47.3981024,8.5458219,498.051,0.0,0.0,0.0,0.0,0.0,0,0,0,0
53248000,0,47.3981067,8.5458245,498.053,0.0,0.0,0.0,0.0,0.0,0,0,0,0
53348000,0,47.3981107,8.5458269,498.054,0.0,0.0,0.0,0.0,0.0,0,0,0,0
53448000,0,47.398114799999995,8.545829399999999,498.056,0.0,0.0,0.0,0.0,0.0,0,0,0,0
53548000,0,47.398119,8.5458319,498.058,0.0,0.0,0.0,0.0,0.0,0,0,0,0
53648000,0,47.398123299999995,8.5458345,498.061,0.0,0.0,0.0,0.0,0.0,0,0,0,0
53748000,0,47.3981272,8.545836999999999,498.063,0.0,0.0,0.0,0.0,0.0,0,0,0,0
53848000,0,47.3981314,8.5458395,498.065,0.0,0.0,0.0,0.0,0.0,0,0,0,0
53948000,0,47.3981357,8.5458421,498.067,0.0,0.0,0.0,0.0,0.0,0,0,0,0
54048000,0,47.398139699999994,8.5458445,498.07,0.0,0.0,0.0,0.0,0.0,0,0,0,0
54148000,0,47.398143999999995,8.545847199999999,498.072,0.0,0.0,0.0,0.0,0.0,0,0,0,0
54248000,0,47.3981482,8.5458497,498.075,0.0,0.0,0.0,0.0,0.0,0,0,0,0
54348000,0,47.3981522,8.5458521,498.077,0.0,0.0,0.0,0.0,0.0,0,0,0,0
54448000,0,47.3981565,8.545854799999999,498.079,0.0,0.0,0.0,0.0,0.0,0,0,0,0
54548000,0,47.3981607,8.5458573,498.081,0.0,0.0,0.0,0.0,0.0,0,0,0,0
54648000,0,47.398164799999996,8.5458599,498.083,0.0,0.0,0.0,0.0,0.0,0,0,0,0
54748000,0,47.3981688,8.5458623,498.085,0.0,0.0,0.0,0.0,0.0,0,0,0,0
54848000,0,47.398173,8.5458648,498.087,0.0,0.0,0.0,0.0,0.0,0,0,0,0
54948000,0,47.3981773,8.5458675,498.089,0.0,0.0,0.0,0.0,0.0,0,0,0,0
55048000,0,47.3981814,8.545869999999999,498.091,0.0,0.0,0.0,0.0,0.0,0,0,0,0
55148000,0,47.3981856,8.5458726,498.092,0.0,0.0,0.0,0.0,0.0,0,0,0,0
55248000,0,47.3981898,8.5458751,498.094,0.0,0.0,0.0,0.0,0.0,0,0,0,0
55348000,0,47.398193899999995,8.545877599999999,498.096,0.0,0.0,0.0,0.0,0.0,0,0,0,0
55448000,0,47.398198099999995,8.5458802,498.097,0.0,0.0,0.0,0.0,0.0,0,0,0,0
55548000,0,47.3982022,8.5458827,498.098,0.0,0.0,0.0,0.0,0.0,0,0,0,0
55648000,0,47.3982064,8.545885199999999,498.099,0.0,0.0,0.0,0.0,0.0,0,0,0,0
55748000,0,47.3982105,8.5458877,498.1,0.0,0.0,0.0,0.0,0.0,0,0,0,0
55848000,0,47.3982147,8.5458903,498.101,0.0,0.0,0.0,0.0,0.0,0,0,0,0
55948000,0,47.3982187,8.5458927,498.101,0.0,0.0,0.0,0.0,0.0,0,0,0,0
56048000,0,47.3982229,8.5458952,498.102,0.0,0.0,0.0,0.0,0.0,0,0,0,0
56148000,0,47.3982272,8.545897799999999,498.103,0.0,0.0,0.0,0.0,0.0,0,0,0,0
56248000,0,47.3982312,8.5459003,498.104,0.0,0.0,0.0,0.0,0.0,0,0,0,0
56348000,0,47.3982355,8.5459029,498.104,0.0,0.0,0.0,0.0,0.0,0,0,0,0
56448000,0,47.3982397,8.545905399999999,498.105,0.0,0.0,0.0,0.0,0.0,0,0,0,0
56548000,0,47.3982439,8.545907999999999,498.106,0.0,0.0,0.0,0.0,0.0,0,0,0,0
56648000,0,47.398247999999995,8.5459105,498.107,0.0,0.0,0.0,0.0,0.0,0,0,0,0
56748000,0,47.398252199999995,8.545912999999999,498.108,0.0,0.0,0.0,0.0,0.0,0,0,0,0
56848000,0,47.3982564,8.545915599999999,498.11,0.0,0.0,0.0,0.0,0.0,0,0,0,0
56948000,0,47.3982606,8.5459181,498.112,0.0,0.0,0.0,0.0,0.0,0,0,0,0
57048000,0,47.3982647,8.545920599999999,498.113,0.0,0.0,0.0,0.0,0.0,0,0,0,0
57148000,0,47.3982689,8.545923199999999,498.115,0.0,0.0,0.0,0.0,0.0,0,0,0,0
57248000,0,47.398272899999995,8.5459256,498.116,0.0,0.0,0.0,0.0,0.0,0,0,0,0
57348000,0,47.3982773,8.545928199999999,498.118,0.0,0.0,0.0,0.0,0.0,0,0,0,0
57448000,0,47.398281399999995,8.545930799999999,498.119,0.0,0.0,0.0,0.0,0.0,0,0,0,0
57548000,0,47.3982856,8.5459333,498.12,0.0,0.0,0.0,0.0,0.0,0,0,0,0
57648000,0,47.3982898,8.545935799999999,498.121,0.0,0.0,0.0,0.0,0.0,0,0,0,0
57748000,0,47.3982939,8.545938399999999,498.123,0.0,0.0,0.0,0.0,0.0,0,0,0,0
57848000,0,47.398297899999996,8.5459408,498.123,0.0,0.0,0.0,0.0,0.0,0,0,0,0
57948000,0,47.3983023,8.545943399999999,498.124,0.0,0.0,0.0,0.0,0.0,0,0,0,0
58048000,0,47.3983062,8.5459458,498.125,0.0,0.0,0.0,0.0,0.0,0,0,0,0
58148000,0,47.398310599999995,8.5459485,498.126,0.0,0.0,0.0,0.0,0.0,0,0,0,0
58248000,0,47.3983147,8.545950999999999,498.126,0.0,0.0,0.0,0.0,0.0,0,0,0,0
58348000,0,47.3983189,8.545953599999999,498.127,0.0,0.0,0.0,0.0,0.0,0,0,0,0
58448000,0,47.398322799999995,8.545956,498.127,0.0,0.0,0.0,0.0,0.0,0,0,0,0
58548000,0,47.398327099999996,8.545958599999999,498.128,0.0,0.0,0.0,0.0,0.0,0,0,0,0
58648000,0,47.398331299999995,8.545961199999999,498.129,0.0,0.0,0.0,0.0,0.0,0,0,0,0
58748000,0,47.3983354,8.5459637,498.129,0.0,0.0,0.0,0.0,0.0,0,0,0,0
58848000,0,47.3983396,8.545966199999999,498.13,0.0,0.0,0.0,0.0,0.0,0,0,0,0
58948000,0,47.3983437,8.545968799999999,498.13,0.0,0.0,0.0,0.0,0.0,0,0,0,0
59048000,0,47.3983479,8.5459713,498.13,0.0,0.0,0.0,0.0,0.0,0,0,0,0
59148000,0,47.398351999999996,8.545973799999999,498.13,0.0,0.0,0.0,0.0,0.0,0,0,0,0
59248000,0,47.398356199999995,8.545976399999999,498.13,0.0,0.0,0.0,0.0,0.0,0,0,0,0
59348000,0,47.3983602,8.5459788,498.13,0.0,0.0,0.0,0.0,0.0,0,0,0,0
59448000,0,47.3983643,8.5459813,498.129,0.0,0.0,0.0,0.0,0.0,0,0,0,0
59548000,0,47.3983686,8.545983999999999,498.129,0.0,0.0,0.0,0.0,0.0,0,0,0,0
59648000,0,47.398372599999995,8.5459864,498.128,0.0,0.0,0.0,0.0,0.0,0,0,0,0
59748000,0,47.398376999999996,8.545988999999999,498.128,0.0,0.0,0.0,0.0,0.0,0,0,0,0
59848000,0,47.398381099999995,8.545991599999999,498.128,0.0,0.0,0.0,0.0,0.0,0,0,0,0
59948000,0,47.3983853,8.5459941,498.127,0.0,0.0,0.0,0.0,0.0,0,0,0,0
60048000,0,47.3983895,8.5459966,498.126,0.0,0.0,0.0,0.0,0.0,0,0,0,0
60148000,0,47.3983936,8.545999199999999,498.126,0.0,0.0,0.0,0.0,0.0,0,0,0,0
60248000,0,47.398397599999996,8.5460016,498.125,0.0,0.0,0.0,0.0,0.0,0,0,0,0
60348000,0,47.398402,8.5460042,498.124,0.0,0.0,0.0,0.0,0.0,0,0,0,0
60448000,0,47.398406099999995,8.546006799999999,498.123,0.0,0.0,0.0,0.0,0.0,0,0,0,0
60548000,0,47.398410299999995,8.5460093,498.122,0.0,0.0,0.0,0.0,0.0,0,0,0,0
60648000,0,47.3984143,8.5460117,498.121,0.0,0.0,0.0,0.0,0.0,0,0,0,0
60748000,0,47.3984186,8.546014399999999,498.119,0.0,0.0,0.0,0.0,0.0,0,0,0,0
60848000,0,47.398422599999996,8.5460168,498.118,0.0,0.0,0.0,0.0,0.0,0,0,0,0
60948000,0,47.3984269,8.5460194,498.117,0.0,0.0,0.0,0.0,0.0,0,0,0,0
61048000,0,47.3984309,8.5460219,498.116,0.0,0.0,0.0,0.0,0.0,0,0,0,0
61148000,0,47.398435199999994,8.5460245,498.114,0.0,0.0,0.0,0.0,0.0,0,0,0,0
61248000,0,47.3984393,8.5460271,498.113,0.0,0.0,0.0,0.0,0.0,0,0,0,0
61348000,0,47.3984435,8.546029599999999,498.113,0.0,0.0,0.0,0.0,0.0,0,0,0,0
61448000,0,47.3984476,8.546032199999999,498.112,0.0,0.0,0.0,0.0,0.0,0,0,0,0
61548000,0,47.398451699999995,8.5460347,498.111,0.0,0.0,0.0,0.0,0.0,0,0,0,0
61648000,0,47.398455899999995,8.546037199999999,498.111,0.0,0.0,0.0,0.0,0.0,0,0,0,0
61748000,0,47.39846,8.546039799999999,498.111,0.0,0.0,0.0,0.0,0.0,0,0,0,0
61848000,0,47.398464,8.5460422,498.111,0.0,0.0,0.0,0.0,0.0,0,0,0,0
61948000,0,47.3984683,8.546044799999999,498.111,0.0,0.0,0.0,0.0,0.0,0,0,0,0
62048000,0,47.398472299999995,8.5460473,498.111,0.0,0.0,0.0,0.0,0.0,0,0,0,0
62148000,0,47.398476599999995,8.5460499,498.11,0.0,0.0,0.0,0.0,0.0,0,0,0,0
62248000,0,47.3984807,8.546052399999999,498.108,0.0,0.0,0.0,0.0,0.0,0,0,0,0
62348000,0,47.3984847,8.5460549,498.107,0.0,0.0,0.0,0.0,0.0,0,0,0,0
62448000,0,47.3984885,8.5460573,498.106,0.0,0.0,0.0,0.0,0.0,0,0,0,0
62548000,0,47.3984922,8.5460596,498.107,0.0,0.0,0.0,0.0,0.0,0,0,0,0
62648000,0,47.3984958,8.5460619,498.107,0.0,0.0,0.0,0.0,0.0,0,0,0,0
62748000,0,47.398499099999995,8.546064,498.107,0.0,0.0,0.0,0.0,0.0,0,0,0,0
62848000,0,47.3985026,8.5460663,498.107,0.0,0.0,0.0,0.0,0.0,0,0,0,0
62948000,0,47.398505799999995,8.5460684,498.108,0.0,0.0,0.0,0.0,0.0,0,0,0,0
63048000,0,47.398508899999996,8.5460704,498.108,0.0,0.0,0.0,0.0,0.0,0,0,0,0
63148000,0,47.398511799999994,8.546072299999999,498.109,0.0,0.0,0.0,0.0,0.0,0,0,0,0
63248000,0,47.3985146,8.5460741,498.11,0.0,0.0,0.0,0.0,0.0,0,0,0,0
63348000,0,47.3985172,8.546075799999999,498.111,0.0,0.0,0.0,0.0,0.0,0,0,0,0
63448000,0,47.3985199,8.5460776,498.112,0.0,0.0,0.0,0.0,0.0,0,0,0,0
63548000,0,47.398522299999996,8.5460792,498.113,0.0,0.0,0.0,0.0,0.0,0,0,0,0
63648000,0,47.398524599999995,8.5460806,498.115,0.0,0.0,0.0,0.0,0.0,0,0,0,0
63748000,0,47.3985269,8.5460821,498.116,0.0,0.0,0.0,0.0,0.0,0,0,0,0
63848000,0,47.398528999999996,8.5460835,498.118,0.0,0.0,0.0,0.0,0.0,0,0,0,0
63948000,0,47.398531,8.5460848,498.119,0.0,0.0,0.0,0.0,0.0,0,0,0,0
64048000,0,47.3985329,8.5460859,498.121,0.0,0.0,0.0,0.0,0.0,0,0,0,0
64148000,0,47.3985347,8.546087,498.122,0.0,0.0,0.0,0.0,0.0,0,0,0,0
64248000,0,47.3985364,8.546088,498.124,0.0,0.0,0.0,0.0,0.0,0,0,0,0
64348000,0,47.398537999999995,8.546089,498.126,0.0,0.0,0.0,0.0,0.0,0,0,0,0
64448000,0,47.3985395,8.5460899,498.128,0.0,0.0,0.0,0.0,0.0,0,0,0,0
64548000,0,47.3985409,8.5460908,498.132,0.0,0.0,0.0,0.0,0.0,0,0,0,0
64648000,0,47.398542299999995,8.5460917,498.137,0.0,0.0,0.0,0.0,0.0,0,0,0,0
64748000,0,47.398543499999995,8.5460926,498.143,0.0,0.0,0.0,0.0,0.0,0,0,0,0
64848000,0,47.3985445,8.546093599999999,498.15,0.0,0.0,0.0,0.0,0.0,0,0,0,0
64948000,0,47.398545399999996,8.5460949,498.157,0.0,0.0,0.0,0.0,0.0,0,0,0,0
65048000,0,47.398545999999996,8.5460962,498.162,0.0,0.0,0.0,0.0,0.0,0,0,0,0
65148000,0,47.3985464,8.5460978,498.165,0.0,0.0,0.0,0.0,0.0,0,0,0,0
65248000,0,47.398546499999995,8.5460996,498.167,0.0,0.0,0.0,0.0,0.0,0,0,0,0
65348000,0,47.398546599999996,8.5461014,498.167,0.0,0.0,0.0,0.0,0.0,0,0,0,0
65448000,0,47.398546499999995,8.5461036,498.165,0.0,0.0,0.0,0.0,0.0,0,0,0,0
65548000,0,47.3985463,8.5461057,498.162,0.0,0.0,0.0,0.0,0.0,0,0,0,0
65648000,0,47.3985461,8.546108,498.159,0.0,0.0,0.0,0.0,0.0,0,0,0,0
65748000,0,47.3985458,8.5461102,498.156,0.0,0.0,0.0,0.0,0.0,0,0,0,0
65848000,0,47.3985455,8.5461125,498.154,0.0,0.0,0.0,0.0,0.0,0,0,0,0
65948000,0,47.3985451,8.5461147,498.153,0.0,0.0,0.0,0.0,0.0,0,0,0,0
66048000,0,47.398544799999996,8.5461168,498.154,0.0,0.0,0.0,0.0,0.0,0,0,0,0
66148000,0,47.3985443,8.5461192,498.154,0.0,0.0,0.0,0.0,0.0,0,0,0,0
66248000,0,47.3985437,8.5461218,498.155,0.0,0.0,0.0,0.0,0.0,0,0,0,0
66348000,0,47.3985431,8.5461245,498.156,0.0,0.0,0.0,0.0,0.0,0,0,0,0
66448000,0,47.398542299999995,8.5461274,498.158,0.0,0.0,0.0,0.0,0.0,0,0,0,0
66548000,0,47.3985415,8.5461305,498.162,0.0,0.0,0.0,0.0,0.0,0,0,0,0
66648000,0,47.3985406,8.5461339,498.166,0.0,0.0,0.0,0.0,0.0,0,0,0,0
66748000,0,47.3985397,8.5461376,498.17,0.0,0.0,0.0,0.0,0.0,0,0,0,0
66848000,0,47.3985388,8.5461415,498.173,0.0,0.0,0.0,0.0,0.0,0,0,0,0
66948000,0,47.3985377,8.5461461,498.174,0.0,0.0,0.0,0.0,0.0,0,0,0,0
67048000,0,47.3985366,8.5461508,498.174,0.0,0.0,0.0,0.0,0.0,0,0,0,0
67148000,0,47.398535599999995,8.546155599999999,498.171,0.0,0.0,0.0,0.0,0.0,0,0,0,0
67248000,0,47.398534399999996,8.546161099999999,498.168,0.0,0.0,0.0,0.0,0.0,0,0,0,0
67348000,0,47.398533099999995,8.5461665,498.164,0.0,0.0,0.0,0.0,0.0,0,0,0,0
67448000,0,47.3985318,8.5461721,498.16,0.0,0.0,0.0,0.0,0.0,0,0,0,0
67548000,0,47.3985305,8.546177499999999,498.155,0.0,0.0,0.0,0.0,0.0,0,0,0,0
67648000,0,47.3985291,8.5461835,498.149,0.0,0.0,0.0,0.0,0.0,0,0,0,0
67748000,0,47.3985276,8.5461893,498.143,0.0,0.0,0.0,0.0,0.0,0,0,0,0
67848000,0,47.3985261,8.5461951,498.137,0.0,0.0,0.0,0.0,0.0,0,0,0,0
67948000,0,47.398524699999996,8.5462008,498.131,0.0,0.0,0.0,0.0,0.0,0,0,0,0
68048000,0,47.3985232,8.5462065,498.127,0.0,0.0,0.0,0.0,0.0,0,0,0,0
68148000,0,47.3985219,8.546211999999999,498.124,0.0,0.0,0.0,0.0,0.0,0,0,0,0
68248000,0,47.398520399999995,8.546217799999999,498.12,0.0,0.0,0.0,0.0,0.0,0,0,0,0
68348000,0,47.398519,8.5462235,498.116,0.0,0.0,0.0,0.0,0.0,0,0,0,0
68448000,0,47.3985175,8.546229199999999,498.112,0.0,0.0,0.0,0.0,0.0,0,0,0,0
68548000,0,47.398516099999995,8.546234799999999,498.109,0.0,0.0,0.0,0.0,0.0,0,0,0,0
68648000,0,47.3985147,8.5462405,498.106,0.0,0.0,0.0,0.0,0.0,0,0,0,0
68748000,0,47.3985133,8.5462461,498.103,0.0,0.0,0.0,0.0,0.0,0,0,0,0
68848000,0,47.398511899999995,8.5462515,498.101,0.0,0.0,0.0,0.0,0.0,0,0,0,0
68948000,0,47.3985105,8.5462574,498.098,0.0,0.0,0.0,0.0,0.0,0,0,0,0
69048000,0,47.3985091,8.5462629,498.095,0.0,0.0,0.0,0.0,0.0,0,0,0,0
69148000,0,47.398507599999995,8.5462688,498.092,0.0,0.0,0.0,0.0,0.0,0,0,0,0
69248000,0,47.3985062,8.5462744,498.088,0.0,0.0,0.0,0.0,0.0,0,0,0,0
69348000,0,47.3985048,8.546280099999999,498.085,0.0,0.0,0.0,0.0,0.0,0,0,0,0
69448000,0,47.398503299999994,8.5462858,498.082,0.0,0.0,0.0,0.0,0.0,0,0,0,0
69548000,0,47.3985019,8.546291499999999,498.079,0.0,0.0,0.0,0.0,0.0,0,0,0,0
69648000,0,47.3985005,8.5462972,498.075,0.0,0.0,0.0,0.0,0.0,0,0,0,0
69748000,0,47.398499099999995,8.546302899999999,498.072,0.0,0.0,0.0,0.0,0.0,0,0,0,0
69848000,0,47.3984977,8.5463084,498.068,0.0,0.0,0.0,0.0,0.0,0,0,0,0
69948000,0,47.3984963,8.5463142,498.064,0.0,0.0,0.0,0.0,0.0,0,0,0,0
70048000,0,47.398494799999995,8.5463202,498.06,0.0,0.0,0.0,0.0,0.0,0,0,0,0
70148000,0,47.3984934,8.5463259,498.056,0.0,0.0,0.0,0.0,0.0,0,0,0,0
70248000,0,47.398491899999996,8.5463317,498.051,0.0,0.0,0.0,0.0,0.0,0,0,0,0
70348000,0,47.3984905,8.5463375,498.046,0.0,0.0,0.0,0.0,0.0,0,0,0,0
70448000,0,47.3984891,8.5463433,498.042,0.0,0.0,0.0,0.0,0.0,0,0,0,0
70548000,0,47.3984877,8.5463489,498.037,0.0,0.0,0.0,0.0,0.0,0,0,0,0
70648000,0,47.398486299999995,8.546354899999999,498.032,0.0,0.0,0.0,0.0,0.0,0,0,0,0
70748000,0,47.3984849,8.5463607,498.027,0.0,0.0,0.0,0.0,0.0,0,0,0,0
70848000,0,47.3984835,8.546366299999999,498.022,0.0,0.0,0.0,0.0,0.0,0,0,0,0
70948000,0,47.398482099999995,8.5463722,498.017,0.0,0.0,0.0,0.0,0.0,0,0,0,0
71048000,0,47.3984806,8.546378299999999,498.012,0.0,0.0,0.0,0.0,0.0,0,0,0,0
71148000,0,47.3984792,8.5463841,498.006,0.0,0.0,0.0,0.0,0.0,0,0,0,0
71248000,0,47.398477899999996,8.5463898,498.001,0.0,0.0,0.0,0.0,0.0,0,0,0,0
71348000,0,47.3984765,8.5463953,497.996,0.0,0.0,0.0,0.0,0.0,0,0,0,0
71448000,0,47.3984752,8.5464004,497.992,0.0,0.0,0.0,0.0,0.0,0,0,0,0
71548000,0,47.3984739,8.5464057,497.988,0.0,0.0,0.0,0.0,0.0,0,0,0,0
71648000,0,47.3984726,8.5464107,497.985,0.0,0.0,0.0,0.0,0.0,0,0,0,0
71748000,0,47.3984715,8.546415399999999,497.981,0.0,0.0,0.0,0.0,0.0,0,0,0,0
71848000,0,47.3984703,8.5464202,497.978,0.0,0.0,0.0,0.0,0.0,0,0,0,0
71948000,0,47.3984692,8.546424499999999,497.975,0.0,0.0,0.0,0.0,0.0,0,0,0,0
72048000,0,47.398468099999995,8.5464289,497.971,0.0,0.0,0.0,0.0,0.0,0,0,0,0
72148000,0,47.398466899999995,8.5464332,497.968,0.0,0.0,0.0,0.0,0.0,0,0,0,0
72248000,0,47.3984659,8.5464372,497.965,0.0,0.0,0.0,0.0,0.0,0,0,0,0
72348000,0,47.3984649,8.5464411,497.962,0.0,0.0,0.0,0.0,0.0,0,0,0,0
72448000,0,47.398464,8.5464448,497.959,0.0,0.0,0.0,0.0,0.0,0,0,0,0
72548000,0,47.3984631,8.5464482,497.957,0.0,0.0,0.0,0.0,0.0,0,0,0,0
72648000,0,47.3984622,8.5464518,497.954,0.0,0.0,0.0,0.0,0.0,0,0,0,0
72748000,0,47.398461399999995,8.5464551,497.952,0.0,0.0,0.0,0.0,0.0,0,0,0,0
72848000,0,47.3984606,8.546458099999999,497.949,0.0,0.0,0.0,0.0,0.0,0,0,0,0
72948000,0,47.3984599,8.5464612,497.947,0.0,0.0,0.0,0.0,0.0,0,0,0,0
73048000,0,47.3984592,8.5464641,497.944,0.0,0.0,0.0,0.0,0.0,0,0,0,0
73148000,0,47.3984586,8.5464667,497.942,0.0,0.0,0.0,0.0,0.0,0,0,0,0
73248000,0,47.3984579,8.5464693,497.939,0.0,0.0,0.0,0.0,0.0,0,0,0,0
73348000,0,47.3984574,8.546471799999999,497.937,0.0,0.0,0.0,0.0,0.0,0,0,0,0
73448000,0,47.3984568,8.546474,497.935,0.0,0.0,0.0,0.0,0.0,0,0,0,0
73548000,0,47.3984563,8.5464764,497.934,0.0,0.0,0.0,0.0,0.0,0,0,0,0
73648000,0,47.3984558,8.5464785,497.934,0.0,0.0,0.0,0.0,0.0,0,0,0,0
73748000,0,47.398455299999995,8.546480599999999,497.935,0.0,0.0,0.0,0.0,0.0,0,0,0,0
73848000,0,47.398454699999995,8.5464827,497.938,0.0,0.0,0.0,0.0,0.0,0,0,0,0
73948000,0,47.398454099999995,8.5464846,497.941,0.0,0.0,0.0,0.0,0.0,0,0,0,0
74048000,0,47.3984533,8.5464864,497.944,0.0,0.0,0.0,0.0,0.0,0,0,0,0
74148000,0,47.3984525,8.546487899999999,497.945,0.0,0.0,0.0,0.0,0.0,0,0,0,0
74248000,0,47.3984516,8.5464892,497.947,0.0,0.0,0.0,0.0,0.0,0,0,0,0
74348000,0,47.3984506,8.54649,497.949,0.0,0.0,0.0,0.0,0.0,0,0,0,0
74448000,0,47.3984495,8.5464906,497.95,0.0,0.0,0.0,0.0,0.0,0,0,0,0
74548000,0,47.3984483,8.546490799999999,497.949,0.0,0.0,0.0,0.0,0.0,0,0,0,0
74648000,0,47.398447,8.546490799999999,497.947,0.0,0.0,0.0,0.0,0.0,0,0,0,0
74748000,0,47.398445699999996,8.546490499999999,497.943,0.0,0.0,0.0,0.0,0.0,0,0,0,0
74848000,0,47.3984442,8.5464902,497.938,0.0,0.0,0.0,0.0,0.0,0,0,0,0
74948000,0,47.3984428,8.5464897,497.934,0.0,0.0,0.0,0.0,0.0,0,0,0,0
75048000,0,47.3984412,8.546489099999999,497.93,0.0,0.0,0.0,0.0,0.0,0,0,0,0
75148000,0,47.3984397,8.5464884,497.927,0.0,0.0,0.0,0.0,0.0,0,0,0,0
75248000,0,47.3984382,8.5464877,497.925,0.0,0.0,0.0,0.0,0.0,0,0,0,0
75348000,0,47.3984366,8.5464868,497.924,0.0,0.0,0.0,0.0,0.0,0,0,0,0
75448000,0,47.398435,8.5464859,497.923,0.0,0.0,0.0,0.0,0.0,0,0,0,0
75548000,0,47.3984332,8.5464849,497.923,0.0,0.0,0.0,0.0,0.0,0,0,0,0
75648000,0,47.3984313,8.5464837,497.925,0.0,0.0,0.0,0.0,0.0,0,0,0,0
75748000,0,47.398429199999995,8.5464825,497.928,0.0,0.0,0.0,0.0,0.0,0,0,0,0
75848000,0,47.3984269,8.546481199999999,497.932,0.0,0.0,0.0,0.0,0.0,0,0,0,0
75948000,0,47.398424399999996,8.5464799,497.935,0.0,0.0,0.0,0.0,0.0,0,0,0,0
76048000,0,47.3984216,8.5464785,497.936,0.0,0.0,0.0,0.0,0.0,0,0,0,0
76148000,0,47.398418799999995,8.546477,497.936,0.0,0.0,0.0,0.0,0.0,0,0,0,0
76248000,0,47.3984157,8.5464755,497.935,0.0,0.0,0.0,0.0,0.0,0,0,0,0
76348000,0,47.398412199999996,8.5464738,497.932,0.0,0.0,0.0,0.0,0.0,0,0,0,0
76448000,0,47.3984087,8.546472099999999,497.928,0.0,0.0,0.0,0.0,0.0,0,0,0,0
76548000,0,47.3984051,8.5464704,497.924,0.0,0.0,0.0,0.0,0.0,0,0,0,0
76648000,0,47.3984015,8.546468599999999,497.92,0.0,0.0,0.0,0.0,0.0,0,0,0,0
76748000,0,47.398397599999996,8.5464666,497.916,0.0,0.0,0.0,0.0,0.0,0,0,0,0
76848000,0,47.3983938,8.5464646,497.912,0.0,0.0,0.0,0.0,0.0,0,0,0,0
76948000,0,47.3983899,8.546462499999999,497.908,0.0,0.0,0.0,0.0,0.0,0,0,0,0
77048000,0,47.398386099999996,8.546460399999999,497.904,0.0,0.0,0.0,0.0,0.0,0,0,0,0
77148000,0,47.398382299999994,8.546458399999999,497.902,0.0,0.0,0.0,0.0,0.0,0,0,0,0
77248000,0,47.3983786,8.5464564,497.902,0.0,0.0,0.0,0.0,0.0,0,0,0,0
77348000,0,47.3983748,8.5464544,497.901,0.0,0.0,0.0,0.0,0.0,0,0,0,0
77448000,0,47.3983711,8.5464524,497.901,0.0,0.0,0.0,0.0,0.0,0,0,0,0
77548000,0,47.3983673,8.5464503,497.901,0.0,0.0,0.0,0.0,0.0,0,0,0,0
77648000,0,47.398363599999996,8.5464483,497.902,0.0,0.0,0.0,0.0,0.0,0,0,0,0
77748000,0,47.39836,8.546446399999999,497.902,0.0,0.0,0.0,0.0,0.0,0,0,0,0
77848000,0,47.3983561,8.5464443,497.903,0.0,0.0,0.0,0.0,0.0,0,0,0,0
77948000,0,47.3983523,8.5464422,497.904,0.0,0.0,0.0,0.0,0.0,0,0,0,0
78048000,0,47.3983487,8.5464403,497.906,0.0,0.0,0.0,0.0,0.0,0,0,0,0
78148000,0,47.398345,8.546438199999999,497.907,0.0,0.0,0.0,0.0,0.0,0,0,0,0
78248000,0,47.398341099999996,8.5464361,497.909,0.0,0.0,0.0,0.0,0.0,0,0,0,0
78348000,0,47.398337299999994,8.546434,497.911,0.0,0.0,0.0,0.0,0.0,0,0,0,0
78448000,0,47.398333699999995,8.546432,497.912,0.0,0.0,0.0,0.0,0.0,0,0,0,0
78548000,0,47.3983297,8.5464299,497.915,0.0,0.0,0.0,0.0,0.0,0,0,0,0
78648000,0,47.398326,8.5464278,497.917,0.0,0.0,0.0,0.0,0.0,0,0,0,0
78748000,0,47.3983223,8.5464258,497.919,0.0,0.0,0.0,0.0,0.0,0,0,0,0
78848000,0,47.3983184,8.546423599999999,497.921,0.0,0.0,0.0,0.0,0.0,0,0,0,0
78948000,0,47.3983147,8.5464216,497.924,0.0,0.0,0.0,0.0,0.0,0,0,0,0
79048000,0,47.3983108,8.5464194,497.927,0.0,0.0,0.0,0.0,0.0,0,0,0,0
79148000,0,47.3983071,8.5464173,497.93,0.0,0.0,0.0,0.0,0.0,0,0,0,0
79248000,0,47.3983031,8.546415099999999,497.933,0.0,0.0,0.0,0.0,0.0,0,0,0,0
79348000,0,47.3982993,8.546413,497.937,0.0,0.0,0.0,0.0,0.0,0,0,0,0
79448000,0,47.3982956,8.5464109,497.94,0.0,0.0,0.0,0.0,0.0,0,0,0,0
79548000,0,47.3982916,8.546408699999999,497.944,0.0,0.0,0.0,0.0,0.0,0,0,0,0
79648000,0,47.3982878,8.5464066,497.947,0.0,0.0,0.0,0.0,0.0,0,0,0,0
79748000,0,47.3982841,8.5464045,497.951,0.0,0.0,0.0,0.0,0.0,0,0,0,0
79848000,0,47.39828,8.5464023,497.954,0.0,0.0,0.0,0.0,0.0,0,0,0,0
79948000,0,47.3982762,8.5464001,497.958,0.0,0.0,0.0,0.0,0.0,0,0,0,0
80048000,0,47.398272299999995,8.546398,497.961,0.0,0.0,0.0,0.0,0.0,0,0,0,0
80148000,0,47.3982684,8.546395799999999,497.964,0.0,0.0,0.0,0.0,0.0,0,0,0,0
80248000,0,47.3982647,8.5463937,497.967,0.0,0.0,0.0,0.0,0.0,0,0,0,0
80348000,0,47.398260799999996,8.5463916,497.971,0.0,0.0,0.0,0.0,0.0,0,0,0,0
80448000,0,47.3982567,8.5463893,497.974,0.0,0.0,0.0,0.0,0.0,0,0,0,0
80548000,0,47.398252799999995,8.5463871,497.978,0.0,0.0,0.0,0.0,0.0,0,0,0,0
80648000,0,47.3982488,8.546384999999999,497.981,0.0,0.0,0.0,0.0,0.0,0,0,0,0
80748000,0,47.3982451,8.5463829,497.984,0.0,0.0,0.0,0.0,0.0,0,0,0,0
80848000,0,47.398241,8.546380599999999,497.987,0.0,0.0,0.0,0.0,0.0,0,0,0,0
80948000,0,47.398236999999995,8.5463784,497.99,0.0,0.0,0.0,0.0,0.0,0,0,0,0
81048000,0,47.3982331,8.5463762,497.993,0.0,0.0,0.0,0.0,0.0,0,0,0,0
81148000,0,47.3982293,8.5463741,497.995,0.0,0.0,0.0,0.0,0.0,0,0,0,0
81248000,0,47.3982252,8.5463718,497.997,0.0,0.0,0.0,0.0,0.0,0,0,0,0
81348000,0,47.3982214,8.5463696,497.999,0.0,0.0,0.0,0.0,0.0,0,0,0,0
81448000,0,47.3982172,8.5463673,498.001,0.0,0.0,0.0,0.0,0.0,0,0,0,0
81548000,0,47.398213399999996,8.5463652,498.003,0.0,0.0,0.0,0.0,0.0,0,0,0,0
81648000,0,47.3982094,8.546363,498.005,0.0,0.0,0.0,0.0,0.0,0,0,0,0
81748000,0,47.3982053,8.5463606,498.007,0.0,0.0,0.0,0.0,0.0,0,0,0,0
81848000,0,47.3982014,8.5463585,498.008,0.0,0.0,0.0,0.0,0.0,0,0,0,0
81948000,0,47.3981973,8.546356099999999,498.01,0.0,0.0,0.0,0.0,0.0,0,0,0,0
82048000,0,47.398193199999994,8.5463539,498.012,0.0,0.0,0.0,0.0,0.0,0,0,0,0
82148000,0,47.3981892,8.5463516,498.014,0.0,0.0,0.0,0.0,0.0,0,0,0,0
82248000,0,47.398185399999996,8.5463495,498.015,0.0,0.0,0.0,0.0,0.0,0,0,0,0
82348000,0,47.398181199999996,8.5463471,498.017,0.0,0.0,0.0,0.0,0.0,0,0,0,0
82448000,0,47.3981771,8.5463449,498.019,0.0,0.0,0.0,0.0,0.0,0,0,0,0
82548000,0,47.3981731,8.5463426,498.021,0.0,0.0,0.0,0.0,0.0,0,0,0,0
82648000,0,47.398168999999996,8.5463404,498.023,0.0,0.0,0.0,0.0,0.0,0,0,0,0
82748000,0,47.3981649,8.5463381,498.025,0.0,0.0,0.0,0.0,0.0,0,0,0,0
82848000,0,47.3981609,8.5463358,498.027,0.0,0.0,0.0,0.0,0.0,0,0,0,0
82948000,0,47.398156799999995,8.546333599999999,498.029,0.0,0.0,0.0,0.0,0.0,0,0,0,0
83048000,0,47.3981527,8.5463313,498.031,0.0,0.0,0.0,0.0,0.0,0,0,0,0
83148000,0,47.3981486,8.546329,498.032,0.0,0.0,0.0,0.0,0.0,0,0,0,0
83248000,0,47.3981445,8.5463268,498.034,0.0,0.0,0.0,0.0,0.0,0,0,0,0
83348000,0,47.3981406,8.5463246,498.036,0.0,0.0,0.0,0.0,0.0,0,0,0,0
83448000,0,47.3981364,8.5463223,498.038,0.0,0.0,0.0,0.0,0.0,0,0,0,0
83548000,0,47.3981322,8.54632,498.039,0.0,0.0,0.0,0.0,0.0,0,0,0,0
83648000,0,47.398128199999995,8.5463177,498.039,0.0,0.0,0.0,0.0,0.0,0,0,0,0
83748000,0,47.3981241,8.5463155,498.039,0.0,0.0,0.0,0.0,0.0,0,0,0,0
83848000,0,47.3981201,8.5463133,498.038,0.0,0.0,0.0,0.0,0.0,0,0,0,0
83948000,0,47.3981162,8.5463111,498.038,0.0,0.0,0.0,0.0,0.0,0,0,0,0
84048000,0,47.3981126,8.5463091,498.038,0.0,0.0,0.0,0.0,0.0,0,0,0,0
84148000,0,47.398108799999996,8.5463069,498.039,0.0,0.0,0.0,0.0,0.0,0,0,0,0
84248000,0,47.3981054,8.546305,498.04,0.0,0.0,0.0,0.0,0.0,0,0,0,0
84348000,0,47.3981019,8.546303,498.04,0.0,0.0,0.0,0.0,0.0,0,0,0,0
84448000,0,47.3980986,8.546301099999999,498.041,0.0,0.0,0.0,0.0,0.0,0,0,0,0
84548000,0,47.3980955,8.5462993,498.042,0.0,0.0,0.0,0.0,0.0,0,0,0,0
84648000,0,47.3980925,8.546297599999999,498.043,0.0,0.0,0.0,0.0,0.0,0,0,0,0
84748000,0,47.3980896,8.5462959,498.043,0.0,0.0,0.0,0.0,0.0,0,0,0,0
84848000,0,47.398086799999994,8.5462943,498.044,0.0,0.0,0.0,0.0,0.0,0,0,0,0
84948000,0,47.3980841,8.5462927,498.045,0.0,0.0,0.0,0.0,0.0,0,0,0,0
85048000,0,47.398081499999996,8.546291199999999,498.045,0.0,0.0,0.0,0.0,0.0,0,0,0,0
85148000,0,47.398078999999996,8.5462898,498.046,0.0,0.0,0.0,0.0,0.0,0,0,0,0
85248000,0,47.3980767,8.5462885,498.047,0.0,0.0,0.0,0.0,0.0,0,0,0,0
85348000,0,47.3980744,8.5462872,498.047,0.0,0.0,0.0,0.0,0.0,0,0,0,0
85448000,0,47.3980724,8.5462861,498.048,0.0,0.0,0.0,0.0,0.0,0,0,0,0
85548000,0,47.3980703,8.5462849,498.049,0.0,0.0,0.0,0.0,0.0,0,0,0,0
85648000,0,47.3980683,8.546283899999999,498.05,0.0,0.0,0.0,0.0,0.0,0,0,0,0
85748000,0,47.3980666,8.546282999999999,498.051,0.0,0.0,0.0,0.0,0.0,0,0,0,0
85848000,0,47.3980648,8.546282099999999,498.052,0.0,0.0,0.0,0.0,0.0,0,0,0,0
85948000,0,47.398063099999995,8.5462812,498.053,0.0,0.0,0.0,0.0,0.0,0,0,0,0
86048000,0,47.3980616,8.546280399999999,498.054,0.0,0.0,0.0,0.0,0.0,0,0,0,0
86148000,0,47.398060099999995,8.5462796,498.057,0.0,0.0,0.0,0.0,0.0,0,0,0,0
86248000,0,47.3980586,8.5462788,498.061,0.0,0.0,0.0,0.0,0.0,0,0,0,0
86348000,0,47.3980573,8.546278,498.066,0.0,0.0,0.0,0.0,0.0,0,0,0,0
86448000,0,47.398055899999996,8.546277,498.072,0.0,0.0,0.0,0.0,0.0,0,0,0,0
86548000,0,47.3980548,8.5462759,498.078,0.0,0.0,0.0,0.0,0.0,0,0,0,0
86648000,0,47.3980538,8.5462746,498.083,0.0,0.0,0.0,0.0,0.0,0,0,0,0
86748000,0,47.398053,8.5462732,498.089,0.0,0.0,0.0,0.0,0.0,0,0,0,0
86848000,0,47.3980525,8.546271599999999,498.094,0.0,0.0,0.0,0.0,0.0,0,0,0,0
86948000,0,47.3980521,8.54627,498.097,0.0,0.0,0.0,0.0,0.0,0,0,0,0
87048000,0,47.398052,8.546268099999999,498.099,0.0,0.0,0.0,0.0,0.0,0,0,0,0
87148000,0,47.398052,8.5462662,498.099,0.0,0.0,0.0,0.0,0.0,0,0,0,0
87248000,0,47.398052199999995,8.546263999999999,498.098,0.0,0.0,0.0,0.0,0.0,0,0,0,0
87348000,0,47.3980525,8.5462618,498.096,0.0,0.0,0.0,0.0,0.0,0,0,0,0
87448000,0,47.398052799999995,8.546259599999999,498.094,0.0,0.0,0.0,0.0,0.0,0,0,0,0
87548000,0,47.3980531,8.5462574,498.093,0.0,0.0,0.0,0.0,0.0,0,0,0,0
87648000,0,47.398053499999996,8.5462552,498.093,0.0,0.0,0.0,0.0,0.0,0,0,0,0
87748000,0,47.398053999999995,8.546252899999999,498.095,0.0,0.0,0.0,0.0,0.0,0,0,0,0
87848000,0,47.3980545,8.5462505,498.096,0.0,0.0,0.0,0.0,0.0,0,0,0,0
87948000,0,47.3980551,8.5462481,498.098,0.0,0.0,0.0,0.0,0.0,0,0,0,0
88048000,0,47.398055799999995,8.546245299999999,498.101,0.0,0.0,0.0,0.0,0.0,0,0,0,0
88148000,0,47.398056499999996,8.5462423,498.106,0.0,0.0,0.0,0.0,0.0,0,0,0,0
88248000,0,47.3980572,8.5462391,498.111,0.0,0.0,0.0,0.0,0.0,0,0,0,0
88348000,0,47.398058,8.5462358,498.116,0.0,0.0,0.0,0.0,0.0,0,0,0,0
