timestamp,timestamp_sample,q[0],q[1],q[2],q[3],delta_q_reset[0],delta_q_reset[1],delta_q_reset[2],delta_q_reset[3],quat_reset_counter
4128000,4128000,0.68999857,0.0017789264,-0.016478216,0.72362095,1.0,0.0,0.0,0.0,0
4132000,4132000,0.6899977,0.0017675346,-0.016432438,0.7236229,1.0,0.0,0.0,0.0,0
4136000,4136000,0.6899987,0.0017534625,-0.016386159,0.723623,1.0,0.0,0.0,0.0,0
4140000,4140000,0.69000316,0.0017433595,-0.016345058,0.72361976,1.0,0.0,0.0,0.0,0
4148000,4148000,0.69000834,0.0017295035,-0.016270261,0.7236165,1.0,0.0,0.0,0.0,0
4152000,4152000,0.69000494,0.0017251811,-0.016232446,0.7236206,1.0,0.0,0.0,0.0,0
4156000,4156000,0.6900004,0.0017203757,-0.016191252,0.72362584,1.0,0.0,0.0,0.0,0
4164000,4164000,0.6900023,0.0016995373,-0.016108,0.72362596,1.0,0.0,0.0,0.0,0
4168000,4168000,0.6900032,0.0016923996,-0.016064985,0.723626,1.0,0.0,0.0,0.0,0
4172000,4172000,0.69000375,0.0016859886,-0.016021201,0.72362655,1.0,0.0,0.0,0.0,0
4180000,4180000,0.6900094,0.0016713245,-0.015937451,0.723623,1.0,0.0,0.0,0.0,0
4188000,4188000,0.6893855,0.0016653634,-0.015857672,0.72421926,0.99999964,0.0,-1.2223609e-09,0.00088754296,1
4192000,4192000,0.6893955,0.0016574698,-0.015816782,0.72421056,0.99999964,0.0,-1.2223609e-09,0.00088754296,1
4196000,4196000,0.68940514,0.0016506693,-0.015774734,0.72420233,0.99999964,0.0,-1.2223609e-09,0.00088754296,1
4200000,4200000,0.6894136,0.001642606,-0.015731407,0.7241952,0.99999964,0.0,-1.2223609e-09,0.00088754296,1
4204000,4204000,0.6894226,0.0016300337,-0.015688194,0.7241877,0.99999964,0.0,-1.2223609e-09,0.00088754296,1
4208000,4208000,0.68943113,0.0016150979,-0.015648114,0.7241804,0.99999964,0.0,-1.2223609e-09,0.00088754296,1
4212000,4212000,0.6894374,0.0016027383,-0.015607599,0.7241754,0.99999964,0.0,-1.2223609e-09,0.00088754296,1
4220000,4220000,0.68945545,0.0015843302,-0.015531445,0.7241599,0.99999964,0.0,-1.2223609e-09,0.00088754296,1
4228000,4228000,0.6894767,0.0015807654,-0.015456589,0.72414124,0.99999964,0.0,-1.2223609e-09,0.00088754296,1
4236000,4236000,0.68950045,0.0015618159,-0.015380026,0.72412026,0.99999964,0.0,-1.2223609e-09,0.00088754296,1
4240000,4240000,0.68951255,0.0015564569,-0.015354362,0.72410935,0.99999964,0.0,-1.2223609e-09,0.00088754296,1
4244000,4244000,0.6895223,0.0015517465,-0.015326426,0.72410065,0.99999964,0.0,-1.2223609e-09,0.00088754296,1
4248000,4248000,0.68953246,0.0015476458,-0.015298583,0.7240916,0.99999964,0.0,-1.2223609e-09,0.00088754296,1
4252000,4252000,0.68954444,0.0015481219,-0.015271377,0.72408074,0.99999964,0.0,-1.2223609e-09,0.00088754296,1
4260000,4260000,0.689567,0.0015448141,-0.015221443,0.7240603,0.99999964,0.0,-1.2223609e-09,0.00088754296,1
4264000,4264000,0.6895809,0.0015350137,-0.015199711,0.7240476,0.99999964,0.0,-1.2223609e-09,0.00088754296,1
4272000,4272000,0.6896023,0.0015111376,-0.015161392,0.72402805,0.99999964,0.0,-1.2223609e-09,0.00088754296,1
4276000,4276000,0.6896125,0.0015015629,-0.015141677,0.7240187,0.99999964,0.0,-1.2223609e-09,0.00088754296,1
4284000,4284000,0.6896294,0.0014844526,-0.01510626,0.7240035,0.99999964,0.0,-1.2223609e-09,0.00088754296,1
4288000,4288000,0.6896364,0.0014772232,-0.015087167,0.7239972,0.99999964,0.0,-1.2223609e-09,0.00088754296,1
4292000,4292000,0.68964064,0.0014786422,-0.01506975,0.72399354,0.99999964,0.0,-1.2223609e-09,0.00088754296,1
4296000,4296000,0.68964505,0.0014819417,-0.0150579745,0.7239896,0.99999964,0.0,-1.2223609e-09,0.00088754296,1
4300000,4300000,0.6896522,0.0014789429,-0.015048232,0.723983,0.99999964,0.0,-1.2223609e-09,0.00088754296,1
4308000,4308000,0.68967223,0.0014662608,-0.015026854,0.7239643,0.99999964,0.0,-1.2223609e-09,0.00088754296,1
4312000,4312000,0.68967855,0.0014624507,-0.015015725,0.7239585,0.99999964,0.0,-1.2223609e-09,0.00088754296,1
4316000,4316000,0.68968064,0.0014611242,-0.015001905,0.7239568,0.99999964,0.0,-1.2223609e-09,0.00088754296,1
4320000,4320000,0.6896822,0.0014637503,-0.014990311,0.72395563,0.99999964,0.0,-1.2223609e-09,0.00088754296,1
4324000,4324000,0.68968445,0.0014653086,-0.014980625,0.72395366,0.99999964,0.0,-1.2223609e-09,0.00088754296,1
4328000,4328000,0.6896823,0.0014638986,-0.01497319,0.72395587,0.99999964,0.0,-1.2223609e-09,0.00088754296,1
4332000,4332000,0.6896809,0.001465571,-0.014967938,0.72395736,0.99999964,0.0,-1.2223609e-09,0.00088754296,1
4336000,4336000,0.68967843,0.0014733981,-0.014965374,0.7239597,0.99999964,0.0,-1.2223609e-09,0.00088754296,1
4340000,4340000,0.6896752,0.0014827333,-0.014963529,0.7239627,0.99999964,0.0,-1.2223609e-09,0.00088754296,1
4348000,4348000,0.68967164,0.001482862,-0.014965727,0.72396606,0.99999964,0.0,-1.2223609e-09,0.00088754296,1
4352000,4352000,0.68967134,0.0014783076,-0.014960868,0.7239665,0.99999964,0.0,-1.2223609e-09,0.00088754296,1
4356000,4356000,0.68967056,0.0014808895,-0.014955462,0.7239674,0.99999964,0.0,-1.2223609e-09,0.00088754296,1
4360000,4360000,0.689667,0.0014868601,-0.014952828,0.72397083,0.99999964,0.0,-1.2223609e-09,0.00088754296,1
4364000,4364000,0.6896615,0.0014900914,-0.014947625,0.7239761,0.99999964,0.0,-1.2223609e-09,0.00088754296,1
4368000,4368000,0.689657,0.0014895876,-0.014944868,0.7239805,0.99999964,0.0,-1.2223609e-09,0.00088754296,1
4372000,4372000,0.6896527,0.0014907073,-0.014946591,0.72398454,0.99999964,0.0,-1.2223609e-09,0.00088754296,1
4376000,4376000,0.68964684,0.0014952816,-0.014955366,0.7239899,0.99999964,0.0,-1.2223609e-09,0.00088754296,1
4380000,4380000,0.6896414,0.0014969069,-0.014966472,0.72399485,0.99999964,0.0,-1.2223609e-09,0.00088754296,1
4384000,4384000,0.6896392,0.0014964315,-0.014970326,0.7239968,0.99999964,0.0,-1.2223609e-09,0.00088754296,1
4388000,4388000,0.6896386,0.0014977333,-0.014968483,0.7239975,0.99999964,0.0,-1.2223609e-09,0.00088754296,1
4392000,4392000,0.6896197,0.0015021373,-0.014969313,0.7240154,0.99999964,0.0,-1.2223609e-09,0.00088754296,1
4396000,4396000,0.6895989,0.0015076584,-0.01497125,0.7240352,0.99999964,0.0,-1.2223609e-09,0.00088754296,1
4404000,4404000,0.6895602,0.0015118428,-0.014982866,0.7240718,0.99999964,0.0,-1.2223609e-09,0.00088754296,1
4412000,4412000,0.68952334,0.0015230846,-0.014988888,0.7241068,0.99999964,0.0,-1.2223609e-09,0.00088754296,1
4416000,4416000,0.6895059,0.0015315679,-0.014993547,0.72412336,0.99999964,0.0,-1.2223609e-09,0.00088754296,1
4420000,4420000,0.6894872,0.0015385214,-0.014998246,0.724141,0.99999964,0.0,-1.2223609e-09,0.00088754296,1
4424000,4424000,0.68946904,0.0015452526,-0.015003077,0.7241582,0.99999964,0.0,-1.2223609e-09,0.00088754296,1
4428000,4428000,0.6894535,0.0015512682,-0.015007165,0.72417283,0.99999964,0.0,-1.2223609e-09,0.00088754296,1
4432000,4432000,0.6894396,0.001557816,-0.015011288,0.72418594,0.99999964,0.0,-1.2223609e-09,0.00088754296,1
4440000,4440000,0.68940693,0.0015646024,-0.015023439,0.7242168,0.99999964,0.0,-1.2223609e-09,0.00088754296,1
4444000,4444000,0.6893905,0.0015651819,-0.015028065,0.7242324,0.99999964,0.0,-1.2223609e-09,0.00088754296,1
4448000,4448000,0.68937445,0.001570783,-0.01503398,0.7242475,0.99999964,0.0,-1.2223609e-09,0.00088754296,1
4452000,4452000,0.68935645,0.0015764555,-0.015044416,0.72426444,0.99999964,0.0,-1.2223609e-09,0.00088754296,1
4456000,4456000,0.6893385,0.0015822767,-0.015058085,0.72428125,0.99999964,0.0,-1.2223609e-09,0.00088754296,1
4460000,4460000,0.68932176,0.0015895342,-0.015067948,0.7242969,0.99999964,0.0,-1.2223609e-09,0.00088754296,1
4464000,4464000,0.6893054,0.0015978593,-0.015073812,0.7243123,0.99999964,0.0,-1.2223609e-09,0.00088754296,1
4468000,4468000,0.6892887,0.001608068,-0.015080006,0.7243281,0.99999964,0.0,-1.2223609e-09,0.00088754296,1
4472000,4472000,0.68927014,0.0016153839,-0.015087474,0.72434556,0.99999964,0.0,-1.2223609e-09,0.00088754296,1
4476000,4476000,0.68925047,0.0016226196,-0.015092687,0.72436416,0.99999964,0.0,-1.2223609e-09,0.00088754296,1
4480000,4480000,0.6892367,0.0016314121,-0.015095663,0.7243772,0.99999964,0.0,-1.2223609e-09,0.00088754296,1
4484000,4484000,0.689226,0.0016369274,-0.015100599,0.7243873,0.99999964,0.0,-1.2223609e-09,0.00088754296,1
4488000,4488000,0.68921304,0.0016390285,-0.015107541,0.7243994,0.99999964,0.0,-1.2223609e-09,0.00088754296,1
4492000,4492000,0.689199,0.001641896,-0.015115974,0.7244126,0.99999964,0.0,-1.2223609e-09,0.00088754296,1
4496000,4496000,0.68918574,0.0016462691,-0.01512512,0.724425,0.99999964,0.0,-1.2223609e-09,0.00088754296,1
4500000,4500000,0.6891709,0.0016536217,-0.015134192,0.7244389,0.99999964,0.0,-1.2223609e-09,0.00088754296,1
4504000,4504000,0.6891566,0.0016605341,-0.015142118,0.7244524,0.99999964,0.0,-1.2223609e-09,0.00088754296,1
4508000,4508000,0.6891423,0.0016636251,-0.015147875,0.7244658,0.99999964,0.0,-1.2223609e-09,0.00088754296,1
4512000,4512000,0.6891282,0.0016647733,-0.015153253,0.72447914,0.99999964,0.0,-1.2223609e-09,0.00088754296,1
4516000,4516000,0.68911487,0.0016685444,-0.015157433,0.7244918,0.99999964,0.0,-1.2223609e-09,0.00088754296,1
4520000,4520000,0.68910426,0.0016756735,-0.015160317,0.7245018,0.99999964,0.0,-1.2223609e-09,0.00088754296,1
4524000,4524000,0.689094,0.001682133,-0.015166229,0.7245113,0.99999964,0.0,-1.2223609e-09,0.00088754296,1
4528000,4528000,0.6890827,0.0016904527,-0.015174641,0.72452193,0.99999964,0.0,-1.2223609e-09,0.00088754296,1
4532000,4532000,0.6890698,0.0016990693,-0.015181165,0.724534,0.99999964,0.0,-1.2223609e-09,0.00088754296,1
4540000,4540000,0.6890772,0.0017012376,-0.015192828,0.7245267,0.99999964,0.0,-1.2223609e-09,0.00088754296,1
4544000,4544000,0.6890844,0.0017020481,-0.015203052,0.7245196,0.99999964,0.0,-1.2223609e-09,0.00088754296,1
4548000,4548000,0.6890905,0.0017043402,-0.015213241,0.7245136,0.99999964,0.0,-1.2223609e-09,0.00088754296,1
4556000,4556000,0.6891002,0.0017112743,-0.01521596,0.7245043,0.99999964,0.0,-1.2223609e-09,0.00088754296,1
4560000,4560000,0.68910605,0.0017111216,-0.015219925,0.7244986,0.99999964,0.0,-1.2223609e-09,0.00088754296,1
4564000,4564000,0.68911314,0.0017098547,-0.015223539,0.7244919,0.99999964,0.0,-1.2223609e-09,0.00088754296,1
4572000,4572000,0.68912804,0.0016989177,-0.015235621,0.72447747,0.99999964,0.0,-1.2223609e-09,0.00088754296,1
4580000,4580000,0.68914586,0.0016929071,-0.015256358,0.7244601,0.99999964,0.0,-1.2223609e-09,0.00088754296,1
4588000,4588000,0.68916667,0.0016834572,-0.015267505,0.7244401,0.99999964,0.0,-1.2223609e-09,0.00088754296,1
4596000,4596000,0.68918365,0.0016797691,-0.0152809,0.72442365,0.99999964,0.0,-1.2223609e-09,0.00088754296,1
4604000,4604000,0.68918645,0.0016815304,-0.015293144,0.7244207,0.99999964,0.0,-1.2223609e-09,0.00088754296,1
4608000,4608000,0.68918836,0.0016849815,-0.015300776,0.7244187,0.99999964,0.0,-1.2223609e-09,0.00088754296,1
4612000,4612000,0.68919104,0.0016891832,-0.015307635,0.72441596,0.99999964,0.0,-1.2223609e-09,0.00088754296,1
4616000,4616000,0.6891946,0.0016912739,-0.015316691,0.7244124,0.99999964,0.0,-1.2223609e-09,0.00088754296,1
4620000,4620000,0.6891994,0.0016959775,-0.015323796,0.7244077,0.99999964,0.0,-1.2223609e-09,0.00088754296,1
4624000,4624000,0.6892032,0.0017029548,-0.015325518,0.724404,0.99999964,0.0,-1.2223609e-09,0.00088754296,1
4628000,4628000,0.6892048,0.0017046126,-0.015327379,0.7244025,0.99999964,0.0,-1.2223609e-09,0.00088754296,1
4632000,4632000,0.6892074,0.001701632,-0.015331941,0.7244,0.99999964,0.0,-1.2223609e-09,0.00088754296,1
4636000,4636000,0.68921417,0.0017006705,-0.015338329,0.7243934,0.99999964,0.0,-1.2223609e-09,0.00088754296,1
4644000,4644000,0.68922436,0.0017029617,-0.015357701,0.72438323,0.99999964,0.0,-1.2223609e-09,0.00088754296,1
4648000,4648000,0.68922794,0.0017007719,-0.01536405,0.72437966,0.99999964,0.0,-1.2223609e-09,0.00088754296,1
4652000,4652000,0.6892335,0.0017003461,-0.0153639475,0.7243744,0.99999964,0.0,-1.2223609e-09,0.00088754296,1
4656000,4656000,0.68924063,0.0017012055,-0.015361898,0.7243677,0.99999964,0.0,-1.2223609e-09,0.00088754296,1
4660000,4660000,0.6892473,0.0017029032,-0.0153635945,0.72436124,0.99999964,0.0,-1.2223609e-09,0.00088754296,1
4664000,4664000,0.68925214,0.0017062504,-0.015365985,0.7243566,0.99999964,0.0,-1.2223609e-09,0.00088754296,1
4668000,4668000,0.68925655,0.0017084881,-0.0153695345,0.72435236,0.99999964,0.0,-1.2223609e-09,0.00088754296,1
4672000,4672000,0.6892568,0.0017076031,-0.015375773,0.724352,0.99999964,0.0,-1.2223609e-09,0.00088754296,1
4676000,4676000,0.68925506,0.0017070256,-0.015380879,0.7243535,0.99999964,0.0,-1.2223609e-09,0.00088754296,1
4680000,4680000,0.6892514,0.0017053321,-0.015381022,0.72435695,0.99999964,0.0,-1.2223609e-09,0.00088754296,1
4684000,4684000,0.68924975,0.0017028891,-0.015379675,0.72435856,0.99999964,0.0,-1.2223609e-09,0.00088754296,1
4688000,4688000,0.68924916,0.0016993469,-0.0153741725,0.72435933,0.99999964,0.0,-1.2223609e-09,0.00088754296,1
4692000,4692000,0.6892473,0.0016977091,-0.015370507,0.7243612,0.99999964,0.0,-1.2223609e-09,0.00088754296,1
4696000,4696000,0.6892467,0.0016951628,-0.015370221,0.7243618,0.99999964,0.0,-1.2223609e-09,0.00088754296,1
4700000,4700000,0.6892481,0.0016895707,-0.015366992,0.72436047,0.99999964,0.0,-1.2223609e-09,0.00088754296,1
4704000,4704000,0.6892481,0.0016862568,-0.015361425,0.7243606,0.99999964,0.0,-1.2223609e-09,0.00088754296,1
4708000,4708000,0.6892464,0.0016867497,-0.01535878,0.72436225,0.99999964,0.0,-1.2223609e-09,0.00088754296,1
4712000,4712000,0.68924373,0.0016874115,-0.015359877,0.7243648,0.99999964,0.0,-1.2223609e-09,0.00088754296,1
4716000,4716000,0.6892402,0.0016851008,-0.015363308,0.72436804,0.99999964,0.0,-1.2223609e-09,0.00088754296,1
4720000,4720000,0.6892353,0.0016828867,-0.015368226,0.7243726,0.99999964,0.0,-1.2223609e-09,0.00088754296,1
4724000,4724000,0.68923074,0.0016847939,-0.015371911,0.7243769,0.99999964,0.0,-1.2223609e-09,0.00088754296,1
4732000,4732000,0.68921924,0.0016848587,-0.015375576,0.72438776,0.99999964,0.0,-1.2223609e-09,0.00088754296,1
4740000,4740000,0.6892055,0.0016798123,-0.015366906,0.724401,0.99999964,0.0,-1.2223609e-09,0.00088754296,1
4744000,4744000,0.6891972,0.0016757058,-0.015365595,0.724409,0.99999964,0.0,-1.2223609e-09,0.00088754296,1
4748000,4748000,0.68918765,0.0016735039,-0.015366122,0.7244181,0.99999964,0.0,-1.2223609e-09,0.00088754296,1
4756000,4756000,0.6891643,0.0016757981,-0.01536391,0.7244404,0.99999964,0.0,-1.2223609e-09,0.00088754296,1
4760000,4760000,0.68915606,0.0016747798,-0.01536243,0.7244482,0.99999964,0.0,-1.2223609e-09,0.00088754296,1
4764000,4764000,0.68914825,0.0016707391,-0.0153602725,0.72445565,0.99999964,0.0,-1.2223609e-09,0.00088754296,1
4768000,4768000,0.6891401,0.0016665376,-0.015357175,0.72446346,0.99999964,0.0,-1.2223609e-09,0.00088754296,1
4772000,4772000,0.6891281,0.0016629887,-0.015353317,0.724475,0.99999964,0.0,-1.2223609e-09,0.00088754296,1
4776000,4776000,0.6891141,0.0016646049,-0.015352156,0.7244884,0.99999964,0.0,-1.2223609e-09,0.00088754296,1
4780000,4780000,0.68910545,0.0016678979,-0.015353204,0.72449654,0.99999964,0.0,-1.2223609e-09,0.00088754296,1
4784000,4784000,0.6891,0.0016653799,-0.015350814,0.7245017,0.99999964,0.0,-1.2223609e-09,0.00088754296,1
4788000,4788000,0.6890924,0.0016593585,-0.015345879,0.7245091,0.99999964,0.0,-1.2223609e-09,0.00088754296,1
4792000,4792000,0.6890836,0.0016554784,-0.015342967,0.7245176,0.99999964,0.0,-1.2223609e-09,0.00088754296,1
4796000,4796000,0.68907666,0.0016543026,-0.015341113,0.7245242,0.99999964,0.0,-1.2223609e-09,0.00088754296,1
4800000,4800000,0.68907017,0.0016545055,-0.015339794,0.7245304,0.99999964,0.0,-1.2223609e-09,0.00088754296,1
4804000,4804000,0.6890621,0.0016543088,-0.015338863,0.724538,0.99999964,0.0,-1.2223609e-09,0.00088754296,1
4812000,4812000,0.6890394,0.0016470616,-0.015337196,0.7245598,0.99999964,0.0,-1.2223609e-09,0.00088754296,1
4816000,4816000,0.68902403,0.0016475238,-0.015333248,0.7245745,0.99999964,0.0,-1.2223609e-09,0.00088754296,1
4824000,4824000,0.6889955,0.0016556456,-0.015331387,0.72460157,0.99999964,0.0,-1.2223609e-09,0.00088754296,1
4828000,4828000,0.6889847,0.001664088,-0.015332697,0.72461176,0.99999964,0.0,-1.2223609e-09,0.00088754296,1
4836000,4836000,0.6889735,0.001671991,-0.0153392125,0.72462225,0.99999964,0.0,-1.2223609e-09,0.00088754296,1
4840000,4840000,0.6889677,0.0016750051,-0.015340575,0.7246278,0.99999964,0.0,-1.2223609e-09,0.00088754296,1
4844000,4844000,0.68895805,0.0016745586,-0.015342408,0.724637,0.99999964,0.0,-1.2223609e-09,0.00088754296,1
4848000,4848000,0.6889449,0.001672822,-0.015346128,0.7246494,0.99999964,0.0,-1.2223609e-09,0.00088754296,1
4856000,4856000,0.6889289,0.0016666822,-0.015349426,0.7246645,0.99999964,0.0,-1.2223609e-09,0.00088754296,1
4860000,4860000,0.6889203,0.0016659971,-0.015351935,0.7246726,0.99999964,0.0,-1.2223609e-09,0.00088754296,1
4868000,4868000,0.6889039,0.0016577813,-0.015351367,0.7246882,0.99999964,0.0,-1.2223609e-09,0.00088754296,1
4872000,4872000,0.6889034,0.0016591001,-0.015349928,0.7246888,0.99999964,0.0,-1.2223609e-09,0.00088754296,1
4876000,4876000,0.6889047,0.0016623132,-0.015347307,0.72468764,0.99999964,0.0,-1.2223609e-09,0.00088754296,1
4880000,4880000,0.6889013,0.0016626377,-0.015345821,0.7246908,0.99999964,0.0,-1.2223609e-09,0.00088754296,1
4884000,4884000,0.6888937,0.0016636634,-0.015345834,0.724698,0.99999964,0.0,-1.2223609e-09,0.00088754296,1
4888000,4888000,0.6888899,0.001660785,-0.015332982,0.72470194,0.99999964,0.0,-1.2223609e-09,0.00088754296,1
4896000,4896000,0.68888354,0.0016475131,-0.0153016,0.7247087,0.99999964,0.0,-1.2223609e-09,0.00088754296,1
4900000,4900000,0.68888164,0.0016421733,-0.015288593,0.72471076,0.99999964,0.0,-1.2223609e-09,0.00088754296,1
4908000,4908000,0.68887436,0.0016311568,-0.015271943,0.72471803,0.99999964,0.0,-1.2223609e-09,0.00088754296,1
4916000,4916000,0.6888664,0.0016314844,-0.0152485175,0.7247262,0.99999964,0.0,-1.2223609e-09,0.00088754296,1
4920000,4920000,0.6888603,0.001625194,-0.015232576,0.7247322,0.99999964,0.0,-1.2223609e-09,0.00088754296,1
4924000,4924000,0.68885505,0.0016194019,-0.015220769,0.7247375,0.99999964,0.0,-1.2223609e-09,0.00088754296,1
4932000,4932000,0.68884873,0.001612146,-0.015193865,0.7247441,0.99999964,0.0,-1.2223609e-09,0.00088754296,1
4940000,4940000,0.6888468,0.0016000249,-0.015158603,0.7247467,0.99999964,0.0,-1.2223609e-09,0.00088754296,1
4948000,4948000,0.68884104,0.0015875706,-0.015123132,0.72475296,0.99999964,0.0,-1.2223609e-09,0.00088754296,1
4952000,4952000,0.6888431,0.0015868725,-0.01510764,0.72475135,0.99999964,0.0,-1.2223609e-09,0.00088754296,1
4956000,4956000,0.68885046,0.0015867305,-0.015094762,0.72474456,0.99999964,0.0,-1.2223609e-09,0.00088754296,1
4964000,4964000,0.6888603,0.0015922602,-0.015066637,0.72473586,0.99999964,0.0,-1.2223609e-09,0.00088754296,1
4968000,4968000,0.6888651,0.0015949999,-0.015049932,0.7247316,0.99999964,0.0,-1.2223609e-09,0.00088754296,1
4972000,4972000,0.6888719,0.0015921425,-0.0150337415,0.7247254,0.99999964,0.0,-1.2223609e-09,0.00088754296,1
4980000,4980000,0.688882,0.0015844447,-0.0149974255,0.7247166,0.99999964,0.0,-1.2223609e-09,0.00088754296,1
4984000,4984000,0.6888875,0.0015882747,-0.014975938,0.72471184,0.99999964,0.0,-1.2223609e-09,0.00088754296,1
4988000,4988000,0.6888918,0.0015928529,-0.014955185,0.7247082,0.99999964,0.0,-1.2223609e-09,0.00088754296,1
4996000,4996000,0.6888988,0.0016097144,-0.014919634,0.7247022,0.99999964,0.0,-1.2223609e-09,0.00088754296,1
5000000,5000000,0.6889047,0.001615741,-0.014908371,0.7246968,0.99999964,0.0,-1.2223609e-09,0.00088754296,1
5004000,5004000,0.6889136,0.0016237231,-0.014897429,0.72468853,0.99999964,0.0,-1.2223609e-09,0.00088754296,1
5008000,5008000,0.68892413,0.0016322841,-0.014885198,0.7246788,0.99999964,0.0,-1.2223609e-09,0.00088754296,1
5012000,5012000,0.6889313,0.0016335734,-0.014871273,0.7246723,0.99999964,0.0,-1.2223609e-09,0.00088754296,1
5016000,5016000,0.6889346,0.0016304028,-0.014855058,0.7246694,0.99999964,0.0,-1.2223609e-09,0.00088754296,1
5020000,5020000,0.68893915,0.001627294,-0.014840347,0.7246654,0.99999964,0.0,-1.2223609e-09,0.00088754296,1
5024000,5024000,0.68894476,0.0016267715,-0.0148299355,0.72466034,0.99999964,0.0,-1.2223609e-09,0.00088754296,1
5028000,5028000,0.6889488,0.0016283811,-0.014815706,0.72465676,0.99999964,0.0,-1.2223609e-09,0.00088754296,1
5036000,5036000,0.6889427,0.0016310416,-0.014774866,0.72466344,0.99999964,0.0,-1.2223609e-09,0.00088754296,1
5044000,5044000,0.688944,0.0016379323,-0.014750173,0.72466266,0.99999964,0.0,-1.2223609e-09,0.00088754296,1
5048000,5048000,0.6889412,0.0016401727,-0.014739593,0.7246656,0.99999964,0.0,-1.2223609e-09,0.00088754296,1
5052000,5052000,0.68893564,0.0016427629,-0.014730137,0.724671,0.99999964,0.0,-1.2223609e-09,0.00088754296,1
5056000,5056000,0.6889334,0.0016463294,-0.014721436,0.72467333,0.99999964,0.0,-1.2223609e-09,0.00088754296,1
5064000,5064000,0.6889336,0.0016549823,-0.014695703,0.72467357,0.99999964,0.0,-1.2223609e-09,0.00088754296,1
5068000,5068000,0.68893033,0.0016608565,-0.014684687,0.7246769,0.99999964,0.0,-1.2223609e-09,0.00088754296,1
5076000,5076000,0.6889222,0.001661754,-0.014672666,0.72468483,0.99999964,0.0,-1.2223609e-09,0.00088754296,1
5080000,5080000,0.6889185,0.0016620219,-0.014669986,0.7246885,0.99999964,0.0,-1.2223609e-09,0.00088754296,1
5084000,5084000,0.68891394,0.0016622741,-0.014667309,0.7246928,0.99999964,0.0,-1.2223609e-09,0.00088754296,1
5088000,5088000,0.6889089,0.0016637065,-0.014663382,0.72469777,0.99999964,0.0,-1.2223609e-09,0.00088754296,1
5092000,5092000,0.68890345,0.0016672753,-0.01465488,0.72470313,0.99999964,0.0,-1.2223609e-09,0.00088754296,1
5100000,5100000,0.6888969,0.0016787963,-0.01461513,0.7247101,0.99999964,0.0,-1.2223609e-09,0.00088754296,1
5104000,5104000,0.6888897,0.0016893774,-0.014593151,0.7247174,0.99999964,0.0,-1.2223609e-09,0.00088754296,1
5108000,5108000,0.6888817,0.0016983987,-0.014569707,0.72472537,0.99999964,0.0,-1.2223609e-09,0.00088754296,1
5112000,5112000,0.6888736,0.0017038226,-0.014549817,0.7247335,0.99999964,0.0,-1.2223609e-09,0.00088754296,1
5116000,5116000,0.688865,0.0017107254,-0.014529135,0.724742,0.99999964,0.0,-1.2223609e-09,0.00088754296,1
5124000,5124000,0.68885195,0.0017259188,-0.014489695,0.72475517,0.99999964,0.0,-1.2223609e-09,0.00088754296,1
5128000,5128000,0.6888479,0.0017252121,-0.014472632,0.72475934,0.99999964,0.0,-1.2223609e-09,0.00088754296,1
5136000,5136000,0.68883467,0.0017161265,-0.014435279,0.72477275,0.99999964,0.0,-1.2223609e-09,0.00088754296,1
5140000,5140000,0.6888296,0.0017157668,-0.01441591,0.72477794,0.99999964,0.0,-1.2223609e-09,0.00088754296,1
5148000,5148000,0.6888206,0.0017264705,-0.014377479,0.7247872,0.99999964,0.0,-1.2223609e-09,0.00088754296,1
5152000,5152000,0.68881184,0.0017298212,-0.014355572,0.72479594,0.99999964,0.0,-1.2223609e-09,0.00088754296,1
5156000,5156000,0.68880033,0.0017376934,-0.014335815,0.7248073,0.99999964,0.0,-1.2223609e-09,0.00088754296,1
5160000,5160000,0.6887889,0.0017464876,-0.014318145,0.7248185,0.99999964,0.0,-1.2223609e-09,0.00088754296,1
5164000,5164000,0.68877757,0.0017492196,-0.014299121,0.7248296,0.99999964,0.0,-1.2223609e-09,0.00088754296,1
5168000,5168000,0.68876714,0.0017520785,-0.014283295,0.7248398,0.99999964,0.0,-1.2223609e-09,0.00088754296,1
5172000,5172000,0.6887605,0.0017576775,-0.014268521,0.7248464,0.99999964,0.0,-1.2223609e-09,0.00088754296,1
5176000,5176000,0.68875,0.0017610929,-0.014251687,0.72485673,0.99999964,0.0,-1.2223609e-09,0.00088754296,1
5180000,5180000,0.6887373,0.001761065,-0.014234568,0.7248692,0.99999964,0.0,-1.2223609e-09,0.00088754296,1
5188000,5188000,0.68870884,0.0017669975,-0.014194784,0.72489697,0.99999964,0.0,-1.2223609e-09,0.00088754296,1
5192000,5192000,0.68869734,0.0017692798,-0.014172938,0.72490835,0.99999964,0.0,-1.2223609e-09,0.00088754296,1
5196000,5196000,0.68869084,0.0017724514,-0.014152563,0.7249149,0.99999964,0.0,-1.2223609e-09,0.00088754296,1
5200000,5200000,0.6886873,0.0017783783,-0.0141393505,0.7249185,0.99999964,0.0,-1.2223609e-09,0.00088754296,1
5204000,5204000,0.68867993,0.0017850405,-0.014128388,0.7249257,0.99999964,0.0,-1.2223609e-09,0.00088754296,1
5212000,5212000,0.68865174,0.0017892935,-0.01409629,0.724953,0.99999964,0.0,-1.2223609e-09,0.00088754296,1
5216000,5216000,0.68864053,0.0017912197,-0.014075385,0.724964,0.99999964,0.0,-1.2223609e-09,0.00088754296,1
5220000,5220000,0.6886324,0.0017973762,-0.014055499,0.7249721,0.99999964,0.0,-1.2223609e-09,0.00088754296,1
5228000,5228000,0.68861675,0.0018107486,-0.014022899,0.7249876,0.99999964,0.0,-1.2223609e-09,0.00088754296,1
5232000,5232000,0.68860555,0.0018106472,-0.014006978,0.72499865,0.99999964,0.0,-1.2223609e-09,0.00088754296,1
5236000,5236000,0.6885935,0.0018106084,-0.013994071,0.72501034,0.99999964,0.0,-1.2223609e-09,0.00088754296,1
5240000,5240000,0.68858373,0.0018112089,-0.013980385,0.7250199,0.99999964,0.0,-1.2223609e-09,0.00088754296,1
5244000,5244000,0.6885751,0.0018129125,-0.013964784,0.72502834,0.99999964,0.0,-1.2223609e-09,0.00088754296,1
5248000,5248000,0.6885735,0.0018163823,-0.013951785,0.7250302,0.99999964,0.0,-1.2223609e-09,0.00088754296,1
5252000,5252000,0.6885702,0.0018209807,-0.013939887,0.72503346,0.99999964,0.0,-1.2223609e-09,0.00088754296,1
5260000,5260000,0.6885667,0.0018215291,-0.013925719,0.72503704,0.99999964,0.0,-1.2223609e-09,0.00088754296,1
5264000,5264000,0.6885663,0.0018248204,-0.013916469,0.7250376,0.99999964,0.0,-1.2223609e-09,0.00088754296,1
5268000,5268000,0.6885648,0.0018336296,-0.013902935,0.7250393,0.99999964,0.0,-1.2223609e-09,0.00088754296,1
5272000,5272000,0.688563,0.0018397553,-0.013893559,0.72504115,0.99999964,0.0,-1.2223609e-09,0.00088754296,1
5276000,5276000,0.68856084,0.0018433649,-0.013889144,0.72504324,0.99999964,0.0,-1.2223609e-09,0.00088754296,1
5280000,5280000,0.68855965,0.0018498384,-0.0138838,0.7250445,0.99999964,0.0,-1.2223609e-09,0.00088754296,1
5284000,5284000,0.6885577,0.0018584976,-0.013876141,0.7250465,0.99999964,0.0,-1.2223609e-09,0.00088754296,1
5292000,5292000,0.68855757,0.0018637923,-0.013869883,0.7250467,0.99999964,0.0,-1.2223609e-09,0.00088754296,1
5300000,5300000,0.68855786,0.0018647447,-0.013851314,0.7250467,0.99999964,0.0,-1.2223609e-09,0.00088754296,1
5308000,5308000,0.68855655,0.0018641126,-0.013830426,0.72504836,0.99999964,0.0,-1.2223609e-09,0.00088754296,1
5312000,5312000,0.688556,0.0018618249,-0.013821642,0.725049,0.99999964,0.0,-1.2223609e-09,0.00088754296,1
5316000,5316000,0.68855786,0.001858134,-0.013815151,0.72504747,0.99999964,0.0,-1.2223609e-09,0.00088754296,1
5320000,5320000,0.6885592,0.0018547558,-0.013811728,0.7250463,0.99999964,0.0,-1.2223609e-09,0.00088754296,1
5328000,5328000,0.6885591,0.0018531306,-0.013805914,0.7250465,0.99999964,0.0,-1.2223609e-09,0.00088754296,1
5332000,5332000,0.6885613,0.001852052,-0.013793413,0.72504467,0.99999964,0.0,-1.2223609e-09,0.00088754296,1
5336000,5336000,0.6885649,0.0018516387,-0.013780503,0.7250415,0.99999964,0.0,-1.2223609e-09,0.00088754296,1
5340000,5340000,0.68856955,0.0018514999,-0.013777376,0.72503716,0.99999964,0.0,-1.2223609e-09,0.00088754296,1
5344000,5344000,0.68857396,0.001850922,-0.013775718,0.725033,0.99999964,0.0,-1.2223609e-09,0.00088754296,1
5348000,5348000,0.68857837,0.001849841,-0.013769174,0.7250288,0.99999964,0.0,-1.2223609e-09,0.00088754296,1
5356000,5356000,0.68858254,0.00184795,-0.0137623185,0.725025,0.99999964,0.0,-1.2223609e-09,0.00088754296,1
5360000,5360000,0.68858343,0.0018440785,-0.013759035,0.7250243,0.99999964,0.0,-1.2223609e-09,0.00088754296,1
5364000,5364000,0.6885847,0.0018443456,-0.013755266,0.7250232,0.99999964,0.0,-1.2223609e-09,0.00088754296,1
5368000,5368000,0.6885848,0.0018460321,-0.013750603,0.72502315,0.99999964,0.0,-1.2223609e-09,0.00088754296,1
5372000,5372000,0.68858296,0.0018496127,-0.01374778,0.72502494,0.99999964,0.0,-1.2223609e-09,0.00088754296,1
5376000,5376000,0.68858117,0.0018535111,-0.013745516,0.72502667,0.99999964,0.0,-1.2223609e-09,0.00088754296,1
5380000,5380000,0.68858135,0.0018559402,-0.013743285,0.72502655,0.99999964,0.0,-1.2223609e-09,0.00088754296,1
5388000,5388000,0.68858993,0.0018514436,-0.0137405,0.7250185,0.99999964,0.0,-1.2223609e-09,0.00088754296,1
5392000,5392000,0.6885927,0.0018512668,-0.013736086,0.7250159,0.99999964,0.0,-1.2223609e-09,0.00088754296,1
5396000,5396000,0.68859386,0.0018518333,-0.013732412,0.7250148,0.99999964,0.0,-1.2223609e-09,0.00088754296,1
5400000,5400000,0.6885971,0.0018498676,-0.013729393,0.7250119,0.99999964,0.0,-1.2223609e-09,0.00088754296,1
5404000,5404000,0.68860024,0.0018482683,-0.013725986,0.7250089,0.99999964,0.0,-1.2223609e-09,0.00088754296,1
5412000,5412000,0.6886014,0.0018549062,-0.013720069,0.72500795,0.99999964,0.0,-1.2223609e-09,0.00088754296,1
5416000,5416000,0.6886032,0.001856773,-0.013715812,0.7250063,0.99999964,0.0,-1.2223609e-09,0.00088754296,1
5420000,5420000,0.6886047,0.0018578604,-0.013710822,0.725005,0.99999964,0.0,-1.2223609e-09,0.00088754296,1
5424000,5424000,0.6886065,0.0018545281,-0.013706854,0.7250033,0.99999964,0.0,-1.2223609e-09,0.00088754296,1
5428000,5428000,0.68860483,0.0018493156,-0.013705579,0.7250049,0.99999964,0.0,-1.2223609e-09,0.00088754296,1
5432000,5432000,0.6885972,0.0018497647,-0.013706191,0.7250122,0.99999964,0.0,-1.2223609e-09,0.00088754296,1
5436000,5436000,0.6885903,0.0018517924,-0.013709023,0.7250187,0.99999964,0.0,-1.2223609e-09,0.00088754296,1
5440000,5440000,0.6885865,0.0018475096,-0.013710251,0.7250223,0.99999964,0.0,-1.2223609e-09,0.00088754296,1
5444000,5444000,0.6885835,0.001840055,-0.013704778,0.72502524,0.99999964,0.0,-1.2223609e-09,0.00088754296,1
5448000,5448000,0.6885796,0.0018367809,-0.01369818,0.72502905,0.99999964,0.0,-1.2223609e-09,0.00088754296,1
5456000,5456000,0.68857,0.0018451533,-0.013689598,0.72503835,0.99999964,0.0,-1.2223609e-09,0.00088754296,1
5460000,5460000,0.688569,0.0018526587,-0.013684321,0.7250394,0.99999964,0.0,-1.2223609e-09,0.00088754296,1
5468000,5468000,0.68857825,0.0018619084,-0.013676357,0.72503066,0.99999964,0.0,-1.2223609e-09,0.00088754296,1
5476000,5476000,0.6885993,0.0018687651,-0.013672361,0.7250108,0.99999964,0.0,-1.2223609e-09,0.00088754296,1
5480000,5480000,0.6886077,0.001865868,-0.013669468,0.7250029,0.99999964,0.0,-1.2223609e-09,0.00088754296,1
5484000,5484000,0.6886123,0.001862898,-0.013666586,0.7249986,0.99999964,0.0,-1.2223609e-09,0.00088754296,1
5488000,5488000,0.6886164,0.0018616063,-0.013665224,0.7249947,0.99999964,0.0,-1.2223609e-09,0.00088754296,1
5492000,5492000,0.68861973,0.0018621532,-0.0136626875,0.72499156,0.99999964,0.0,-1.2223609e-09,0.00088754296,1
5500000,5500000,0.68862724,0.0018667605,-0.013651214,0.7249847,0.99999964,0.0,-1.2223609e-09,0.00088754296,1
5508000,5508000,0.6886424,0.0018713569,-0.013637914,0.7249705,0.99999964,0.0,-1.2223609e-09,0.00088754296,1
5516000,5516000,0.68864846,0.0018656462,-0.013633915,0.72496486,0.99999964,0.0,-1.2223609e-09,0.00088754296,1
5524000,5524000,0.68864834,0.0018609753,-0.013623555,0.7249651,0.99999964,0.0,-1.2223609e-09,0.00088754296,1
5532000,5532000,0.6886488,0.0018469965,-0.013610093,0.724965,0.99999964,0.0,-1.2223609e-09,0.00088754296,1
5540000,5540000,0.6886381,0.0018415813,-0.013618682,0.724975,0.99999964,0.0,-1.2223609e-09,0.00088754296,1
5544000,5544000,0.6886362,0.0018417613,-0.013627051,0.72497666,0.99999964,0.0,-1.2223609e-09,0.00088754296,1
5552000,5552000,0.6886339,0.0018329015,-0.0136327315,0.72497874,0.99999964,0.0,-1.2223609e-09,0.00088754296,1
5556000,5556000,0.6886335,0.0018298659,-0.013629134,0.7249792,0.99999964,0.0,-1.2223609e-09,0.00088754296,1
5560000,5560000,0.6886336,0.0018273391,-0.013627409,0.72497916,0.99999964,0.0,-1.2223609e-09,0.00088754296,1
5564000,5564000,0.6886341,0.0018244914,-0.013627576,0.72497874,0.99999964,0.0,-1.2223609e-09,0.00088754296,1
5568000,5568000,0.6886363,0.0018234598,-0.013621286,0.72497666,0.99999964,0.0,-1.2223609e-09,0.00088754296,1
5572000,5572000,0.68864053,0.0018235459,-0.013613084,0.72497284,0.99999964,0.0,-1.2223609e-09,0.00088754296,1
5580000,5580000,0.688646,0.0018226001,-0.013617897,0.72496754,0.99999964,0.0,-1.2223609e-09,0.00088754296,1
5584000,5584000,0.6886475,0.0018184889,-0.013617199,0.7249661,0.99999964,0.0,-1.2223609e-09,0.00088754296,1
5588000,5588000,0.6886471,0.0018116775,-0.013615445,0.7249666,0.99999964,0.0,-1.2223609e-09,0.00088754296,1
5592000,5592000,0.6886441,0.0018072134,-0.013617403,0.72496945,0.99999964,0.0,-1.2223609e-09,0.00088754296,1
5596000,5596000,0.68863994,0.0018049667,-0.01361855,0.7249734,0.99999964,0.0,-1.2223609e-09,0.00088754296,1
5600000,5600000,0.68863565,0.001801382,-0.013615164,0.72497755,0.99999964,0.0,-1.2223609e-09,0.00088754296,1
5604000,5604000,0.6886337,0.0017974355,-0.013610652,0.7249795,0.99999964,0.0,-1.2223609e-09,0.00088754296,1
5608000,5608000,0.68864053,0.0017949076,-0.013607937,0.724973,0.99999964,0.0,-1.2223609e-09,0.00088754296,1
5612000,5612000,0.6886474,0.0017909318,-0.01360752,0.72496647,0.99999964,0.0,-1.2223609e-09,0.00088754296,1
5616000,5616000,0.6886526,0.001785348,-0.013608227,0.7249616,0.99999964,0.0,-1.2223609e-09,0.00088754296,1
5620000,5620000,0.68865734,0.0017811664,-0.013605132,0.7249571,0.99999964,0.0,-1.2223609e-09,0.00088754296,1
5624000,5624000,0.6886624,0.001779461,-0.013599661,0.7249524,0.99999964,0.0,-1.2223609e-09,0.00088754296,1
5628000,5628000,0.6886675,0.0017771185,-0.013598727,0.72494763,0.99999964,0.0,-1.2223609e-09,0.00088754296,1
5632000,5632000,0.6886728,0.0017747387,-0.013600378,0.7249425,0.99999964,0.0,-1.2223609e-09,0.00088754296,1
5636000,5636000,0.6886778,0.0017708071,-0.013600564,0.7249378,0.99999964,0.0,-1.2223609e-09,0.00088754296,1
5644000,5644000,0.6886814,0.0017580978,-0.0136017185,0.7249344,0.99999964,0.0,-1.2223609e-09,0.00088754296,1
5648000,5648000,0.6886824,0.001751252,-0.013603011,0.7249335,0.99999964,0.0,-1.2223609e-09,0.00088754296,1
5652000,5652000,0.6886856,0.0017482337,-0.013604955,0.7249304,0.99999964,0.0,-1.2223609e-09,0.00088754296,1
5656000,5656000,0.6886899,0.0017466496,-0.013607937,0.72492623,0.99999964,0.0,-1.2223609e-09,0.00088754296,1
5660000,5660000,0.6886938,0.001743591,-0.013612464,0.7249224,0.99999964,0.0,-1.2223609e-09,0.00088754296,1
5664000,5664000,0.6886989,0.0017400649,-0.013615392,0.7249176,0.99999964,0.0,-1.2223609e-09,0.00088754296,1
5668000,5668000,0.6887048,0.0017349704,-0.013615345,0.724912,0.99999964,0.0,-1.2223609e-09,0.00088754296,1
5672000,5672000,0.6887166,0.0017331047,-0.013615117,0.7249008,0.99999964,0.0,-1.2223609e-09,0.00088754296,1
5680000,5680000,0.6887383,0.0017261989,-0.013612763,0.72488016,0.99999964,0.0,-1.2223609e-09,0.00088754296,1
5684000,5684000,0.6887479,0.0017208427,-0.013613283,0.72487116,0.99999964,0.0,-1.2223609e-09,0.00088754296,1
5688000,5688000,0.68875855,0.0017183601,-0.013610988,0.7248611,0.99999964,0.0,-1.2223609e-09,0.00088754296,1
5692000,5692000,0.68876964,0.0017150742,-0.013606452,0.72485065,0.99999964,0.0,-1.2223609e-09,0.00088754296,1
5696000,5696000,0.6887804,0.0017101523,-0.013600729,0.7248404,0.99999964,0.0,-1.2223609e-09,0.00088754296,1
5700000,5700000,0.6887886,0.0017040983,-0.013596926,0.7248328,0.99999964,0.0,-1.2223609e-09,0.00088754296,1
5708000,5708000,0.6888016,0.0016930605,-0.01359777,0.7248205,0.99999964,0.0,-1.2223609e-09,0.00088754296,1
5716000,5716000,0.6888213,0.0016909605,-0.013584246,0.72480196,0.99999964,0.0,-1.2223609e-09,0.00088754296,1
5720000,5720000,0.6888296,0.0016827527,-0.013588629,0.72479403,0.99999964,0.0,-1.2223609e-09,0.00088754296,1
5724000,5724000,0.6888382,0.001676811,-0.013592953,0.72478575,0.99999964,0.0,-1.2223609e-09,0.00088754296,1
5728000,5728000,0.6888466,0.001671735,-0.013594187,0.72477776,0.99999964,0.0,-1.2223609e-09,0.00088754296,1
5732000,5732000,0.6888531,0.0016650977,-0.01359471,0.7247716,0.99999964,0.0,-1.2223609e-09,0.00088754296,1
5736000,5736000,0.6888578,0.0016593798,-0.013595915,0.72476715,0.99999964,0.0,-1.2223609e-09,0.00088754296,1
5740000,5740000,0.6888636,0.0016559617,-0.013597813,0.7247616,0.99999964,0.0,-1.2223609e-09,0.00088754296,1
5744000,5744000,0.6888687,0.0016539292,-0.013599997,0.7247567,0.99999964,0.0,-1.2223609e-09,0.00088754296,1
5748000,5748000,0.68887496,0.0016489067,-0.013602256,0.7247507,0.99999964,0.0,-1.2223609e-09,0.00088754296,1
5752000,5752000,0.6888811,0.0016395347,-0.013605336,0.7247449,0.99999964,0.0,-1.2223609e-09,0.00088754296,1
5760000,5760000,0.688892,0.0016181166,-0.013605119,0.7247345,0.99999964,0.0,-1.2223609e-09,0.00088754296,1
5764000,5764000,0.68889683,0.0016080776,-0.013606671,0.72472996,0.99999964,0.0,-1.2223609e-09,0.00088754296,1
5768000,5768000,0.6888999,0.0016013428,-0.013615641,0.72472686,0.99999964,0.0,-1.2223609e-09,0.00088754296,1
5776000,5776000,0.68890625,0.0015942928,-0.013629244,0.7247206,0.99999964,0.0,-1.2223609e-09,0.00088754296,1
5780000,5780000,0.688911,0.0015888503,-0.013638524,0.7247159,0.99999964,0.0,-1.2223609e-09,0.00088754296,1
5784000,5784000,0.6889146,0.0015805573,-0.01364613,0.7247123,0.99999964,0.0,-1.2223609e-09,0.00088754296,1
5788000,5788000,0.6889163,0.0015725187,-0.013650343,0.72471064,0.99999964,0.0,-1.2223609e-09,0.00088754296,1
5792000,5792000,0.6889175,0.0015675903,-0.013655213,0.7247094,0.99999964,0.0,-1.2223609e-09,0.00088754296,1
5796000,5796000,0.6889206,0.001563818,-0.013659674,0.7247064,0.99999964,0.0,-1.2223609e-09,0.00088754296,1
5800000,5800000,0.6889259,0.0015604923,-0.013662223,0.7247013,0.99999964,0.0,-1.2223609e-09,0.00088754296,1
5804000,5804000,0.68893474,0.0015572894,-0.013667023,0.7246929,0.99999964,0.0,-1.2223609e-09,0.00088754296,1
5808000,5808000,0.68894154,0.0015511396,-0.013674973,0.7246863,0.99999964,0.0,-1.2223609e-09,0.00088754296,1
5812000,5812000,0.6889453,0.001539642,-0.01368231,0.7246826,0.99999964,0.0,-1.2223609e-09,0.00088754296,1
5820000,5820000,0.6889504,0.0015214015,-0.013694357,0.72467756,0.99999964,0.0,-1.2223609e-09,0.00088754296,1
5828000,5828000,0.6889507,0.0015088785,-0.013699618,0.72467715,0.99999964,0.0,-1.2223609e-09,0.00088754296,1
5832000,5832000,0.688951,0.0014994639,-0.0137056,0.7246768,0.99999964,0.0,-1.2223609e-09,0.00088754296,1
5836000,5836000,0.6889528,0.0014923185,-0.013710768,0.724675,0.99999964,0.0,-1.2223609e-09,0.00088754296,1
5844000,5844000,0.68895346,0.0014879081,-0.013715348,0.7246743,0.99999964,0.0,-1.2223609e-09,0.00088754296,1
5848000,5848000,0.6889536,0.00148168,-0.013717249,0.72467417,0.99999964,0.0,-1.2223609e-09,0.00088754296,1
5852000,5852000,0.6889552,0.0014737223,-0.013724088,0.7246725,0.99999964,0.0,-1.2223609e-09,0.00088754296,1
5856000,5856000,0.68895584,0.0014652641,-0.013729131,0.7246718,0.99999964,0.0,-1.2223609e-09,0.00088754296,1
5864000,5864000,0.68895084,0.0014480113,-0.013733286,0.7246766,0.99999964,0.0,-1.2223609e-09,0.00088754296,1
5868000,5868000,0.6889489,0.0014408334,-0.013733855,0.72467834,0.99999964,0.0,-1.2223609e-09,0.00088754296,1
5872000,5872000,0.6889496,0.0014337036,-0.013735978,0.7246777,0.99999964,0.0,-1.2223609e-09,0.00088754296,1
5876000,5876000,0.68895024,0.0014261877,-0.0137377335,0.724677,0.99999964,0.0,-1.2223609e-09,0.00088754296,1
5884000,5884000,0.6889383,0.0014109155,-0.013729295,0.7246886,0.99999964,0.0,-1.2223609e-09,0.00088754296,1
5892000,5892000,0.68892443,0.0013990675,-0.013727282,0.7247019,0.99999964,0.0,-1.2223609e-09,0.00088754296,1
5896000,5896000,0.68892145,0.0013952383,-0.013726848,0.72470474,0.99999964,0.0,-1.2223609e-09,0.00088754296,1
5900000,5900000,0.688918,0.001392984,-0.013729389,0.72470796,0.99999964,0.0,-1.2223609e-09,0.00088754296,1
5904000,5904000,0.68891364,0.0013903591,-0.013736168,0.7247119,0.99999964,0.0,-1.2223609e-09,0.00088754296,1
5908000,5908000,0.68890667,0.0013862345,-0.01374525,0.72471845,0.99999964,0.0,-1.2223609e-09,0.00088754296,1
5916000,5916000,0.68889296,0.0013861342,-0.01375097,0.7247314,0.99999964,0.0,-1.2223609e-09,0.00088754296,1
5920000,5920000,0.6888874,0.0013883103,-0.0137487985,0.72473663,0.99999964,0.0,-1.2223609e-09,0.00088754296,1
5924000,5924000,0.68888116,0.0013879036,-0.013749333,0.7247426,0.99999964,0.0,-1.2223609e-09,0.00088754296,1
5928000,5928000,0.68887556,0.0013811953,-0.01375302,0.72474784,0.99999964,0.0,-1.2223609e-09,0.00088754296,1
5932000,5932000,0.6888715,0.0013756553,-0.013757054,0.72475165,0.99999964,0.0,-1.2223609e-09,0.00088754296,1
5936000,5936000,0.6888678,0.001371902,-0.013763841,0.72475505,0.99999964,0.0,-1.2223609e-09,0.00088754296,1
5940000,5940000,0.68886256,0.0013661701,-0.013768044,0.72475994,0.99999964,0.0,-1.2223609e-09,0.00088754296,1
5948000,5948000,0.6888437,0.001349891,-0.013771295,0.7247778,0.99999964,0.0,-1.2223609e-09,0.00088754296,1
5952000,5952000,0.68883514,0.0013454596,-0.0137732085,0.7247859,0.99999964,0.0,-1.2223609e-09,0.00088754296,1
5956000,5956000,0.6888301,0.0013414995,-0.013776237,0.72479075,0.99999964,0.0,-1.2223609e-09,0.00088754296,1
5960000,5960000,0.6888269,0.0013370309,-0.013781369,0.7247936,0.99999964,0.0,-1.2223609e-09,0.00088754296,1
5964000,5964000,0.68882304,0.0013314089,-0.013786156,0.72479725,0.99999964,0.0,-1.2223609e-09,0.00088754296,1
5968000,5968000,0.6888179,0.0013262529,-0.013790404,0.724802,0.99999964,0.0,-1.2223609e-09,0.00088754296,1
5972000,5972000,0.68881047,0.0013240839,-0.013795334,0.72480905,0.99999964,0.0,-1.2223609e-09,0.00088754296,1
5976000,5976000,0.68880093,0.0013238759,-0.01380046,0.724818,0.99999964,0.0,-1.2223609e-09,0.00088754296,1
5980000,5980000,0.68879455,0.0013207342,-0.01380641,0.724824,0.99999964,0.0,-1.2223609e-09,0.00088754296,1
5988000,5988000,0.6887893,0.0013061684,-0.013820156,0.72482866,0.99999964,0.0,-1.2223609e-09,0.00088754296,1
5992000,5992000,0.68878627,0.0013000877,-0.013823824,0.72483146,0.99999964,0.0,-1.2223609e-09,0.00088754296,1
5996000,5996000,0.68878525,0.0012909168,-0.013823047,0.7248325,0.99999964,0.0,-1.2223609e-09,0.00088754296,1
6000000,6000000,0.68878496,0.0012788118,-0.013822256,0.7248328,0.99999964,0.0,-1.2223609e-09,0.00088754296,1
6004000,6004000,0.6887819,0.0012709404,-0.01382701,0.72483563,0.99999964,0.0,-1.2223609e-09,0.00088754296,1
6008000,6008000,0.6887776,0.0012657614,-0.0138327535,0.7248397,0.99999964,0.0,-1.2223609e-09,0.00088754296,1
6012000,6012000,0.68877524,0.0012631488,-0.013834284,0.7248419,0.99999964,0.0,-1.2223609e-09,0.00088754296,1
6016000,6016000,0.6887742,0.0012676328,-0.013836875,0.7248428,0.99999964,0.0,-1.2223609e-09,0.00088754296,1
6020000,6020000,0.6887728,0.0012756034,-0.013843521,0.72484404,0.99999964,0.0,-1.2223609e-09,0.00088754296,1
6024000,6024000,0.68877345,0.0012792618,-0.013848515,0.72484326,0.99999964,0.0,-1.2223609e-09,0.00088754296,1
6028000,6028000,0.688775,0.0012794604,-0.013850207,0.7248418,0.99999964,0.0,-1.2223609e-09,0.00088754296,1
6032000,6032000,0.6887761,0.001282858,-0.01385007,0.72484076,0.99999964,0.0,-1.2223609e-09,0.00088754296,1
6036000,6036000,0.6887752,0.0012858518,-0.013850321,0.72484154,0.99999964,0.0,-1.2223609e-09,0.00088754296,1
6040000,6040000,0.6887745,0.0012876315,-0.01385263,0.7248421,0.99999964,0.0,-1.2223609e-09,0.00088754296,1
6044000,6044000,0.6887751,0.001288352,-0.01385685,0.72484154,0.99999964,0.0,-1.2223609e-09,0.00088754296,1
6048000,6048000,0.688777,0.0012900546,-0.013860061,0.7248396,0.99999964,0.0,-1.2223609e-09,0.00088754296,1
6052000,6052000,0.6887809,0.0012932809,-0.013862479,0.72483593,0.99999964,0.0,-1.2223609e-09,0.00088754296,1
6056000,6056000,0.68878233,0.0012921769,-0.013865544,0.7248345,0.99999964,0.0,-1.2223609e-09,0.00088754296,1
6060000,6060000,0.6887791,0.0012894401,-0.013867151,0.7248375,0.99999964,0.0,-1.2223609e-09,0.00088754296,1
6064000,6064000,0.68877614,0.0012894663,-0.013865084,0.72484034,0.99999964,0.0,-1.2223609e-09,0.00088754296,1
6072000,6072000,0.68877614,0.001290321,-0.013864862,0.72484034,0.99999964,0.0,-1.2223609e-09,0.00088754296,1
6076000,6076000,0.68877566,0.0012869323,-0.013866441,0.72484076,0.99999964,0.0,-1.2223609e-09,0.00088754296,1
6080000,6080000,0.6887747,0.001280226,-0.013863002,0.7248418,0.99999964,0.0,-1.2223609e-09,0.00088754296,1
6084000,6084000,0.6887749,0.0012742948,-0.013859541,0.7248417,0.99999964,0.0,-1.2223609e-09,0.00088754296,1
6088000,6088000,0.68877393,0.0012697973,-0.013856215,0.72484267,0.99999964,0.0,-1.2223609e-09,0.00088754296,1
6092000,6092000,0.68877494,0.0012656652,-0.013850994,0.72484183,0.99999964,0.0,-1.2223609e-09,0.00088754296,1
6096000,6096000,0.6887756,0.001266305,-0.013847713,0.7248413,0.99999964,0.0,-1.2223609e-09,0.00088754296,1
6100000,6100000,0.6887716,0.0012673193,-0.013847819,0.72484505,0.99999964,0.0,-1.2223609e-09,0.00088754296,1
6104000,6104000,0.68876594,0.0012620399,-0.01384602,0.72485054,0.99999964,0.0,-1.2223609e-09,0.00088754296,1
6108000,6108000,0.6887629,0.0012571596,-0.013843076,0.72485346,0.99999964,0.0,-1.2223609e-09,0.00088754296,1
6112000,6112000,0.6887603,0.00125708,-0.0138436025,0.72485596,0.99999964,0.0,-1.2223609e-09,0.00088754296,1
6116000,6116000,0.6887569,0.0012562135,-0.013843396,0.7248592,0.99999964,0.0,-1.2223609e-09,0.00088754296,1
6120000,6120000,0.68875474,0.0012554214,-0.013838504,0.7248613,0.99999964,0.0,-1.2223609e-09,0.00088754296,1
6128000,6128000,0.68875337,0.0012588004,-0.013837483,0.72486264,0.99999964,0.0,-1.2223609e-09,0.00088754296,1
6132000,6132000,0.68875116,0.0012545724,-0.013839311,0.72486466,0.99999964,0.0,-1.2223609e-09,0.00088754296,1
6136000,6136000,0.68874866,0.0012464751,-0.013841492,0.72486705,0.99999964,0.0,-1.2223609e-09,0.00088754296,1
6144000,6144000,0.6887427,0.0012361651,-0.013850477,0.7248725,0.99999964,0.0,-1.2223609e-09,0.00088754296,1
6148000,6148000,0.6887378,0.0012297337,-0.013855509,0.72487706,0.99999964,0.0,-1.2223609e-09,0.00088754296,1
6152000,6152000,0.6887344,0.0012239116,-0.013863805,0.72488016,0.99999964,0.0,-1.2223609e-09,0.00088754296,1
6156000,6156000,0.68873066,0.0012191442,-0.013869436,0.7248836,0.99999964,0.0,-1.2223609e-09,0.00088754296,1
6160000,6160000,0.6887247,0.001217,-0.013871514,0.7248892,0.99999964,0.0,-1.2223609e-09,0.00088754296,1
6164000,6164000,0.6887195,0.0012170909,-0.013872026,0.72489417,0.99999964,0.0,-1.2223609e-09,0.00088754296,1
6168000,6168000,0.6887151,0.0012153616,-0.013870609,0.72489834,0.99999964,0.0,-1.2223609e-09,0.00088754296,1
6176000,6176000,0.68870723,0.0012078884,-0.013868932,0.7249059,0.99999964,0.0,-1.2223609e-09,0.00088754296,1
6180000,6180000,0.6887049,0.0012070122,-0.01386666,0.7249082,0.99999964,0.0,-1.2223609e-09,0.00088754296,1
6188000,6188000,0.6886999,0.0012054355,-0.01386348,0.72491294,0.99999964,0.0,-1.2223609e-09,0.00088754296,1
6196000,6196000,0.68869305,0.001210994,-0.013870549,0.7249193,0.99999964,0.0,-1.2223609e-09,0.00088754296,1
6204000,6204000,0.6886853,0.0012182518,-0.013868782,0.7249267,0.99999964,0.0,-1.2223609e-09,0.00088754296,1
6208000,6208000,0.6886861,0.0012121164,-0.013871303,0.724926,0.99999964,0.0,-1.2223609e-09,0.00088754296,1
6216000,6216000,0.6886798,0.00121018,-0.013872285,0.7249319,0.99999964,0.0,-1.2223609e-09,0.00088754296,1
6220000,6220000,0.68867546,0.0012157242,-0.013877114,0.72493595,0.99999964,0.0,-1.2223609e-09,0.00088754296,1
6228000,6228000,0.68866754,0.0012118013,-0.013880918,0.72494334,0.99999964,0.0,-1.2223609e-09,0.00088754296,1
6232000,6232000,0.6886667,0.0012073299,-0.013874502,0.72494435,0.99999964,0.0,-1.2223609e-09,0.00088754296,1
6236000,6236000,0.6886642,0.0012058405,-0.013868011,0.72494686,0.99999964,0.0,-1.2223609e-09,0.00088754296,1
6240000,6240000,0.6886633,0.0012083072,-0.013864336,0.72494775,0.99999964,0.0,-1.2223609e-09,0.00088754296,1
6244000,6244000,0.68866354,0.0012092903,-0.013860697,0.7249476,0.99999964,0.0,-1.2223609e-09,0.00088754296,1
6252000,6252000,0.6886691,0.0012040706,-0.013857189,0.72494245,0.99999964,0.0,-1.2223609e-09,0.00088754296,1
6260000,6260000,0.68867624,0.0012037011,-0.013859411,0.72493553,0.99999964,0.0,-1.2223609e-09,0.00088754296,1
6268000,6268000,0.68868595,0.0012024355,-0.013863378,0.72492623,0.99999964,0.0,-1.2223609e-09,0.00088754296,1
6276000,6276000,0.6886978,0.0011980004,-0.013869156,0.7249149,0.99999964,0.0,-1.2223609e-09,0.00088754296,1
6280000,6280000,0.6887043,0.0012012048,-0.013874842,0.7249086,0.99999964,0.0,-1.2223609e-09,0.00088754296,1
6288000,6288000,0.68871415,0.0012060461,-0.013869239,0.72489935,0.99999964,0.0,-1.2223609e-09,0.00088754296,1
6292000,6292000,0.6887182,0.0012062881,-0.013861751,0.7248956,0.99999964,0.0,-1.2223609e-09,0.00088754296,1
6296000,6296000,0.6887232,0.0012048283,-0.013858383,0.724891,0.99999964,0.0,-1.2223609e-09,0.00088754296,1
6300000,6300000,0.6887281,0.0012057042,-0.013857966,0.72488636,0.99999964,0.0,-1.2223609e-09,0.00088754296,1
6304000,6304000,0.68873143,0.0012082075,-0.013860457,0.72488314,0.99999964,0.0,-1.2223609e-09,0.00088754296,1
6308000,6308000,0.68873364,0.0012061517,-0.013862312,0.724881,0.99999964,0.0,-1.2223609e-09,0.00088754296,1
6312000,6312000,0.6887361,0.0011994579,-0.013857443,0.7248788,0.99999964,0.0,-1.2223609e-09,0.00088754296,1
6316000,6316000,0.68874,0.0011976203,-0.013849809,0.72487515,0.99999964,0.0,-1.2223609e-09,0.00088754296,1
6320000,6320000,0.68874294,0.0012030994,-0.013846831,0.7248724,0.99999964,0.0,-1.2223609e-09,0.00088754296,1
6324000,6324000,0.6887439,0.0012049307,-0.0138499765,0.72487146,0.99999964,0.0,-1.2223609e-09,0.00088754296,1
6328000,6328000,0.6887467,0.001199338,-0.013854012,0.7248688,0.99999964,0.0,-1.2223609e-09,0.00088754296,1
6332000,6332000,0.68875146,0.00119218,-0.013854316,0.72486424,0.99999964,0.0,-1.2223609e-09,0.00088754296,1
6336000,6336000,0.6887569,0.0011849856,-0.013850806,0.7248591,0.99999964,0.0,-1.2223609e-09,0.00088754296,1
6340000,6340000,0.6887635,0.0011800338,-0.013845731,0.724853,0.99999964,0.0,-1.2223609e-09,0.00088754296,1
6348000,6348000,0.68877566,0.0011843243,-0.013841424,0.7248415,0.99999964,0.0,-1.2223609e-09,0.00088754296,1
6356000,6356000,0.6887785,0.0011887484,-0.013846092,0.7248386,0.99999964,0.0,-1.2223609e-09,0.00088754296,1
6360000,6360000,0.68878067,0.0011870313,-0.01384755,0.72483665,0.99999964,0.0,-1.2223609e-09,0.00088754296,1
6364000,6364000,0.6887824,0.0011855583,-0.0138441045,0.72483504,0.99999964,0.0,-1.2223609e-09,0.00088754296,1
6368000,6368000,0.6887824,0.0011821743,-0.013839548,0.7248351,0.99999964,0.0,-1.2223609e-09,0.00088754296,1
6372000,6372000,0.6887867,0.0011826553,-0.0138356425,0.72483116,0.99999964,0.0,-1.2223609e-09,0.00088754296,1
6376000,6376000,0.6887912,0.0011890904,-0.013832678,0.72482693,0.99999964,0.0,-1.2223609e-09,0.00088754296,1
6380000,6380000,0.68879575,0.0011940196,-0.01382975,0.7248226,0.99999964,0.0,-1.2223609e-09,0.00088754296,1
6384000,6384000,0.6887962,0.0011973933,-0.013826844,0.72482216,0.99999964,0.0,-1.2223609e-09,0.00088754296,1
6388000,6388000,0.6887943,0.0012026915,-0.013827282,0.72482395,0.99999964,0.0,-1.2223609e-09,0.00088754296,1
6396000,6396000,0.68878514,0.0012121715,-0.0138307875,0.72483265,0.99999964,0.0,-1.2223609e-09,0.00088754296,1
6400000,6400000,0.6887759,0.0012155414,-0.013833129,0.72484136,0.99999964,0.0,-1.2223609e-09,0.00088754296,1
6404000,6404000,0.68876475,0.0012203611,-0.013834682,0.72485197,0.99999964,0.0,-1.2223609e-09,0.00088754296,1
6408000,6408000,0.6887561,0.0012218105,-0.013832895,0.72486013,0.99999964,0.0,-1.2223609e-09,0.00088754296,1
6412000,6412000,0.6887507,0.0012206355,-0.013829289,0.7248654,0.99999964,0.0,-1.2223609e-09,0.00088754296,1
6420000,6420000,0.68874633,0.0012225952,-0.0138223125,0.7248696,0.99999964,0.0,-1.2223609e-09,0.00088754296,1
6424000,6424000,0.6887417,0.0012254823,-0.013813684,0.7248742,0.99999964,0.0,-1.2223609e-09,0.00088754296,1
6428000,6428000,0.68873507,0.0012284288,-0.013808821,0.7248806,0.99999964,0.0,-1.2223609e-09,0.00088754296,1
6432000,6432000,0.68872905,0.0012277288,-0.013807042,0.7248863,0.99999964,0.0,-1.2223609e-09,0.00088754296,1
6436000,6436000,0.6887224,0.0012265894,-0.013803393,0.7248928,0.99999964,0.0,-1.2223609e-09,0.00088754296,1
6440000,6440000,0.6887158,0.0012292082,-0.013798117,0.7248991,0.99999964,0.0,-1.2223609e-09,0.00088754296,1
6444000,6444000,0.68870884,0.0012341555,-0.013795795,0.7249058,0.99999964,0.0,-1.2223609e-09,0.00088754296,1
6448000,6448000,0.6887022,0.0012422166,-0.013799404,0.724912,0.99999964,0.0,-1.2223609e-09,0.00088754296,1
6452000,6452000,0.6886983,0.0012515261,-0.013805614,0.72491556,0.99999964,0.0,-1.2223609e-09,0.00088754296,1
6456000,6456000,0.68869424,0.001256706,-0.013811534,0.72491926,0.99999964,0.0,-1.2223609e-09,0.00088754296,1
6460000,6460000,0.6886841,0.001260127,-0.013812235,0.72492886,0.99999964,0.0,-1.2223609e-09,0.00088754296,1
6464000,6464000,0.688673,0.001265644,-0.013806838,0.7249395,0.99999964,0.0,-1.2223609e-09,0.00088754296,1
6468000,6468000,0.68866736,0.0012705112,-0.01380145,0.724945,0.99999964,0.0,-1.2223609e-09,0.00088754296,1
6476000,6476000,0.6886634,0.0012680466,-0.013793584,0.7249489,0.99999964,0.0,-1.2223609e-09,0.00088754296,1
6484000,6484000,0.68865794,0.0012690817,-0.013790499,0.7249542,0.99999964,0.0,-1.2223609e-09,0.00088754296,1
6488000,6488000,0.68865365,0.0012703296,-0.013788925,0.7249583,0.99999964,0.0,-1.2223609e-09,0.00088754296,1
6492000,6492000,0.68864816,0.0012715942,-0.013788858,0.7249635,0.99999964,0.0,-1.2223609e-09,0.00088754296,1
6496000,6496000,0.68864363,0.0012711051,-0.0137929665,0.72496766,0.99999964,0.0,-1.2223609e-09,0.00088754296,1
6500000,6500000,0.6886383,0.0012717211,-0.013796671,0.7249726,0.99999964,0.0,-1.2223609e-09,0.00088754296,1
6504000,6504000,0.6886337,0.0012752471,-0.013795769,0.7249771,0.99999964,0.0,-1.2223609e-09,0.00088754296,1
6512000,6512000,0.68862873,0.0012863835,-0.013802881,0.72498167,0.99999964,0.0,-1.2223609e-09,0.00088754296,1
6520000,6520000,0.68862325,0.0012866047,-0.013805352,0.7249868,0.99999964,0.0,-1.2223609e-09,0.00088754296,1
6524000,6524000,0.68861794,0.0012883088,-0.013801833,0.72499186,0.99999964,0.0,-1.2223609e-09,0.00088754296,1
6528000,6528000,0.6886121,0.0012915081,-0.013798266,0.72499746,0.99999964,0.0,-1.2223609e-09,0.00088754296,1
6532000,6532000,0.68860626,0.0012947655,-0.013796958,0.72500306,0.99999964,0.0,-1.2223609e-09,0.00088754296,1
6536000,6536000,0.68860024,0.0012923449,-0.013794659,0.72500885,0.99999964,0.0,-1.2223609e-09,0.00088754296,1
6540000,6540000,0.68859345,0.0012879788,-0.013790526,0.72501534,0.99999964,0.0,-1.2223609e-09,0.00088754296,1
6544000,6544000,0.68858683,0.0012854899,-0.013785963,0.7250218,0.99999964,0.0,-1.2223609e-09,0.00088754296,1
6548000,6548000,0.6885825,0.0012837979,-0.013781374,0.725026,0.99999964,0.0,-1.2223609e-09,0.00088754296,1
6552000,6552000,0.6885778,0.0012879003,-0.013779898,0.7250304,0.99999964,0.0,-1.2223609e-09,0.00088754296,1
6556000,6556000,0.68856883,0.0012938336,-0.013779513,0.72503895,0.99999964,0.0,-1.2223609e-09,0.00088754296,1
6560000,6560000,0.6885593,0.0012963604,-0.013778836,0.72504807,0.99999964,0.0,-1.2223609e-09,0.00088754296,1
6564000,6564000,0.68855244,0.0012955212,-0.013777112,0.72505456,0.99999964,0.0,-1.2223609e-09,0.00088754296,1
6568000,6568000,0.68854773,0.0012920208,-0.013772815,0.7250591,0.99999964,0.0,-1.2223609e-09,0.00088754296,1
6576000,6576000,0.68854254,0.0012956664,-0.013764691,0.72506416,0.99999964,0.0,-1.2223609e-09,0.00088754296,1
6580000,6580000,0.6885413,0.0012984162,-0.013766252,0.7250653,0.99999964,0.0,-1.2223609e-09,0.00088754296,1
6584000,6584000,0.68853897,0.0013034657,-0.013770015,0.72506744,0.99999964,0.0,-1.2223609e-09,0.00088754296,1
6588000,6588000,0.68853503,0.0013103585,-0.013773356,0.72507113,0.99999964,0.0,-1.2223609e-09,0.00088754296,1
6596000,6596000,0.6885228,0.0013211543,-0.013779359,0.7250825,0.99999964,0.0,-1.2223609e-09,0.00088754296,1
6600000,6600000,0.68851954,0.0013261728,-0.013780106,0.7250856,0.99999964,0.0,-1.2223609e-09,0.00088754296,1
6604000,6604000,0.6885148,0.001325369,-0.013775354,0.7250902,0.99999964,0.0,-1.2223609e-09,0.00088754296,1
6612000,6612000,0.68850386,0.001326081,-0.013769562,0.72510076,0.99999964,0.0,-1.2223609e-09,0.00088754296,1
6620000,6620000,0.68849826,0.0013329352,-0.013764428,0.7251061,0.99999964,0.0,-1.2223609e-09,0.00088754296,1
6628000,6628000,0.68849206,0.001334478,-0.013758684,0.72511214,0.99999964,0.0,-1.2223609e-09,0.00088754296,1
6636000,6636000,0.68848777,0.001335434,-0.013758233,0.7251163,0.99999964,0.0,-1.2223609e-09,0.00088754296,1
6640000,6640000,0.68848366,0.0013348348,-0.013755935,0.7251202,0.99999964,0.0,-1.2223609e-09,0.00088754296,1
6644000,6644000,0.6884777,0.001332229,-0.013750303,0.72512597,0.99999964,0.0,-1.2223609e-09,0.00088754296,1
6648000,6648000,0.68846846,0.0013295931,-0.01374766,0.7251348,0.99999964,0.0,-1.2223609e-09,0.00088754296,1
6652000,6652000,0.6884572,0.0013273851,-0.0137484,0.72514546,0.99999964,0.0,-1.2223609e-09,0.00088754296,1
6656000,6656000,0.6884486,0.0013254951,-0.013745707,0.7251536,0.99999964,0.0,-1.2223609e-09,0.00088754296,1
6660000,6660000,0.68844354,0.0013251181,-0.013740711,0.7251586,0.99999964,0.0,-1.2223609e-09,0.00088754296,1
6664000,6664000,0.6884413,0.0013271454,-0.013740893,0.7251607,0.99999964,0.0,-1.2223609e-09,0.00088754296,1
6668000,6668000,0.6884402,0.0013277085,-0.013741866,0.7251618,0.99999964,0.0,-1.2223609e-09,0.00088754296,1
6676000,6676000,0.68843484,0.0013304184,-0.013738067,0.7251669,0.99999964,0.0,-1.2223609e-09,0.00088754296,1
6680000,6680000,0.68843406,0.001332786,-0.013739312,0.7251676,0.99999964,0.0,-1.2223609e-09,0.00088754296,1
6684000,6684000,0.688433,0.0013325013,-0.01374025,0.7251686,0.99999964,0.0,-1.2223609e-09,0.00088754296,1
6688000,6688000,0.68843025,0.0013339882,-0.013739985,0.7251712,0.99999964,0.0,-1.2223609e-09,0.00088754296,1
6692000,6692000,0.6884275,0.0013354162,-0.013737462,0.7251739,0.99999964,0.0,-1.2223609e-09,0.00088754296,1
6696000,6696000,0.68842536,0.0013379263,-0.0137345055,0.725176,0.99999964,0.0,-1.2223609e-09,0.00088754296,1
6700000,6700000,0.68842274,0.0013457387,-0.013732919,0.7251785,0.99999964,0.0,-1.2223609e-09,0.00088754296,1
6704000,6704000,0.68841994,0.0013531025,-0.0137309255,0.7251811,0.99999964,0.0,-1.2223609e-09,0.00088754296,1
6708000,6708000,0.68841726,0.0013566627,-0.013727526,0.7251837,0.99999964,0.0,-1.2223609e-09,0.00088754296,1
6712000,6712000,0.68841517,0.0013579364,-0.013724899,0.7251858,0.99999964,0.0,-1.2223609e-09,0.00088754296,1
6716000,6716000,0.68841344,0.0013573449,-0.013722696,0.7251875,0.99999964,0.0,-1.2223609e-09,0.00088754296,1
6720000,6720000,0.6884111,0.0013581702,-0.013719666,0.72518975,0.99999964,0.0,-1.2223609e-09,0.00088754296,1
6724000,6724000,0.688408,0.0013604868,-0.013716596,0.7251927,0.99999964,0.0,-1.2223609e-09,0.00088754296,1
6728000,6728000,0.6884069,0.0013597223,-0.013714323,0.7251938,0.99999964,0.0,-1.2223609e-09,0.00088754296,1
6732000,6732000,0.6884054,0.0013559583,-0.013712882,0.7251953,0.99999964,0.0,-1.2223609e-09,0.00088754296,1
6740000,6740000,0.6883973,0.0013579365,-0.013706673,0.72520304,0.99999964,0.0,-1.2223609e-09,0.00088754296,1
6748000,6748000,0.68838537,0.0013669712,-0.013688914,0.72521466,0.99999964,0.0,-1.2223609e-09,0.00088754296,1
6756000,6756000,0.68838537,0.0013785856,-0.013678539,0.7252149,0.99999964,0.0,-1.2223609e-09,0.00088754296,1
6760000,6760000,0.6883895,0.001383584,-0.013678311,0.72521096,0.99999964,0.0,-1.2223609e-09,0.00088754296,1
6764000,6764000,0.68838716,0.0013823174,-0.013673736,0.7252133,0.99999964,0.0,-1.2223609e-09,0.00088754296,1
6768000,6768000,0.6883803,0.0013836321,-0.013671713,0.72521985,0.99999964,0.0,-1.2223609e-09,0.00088754296,1
6776000,6776000,0.688379,0.0013986654,-0.013673333,0.72522104,0.99999964,0.0,-1.2223609e-09,0.00088754296,1
6780000,6780000,0.68837893,0.0013962473,-0.013669117,0.72522116,0.99999964,0.0,-1.2223609e-09,0.00088754296,1
6784000,6784000,0.6883771,0.001392721,-0.013668302,0.72522295,0.99999964,0.0,-1.2223609e-09,0.00088754296,1
6788000,6788000,0.68837744,0.0013931206,-0.013671902,0.72522247,0.99999964,0.0,-1.2223609e-09,0.00088754296,1
6792000,6792000,0.6883826,0.0013968993,-0.013672754,0.7252176,0.99999964,0.0,-1.2223609e-09,0.00088754296,1
6796000,6796000,0.6883867,0.0013994382,-0.013670248,0.72521377,0.99999964,0.0,-1.2223609e-09,0.00088754296,1
6800000,6800000,0.68837565,0.0014018634,-0.013671865,0.7252242,0.99999964,0.0,-1.2223609e-09,0.00088754296,1
6804000,6804000,0.6883615,0.001408748,-0.013673369,0.7252376,0.99999964,0.0,-1.2223609e-09,0.00088754296,1
6808000,6808000,0.6883466,0.0014204013,-0.013671344,0.7252517,0.99999964,0.0,-1.2223609e-09,0.00088754296,1
6812000,6812000,0.6883318,0.0014302413,-0.013672004,0.72526574,0.99999964,0.0,-1.2223609e-09,0.00088754296,1
