timestamp,timestamp_sample,time_utc_usec,device_id,lat,lon,alt,alt_ellipsoid,s_variance_m_s,c_variance_rad,eph,epv,hdop,vdop,noise_per_ms,jamming_indicator,vel_m_s,vel_n_m_s,vel_e_m_s,vel_d_m_s,cog_rad,timestamp_time_relative,heading,heading_offset,heading_accuracy,rtcm_injection_rate,automatic_gain_control,fix_type,jamming_state,vel_ned_valid,satellites_used,selected_rtcm_instance
3988000,0,1698226006195747,0,473977508,85456074,488111,488111,0.25,0.5,1.0,1.0,0.0,0.0,0,0,0.0,0.0,0.0,-0.02,0.84648466,0,nan,nan,0.0,0.0,0,3,0,1,10,0
4788000,0,1698226006995747,0,473977508,85456074,488102,488102,0.25,0.5,1.0,1.0,0.0,0.0,0,0,0.0,0.02,0.01,-0.04,0.5337217,0,nan,nan,0.0,0.0,0,3,0,1,10,0
5988000,0,1698226008195747,0,473977508,85456074,488103,488103,0.25,0.5,1.0,1.0,0.0,0.0,0,0,0.0,0.0,0.01,-0.02,2.0909042,0,nan,nan,0.0,0.0,0,3,0,1,10,0
6788000,0,1698226008995747,0,473977508,85456074,488109,488109,0.25,0.5,1.0,1.0,0.0,0.0,0,0,0.0,-0.01,-0.01,-0.01,3.7323864,0,nan,nan,0.0,0.0,0,3,0,1,10,0
7988000,0,1698226010195747,0,473977508,85456074,488102,488102,0.25,0.5,1.0,1.0,0.0,0.0,0,0,0.0,0.01,0.0,0.02,6.1915555,0,nan,nan,0.0,0.0,0,3,0,1,10,0
8788000,0,1698226010995747,0,473977508,85456074,488103,488103,0.25,0.5,1.0,1.0,0.0,0.0,0,0,0.0,-0.02,0.0,0.049999997,3.0592132,0,nan,nan,0.0,0.0,0,3,0,1,10,0
9988000,0,1698226012195747,0,473977508,85456074,488092,488092,0.25,0.5,1.0,1.0,0.0,0.0,0,0,0.0,-0.02,0.01,-0.03,2.5197318,0,nan,nan,0.0,0.0,0,3,0,1,10,0
10788000,0,1698226012995747,0,473977508,85456074,488096,488096,0.25,0.5,1.0,1.0,0.0,0.0,0,0,0.0,0.0,0.0,0.02,2.4808109,0,nan,nan,0.0,0.0,0,3,0,1,10,0
11988000,0,1698226014195747,0,473977507,85456074,488110,488110,0.25,0.5,1.0,1.0,0.0,0.0,0,0,0.0,0.0,0.0,0.0,2.5560346,0,nan,nan,0.0,0.0,0,3,0,1,10,0
12788000,0,1698226014995747,0,473977508,85456074,488103,488103,0.25,0.5,1.0,1.0,0.0,0.0,0,0,0.0,-0.01,0.01,-0.03,2.3366466,0,nan,nan,0.0,0.0,0,3,0,1,10,0
13988000,0,1698226016195747,0,473977508,85456075,488110,488110,0.25,0.5,1.0,1.0,0.0,0.0,0,0,0.0,-0.01,0.0,-0.01,2.7277749,0,nan,nan,0.0,0.0,0,3,0,1,10,0
14788000,0,1698226016995747,0,473977508,85456074,488107,488107,0.25,0.5,1.0,1.0,0.0,0.0,0,0,0.0,0.01,-0.01,0.0,5.3831186,0,nan,nan,0.0,0.0,0,3,0,1,10,0
15988000,0,1698226018195747,0,473977508,85456073,488099,488099,0.25,0.5,1.0,1.0,0.0,0.0,0,0,0.0,0.0,0.0,-0.01,0.9063495,0,nan,nan,0.0,0.0,0,3,0,1,10,0
16788000,0,1698226018999747,0,473977508,85456074,488099,488099,0.25,0.5,1.0,1.0,0.0,0.0,0,0,0.0,0.0,0.0,-0.01,5.1708865,0,nan,nan,0.0,0.0,0,3,0,1,10,0
17988000,0,1698226020195747,0,473977508,85456074,488105,488105,0.25,0.5,1.0,1.0,0.0,0.0,0,0,0.0,-0.01,-0.01,-0.049999997,3.8280306,0,nan,nan,0.0,0.0,0,3,0,1,10,0
18788000,0,1698226020999747,0,473977508,85456073,488097,488097,0.25,0.5,1.0,1.0,0.0,0.0,0,0,0.0,0.0,0.0,-0.01,5.9849086,0,nan,nan,0.0,0.0,0,3,0,1,10,0
19988000,0,1698226022195747,0,473977508,85456074,488098,488098,0.25,0.5,1.0,1.0,0.0,0.0,0,0,0.0,0.02,0.0,-0.03,5.9686766,0,nan,nan,0.0,0.0,0,3,0,1,10,0
20788000,0,1698226022999747,0,473977508,85456074,488100,488100,0.25,0.5,1.0,1.0,0.0,0.0,0,0,0.0,0.01,-0.01,-0.03,5.379977,0,nan,nan,0.0,0.0,0,3,0,1,10,0
21988000,0,1698226024195747,0,473977508,85456075,488100,488100,0.25,0.5,1.0,1.0,0.0,0.0,0,0,0.0,0.0,0.0,-0.01,3.5529666,0,nan,nan,0.0,0.0,0,3,0,1,10,0
22788000,0,1698226024999747,0,473977508,85456074,488096,488096,0.25,0.5,1.0,1.0,0.0,0.0,0,0,0.0,0.0,0.02,0.049999997,1.7938493,0,nan,nan,0.0,0.0,0,3,0,1,10,0
23988000,0,1698226026195747,0,473977508,85456073,488105,488105,0.25,0.5,1.0,1.0,0.0,0.0,0,0,0.0,0.01,0.02,-0.01,0.97424275,0,nan,nan,0.0,0.0,0,3,0,1,10,0
24788000,0,1698226026999747,0,473977508,85456074,488101,488101,0.25,0.5,1.0,1.0,0.0,0.0,0,0,0.0,0.0,-0.01,0.0,4.6060987,0,nan,nan,0.0,0.0,0,3,0,1,10,0
25988000,0,1698226028195747,0,473977508,85456074,488106,488106,0.25,0.5,1.0,1.0,0.0,0.0,0,0,0.0,0.0,-0.01,-0.02,4.524766,0,nan,nan,0.0,0.0,0,3,0,1,10,0
26788000,0,1698226028999747,0,473977508,85456074,488106,488106,0.25,0.5,1.0,1.0,0.0,0.0,0,0,0.0,0.0,0.02,-0.02,1.5198327,0,nan,nan,0.0,0.0,0,3,0,1,10,0
27988000,0,1698226030195747,0,473977509,85456073,488092,488092,0.25,0.5,1.0,1.0,0.0,0.0,0,0,0.0,0.0,0.02,0.01,1.2444197,0,nan,nan,0.0,0.0,0,3,0,1,10,0
28788000,0,1698226030999747,0,473977508,85456074,488098,488098,0.25,0.5,1.0,1.0,0.0,0.0,0,0,0.0,0.01,0.0,-0.01,0.42900193,0,nan,nan,0.0,0.0,0,3,0,1,10,0
29988000,0,1698226032195747,0,473977508,85456074,488100,488100,0.25,0.5,1.0,1.0,0.0,0.0,0,0,0.0,0.0,0.0,0.01,6.06659,0,nan,nan,0.0,0.0,0,3,0,1,10,0
30784000,0,1698226032999747,0,473977508,85456074,488097,488097,0.25,0.5,1.0,1.0,0.0,0.0,0,0,0.0,-0.01,-0.01,-0.01,3.9306557,0,nan,nan,0.0,0.0,0,3,0,1,10,0
31988000,0,1698226034195747,0,473977508,85456074,488102,488102,0.25,0.5,1.0,1.0,0.0,0.0,0,0,0.0,0.0,0.01,0.02,1.845162,0,nan,nan,0.0,0.0,0,3,0,1,10,0
32788000,0,1698226034999747,0,473977507,85456074,488103,488103,0.25,0.5,1.0,1.0,0.0,0.0,0,0,0.0,0.0,-0.01,0.0,4.7061057,0,nan,nan,0.0,0.0,0,3,0,1,10,0
33988000,0,1698226036195747,0,473977508,85456074,488088,488088,0.25,0.5,1.0,1.0,0.0,0.0,0,0,0.0,0.0,-0.02,-0.099999994,5.110324,0,nan,nan,0.0,0.0,0,3,0,1,10,0
34788000,0,1698226036999747,0,473977508,85456074,488106,488106,0.25,0.5,1.0,1.0,0.0,0.0,0,0,0.0,-0.01,0.0,-0.01,3.172834,0,nan,nan,0.0,0.0,0,3,0,1,10,0
35988000,0,1698226038195747,0,473977491,85456071,488418,488418,0.25,0.5,1.0,1.0,0.0,0.0,0,0,0.24,-0.21,-0.02,-0.76,3.268129,0,nan,nan,0.0,0.0,0,3,0,1,10,0
36788000,0,1698226038999747,0,473977482,85456068,489120,489120,0.25,0.5,1.0,1.0,0.0,0.0,0,0,0.02,-0.02,-0.02,-0.95,3.970275,0,nan,nan,0.0,0.0,0,3,0,1,10,0
37988000,0,1698226040195747,0,473977490,85456071,490462,490462,0.25,0.5,1.0,1.0,0.0,0.0,0,0,0.13,0.13,0.049999997,-1.25,0.3843215,0,nan,nan,0.0,0.0,0,3,0,1,10,0
38788000,0,1698226040999747,0,473977499,85456073,491512,491512,0.25,0.5,1.0,1.0,0.0,0.0,0,0,0.089999996,0.08,0.0,-1.3299999,0.027750734,0,nan,nan,0.0,0.0,0,3,0,1,10,0
39988000,0,1698226042195747,0,473977507,85456072,493217,493217,0.25,0.5,1.0,1.0,0.0,0.0,0,0,0.049999997,0.06,-0.02,-1.48,5.93377,0,nan,nan,0.0,0.0,0,3,0,1,10,0
40788000,0,1698226042999747,0,473977509,85456070,494416,494416,0.25,0.5,1.0,1.0,0.0,0.0,0,0,0.02,0.02,-0.03,-1.56,5.329537,0,nan,nan,0.0,0.0,0,3,0,1,10,0
41988000,0,1698226044195747,0,473977508,85456069,496239,496239,0.25,0.5,1.0,1.0,0.0,0.0,0,0,0.01,0.0,0.01,-1.3399999,2.120575,0,nan,nan,0.0,0.0,0,3,0,1,10,0
42788000,0,1698226044999747,0,473977508,85456070,497172,497172,0.25,0.5,1.0,1.0,0.0,0.0,0,0,0.01,-0.03,0.0,-1.04,2.9588566,0,nan,nan,0.0,0.0,0,3,0,1,10,0
43988000,0,1698226046195747,0,473977533,85456091,497929,497929,0.25,0.5,1.0,1.0,0.0,0.0,0,0,1.15,1.09,0.39999998,-0.22,0.35395274,0,nan,nan,0.0,0.0,0,3,0,1,10,0
44788000,0,1698226046999747,0,473977695,85456159,498011,498011,0.25,0.5,1.0,1.0,0.0,0.0,0,0,3.4299998,3.32,0.88,-0.06,0.26110125,0,nan,nan,0.0,0.0,0,3,0,1,10,0
45988000,0,1698226048195747,0,473978142,85456383,497958,497958,0.25,0.5,1.0,1.0,0.0,0.0,0,0,4.61,4.24,1.77,0.03,0.39584067,0,nan,nan,0.0,0.0,0,3,0,1,10,0
46792000,0,1698226048999747,0,473978444,85456585,497953,497953,0.25,0.5,1.0,1.0,0.0,0.0,0,0,4.58,4.13,1.9599999,-0.02,0.44331363,0,nan,nan,0.0,0.0,0,3,0,1,10,0
47988000,0,1698226050195747,0,473978892,85456908,497978,497978,0.25,0.5,1.0,1.0,0.0,0.0,0,0,4.67,4.21,2.01,-0.049999997,0.44558254,0,nan,nan,0.0,0.0,0,3,0,1,10,0
48788000,0,1698226050999747,0,473979203,85457118,497974,497974,0.25,0.5,1.0,1.0,0.0,0.0,0,0,4.7599998,4.3399997,1.9,-0.01,0.41329396,0,nan,nan,0.0,0.0,0,3,0,1,10,0
49988000,0,1698226052195747,0,473979683,85457414,498001,498001,0.25,0.5,1.0,1.0,0.0,0.0,0,0,4.83,4.48,1.81,-0.01,0.38379788,0,nan,nan,0.0,0.0,0,3,0,1,10,0
50788000,0,1698226052999747,0,473980009,85457608,498018,498018,0.25,0.5,1.0,1.0,0.0,0.0,0,0,4.8599997,4.5,1.8,-0.01,0.38152894,0,nan,nan,0.0,0.0,0,3,0,1,10,0
51988000,0,1698226054195747,0,473980498,85457900,498041,498041,0.25,0.5,1.0,1.0,0.0,0.0,0,0,4.91,4.54,1.86,-0.01,0.389732,0,nan,nan,0.0,0.0,0,3,0,1,10,0
52788000,0,1698226054999747,0,473980829,85458101,498053,498053,0.25,0.5,1.0,1.0,0.0,0.0,0,0,4.94,4.56,1.86,0.0,0.38833576,0,nan,nan,0.0,0.0,0,3,0,1,10,0
53988000,0,1698226056195747,0,473981324,85458401,498068,498068,0.25,0.5,1.0,1.0,0.0,0.0,0,0,4.97,4.61,1.88,-0.01,0.38833576,0,nan,nan,0.0,0.0,0,3,0,1,10,0
54788000,0,1698226056999747,0,473981658,85458605,498087,498087,0.25,0.5,1.0,1.0,0.0,0.0,0,0,4.98,4.6,1.91,-0.02,0.39409533,0,nan,nan,0.0,0.0,0,3,0,1,10,0
55988000,0,1698226058195747,0,473982155,85458908,498107,498107,0.25,0.5,1.0,1.0,0.0,0.0,0,0,4.98,4.58,1.89,-0.01,0.39217547,0,nan,nan,0.0,0.0,0,3,0,1,10,0
56792000,0,1698226058999747,0,473982490,85459110,498101,498101,0.25,0.5,1.0,1.0,0.0,0.0,0,0,5.0,4.64,1.9,-0.03,0.38955748,0,nan,nan,0.0,0.0,0,3,0,1,10,0
57988000,0,1698226060195747,0,473982989,85459414,498117,498117,0.25,0.5,1.0,1.0,0.0,0.0,0,0,4.98,4.6,1.91,0.02,0.39461893,0,nan,nan,0.0,0.0,0,3,0,1,10,0
58788000,0,1698226060999747,0,473983323,85459618,498130,498130,0.25,0.5,1.0,1.0,0.0,0.0,0,0,4.97,4.5699997,1.88,-0.03,0.39008108,0,nan,nan,0.0,0.0,0,3,0,1,10,0
59992000,0,1698226062195747,0,473983820,85459921,498130,498130,0.25,0.5,1.0,1.0,0.0,0.0,0,0,4.99,4.64,1.89,0.0,0.38728854,0,nan,nan,0.0,0.0,0,3,0,1,10,0
60788000,0,1698226062999747,0,473984154,85460124,498129,498129,0.25,0.5,1.0,1.0,0.0,0.0,0,0,4.98,4.6,1.9,-0.02,0.39217547,0,nan,nan,0.0,0.0,0,3,0,1,10,0
61988000,0,1698226064195747,0,473984650,85460428,498105,498105,0.25,0.5,1.0,1.0,0.0,0.0,0,0,4.97,4.58,1.9,0.01,0.3939208,0,nan,nan,0.0,0.0,0,3,0,1,10,0
62788000,0,1698226064999747,0,473984967,85460625,498103,498103,0.25,0.5,1.0,1.0,0.0,0.0,0,0,4.21,3.83,1.6899999,0.01,0.41695914,0,nan,nan,0.0,0.0,0,3,0,1,10,0
63992000,0,1698226066195747,0,473985294,85460838,498125,498125,0.25,0.5,1.0,1.0,0.0,0.0,0,0,2.45,2.24,0.94,-0.02,0.3965388,0,nan,nan,0.0,0.0,0,3,0,1,10,0
64788000,0,1698226066999747,0,473985425,85460919,498142,498142,0.25,0.5,1.0,1.0,0.0,0.0,0,0,1.55,1.37,0.65999997,-0.06,0.44785148,0,nan,nan,0.0,0.0,0,3,0,1,10,0
65988000,0,1698226068199747,0,473985454,85461130,498150,498150,0.25,0.5,1.0,1.0,0.0,0.0,0,0,1.6899999,-0.35,1.63,0.02,1.7866935,0,nan,nan,0.0,0.0,0,3,0,1,10,0
66788000,0,1698226068999747,0,473985404,85461348,498169,498169,0.25,0.5,1.0,1.0,0.0,0.0,0,0,2.9099998,-1.0,2.74,-0.04,1.9226546,0,nan,nan,0.0,0.0,0,3,0,1,10,0
67988000,0,1698226070199747,0,473985258,85461965,498127,498127,0.25,0.5,1.0,1.0,0.0,0.0,0,0,4.61,-1.63,4.3199997,0.04,1.9329522,0,nan,nan,0.0,0.0,0,3,0,1,10,0
68788000,0,1698226070999747,0,473985144,85462418,498103,498103,0.25,0.5,1.0,1.0,0.0,0.0,0,0,4.52,-1.56,4.23,0.049999997,1.9249237,0,nan,nan,0.0,0.0,0,3,0,1,10,0
69988000,0,1698226072199747,0,473984973,85463101,498069,498069,0.25,0.5,1.0,1.0,0.0,0.0,0,0,4.58,-1.5799999,4.31,0.03,1.921782,0,nan,nan,0.0,0.0,0,3,0,1,10,0
70788000,0,1698226072999747,0,473984859,85463563,498025,498025,0.25,0.5,1.0,1.0,0.0,0.0,0,0,4.64,-1.56,4.37,0.089999996,1.9151497,0,nan,nan,0.0,0.0,0,3,0,1,10,0
71988000,0,1698226074199747,0,473984700,85464213,497987,497987,0.25,0.5,1.0,1.0,0.0,0.0,0,0,3.6399999,-1.25,3.3999999,0.02,1.9240509,0,nan,nan,0.0,0.0,0,3,0,1,10,0
72788000,0,1698226074999747,0,473984620,85464526,497949,497949,0.25,0.5,1.0,1.0,0.0,0.0,0,0,2.6499999,-0.91999996,2.46,0.02,1.929636,0,nan,nan,0.0,0.0,0,3,0,1,10,0
73988000,0,1698226076199747,0,473984545,85464832,497944,497944,0.25,0.5,1.0,1.0,0.0,0.0,0,0,1.64,-0.64,1.51,-0.049999997,1.9723965,0,nan,nan,0.0,0.0,0,3,0,1,10,0
74784000,0,1698226076999747,0,473984467,85464908,497940,497940,0.25,0.5,1.0,1.0,0.0,0.0,0,0,1.5,-1.48,-0.14,0.02,3.2381094,0,nan,nan,0.0,0.0,0,3,0,1,10,0
75988000,0,1698226078199747,0,473984263,85464810,497929,497929,0.25,0.5,1.0,1.0,0.0,0.0,0,0,2.8899999,-2.71,-1.02,-0.049999997,3.5018287,0,nan,nan,0.0,0.0,0,3,0,1,10,0
76788000,0,1698226078999747,0,473984004,85464682,497914,497914,0.25,0.5,1.0,1.0,0.0,0.0,0,0,4.4,-4.17,-1.4499999,0.04,3.4763467,0,nan,nan,0.0,0.0,0,3,0,1,10,0
77988000,0,1698226080199747,0,473983552,85464438,497905,497905,0.25,0.5,1.0,1.0,0.0,0.0,0,0,4.42,-4.14,-1.53,-0.03,3.496418,0,nan,nan,0.0,0.0,0,3,0,1,10,0
78788000,0,1698226080999747,0,473983251,85464273,497922,497922,0.25,0.5,1.0,1.0,0.0,0.0,0,0,4.48,-4.19,-1.5899999,0.01,3.505319,0,nan,nan,0.0,0.0,0,3,0,1,10,0
79988000,0,1698226082199747,0,473982791,85464018,497955,497955,0.25,0.5,1.0,1.0,0.0,0.0,0,0,4.58,-4.31,-1.5999999,0.0,3.497116,0,nan,nan,0.0,0.0,0,3,0,1,10,0
80788000,0,1698226082999747,0,473982479,85463845,497985,497985,0.25,0.5,1.0,1.0,0.0,0.0,0,0,4.65,-4.33,-1.65,-0.06,3.505319,0,nan,nan,0.0,0.0,0,3,0,1,10,0
81988000,0,1698226084199747,0,473982003,85463578,498012,498012,0.25,0.5,1.0,1.0,0.0,0.0,0,0,4.75,-4.46,-1.6899999,0.0,3.5047956,0,nan,nan,0.0,0.0,0,3,0,1,10,0
82788000,0,1698226084999747,0,473981681,85463398,498028,498028,0.25,0.5,1.0,1.0,0.0,0.0,0,0,4.81,-4.5099998,-1.6899999,0.0,3.5007815,0,nan,nan,0.0,0.0,0,3,0,1,10,0
83988000,0,1698226086199747,0,473981192,85463127,498031,498031,0.25,0.5,1.0,1.0,0.0,0.0,0,0,4.65,-4.36,-1.62,-0.01,3.498338,0,nan,nan,0.0,0.0,0,3,0,1,10,0
84788000,0,1698226086999747,0,473980917,85462971,498029,498029,0.25,0.5,1.0,1.0,0.0,0.0,0,0,3.5,-3.26,-1.27,-0.03,3.5129986,0,nan,nan,0.0,0.0,0,3,0,1,10,0
85988000,0,1698226088199747,0,473980644,85462819,498044,498044,0.25,0.5,1.0,1.0,0.0,0.0,0,0,1.9499999,-1.8399999,-0.63,0.0,3.4716341,0,nan,nan,0.0,0.0,0,3,0,1,10,0
86788000,0,1698226088999747,0,473980536,85462742,498086,498086,0.25,0.5,1.0,1.0,0.0,0.0,0,0,1.39,-0.91999996,-1.01,-0.07,3.9704492,0,nan,nan,0.0,0.0,0,3,0,1,10,0
87988000,0,1698226090199747,0,473980546,85462499,498095,498095,0.25,0.5,1.0,1.0,0.0,0.0,0,0,1.9599999,0.63,-1.8399999,-0.02,5.0427794,0,nan,nan,0.0,0.0,0,3,0,1,10,0
88788000,0,1698226090999747,0,473980609,85462220,498125,498125,0.25,0.5,1.0,1.0,0.0,0.0,0,0,3.6999998,1.04,-3.54,0.0,4.998972,0,nan,nan,0.0,0.0,0,3,0,1,10,0
89988000,0,1698226092199747,0,473980750,85461555,498093,498093,0.25,0.5,1.0,1.0,0.0,0.0,0,0,4.46,1.37,-4.2599998,0.03,5.024454,0,nan,nan,0.0,0.0,0,3,0,1,10,0
90788000,0,1698226092999747,0,473980851,85461102,498098,498098,0.25,0.5,1.0,1.0,0.0,0.0,0,0,4.49,1.4,-4.2799997,0.01,5.0293407,0,nan,nan,0.0,0.0,0,3,0,1,10,0
91988000,0,1698226094199747,0,473981007,85460412,498088,498088,0.25,0.5,1.0,1.0,0.0,0.0,0,0,4.5899997,1.4499999,-4.36,0.0,5.0338783,0,nan,nan,0.0,0.0,0,3,0,1,10,0
92788000,0,1698226094999747,0,473981112,85459943,498083,498083,0.25,0.5,1.0,1.0,0.0,0.0,0,0,4.66,1.4599999,-4.43,0.0,5.030562,0,nan,nan,0.0,0.0,0,3,0,1,10,0
93988000,0,1698226096199747,0,473981259,85459300,498028,498028,0.25,0.5,1.0,1.0,0.0,0.0,0,0,3.52,1.15,-3.33,0.0,5.046096,0,nan,nan,0.0,0.0,0,3,0,1,10,0
94788000,0,1698226096999747,0,473981330,85458994,498029,498029,0.25,0.5,1.0,1.0,0.0,0.0,0,0,2.55,0.78999996,-2.45,-0.03,5.0249777,0,nan,nan,0.0,0.0,0,3,0,1,10,0
95988000,0,1698226098199747,0,473981390,85458701,497983,497983,0.25,0.5,1.0,1.0,0.0,0.0,0,0,1.3399999,0.35999998,-1.29,0.01,4.9871035,0,nan,nan,0.0,0.0,0,3,0,1,10,0
96788000,0,1698226098999747,0,473981409,85458605,498614,498614,0.25,0.5,1.0,1.0,0.0,0.0,0,0,0.53,0.12,-0.5,-1.9399999,4.959353,0,nan,nan,0.0,0.0,0,3,0,1,10,0
97988000,0,1698226100199747,0,473981408,85458598,501698,501698,0.25,0.5,1.0,1.0,0.0,0.0,0,0,0.16,-0.08,0.14999999,-2.56,2.0788617,0,nan,nan,0.0,0.0,0,3,0,1,10,0
98788000,0,1698226100999747,0,473981402,85458612,503749,503749,0.25,0.5,1.0,1.0,0.0,0.0,0,0,0.14999999,-0.089999996,0.14,-2.57,2.15234,0,nan,nan,0.0,0.0,0,3,0,1,10,0
99988000,0,1698226102199747,0,473981391,85458632,506815,506815,0.25,0.5,1.0,1.0,0.0,0.0,0,0,0.16,-0.089999996,0.13,-2.54,2.1837559,0,nan,nan,0.0,0.0,0,3,0,1,10,0
100784000,0,1698226102999747,0,473981385,85458648,508879,508879,0.25,0.5,1.0,1.0,0.0,0.0,0,0,0.16,-0.07,0.14,-2.59,2.0818286,0,nan,nan,0.0,0.0,0,3,0,1,10,0
101988000,0,1698226104199747,0,473981379,85458671,511975,511975,0.25,0.5,1.0,1.0,0.0,0.0,0,0,0.14999999,-0.07,0.12,-2.44,2.1186552,0,nan,nan,0.0,0.0,0,3,0,1,10,0
102788000,0,1698226104999747,0,473981374,85458684,513662,513662,0.25,0.5,1.0,1.0,0.0,0.0,0,0,0.12,-0.04,0.099999994,-1.81,1.9566886,0,nan,nan,0.0,0.0,0,3,0,1,10,0
103988000,0,1698226106199747,0,473981373,85458699,515435,515435,0.25,0.5,1.0,1.0,0.0,0.0,0,0,0.06,0.0,0.04,-1.1,1.4552555,0,nan,nan,0.0,0.0,0,3,0,1,10,0
104788000,0,1698226106999747,0,473981373,85458704,516211,516211,0.25,0.5,1.0,1.0,0.0,0.0,0,0,0.03,0.0,0.03,-0.83,1.346347,0,nan,nan,0.0,0.0,0,3,0,1,10,0
105988000,0,1698226108199747,0,473981374,85458707,516969,516969,0.25,0.5,1.0,1.0,0.0,0.0,0,0,0.01,0.0,0.03,-0.45999998,1.8486527,0,nan,nan,0.0,0.0,0,3,0,1,10,0
106788000,0,1698226108999747,0,473981374,85458709,517278,517278,0.25,0.5,1.0,1.0,0.0,0.0,0,0,0.07,-0.049999997,-0.03,-0.31,3.748269,0,nan,nan,0.0,0.0,0,3,0,1,10,0
107988000,0,1698226110199747,0,473981237,85458616,517599,517599,0.25,0.5,1.0,1.0,0.0,0.0,0,0,3.05,-2.86,-1.1,-0.11,3.5093334,0,nan,nan,0.0,0.0,0,3,0,1,10,0
108788000,0,1698226110999747,0,473980967,85458457,517659,517659,0.25,0.5,1.0,1.0,0.0,0.0,0,0,4.71,-4.29,-1.93,0.0,3.5657077,0,nan,nan,0.0,0.0,0,3,0,1,10,0
109988000,0,1698226112199747,0,473980507,85458126,517663,517663,0.25,0.5,1.0,1.0,0.0,0.0,0,0,4.69,-4.22,-2.06,-0.07,3.5964253,0,nan,nan,0.0,0.0,0,3,0,1,10,0
110788000,0,1698226112999747,0,473980200,85457909,517673,517673,0.25,0.5,1.0,1.0,0.0,0.0,0,0,4.73,-4.2599998,-2.03,-0.03,3.5864768,0,nan,nan,0.0,0.0,0,3,0,1,10,0
111992000,0,1698226114199747,0,473979733,85457591,517696,517696,0.25,0.5,1.0,1.0,0.0,0.0,0,0,4.7599998,-4.3399997,-1.9599999,0.0,3.5658822,0,nan,nan,0.0,0.0,0,3,0,1,10,0
112788000,0,1698226114999747,0,473979419,85457380,517740,517740,0.25,0.5,1.0,1.0,0.0,0.0,0,0,4.7999997,-4.37,-1.9799999,-0.07,3.5667548,0,nan,nan,0.0,0.0,0,3,0,1,10,0
113988000,0,1698226116199747,0,473978943,85457058,517828,517828,0.25,0.5,1.0,1.0,0.0,0.0,0,0,4.87,-4.45,-2.02,-0.07,3.568849,0,nan,nan,0.0,0.0,0,3,0,1,10,0
114788000,0,1698226116999747,0,473978622,85456839,517872,517872,0.25,0.5,1.0,1.0,0.0,0.0,0,0,4.9,-4.43,-2.08,-0.049999997,3.5798447,0,nan,nan,0.0,0.0,0,3,0,1,10,0
115988000,0,1698226118199747,0,473978152,85456515,517960,517960,0.25,0.5,1.0,1.0,0.0,0.0,0,0,4.29,-3.87,-1.8199999,-0.089999996,3.5821135,0,nan,nan,0.0,0.0,0,3,0,1,10,0
116788000,0,1698226118999747,0,473977909,85456345,518012,518012,0.25,0.5,1.0,1.0,0.0,0.0,0,0,3.1499999,-2.86,-1.31,-0.03,3.5725145,0,nan,nan,0.0,0.0,0,3,0,1,10,0
117988000,0,1698226120199747,0,473977676,85456188,518060,518060,0.25,0.5,1.0,1.0,0.0,0.0,0,0,1.67,-1.53,-0.69,0.0,3.5693727,0,nan,nan,0.0,0.0,0,3,0,1,10,0
118788000,0,1698226120999747,0,473977592,85456133,517918,517918,0.25,0.5,1.0,1.0,0.0,0.0,0,0,0.87,-0.78999996,-0.35999998,0.82,3.5754814,0,nan,nan,0.0,0.0,0,3,0,1,10,0
119988000,0,1698226122199747,0,473977569,85456112,516206,516206,0.25,0.5,1.0,1.0,0.0,0.0,0,0,0.049999997,0.08,0.04,1.4599999,0.47909287,0,nan,nan,0.0,0.0,0,3,0,1,10,0
120788000,0,1698226122999747,0,473977574,85456115,515005,515005,0.25,0.5,1.0,1.0,0.0,0.0,0,0,0.07,0.07,0.0,1.49,6.28144,0,nan,nan,0.0,0.0,0,3,0,1,10,0
121988000,0,1698226124199747,0,473977576,85456113,513176,513176,0.25,0.5,1.0,1.0,0.0,0.0,0,0,0.04,-0.01,-0.049999997,1.52,4.4898596,0,nan,nan,0.0,0.0,0,3,0,1,10,0
122788000,0,1698226124999747,0,473977574,85456106,511947,511947,0.25,0.5,1.0,1.0,0.0,0.0,0,0,0.08,-0.04,-0.07,1.54,4.1585956,0,nan,nan,0.0,0.0,0,3,0,1,10,0
123988000,0,1698226126199747,0,473977565,85456099,510110,510110,0.25,0.5,1.0,1.0,0.0,0.0,0,0,0.099999994,-0.089999996,-0.03,1.54,3.4552283,0,nan,nan,0.0,0.0,0,3,0,1,10,0
124788000,0,1698226126999747,0,473977558,85456097,508869,508869,0.25,0.5,1.0,1.0,0.0,0.0,0,0,0.089999996,-0.06,-0.02,1.54,3.460988,0,nan,nan,0.0,0.0,0,3,0,1,10,0
125988000,0,1698226128199747,0,473977548,85456097,507042,507042,0.25,0.5,1.0,1.0,0.0,0.0,0,0,0.07,-0.08,0.0,1.51,3.0511844,0,nan,nan,0.0,0.0,0,3,0,1,10,0
126788000,0,1698226128999747,0,473977543,85456096,505810,505810,0.25,0.5,1.0,1.0,0.0,0.0,0,0,0.06,-0.049999997,0.01,1.56,2.9356437,0,nan,nan,0.0,0.0,0,3,0,1,10,0
127988000,0,1698226130199747,0,473977537,85456094,503981,503981,0.25,0.5,1.0,1.0,0.0,0.0,0,0,0.06,-0.06,-0.01,1.52,3.4217181,0,nan,nan,0.0,0.0,0,3,0,1,10,0
128788000,0,1698226130999747,0,473977532,85456091,502773,502773,0.25,0.5,1.0,1.0,0.0,0.0,0,0,0.08,-0.06,-0.03,1.52,3.6807249,0,nan,nan,0.0,0.0,0,3,0,1,10,0
129988000,0,1698226132199747,0,473977524,85456082,500966,500966,0.25,0.5,1.0,1.0,0.0,0.0,0,0,0.089999996,-0.049999997,-0.06,1.4699999,3.9973276,0,nan,nan,0.0,0.0,0,3,0,1,10,0
130788000,0,1698226132999747,0,473977519,85456078,499802,499802,0.25,0.5,1.0,1.0,0.0,0.0,0,0,0.07,-0.06,-0.02,1.26,3.538306,0,nan,nan,0.0,0.0,0,3,0,1,10,0
131988000,0,1698226134199747,0,473977514,85456076,498751,498751,0.25,0.5,1.0,1.0,0.0,0.0,0,0,0.02,-0.04,0.0,0.56,3.2059953,0,nan,nan,0.0,0.0,0,3,0,1,10,0
132788000,0,1698226134999747,0,473977512,85456078,498288,498288,0.25,0.5,1.0,1.0,0.0,0.0,0,0,0.02,-0.01,0.0,0.96999997,2.7789133,0,nan,nan,0.0,0.0,0,3,0,1,10,0
133988000,0,1698226136199747,0,473977512,85456083,496666,496666,0.25,0.5,1.0,1.0,0.0,0.0,0,0,0.03,0.0,0.03,1.1999999,1.6955874,0,nan,nan,0.0,0.0,0,3,0,1,10,0
134788000,0,1698226136999747,0,473977511,85456086,495735,495735,0.25,0.5,1.0,1.0,0.0,0.0,0,0,0.02,0.01,0.0,1.06,0.5710717,0,nan,nan,0.0,0.0,0,3,0,1,10,0
135988000,0,1698226138199747,0,473977510,85456089,494531,494531,0.25,0.5,1.0,1.0,0.0,0.0,0,0,0.02,-0.03,0.02,0.90999997,2.4260077,0,nan,nan,0.0,0.0,0,3,0,1,10,0
136788000,0,1698226138999747,0,473977510,85456090,493846,493846,0.25,0.5,1.0,1.0,0.0,0.0,0,0,0.0,-0.03,0.03,0.78999996,2.367539,0,nan,nan,0.0,0.0,0,3,0,1,10,0
137988000,0,1698226140199747,0,473977510,85456089,492954,492954,0.25,0.5,1.0,1.0,0.0,0.0,0,0,0.02,0.0,-0.02,0.66999996,4.5291295,0,nan,nan,0.0,0.0,0,3,0,1,10,0
138788000,0,1698226140999747,0,473977510,85456085,492436,492436,0.25,0.5,1.0,1.0,0.0,0.0,0,0,0.02,0.0,-0.04,0.65,4.5085344,0,nan,nan,0.0,0.0,0,3,0,1,10,0
139988000,0,1698226142199747,0,473977512,85456082,491650,491650,0.25,0.5,1.0,1.0,0.0,0.0,0,0,0.0,0.0,0.0,0.69,2.82115,0,nan,nan,0.0,0.0,0,3,0,1,10,0
140788000,0,1698226142999747,0,473977511,85456084,491127,491127,0.25,0.5,1.0,1.0,0.0,0.0,0,0,0.0,-0.01,-0.01,0.63,3.85805,0,nan,nan,0.0,0.0,0,3,0,1,10,0
141992000,0,1698226144199747,0,473977510,85456085,490321,490321,0.25,0.5,1.0,1.0,0.0,0.0,0,0,0.01,-0.01,0.0,0.71,2.9152234,0,nan,nan,0.0,0.0,0,3,0,1,10,0
142788000,0,1698226144999747,0,473977509,85456086,489806,489806,0.25,0.5,1.0,1.0,0.0,0.0,0,0,0.01,0.0,0.0,0.63,3.448945,0,nan,nan,0.0,0.0,0,3,0,1,10,0
143988000,0,1698226146199747,0,473977507,85456089,489040,489040,0.25,0.5,1.0,1.0,0.0,0.0,0,0,0.02,-0.01,0.0,0.65999997,2.538232,0,nan,nan,0.0,0.0,0,3,0,1,10,0
144788000,0,1698226146999747,0,473977505,85456089,488514,488514,0.25,0.5,1.0,1.0,0.0,0.0,0,0,0.02,-0.04,0.0,0.65999997,3.1473522,0,nan,nan,0.0,0.0,0,3,0,1,10,0
145992000,0,1698226148199747,0,473977504,85456090,488106,488106,0.25,0.5,1.0,1.0,0.0,0.0,0,0,0.0,-0.02,0.01,0.049999997,2.550275,0,nan,nan,0.0,0.0,0,3,0,1,10,0
146788000,0,1698226148999747,0,473977504,85456089,488111,488111,0.25,0.5,1.0,1.0,0.0,0.0,0,0,0.0,0.0,0.0,-0.02,3.7205184,0,nan,nan,0.0,0.0,0,3,0,1,10,0
147988000,0,1698226150199747,0,473977504,85456090,488104,488104,0.25,0.5,1.0,1.0,0.0,0.0,0,0,0.0,0.01,0.02,-0.04,0.9690068,0,nan,nan,0.0,0.0,0,3,0,1,10,0
148788000,0,1698226150999747,0,473977504,85456090,488103,488103,0.25,0.5,1.0,1.0,0.0,0.0,0,0,0.0,0.01,-0.01,0.049999997,5.5038958,0,nan,nan,0.0,0.0,0,3,0,1,10,0
