timestamp,roll_body,pitch_body,yaw_body,yaw_sp_move_rate,q_d[0],q_d[1],q_d[2],q_d[3],thrust_body[0],thrust_body[1],thrust_body[2],reset_integral,fw_control_yaw_wheel
4516000,0.0,-0.0,1.6210672,0.0,0.6891118,0.0,0.0,0.72465503,0.0,0.0,-0.001,0,0
4524000,0.0,-0.0,1.6211245,0.0,0.6890911,0.0,0.0,0.72467476,0.0,0.0,-0.001,0,0
4564000,0.0,-0.0,1.6210717,0.0,0.6891102,0.0,0.0,0.7246566,0.0,0.0,-0.001,0,0
4612000,0.0,-0.0,1.6208568,0.0,0.6891881,0.0,0.0,0.72458255,0.0,0.0,-0.001,0,0
4668000,0.0,-0.0,1.6206759,0.0,0.6892536,0.0,0.0,0.72452015,0.0,0.0,-0.001,0,0
4716000,0.0,-0.0,1.6207211,0.0,0.68923724,0.0,0.0,0.7245357,0.0,0.0,-0.001,0,0
4764000,0.0,-0.0,1.6209751,0.0,0.6891452,0.0,0.0,0.7246233,0.0,0.0,-0.001,0,0
4812000,0.0,-0.0,1.6212758,0.0,0.68903625,0.0,0.0,0.72472686,0.0,0.0,-0.001,0,0
4868000,0.0,-0.0,1.6216496,0.0,0.6889008,0.0,0.0,0.7248557,0.0,0.0,-0.001,0,0
4916000,0.0,-0.0,1.6217533,0.0,0.6888632,0.0,0.0,0.72489136,0.0,0.0,-0.001,0,0
4964000,0.0,-0.0,1.6217699,0.0,0.6888572,0.0,0.0,0.7248971,0.0,0.0,-0.001,0,0
5012000,0.0,-0.0,1.6215734,0.0,0.6889284,0.0,0.0,0.7248294,0.0,0.0,-0.001,0,0
5068000,0.0,-0.0,1.6215756,0.0,0.6889276,0.0,0.0,0.72483027,0.0,0.0,-0.001,0,0
5116000,0.0,-0.0,1.6217554,0.0,0.68886244,0.0,0.0,0.7248921,0.0,0.0,-0.001,0,0
5164000,0.0,-0.0,1.6219962,0.0,0.6887752,0.0,0.0,0.72497505,0.0,0.0,-0.001,0,0
5212000,0.0,-0.0,1.6223427,0.0,0.68864954,0.0,0.0,0.7250944,0.0,0.0,-0.001,0,0
5268000,0.0,-0.0,1.6225822,0.0,0.68856275,0.0,0.0,0.72517675,0.0,0.0,-0.001,0,0
5316000,0.0,-0.0,1.6226009,0.0,0.68855596,0.0,0.0,0.72518325,0.0,0.0,-0.001,0,0
5364000,0.0,-0.0,1.622527,0.0,0.6885827,0.0,0.0,0.7251578,0.0,0.0,-0.001,0,0
5412000,0.0,-0.0,1.6224809,0.0,0.68859947,0.0,0.0,0.72514194,0.0,0.0,-0.001,0,0
5468000,0.0,-0.0,1.6225444,0.0,0.6885764,0.0,0.0,0.7251639,0.0,0.0,-0.001,0,0
5516000,0.0,-0.0,1.6223507,0.0,0.6886467,0.0,0.0,0.72509706,0.0,0.0,-0.001,0,0
5564000,0.0,-0.0,1.6223906,0.0,0.6886322,0.0,0.0,0.7251108,0.0,0.0,-0.001,0,0
5612000,0.0,-0.0,1.6223539,0.0,0.6886455,0.0,0.0,0.7250983,0.0,0.0,-0.001,0,0
5668000,0.0,-0.0,1.622196,0.0,0.68870276,0.0,0.0,0.72504383,0.0,0.0,-0.001,0,0
5716000,0.0,-0.0,1.6218747,0.0,0.6888192,0.0,0.0,0.72493315,0.0,0.0,-0.001,0,0
5764000,0.0,-0.0,1.6216667,0.0,0.6888946,0.0,0.0,0.7248615,0.0,0.0,-0.001,0,0
5812000,0.0,-0.0,1.6215334,0.0,0.6889429,0.0,0.0,0.7248156,0.0,0.0,-0.001,0,0
5868000,0.0,-0.0,1.6215239,0.0,0.68894637,0.0,0.0,0.7248124,0.0,0.0,-0.001,0,0
5916000,0.0,-0.0,1.6216787,0.0,0.6888903,0.0,0.0,0.7248657,0.0,0.0,-0.001,0,0
5964000,0.0,-0.0,1.6218718,0.0,0.68882024,0.0,0.0,0.72493213,0.0,0.0,-0.001,0,0
6012000,0.0,-0.0,1.622004,0.0,0.6887723,0.0,0.0,0.7249777,0.0,0.0,-0.001,0,0
6068000,0.0,-0.0,1.6220033,0.0,0.68877256,0.0,0.0,0.7249775,0.0,0.0,-0.001,0,0
6116000,0.0,-0.0,1.6220548,0.0,0.68875396,0.0,0.0,0.7249952,0.0,0.0,-0.001,0,0
6164000,0.0,-0.0,1.622158,0.0,0.68871653,0.0,0.0,0.7250308,0.0,0.0,-0.001,0,0
6220000,0.0,-0.0,1.6222795,0.0,0.6886725,0.0,0.0,0.72507256,0.0,0.0,-0.001,0,0
6268000,0.0,-0.0,1.6222506,0.0,0.688683,0.0,0.0,0.7250626,0.0,0.0,-0.001,0,0
6316000,0.0,-0.0,1.6221014,0.0,0.68873703,0.0,0.0,0.7250113,0.0,0.0,-0.001,0,0
6364000,0.0,-0.0,1.6219846,0.0,0.68877935,0.0,0.0,0.72497106,0.0,0.0,-0.001,0,0
6420000,0.0,-0.0,1.6220839,0.0,0.68874335,0.0,0.0,0.7250053,0.0,0.0,-0.001,0,0
6468000,0.0,-0.0,1.6223016,0.0,0.6886645,0.0,0.0,0.72508013,0.0,0.0,-0.001,0,0
6516000,0.0,-0.0,1.622412,0.0,0.68862444,0.0,0.0,0.72511816,0.0,0.0,-0.001,0,0
6564000,0.0,-0.0,1.6226186,0.0,0.6885495,0.0,0.0,0.7251893,0.0,0.0,-0.001,0,0
6620000,0.0,-0.0,1.6227677,0.0,0.68849546,0.0,0.0,0.72524065,0.0,0.0,-0.001,0,0
6668000,0.0,-0.0,1.622928,0.0,0.68843734,0.0,0.0,0.7252959,0.0,0.0,-0.001,0,0
6716000,0.0,-0.0,1.6230017,0.0,0.68841064,0.0,0.0,0.7253212,0.0,0.0,-0.001,0,0
6764000,0.0,-0.0,1.6230739,0.0,0.6883844,0.0,0.0,0.725346,0.0,0.0,-0.001,0,0
6812000,0.0,-0.0,1.6232264,0.0,0.6883291,0.0,0.0,0.7253986,0.0,0.0,-0.001,0,0
6868000,0.0,-0.0,1.6237117,0.0,0.6881531,0.0,0.0,0.72556555,0.0,0.0,-0.001,0,0
6916000,0.0,-0.0,1.6239707,0.0,0.6880591,0.0,0.0,0.72565466,0.0,0.0,-0.001,0,0
6964000,0.0,-0.0,1.6245402,0.0,0.68785244,0.0,0.0,0.7258506,0.0,0.0,-0.001,0,0
7012000,0.0,-0.0,1.6253831,0.0,0.6875465,0.0,0.0,0.7261404,0.0,0.0,-0.001,0,0
7068000,0.0,-0.0,1.6261948,0.0,0.6872517,0.0,0.0,0.7264194,0.0,0.0,-0.001,0,0
7116000,0.0,-0.0,1.62689,0.0,0.6869992,0.0,0.0,0.72665817,0.0,0.0,-0.001,0,0
7164000,0.0,-0.0,1.6273328,0.0,0.68683827,0.0,0.0,0.7268103,0.0,0.0,-0.001,0,0
7220000,0.0,-0.0,1.6274751,0.0,0.68678653,0.0,0.0,0.72685915,0.0,0.0,-0.001,0,0
7268000,0.0,-0.0,1.6275041,0.0,0.68677604,0.0,0.0,0.72686917,0.0,0.0,-0.001,0,0
7316000,0.0,-0.0,1.627404,0.0,0.6868124,0.0,0.0,0.7268347,0.0,0.0,-0.001,0,0
7364000,0.0,-0.0,1.627279,0.0,0.6868578,0.0,0.0,0.72679186,0.0,0.0,-0.001,0,0
7412000,0.0,-0.0,1.6271217,0.0,0.686915,0.0,0.0,0.7267378,0.0,0.0,-0.001,0,0
7468000,0.0,-0.0,1.6269228,0.0,0.6869873,0.0,0.0,0.72666943,0.0,0.0,-0.001,0,0
7516000,0.0,-0.0,1.626886,0.0,0.68700063,0.0,0.0,0.72665685,0.0,0.0,-0.001,0,0
7564000,0.0,-0.0,1.6269364,0.0,0.68698233,0.0,0.0,0.7266742,0.0,0.0,-0.001,0,0
7612000,0.0,-0.0,1.6269912,0.0,0.6869624,0.0,0.0,0.726693,0.0,0.0,-0.001,0,0
7668000,0.0,-0.0,1.6270183,0.0,0.68695253,0.0,0.0,0.7267024,0.0,0.0,-0.001,0,0
7716000,0.0,-0.0,1.6269715,0.0,0.6869696,0.0,0.0,0.72668624,0.0,0.0,-0.001,0,0
7764000,0.0,-0.0,1.6269503,0.0,0.68697727,0.0,0.0,0.72667897,0.0,0.0,-0.001,0,0
7812000,0.0,-0.0,1.626723,0.0,0.6870598,0.0,0.0,0.7266009,0.0,0.0,-0.001,0,0
7868000,0.0,-0.0,1.6264042,0.0,0.6871757,0.0,0.0,0.7264913,0.0,0.0,-0.001,0,0
7916000,0.0,-0.0,1.6260962,0.0,0.6872875,0.0,0.0,0.72638553,0.0,0.0,-0.001,0,0
7972000,0.0,-0.0,1.6250368,0.0,0.6876722,0.0,0.0,0.72602135,0.0,0.0,-0.001,0,0
8012000,0.0,-0.0,1.6242628,0.0,0.6879531,0.0,0.0,0.7257552,0.0,0.0,-0.001,0,0
8068000,0.0,-0.0,1.6235021,0.0,0.6882291,0.0,0.0,0.7254935,0.0,0.0,-0.001,0,0
8116000,0.0,-0.0,1.6230509,0.0,0.68839276,0.0,0.0,0.72533816,0.0,0.0,-0.001,0,0
8164000,0.0,-0.0,1.622881,0.0,0.68845433,0.0,0.0,0.72527975,0.0,0.0,-0.001,0,0
8220000,0.0,-0.0,1.6227962,0.0,0.68848515,0.0,0.0,0.7252505,0.0,0.0,-0.001,0,0
8268000,0.0,-0.0,1.622897,0.0,0.68844855,0.0,0.0,0.72528523,0.0,0.0,-0.001,0,0
8316000,0.0,-0.0,1.622979,0.0,0.6884188,0.0,0.0,0.7253134,0.0,0.0,-0.001,0,0
8364000,0.0,-0.0,1.6229495,0.0,0.68842953,0.0,0.0,0.7253033,0.0,0.0,-0.001,0,0
8412000,0.0,-0.0,1.6225933,0.0,0.6885587,0.0,0.0,0.7251806,0.0,0.0,-0.001,0,0
8468000,0.0,-0.0,1.6222465,0.0,0.68868446,0.0,0.0,0.72506124,0.0,0.0,-0.001,0,0
8516000,0.0,-0.0,1.622333,0.0,0.68865305,0.0,0.0,0.72509104,0.0,0.0,-0.001,0,0
8564000,0.0,-0.0,1.6226629,0.0,0.6885335,0.0,0.0,0.7252046,0.0,0.0,-0.001,0,0
8612000,0.0,-0.0,1.6229817,0.0,0.68841785,0.0,0.0,0.72531444,0.0,0.0,-0.001,0,0
8668000,0.0,-0.0,1.6231714,0.0,0.68834907,0.0,0.0,0.7253796,0.0,0.0,-0.001,0,0
8716000,0.0,-0.0,1.6230378,0.0,0.6883975,0.0,0.0,0.7253337,0.0,0.0,-0.001,0,0
8764000,0.0,-0.0,1.622932,0.0,0.6884359,0.0,0.0,0.7252972,0.0,0.0,-0.001,0,0
8812000,0.0,-0.0,1.6229516,0.0,0.68842876,0.0,0.0,0.72530395,0.0,0.0,-0.001,0,0
8868000,0.0,-0.0,1.6230859,0.0,0.68838006,0.0,0.0,0.72535026,0.0,0.0,-0.001,0,0
8916000,0.0,-0.0,1.6231924,0.0,0.68834144,0.0,0.0,0.72538686,0.0,0.0,-0.001,0,0
8964000,0.0,-0.0,1.6234233,0.0,0.6882577,0.0,0.0,0.7254664,0.0,0.0,-0.001,0,0
9012000,0.0,-0.0,1.6237031,0.0,0.6881562,0.0,0.0,0.72556263,0.0,0.0,-0.001,0,0
9068000,0.0,-0.0,1.6239108,0.0,0.68808085,0.0,0.0,0.72563416,0.0,0.0,-0.001,0,0
9116000,0.0,-0.0,1.6238157,0.0,0.68811536,0.0,0.0,0.7256013,0.0,0.0,-0.001,0,0
9164000,0.0,-0.0,1.6236702,0.0,0.6881681,0.0,0.0,0.7255513,0.0,0.0,-0.001,0,0
9212000,0.0,-0.0,1.6235824,0.0,0.6882,0.0,0.0,0.725521,0.0,0.0,-0.001,0,0
9268000,0.0,-0.0,1.6237502,0.0,0.6881391,0.0,0.0,0.72557884,0.0,0.0,-0.001,0,0
9316000,0.0,-0.0,1.6239737,0.0,0.688058,0.0,0.0,0.7256557,0.0,0.0,-0.001,0,0
9364000,0.0,-0.0,1.6241364,0.0,0.687999,0.0,0.0,0.72571164,0.0,0.0,-0.001,0,0
9412000,0.0,-0.0,1.6240144,0.0,0.68804324,0.0,0.0,0.7256697,0.0,0.0,-0.001,0,0
9468000,0.0,-0.0,1.6239111,0.0,0.6880807,0.0,0.0,0.72563416,0.0,0.0,-0.001,0,0
9516000,0.0,-0.0,1.623834,0.0,0.6881087,0.0,0.0,0.7256077,0.0,0.0,-0.001,0,0
9564000,0.0,-0.0,1.6234009,0.0,0.6882658,0.0,0.0,0.72545856,0.0,0.0,-0.001,0,0
9612000,0.0,-0.0,1.6231412,0.0,0.68836004,0.0,0.0,0.7253692,0.0,0.0,-0.001,0,0
9668000,0.0,-0.0,1.6229784,0.0,0.68841904,0.0,0.0,0.72531325,0.0,0.0,-0.001,0,0
9716000,0.0,-0.0,1.6230341,0.0,0.68839884,0.0,0.0,0.72533244,0.0,0.0,-0.001,0,0
9764000,0.0,-0.0,1.6231842,0.0,0.6883444,0.0,0.0,0.725384,0.0,0.0,-0.001,0,0
9820000,0.0,-0.0,1.6233523,0.0,0.68828344,0.0,0.0,0.7254419,0.0,0.0,-0.001,0,0
9868000,0.0,-0.0,1.6234058,0.0,0.688264,0.0,0.0,0.7254603,0.0,0.0,-0.001,0,0
9916000,0.0,-0.0,1.6234027,0.0,0.68826514,0.0,0.0,0.7254593,0.0,0.0,-0.001,0,0
9964000,0.0,-0.0,1.6233577,0.0,0.6882815,0.0,0.0,0.7254437,0.0,0.0,-0.001,0,0
10012000,0.0,-0.0,1.6233371,0.0,0.6882889,0.0,0.0,0.7254366,0.0,0.0,-0.001,0,0
10068000,0.0,-0.0,1.6232954,0.0,0.68830407,0.0,0.0,0.7254223,0.0,0.0,-0.001,0,0
10116000,0.0,-0.0,1.6232904,0.0,0.6883059,0.0,0.0,0.7254206,0.0,0.0,-0.001,0,0
10164000,0.0,-0.0,1.62347,0.0,0.68824077,0.0,0.0,0.72548234,0.0,0.0,-0.001,0,0
10212000,0.0,-0.0,1.6236422,0.0,0.6881783,0.0,0.0,0.7255416,0.0,0.0,-0.001,0,0
10268000,0.0,-0.0,1.6234692,0.0,0.68824106,0.0,0.0,0.7254821,0.0,0.0,-0.001,0,0
10316000,0.0,-0.0,1.6231959,0.0,0.6883402,0.0,0.0,0.72538805,0.0,0.0,-0.001,0,0
10364000,0.0,-0.0,1.6229944,0.0,0.68841326,0.0,0.0,0.7253188,0.0,0.0,-0.001,0,0
10412000,0.0,-0.0,1.6228322,0.0,0.6884721,0.0,0.0,0.7252629,0.0,0.0,-0.001,0,0
10468000,0.0,-0.0,1.6226273,0.0,0.68854636,0.0,0.0,0.7251923,0.0,0.0,-0.001,0,0
10516000,0.0,-0.0,1.6224805,0.0,0.6885996,0.0,0.0,0.7251418,0.0,0.0,-0.001,0,0
10564000,0.0,-0.0,1.622522,0.0,0.68858457,0.0,0.0,0.725156,0.0,0.0,-0.001,0,0
10612000,0.0,-0.0,1.622586,0.0,0.6885614,0.0,0.0,0.7251782,0.0,0.0,-0.001,0,0
10668000,0.0,-0.0,1.622588,0.0,0.6885606,0.0,0.0,0.7251788,0.0,0.0,-0.001,0,0
10716000,0.0,-0.0,1.6221805,0.0,0.68870836,0.0,0.0,0.7250385,0.0,0.0,-0.001,0,0
10764000,0.0,-0.0,1.6217649,0.0,0.68885905,0.0,0.0,0.7248953,0.0,0.0,-0.001,0,0
10812000,0.0,-0.0,1.6214907,0.0,0.6889584,0.0,0.0,0.7248009,0.0,0.0,-0.001,0,0
10868000,0.0,-0.0,1.6210818,0.0,0.6891066,0.0,0.0,0.72466004,0.0,0.0,-0.001,0,0
10916000,0.0,-0.0,1.6208626,0.0,0.689186,0.0,0.0,0.7245845,0.0,0.0,-0.001,0,0
10964000,0.0,-0.0,1.6208382,0.0,0.68919486,0.0,0.0,0.72457606,0.0,0.0,-0.001,0,0
11012000,0.0,-0.0,1.6208111,0.0,0.68920463,0.0,0.0,0.7245668,0.0,0.0,-0.001,0,0
11068000,0.0,-0.0,1.6208012,0.0,0.6892082,0.0,0.0,0.72456336,0.0,0.0,-0.001,0,0
11116000,0.0,-0.0,1.6207818,0.0,0.68921524,0.0,0.0,0.7245567,0.0,0.0,-0.001,0,0
11164000,0.0,-0.0,1.6207118,0.0,0.68924063,0.0,0.0,0.7245325,0.0,0.0,-0.001,0,0
11212000,0.0,-0.0,1.6207346,0.0,0.68923235,0.0,0.0,0.7245404,0.0,0.0,-0.001,0,0
11268000,0.0,-0.0,1.6206939,0.0,0.6892471,0.0,0.0,0.7245264,0.0,0.0,-0.001,0,0
11316000,0.0,-0.0,1.6205791,0.0,0.6892887,0.0,0.0,0.7244868,0.0,0.0,-0.001,0,0
11364000,0.0,-0.0,1.6205512,0.0,0.6892988,0.0,0.0,0.7244772,0.0,0.0,-0.001,0,0
11412000,0.0,-0.0,1.6205771,0.0,0.6892894,0.0,0.0,0.7244861,0.0,0.0,-0.001,0,0
11468000,0.0,-0.0,1.6207719,0.0,0.6892188,0.0,0.0,0.7245533,0.0,0.0,-0.001,0,0
11516000,0.0,-0.0,1.620956,0.0,0.6891522,0.0,0.0,0.72461665,0.0,0.0,-0.001,0,0
11564000,0.0,-0.0,1.6210053,0.0,0.6891343,0.0,0.0,0.72463363,0.0,0.0,-0.001,0,0
11612000,0.0,-0.0,1.621085,0.0,0.6891054,0.0,0.0,0.7246611,0.0,0.0,-0.001,0,0
11668000,0.0,-0.0,1.6210825,0.0,0.6891063,0.0,0.0,0.7246603,0.0,0.0,-0.001,0,0
11716000,0.0,-0.0,1.6210213,0.0,0.6891285,0.0,0.0,0.7246391,0.0,0.0,-0.001,0,0
11764000,0.0,-0.0,1.6209879,0.0,0.6891406,0.0,0.0,0.7246277,0.0,0.0,-0.001,0,0
11812000,0.0,-0.0,1.6210464,0.0,0.6891194,0.0,0.0,0.7246478,0.0,0.0,-0.001,0,0
11868000,0.0,-0.0,1.6210433,0.0,0.68912053,0.0,0.0,0.7246467,0.0,0.0,-0.001,0,0
11916000,0.0,-0.0,1.6210715,0.0,0.6891103,0.0,0.0,0.7246565,0.0,0.0,-0.001,0,0
11964000,0.0,-0.0,1.6210852,0.0,0.68910533,0.0,0.0,0.7246612,0.0,0.0,-0.001,0,0
12012000,0.0,-0.0,1.6211306,0.0,0.6890889,0.0,0.0,0.7246769,0.0,0.0,-0.001,0,0
12068000,0.0,-0.0,1.6211493,0.0,0.6890821,0.0,0.0,0.72468334,0.0,0.0,-0.001,0,0
12116000,0.0,-0.0,1.6211026,0.0,0.689099,0.0,0.0,0.7246672,0.0,0.0,-0.001,0,0
12164000,0.0,-0.0,1.6208978,0.0,0.6891732,0.0,0.0,0.7245967,0.0,0.0,-0.001,0,0
12220000,0.0,-0.0,1.6206924,0.0,0.68924767,0.0,0.0,0.7245258,0.0,0.0,-0.001,0,0
12268000,0.0,-0.0,1.6207621,0.0,0.6892224,0.0,0.0,0.72454983,0.0,0.0,-0.001,0,0
12316000,0.0,-0.0,1.6209412,0.0,0.68915755,0.0,0.0,0.7246115,0.0,0.0,-0.001,0,0
12364000,0.0,-0.0,1.6211377,0.0,0.6890863,0.0,0.0,0.7246793,0.0,0.0,-0.001,0,0
12412000,0.0,-0.0,1.6212769,0.0,0.6890359,0.0,0.0,0.7247272,0.0,0.0,-0.001,0,0
12468000,0.0,-0.0,1.6214246,0.0,0.68898237,0.0,0.0,0.72477806,0.0,0.0,-0.001,0,0
12516000,0.0,-0.0,1.6214664,0.0,0.6889672,0.0,0.0,0.7247925,0.0,0.0,-0.001,0,0
12564000,0.0,-0.0,1.6215979,0.0,0.68891954,0.0,0.0,0.7248379,0.0,0.0,-0.001,0,0
12612000,0.0,-0.0,1.6216741,0.0,0.68889195,0.0,0.0,0.7248641,0.0,0.0,-0.001,0,0
12668000,0.0,-0.0,1.6217023,0.0,0.6888817,0.0,0.0,0.7248739,0.0,0.0,-0.001,0,0
12716000,0.0,-0.0,1.6219717,0.0,0.68878406,0.0,0.0,0.7249666,0.0,0.0,-0.001,0,0
12764000,0.0,-0.0,1.6222384,0.0,0.6886874,0.0,0.0,0.7250585,0.0,0.0,-0.001,0,0
12812000,0.0,-0.0,1.622374,0.0,0.6886382,0.0,0.0,0.7251051,0.0,0.0,-0.001,0,0
12868000,0.0,-0.0,1.6221836,0.0,0.68870723,0.0,0.0,0.72503954,0.0,0.0,-0.001,0,0
12916000,0.0,-0.0,1.6218888,0.0,0.6888141,0.0,0.0,0.72493804,0.0,0.0,-0.001,0,0
12964000,0.0,-0.0,1.6216115,0.0,0.6889146,0.0,0.0,0.72484255,0.0,0.0,-0.001,0,0
13012000,0.0,-0.0,1.6215847,0.0,0.6889244,0.0,0.0,0.7248332,0.0,0.0,-0.001,0,0
13068000,0.0,-0.0,1.6215745,0.0,0.688928,0.0,0.0,0.72482973,0.0,0.0,-0.001,0,0
13116000,0.0,-0.0,1.62162,0.0,0.6889115,0.0,0.0,0.7248455,0.0,0.0,-0.001,0,0
13164000,0.0,-0.0,1.6214414,0.0,0.6889763,0.0,0.0,0.72478396,0.0,0.0,-0.001,0,0
13220000,0.0,-0.0,1.621287,0.0,0.6890322,0.0,0.0,0.7247308,0.0,0.0,-0.001,0,0
13268000,0.0,-0.0,1.6213124,0.0,0.689023,0.0,0.0,0.72473943,0.0,0.0,-0.001,0,0
13316000,0.0,-0.0,1.6215243,0.0,0.6889462,0.0,0.0,0.7248125,0.0,0.0,-0.001,0,0
13364000,0.0,-0.0,1.6217598,0.0,0.6888609,0.0,0.0,0.7248936,0.0,0.0,-0.001,0,0
13412000,0.0,-0.0,1.621912,0.0,0.6888057,0.0,0.0,0.72494596,0.0,0.0,-0.001,0,0
13468000,0.0,-0.0,1.621929,0.0,0.6887995,0.0,0.0,0.72495186,0.0,0.0,-0.001,0,0
13516000,0.0,-0.0,1.6218218,0.0,0.6888384,0.0,0.0,0.724915,0.0,0.0,-0.001,0,0
13564000,0.0,-0.0,1.6218497,0.0,0.6888283,0.0,0.0,0.7249246,0.0,0.0,-0.001,0,0
13612000,0.0,-0.0,1.6220446,0.0,0.68875766,0.0,0.0,0.7249917,0.0,0.0,-0.001,0,0
13668000,0.0,-0.0,1.622283,0.0,0.68867123,0.0,0.0,0.72507375,0.0,0.0,-0.001,0,0
13716000,0.0,-0.0,1.622325,0.0,0.68865603,0.0,0.0,0.7250882,0.0,0.0,-0.001,0,0
13764000,0.0,-0.0,1.6222379,0.0,0.68868756,0.0,0.0,0.7250582,0.0,0.0,-0.001,0,0
13812000,0.0,-0.0,1.6220887,0.0,0.6887416,0.0,0.0,0.7250069,0.0,0.0,-0.001,0,0
13868000,0.0,-0.0,1.6219989,0.0,0.68877417,0.0,0.0,0.72497606,0.0,0.0,-0.001,0,0
13916000,0.0,-0.0,1.62207,0.0,0.6887484,0.0,0.0,0.7250005,0.0,0.0,-0.001,0,0
13964000,0.0,-0.0,1.6221436,0.0,0.6887217,0.0,0.0,0.7250258,0.0,0.0,-0.001,0,0
14012000,0.0,-0.0,1.6222153,0.0,0.6886957,0.0,0.0,0.72505057,0.0,0.0,-0.001,0,0
14068000,0.0,-0.0,1.6222177,0.0,0.6886949,0.0,0.0,0.72505134,0.0,0.0,-0.001,0,0
14116000,0.0,-0.0,1.6222064,0.0,0.68869895,0.0,0.0,0.7250474,0.0,0.0,-0.001,0,0
14164000,0.0,-0.0,1.6224442,0.0,0.68861276,0.0,0.0,0.72512937,0.0,0.0,-0.001,0,0
14220000,0.0,-0.0,1.6227077,0.0,0.6885172,0.0,0.0,0.72522,0.0,0.0,-0.001,0,0
14268000,0.0,-0.0,1.6228373,0.0,0.68847024,0.0,0.0,0.7252646,0.0,0.0,-0.001,0,0
14316000,0.0,-0.0,1.6228253,0.0,0.6884746,0.0,0.0,0.72526044,0.0,0.0,-0.001,0,0
14364000,0.0,-0.0,1.6227998,0.0,0.68848383,0.0,0.0,0.7252517,0.0,0.0,-0.001,0,0
14412000,0.0,-0.0,1.6227721,0.0,0.68849385,0.0,0.0,0.72524214,0.0,0.0,-0.001,0,0
14468000,0.0,-0.0,1.6230787,0.0,0.6883827,0.0,0.0,0.72534776,0.0,0.0,-0.001,0,0
14516000,0.0,-0.0,1.623232,0.0,0.6883271,0.0,0.0,0.7254005,0.0,0.0,-0.001,0,0
14564000,0.0,-0.0,1.6233057,0.0,0.6883004,0.0,0.0,0.7254258,0.0,0.0,-0.001,0,0
14612000,0.0,-0.0,1.6232392,0.0,0.68832445,0.0,0.0,0.725403,0.0,0.0,-0.001,0,0
14668000,0.0,-0.0,1.6231416,0.0,0.68835986,0.0,0.0,0.72536945,0.0,0.0,-0.001,0,0
14716000,0.0,-0.0,1.6229634,0.0,0.68842447,0.0,0.0,0.72530806,0.0,0.0,-0.001,0,0
14764000,0.0,-0.0,1.6226572,0.0,0.6885355,0.0,0.0,0.7252027,0.0,0.0,-0.001,0,0
14812000,0.0,-0.0,1.6223602,0.0,0.6886432,0.0,0.0,0.72510034,0.0,0.0,-0.001,0,0
14868000,0.0,-0.0,1.6221954,0.0,0.688703,0.0,0.0,0.7250436,0.0,0.0,-0.001,0,0
14916000,0.0,-0.0,1.6220757,0.0,0.6887464,0.0,0.0,0.7250024,0.0,0.0,-0.001,0,0
14964000,0.0,-0.0,1.6220258,0.0,0.68876445,0.0,0.0,0.7249852,0.0,0.0,-0.001,0,0
15012000,0.0,-0.0,1.6220071,0.0,0.68877125,0.0,0.0,0.7249787,0.0,0.0,-0.001,0,0
15068000,0.0,-0.0,1.6219128,0.0,0.6888054,0.0,0.0,0.7249463,0.0,0.0,-0.001,0,0
15116000,0.0,-0.0,1.6217945,0.0,0.6888483,0.0,0.0,0.72490555,0.0,0.0,-0.001,0,0
15164000,0.0,-0.0,1.6216764,0.0,0.6888911,0.0,0.0,0.7248649,0.0,0.0,-0.001,0,0
15212000,0.0,-0.0,1.6215888,0.0,0.6889228,0.0,0.0,0.7248347,0.0,0.0,-0.001,0,0
15268000,0.0,-0.0,1.6216229,0.0,0.6889105,0.0,0.0,0.7248464,0.0,0.0,-0.001,0,0
15316000,0.0,-0.0,1.6215899,0.0,0.68892246,0.0,0.0,0.72483504,0.0,0.0,-0.001,0,0
15364000,0.0,-0.0,1.6215291,0.0,0.68894446,0.0,0.0,0.7248141,0.0,0.0,-0.001,0,0
15412000,0.0,-0.0,1.6213871,0.0,0.68899596,0.0,0.0,0.7247652,0.0,0.0,-0.001,0,0
15468000,0.0,-0.0,1.6212057,0.0,0.6890617,0.0,0.0,0.72470266,0.0,0.0,-0.001,0,0
15516000,0.0,-0.0,1.6210418,0.0,0.68912107,0.0,0.0,0.7246463,0.0,0.0,-0.001,0,0
15564000,0.0,-0.0,1.6208717,0.0,0.6891827,0.0,0.0,0.7245876,0.0,0.0,-0.001,0,0
15612000,0.0,-0.0,1.6206522,0.0,0.6892622,0.0,0.0,0.724512,0.0,0.0,-0.001,0,0
15668000,0.0,-0.0,1.6202728,0.0,0.68939966,0.0,0.0,0.7243812,0.0,0.0,-0.001,0,0
15716000,0.0,-0.0,1.6200424,0.0,0.68948305,0.0,0.0,0.7243018,0.0,0.0,-0.001,0,0
15764000,0.0,-0.0,1.6198367,0.0,0.68955755,0.0,0.0,0.72423095,0.0,0.0,-0.001,0,0
15812000,0.0,-0.0,1.6197339,0.0,0.6895948,0.0,0.0,0.72419536,0.0,0.0,-0.001,0,0
15868000,0.0,-0.0,1.6195172,0.0,0.68967324,0.0,0.0,0.72412074,0.0,0.0,-0.001,0,0
15916000,0.0,-0.0,1.6193517,0.0,0.68973315,0.0,0.0,0.7240637,0.0,0.0,-0.001,0,0
15964000,0.0,-0.0,1.6191914,0.0,0.6897912,0.0,0.0,0.7240084,0.0,0.0,-0.001,0,0
16012000,0.0,-0.0,1.618987,0.0,0.68986523,0.0,0.0,0.7239378,0.0,0.0,-0.001,0,0
16068000,0.0,-0.0,1.6188319,0.0,0.6899213,0.0,0.0,0.72388434,0.0,0.0,-0.001,0,0
16116000,0.0,-0.0,1.6187986,0.0,0.68993336,0.0,0.0,0.7238729,0.0,0.0,-0.001,0,0
16164000,0.0,-0.0,1.6187983,0.0,0.6899335,0.0,0.0,0.7238728,0.0,0.0,-0.001,0,0
16212000,0.0,-0.0,1.6187804,0.0,0.68994,0.0,0.0,0.7238667,0.0,0.0,-0.001,0,0
16268000,0.0,-0.0,1.6187432,0.0,0.68995345,0.0,0.0,0.7238537,0.0,0.0,-0.001,0,0
16316000,0.0,-0.0,1.6186075,0.0,0.69000256,0.0,0.0,0.7238069,0.0,0.0,-0.001,0,0
16364000,0.0,-0.0,1.618484,0.0,0.6900472,0.0,0.0,0.72376436,0.0,0.0,-0.001,0,0
16412000,0.0,-0.0,1.6182443,0.0,0.690134,0.0,0.0,0.7236817,0.0,0.0,-0.001,0,0
16468000,0.0,-0.0,1.6179821,0.0,0.6902288,0.0,0.0,0.7235912,0.0,0.0,-0.001,0,0
16516000,0.0,-0.0,1.6178132,0.0,0.69029,0.0,0.0,0.72353286,0.0,0.0,-0.001,0,0
16572000,0.0,-0.0,1.6178019,0.0,0.690294,0.0,0.0,0.723529,0.0,0.0,-0.001,0,0
16620000,0.0,-0.0,1.6179179,0.0,0.69025207,0.0,0.0,0.723569,0.0,0.0,-0.001,0,0
16668000,0.0,-0.0,1.6180342,0.0,0.69021,0.0,0.0,0.72360915,0.0,0.0,-0.001,0,0
16716000,0.0,-0.0,1.6180228,0.0,0.69021416,0.0,0.0,0.72360516,0.0,0.0,-0.001,0,0
16764000,0.0,-0.0,1.6179019,0.0,0.69025785,0.0,0.0,0.7235635,0.0,0.0,-0.001,0,0
16820000,0.0,-0.0,1.6177617,0.0,0.6903086,0.0,0.0,0.72351515,0.0,0.0,-0.001,0,0
16868000,0.0,-0.0,1.6177624,0.0,0.69030833,0.0,0.0,0.72351533,0.0,0.0,-0.001,0,0
16916000,0.0,-0.0,1.6177634,0.0,0.690308,0.0,0.0,0.7235156,0.0,0.0,-0.001,0,0
16964000,0.0,-0.0,1.617817,0.0,0.69028854,0.0,0.0,0.7235342,0.0,0.0,-0.001,0,0
17020000,0.0,-0.0,1.6178913,0.0,0.6902617,0.0,0.0,0.72355974,0.0,0.0,-0.001,0,0
17068000,0.0,-0.0,1.6179881,0.0,0.6902267,0.0,0.0,0.72359324,0.0,0.0,-0.001,0,0
17116000,0.0,-0.0,1.618059,0.0,0.690201,0.0,0.0,0.7236178,0.0,0.0,-0.001,0,0
17172000,0.0,-0.0,1.618012,0.0,0.69021803,0.0,0.0,0.7236015,0.0,0.0,-0.001,0,0
17220000,0.0,-0.0,1.6179663,0.0,0.69023454,0.0,0.0,0.7235857,0.0,0.0,-0.001,0,0
17268000,0.0,-0.0,1.6179097,0.0,0.69025505,0.0,0.0,0.7235662,0.0,0.0,-0.001,0,0
17316000,0.0,-0.0,1.6177912,0.0,0.69029796,0.0,0.0,0.7235253,0.0,0.0,-0.001,0,0
17364000,0.0,-0.0,1.6176468,0.0,0.6903502,0.0,0.0,0.7234754,0.0,0.0,-0.001,0,0
17420000,0.0,-0.0,1.6176329,0.0,0.6903552,0.0,0.0,0.7234706,0.0,0.0,-0.001,0,0
17468000,0.0,-0.0,1.6176201,0.0,0.6903598,0.0,0.0,0.7234662,0.0,0.0,-0.001,0,0
17516000,0.0,-0.0,1.6176255,0.0,0.69035786,0.0,0.0,0.7234681,0.0,0.0,-0.001,0,0
17564000,0.0,-0.0,1.6176512,0.0,0.69034857,0.0,0.0,0.72347695,0.0,0.0,-0.001,0,0
17612000,0.0,-0.0,1.6176738,0.0,0.6903404,0.0,0.0,0.72348475,0.0,0.0,-0.001,0,0
17668000,0.0,-0.0,1.617661,0.0,0.690345,0.0,0.0,0.7234804,0.0,0.0,-0.001,0,0
17716000,0.0,-0.0,1.6176839,0.0,0.69033676,0.0,0.0,0.7234882,0.0,0.0,-0.001,0,0
17764000,0.0,-0.0,1.6176653,0.0,0.69034344,0.0,0.0,0.72348183,0.0,0.0,-0.001,0,0
17812000,0.0,-0.0,1.6177163,0.0,0.690325,0.0,0.0,0.7234994,0.0,0.0,-0.001,0,0
17868000,0.0,-0.0,1.6178087,0.0,0.6902916,0.0,0.0,0.7235314,0.0,0.0,-0.001,0,0
17916000,0.0,-0.0,1.617883,0.0,0.6902647,0.0,0.0,0.723557,0.0,0.0,-0.001,0,0
17964000,0.0,-0.0,1.6179382,0.0,0.69024473,0.0,0.0,0.72357595,0.0,0.0,-0.001,0,0
18012000,0.0,-0.0,1.6179487,0.0,0.6902409,0.0,0.0,0.72357965,0.0,0.0,-0.001,0,0
18068000,0.0,-0.0,1.6178817,0.0,0.6902652,0.0,0.0,0.72355646,0.0,0.0,-0.001,0,0
18116000,0.0,-0.0,1.6177961,0.0,0.6902962,0.0,0.0,0.723527,0.0,0.0,-0.001,0,0
18164000,0.0,-0.0,1.617725,0.0,0.69032186,0.0,0.0,0.7235025,0.0,0.0,-0.001,0,0
18220000,0.0,-0.0,1.6176661,0.0,0.69034314,0.0,0.0,0.7234822,0.0,0.0,-0.001,0,0
18268000,0.0,-0.0,1.6176509,0.0,0.6903487,0.0,0.0,0.7234768,0.0,0.0,-0.001,0,0
18316000,0.0,-0.0,1.6176883,0.0,0.69033515,0.0,0.0,0.72348976,0.0,0.0,-0.001,0,0
18364000,0.0,-0.0,1.6177853,0.0,0.69030005,0.0,0.0,0.72352326,0.0,0.0,-0.001,0,0
18412000,0.0,-0.0,1.6178672,0.0,0.6902704,0.0,0.0,0.72355145,0.0,0.0,-0.001,0,0
18468000,0.0,-0.0,1.6178685,0.0,0.69026995,0.0,0.0,0.7235519,0.0,0.0,-0.001,0,0
18516000,0.0,-0.0,1.6178174,0.0,0.6902884,0.0,0.0,0.72353435,0.0,0.0,-0.001,0,0
18564000,0.0,-0.0,1.6177422,0.0,0.69031566,0.0,0.0,0.72350836,0.0,0.0,-0.001,0,0
18620000,0.0,-0.0,1.6175123,0.0,0.69039875,0.0,0.0,0.723429,0.0,0.0,-0.001,0,0
18668000,0.0,-0.0,1.6174142,0.0,0.6904343,0.0,0.0,0.7233951,0.0,0.0,-0.001,0,0
18716000,0.0,-0.0,1.6172168,0.0,0.6905057,0.0,0.0,0.723327,0.0,0.0,-0.001,0,0
18764000,0.0,-0.0,1.617051,0.0,0.69056565,0.0,0.0,0.72326976,0.0,0.0,-0.001,0,0
18812000,0.0,-0.0,1.6170019,0.0,0.6905834,0.0,0.0,0.7232528,0.0,0.0,-0.001,0,0
18868000,0.0,-0.0,1.6169026,0.0,0.69061935,0.0,0.0,0.72321844,0.0,0.0,-0.001,0,0
18916000,0.0,-0.0,1.6167743,0.0,0.6906657,0.0,0.0,0.7231742,0.0,0.0,-0.001,0,0
18964000,0.0,-0.0,1.6167386,0.0,0.6906786,0.0,0.0,0.7231618,0.0,0.0,-0.001,0,0
19012000,0.0,-0.0,1.6165514,0.0,0.6907463,0.0,0.0,0.72309726,0.0,0.0,-0.001,0,0
19068000,0.0,-0.0,1.6164056,0.0,0.690799,0.0,0.0,0.72304684,0.0,0.0,-0.001,0,0
19116000,0.0,-0.0,1.6162478,0.0,0.69085604,0.0,0.0,0.72299236,0.0,0.0,-0.001,0,0
19164000,0.0,-0.0,1.6163304,0.0,0.6908262,0.0,0.0,0.723021,0.0,0.0,-0.001,0,0
19212000,0.0,-0.0,1.616426,0.0,0.69079167,0.0,0.0,0.72305393,0.0,0.0,-0.001,0,0
19268000,0.0,-0.0,1.6164888,0.0,0.6907689,0.0,0.0,0.7230756,0.0,0.0,-0.001,0,0
19316000,0.0,-0.0,1.6163818,0.0,0.69080764,0.0,0.0,0.7230387,0.0,0.0,-0.001,0,0
19364000,0.0,-0.0,1.6161941,0.0,0.6908755,0.0,0.0,0.7229738,0.0,0.0,-0.001,0,0
19412000,0.0,-0.0,1.6159811,0.0,0.6909525,0.0,0.0,0.7229003,0.0,0.0,-0.001,0,0
19468000,0.0,-0.0,1.6156749,0.0,0.69106317,0.0,0.0,0.7227944,0.0,0.0,-0.001,0,0
19516000,0.0,-0.0,1.615412,0.0,0.6911581,0.0,0.0,0.7227036,0.0,0.0,-0.001,0,0
19572000,0.0,-0.0,1.6152288,0.0,0.69122434,0.0,0.0,0.7226403,0.0,0.0,-0.001,0,0
19612000,0.0,-0.0,1.6151984,0.0,0.6912353,0.0,0.0,0.7226298,0.0,0.0,-0.001,0,0
19668000,0.0,-0.0,1.6151334,0.0,0.6912588,0.0,0.0,0.7226073,0.0,0.0,-0.001,0,0
19716000,0.0,-0.0,1.6152005,0.0,0.6912345,0.0,0.0,0.7226305,0.0,0.0,-0.001,0,0
19764000,0.0,-0.0,1.615268,0.0,0.69121015,0.0,0.0,0.72265387,0.0,0.0,-0.001,0,0
19812000,0.0,-0.0,1.6154205,0.0,0.6911551,0.0,0.0,0.72270644,0.0,0.0,-0.001,0,0
19868000,0.0,-0.0,1.615386,0.0,0.69116753,0.0,0.0,0.7226945,0.0,0.0,-0.001,0,0
19916000,0.0,-0.0,1.6153575,0.0,0.6911778,0.0,0.0,0.7226848,0.0,0.0,-0.001,0,0
19964000,0.0,-0.0,1.6153114,0.0,0.6911945,0.0,0.0,0.72266877,0.0,0.0,-0.001,0,0
20012000,0.0,-0.0,1.6152791,0.0,0.69120616,0.0,0.0,0.7226577,0.0,0.0,-0.001,0,0
20068000,0.0,-0.0,1.6152934,0.0,0.69120103,0.0,0.0,0.72266257,0.0,0.0,-0.001,0,0
20116000,0.0,-0.0,1.615339,0.0,0.69118446,0.0,0.0,0.72267836,0.0,0.0,-0.001,0,0
20172000,0.0,-0.0,1.6154202,0.0,0.6911552,0.0,0.0,0.7227064,0.0,0.0,-0.001,0,0
20212000,0.0,-0.0,1.6154786,0.0,0.69113404,0.0,0.0,0.72272664,0.0,0.0,-0.001,0,0
20268000,0.0,-0.0,1.6155798,0.0,0.6910975,0.0,0.0,0.7227615,0.0,0.0,-0.001,0,0
20316000,0.0,-0.0,1.6157004,0.0,0.6910539,0.0,0.0,0.7228033,0.0,0.0,-0.001,0,0
20364000,0.0,-0.0,1.6157416,0.0,0.691039,0.0,0.0,0.7228175,0.0,0.0,-0.001,0,0
20420000,0.0,-0.0,1.615758,0.0,0.6910331,0.0,0.0,0.7228231,0.0,0.0,-0.001,0,0
20468000,0.0,-0.0,1.6157349,0.0,0.6910414,0.0,0.0,0.7228153,0.0,0.0,-0.001,0,0
20516000,0.0,-0.0,1.615675,0.0,0.6910631,0.0,0.0,0.7227945,0.0,0.0,-0.001,0,0
20564000,0.0,-0.0,1.6156423,0.0,0.6910749,0.0,0.0,0.72278315,0.0,0.0,-0.001,0,0
20612000,0.0,-0.0,1.6155866,0.0,0.691095,0.0,0.0,0.72276396,0.0,0.0,-0.001,0,0
20668000,0.0,-0.0,1.6155239,0.0,0.6911177,0.0,0.0,0.7227422,0.0,0.0,-0.001,0,0
20716000,0.0,-0.0,1.6155348,0.0,0.69111377,0.0,0.0,0.722746,0.0,0.0,-0.001,0,0
20764000,0.0,-0.0,1.6155459,0.0,0.6911098,0.0,0.0,0.7227499,0.0,0.0,-0.001,0,0
20812000,0.0,-0.0,1.6155398,0.0,0.691112,0.0,0.0,0.7227477,0.0,0.0,-0.001,0,0
20868000,0.0,-0.0,1.61563,0.0,0.6910793,0.0,0.0,0.7227789,0.0,0.0,-0.001,0,0
20916000,0.0,-0.0,1.6156324,0.0,0.6910785,0.0,0.0,0.72277975,0.0,0.0,-0.001,0,0
20964000,0.0,-0.0,1.6156706,0.0,0.6910647,0.0,0.0,0.72279286,0.0,0.0,-0.001,0,0
21012000,0.0,-0.0,1.6156268,0.0,0.6910805,0.0,0.0,0.72277784,0.0,0.0,-0.001,0,0
21068000,0.0,-0.0,1.6154928,0.0,0.6911289,0.0,0.0,0.72273153,0.0,0.0,-0.001,0,0
21116000,0.0,-0.0,1.6154596,0.0,0.69114095,0.0,0.0,0.72271997,0.0,0.0,-0.001,0,0
21164000,0.0,-0.0,1.6153749,0.0,0.6911715,0.0,0.0,0.7226908,0.0,0.0,-0.001,0,0
21212000,0.0,-0.0,1.6152602,0.0,0.69121295,0.0,0.0,0.72265124,0.0,0.0,-0.001,0,0
21268000,0.0,-0.0,1.615152,0.0,0.69125205,0.0,0.0,0.7226137,0.0,0.0,-0.001,0,0
21316000,0.0,-0.0,1.6149476,0.0,0.69132596,0.0,0.0,0.72254306,0.0,0.0,-0.001,0,0
21364000,0.0,-0.0,1.6147877,0.0,0.6913837,0.0,0.0,0.72248775,0.0,0.0,-0.001,0,0
21412000,0.0,-0.0,1.6146206,0.0,0.69144404,0.0,0.0,0.72243005,0.0,0.0,-0.001,0,0
21468000,0.0,-0.0,1.6144783,0.0,0.6914954,0.0,0.0,0.7223808,0.0,0.0,-0.001,0,0
21516000,0.0,-0.0,1.6143725,0.0,0.6915336,0.0,0.0,0.7223443,0.0,0.0,-0.001,0,0
21564000,0.0,-0.0,1.614367,0.0,0.69153565,0.0,0.0,0.7223424,0.0,0.0,-0.001,0,0
21612000,0.0,-0.0,1.6143358,0.0,0.6915469,0.0,0.0,0.7223316,0.0,0.0,-0.001,0,0
21668000,0.0,-0.0,1.614298,0.0,0.69156057,0.0,0.0,0.72231853,0.0,0.0,-0.001,0,0
21716000,0.0,-0.0,1.6142689,0.0,0.69157106,0.0,0.0,0.72230846,0.0,0.0,-0.001,0,0
21772000,0.0,-0.0,1.6141702,0.0,0.69160676,0.0,0.0,0.72227424,0.0,0.0,-0.001,0,0
21820000,0.0,-0.0,1.6141565,0.0,0.69161165,0.0,0.0,0.7222696,0.0,0.0,-0.001,0,0
21868000,0.0,-0.0,1.6142498,0.0,0.691578,0.0,0.0,0.7223018,0.0,0.0,-0.001,0,0
21916000,0.0,-0.0,1.6142789,0.0,0.6915675,0.0,0.0,0.72231185,0.0,0.0,-0.001,0,0
21964000,0.0,-0.0,1.6142751,0.0,0.69156885,0.0,0.0,0.72231054,0.0,0.0,-0.001,0,0
22012000,0.0,-0.0,1.614217,0.0,0.69158983,0.0,0.0,0.72229046,0.0,0.0,-0.001,0,0
22068000,0.0,-0.0,1.614205,0.0,0.6915942,0.0,0.0,0.7222863,0.0,0.0,-0.001,0,0
22116000,0.0,-0.0,1.6141021,0.0,0.6916313,0.0,0.0,0.72225076,0.0,0.0,-0.001,0,0
22164000,0.0,-0.0,1.6138915,0.0,0.6917074,0.0,0.0,0.722178,0.0,0.0,-0.001,0,0
22212000,0.0,-0.0,1.613776,0.0,0.6917491,0.0,0.0,0.722138,0.0,0.0,-0.001,0,0
22268000,0.0,-0.0,1.6135597,0.0,0.6918272,0.0,0.0,0.7220631,0.0,0.0,-0.001,0,0
22316000,0.0,-0.0,1.6134156,0.0,0.6918792,0.0,0.0,0.72201324,0.0,0.0,-0.001,0,0
22364000,0.0,-0.0,1.6132538,0.0,0.69193757,0.0,0.0,0.7219574,0.0,0.0,-0.001,0,0
22412000,0.0,-0.0,1.6131732,0.0,0.69196665,0.0,0.0,0.7219295,0.0,0.0,-0.001,0,0
22468000,0.0,-0.0,1.6132548,0.0,0.6919372,0.0,0.0,0.7219577,0.0,0.0,-0.001,0,0
22516000,0.0,-0.0,1.6133442,0.0,0.69190496,0.0,0.0,0.72198856,0.0,0.0,-0.001,0,0
22564000,0.0,-0.0,1.6131681,0.0,0.6919685,0.0,0.0,0.7219277,0.0,0.0,-0.001,0,0
22612000,0.0,-0.0,1.61295,0.0,0.69204724,0.0,0.0,0.72185224,0.0,0.0,-0.001,0,0
22668000,0.0,-0.0,1.6126801,0.0,0.69214463,0.0,0.0,0.7217589,0.0,0.0,-0.001,0,0
22716000,0.0,-0.0,1.6126244,0.0,0.6921648,0.0,0.0,0.72173953,0.0,0.0,-0.001,0,0
22772000,0.0,-0.0,1.612581,0.0,0.6921804,0.0,0.0,0.72172457,0.0,0.0,-0.001,0,0
22812000,0.0,-0.0,1.6125908,0.0,0.6921769,0.0,0.0,0.7217279,0.0,0.0,-0.001,0,0
22868000,0.0,-0.0,1.6127881,0.0,0.6921057,0.0,0.0,0.7217962,0.0,0.0,-0.001,0,0
22916000,0.0,-0.0,1.6128892,0.0,0.69206923,0.0,0.0,0.7218312,0.0,0.0,-0.001,0,0
22964000,0.0,-0.0,1.6129543,0.0,0.6920457,0.0,0.0,0.7218538,0.0,0.0,-0.001,0,0
23012000,0.0,-0.0,1.6128833,0.0,0.6920713,0.0,0.0,0.72182924,0.0,0.0,-0.001,0,0
23068000,0.0,-0.0,1.6128066,0.0,0.69209903,0.0,0.0,0.7218026,0.0,0.0,-0.001,0,0
23116000,0.0,-0.0,1.6128415,0.0,0.6920864,0.0,0.0,0.7218147,0.0,0.0,-0.001,0,0
23164000,0.0,-0.0,1.6129698,0.0,0.69204015,0.0,0.0,0.7218591,0.0,0.0,-0.001,0,0
23212000,0.0,-0.0,1.613022,0.0,0.6920213,0.0,0.0,0.72187716,0.0,0.0,-0.001,0,0
23268000,0.0,-0.0,1.6130446,0.0,0.6920131,0.0,0.0,0.721885,0.0,0.0,-0.001,0,0
23316000,0.0,-0.0,1.6130112,0.0,0.6920252,0.0,0.0,0.7218734,0.0,0.0,-0.001,0,0
23364000,0.0,-0.0,1.6129943,0.0,0.69203126,0.0,0.0,0.7218675,0.0,0.0,-0.001,0,0
23412000,0.0,-0.0,1.6130004,0.0,0.69202906,0.0,0.0,0.72186965,0.0,0.0,-0.001,0,0
23468000,0.0,-0.0,1.6130677,0.0,0.69200474,0.0,0.0,0.72189295,0.0,0.0,-0.001,0,0
23516000,0.0,-0.0,1.6130816,0.0,0.69199973,0.0,0.0,0.72189784,0.0,0.0,-0.001,0,0
23564000,0.0,-0.0,1.6131152,0.0,0.69198763,0.0,0.0,0.72190946,0.0,0.0,-0.001,0,0
23620000,0.0,-0.0,1.6131618,0.0,0.6919708,0.0,0.0,0.72192544,0.0,0.0,-0.001,0,0
23668000,0.0,-0.0,1.6131551,0.0,0.6919732,0.0,0.0,0.7219232,0.0,0.0,-0.001,0,0
23716000,0.0,-0.0,1.6132504,0.0,0.6919388,0.0,0.0,0.72195613,0.0,0.0,-0.001,0,0
23764000,0.0,-0.0,1.6133562,0.0,0.6919006,0.0,0.0,0.7219928,0.0,0.0,-0.001,0,0
23812000,0.0,-0.0,1.6134564,0.0,0.6918645,0.0,0.0,0.72202736,0.0,0.0,-0.001,0,0
23868000,0.0,-0.0,1.6135044,0.0,0.69184715,0.0,0.0,0.722044,0.0,0.0,-0.001,0,0
23916000,0.0,-0.0,1.613426,0.0,0.69187546,0.0,0.0,0.7220169,0.0,0.0,-0.001,0,0
23964000,0.0,-0.0,1.613375,0.0,0.6918939,0.0,0.0,0.72199917,0.0,0.0,-0.001,0,0
24012000,0.0,-0.0,1.6133583,0.0,0.6918999,0.0,0.0,0.72199345,0.0,0.0,-0.001,0,0
24068000,0.0,-0.0,1.6133031,0.0,0.6919198,0.0,0.0,0.7219744,0.0,0.0,-0.001,0,0
24116000,0.0,-0.0,1.613244,0.0,0.69194114,0.0,0.0,0.7219539,0.0,0.0,-0.001,0,0
24164000,0.0,-0.0,1.6131403,0.0,0.6919786,0.0,0.0,0.7219181,0.0,0.0,-0.001,0,0
24212000,0.0,-0.0,1.6130797,0.0,0.69200045,0.0,0.0,0.7218971,0.0,0.0,-0.001,0,0
24268000,0.0,-0.0,1.6129935,0.0,0.69203156,0.0,0.0,0.7218673,0.0,0.0,-0.001,0,0
24316000,0.0,-0.0,1.6130165,0.0,0.6920233,0.0,0.0,0.72187525,0.0,0.0,-0.001,0,0
24364000,0.0,-0.0,1.6130922,0.0,0.6919959,0.0,0.0,0.7219014,0.0,0.0,-0.001,0,0
24412000,0.0,-0.0,1.6131154,0.0,0.6919875,0.0,0.0,0.7219096,0.0,0.0,-0.001,0,0
24468000,0.0,-0.0,1.6130147,0.0,0.69202393,0.0,0.0,0.72187465,0.0,0.0,-0.001,0,0
24516000,0.0,-0.0,1.6129347,0.0,0.6920528,0.0,0.0,0.7218469,0.0,0.0,-0.001,0,0
24564000,0.0,-0.0,1.6127634,0.0,0.6921146,0.0,0.0,0.72178763,0.0,0.0,-0.001,0,0
24612000,0.0,-0.0,1.6126131,0.0,0.69216883,0.0,0.0,0.72173566,0.0,0.0,-0.001,0,0
24668000,0.0,-0.0,1.6124295,0.0,0.6922351,0.0,0.0,0.72167206,0.0,0.0,-0.001,0,0
24716000,0.0,-0.0,1.6124221,0.0,0.69223773,0.0,0.0,0.72166955,0.0,0.0,-0.001,0,0
24764000,0.0,-0.0,1.6124189,0.0,0.6922389,0.0,0.0,0.72166836,0.0,0.0,-0.001,0,0
24812000,0.0,-0.0,1.6124717,0.0,0.69221985,0.0,0.0,0.7216868,0.0,0.0,-0.001,0,0
24868000,0.0,-0.0,1.61243,0.0,0.69223493,0.0,0.0,0.72167224,0.0,0.0,-0.001,0,0
24916000,0.0,-0.0,1.6123798,0.0,0.69225305,0.0,0.0,0.7216549,0.0,0.0,-0.001,0,0
24972000,0.0,-0.0,1.6123704,0.0,0.69225645,0.0,0.0,0.72165155,0.0,0.0,-0.001,0,0
25012000,0.0,-0.0,1.6123743,0.0,0.692255,0.0,0.0,0.7216529,0.0,0.0,-0.001,0,0
25068000,0.0,-0.0,1.6123793,0.0,0.6922532,0.0,0.0,0.7216548,0.0,0.0,-0.001,0,0
25116000,0.0,-0.0,1.6123624,0.0,0.6922593,0.0,0.0,0.7216489,0.0,0.0,-0.001,0,0
25164000,0.0,-0.0,1.6124051,0.0,0.6922439,0.0,0.0,0.72166365,0.0,0.0,-0.001,0,0
25212000,0.0,-0.0,1.6123788,0.0,0.69225335,0.0,0.0,0.72165453,0.0,0.0,-0.001,0,0
25268000,0.0,-0.0,1.6123589,0.0,0.69226056,0.0,0.0,0.7216476,0.0,0.0,-0.001,0,0
25316000,0.0,-0.0,1.6123278,0.0,0.69227177,0.0,0.0,0.7216369,0.0,0.0,-0.001,0,0
25364000,0.0,-0.0,1.6123658,0.0,0.69225806,0.0,0.0,0.72165,0.0,0.0,-0.001,0,0
25412000,0.0,-0.0,1.6123426,0.0,0.69226646,0.0,0.0,0.721642,0.0,0.0,-0.001,0,0
25468000,0.0,-0.0,1.6123165,0.0,0.6922759,0.0,0.0,0.72163296,0.0,0.0,-0.001,0,0
25516000,0.0,-0.0,1.6123085,0.0,0.69227874,0.0,0.0,0.7216303,0.0,0.0,-0.001,0,0
25572000,0.0,-0.0,1.6122435,0.0,0.69230217,0.0,0.0,0.72160774,0.0,0.0,-0.001,0,0
25612000,0.0,-0.0,1.612192,0.0,0.69232076,0.0,0.0,0.7215899,0.0,0.0,-0.001,0,0
25668000,0.0,-0.0,1.612131,0.0,0.6923428,0.0,0.0,0.7215687,0.0,0.0,-0.001,0,0
25716000,0.0,-0.0,1.6120228,0.0,0.69238186,0.0,0.0,0.7215313,0.0,0.0,-0.001,0,0
25764000,0.0,-0.0,1.6119409,0.0,0.69241136,0.0,0.0,0.72150296,0.0,0.0,-0.001,0,0
25812000,0.0,-0.0,1.6118318,0.0,0.6924507,0.0,0.0,0.7214653,0.0,0.0,-0.001,0,0
25868000,0.0,-0.0,1.6118461,0.0,0.6924456,0.0,0.0,0.7214702,0.0,0.0,-0.001,0,0
25916000,0.0,-0.0,1.6117818,0.0,0.69246876,0.0,0.0,0.7214479,0.0,0.0,-0.001,0,0
25964000,0.0,-0.0,1.6117626,0.0,0.6924757,0.0,0.0,0.7214412,0.0,0.0,-0.001,0,0
26012000,0.0,-0.0,1.6116946,0.0,0.69250023,0.0,0.0,0.72141767,0.0,0.0,-0.001,0,0
26068000,0.0,-0.0,1.6115588,0.0,0.69254917,0.0,0.0,0.7213707,0.0,0.0,-0.001,0,0
26116000,0.0,-0.0,1.611561,0.0,0.6925484,0.0,0.0,0.7213714,0.0,0.0,-0.001,0,0
26164000,0.0,-0.0,1.611574,0.0,0.6925437,0.0,0.0,0.72137594,0.0,0.0,-0.001,0,0
26212000,0.0,-0.0,1.6116538,0.0,0.69251496,0.0,0.0,0.72140354,0.0,0.0,-0.001,0,0
26268000,0.0,-0.0,1.611698,0.0,0.692499,0.0,0.0,0.72141886,0.0,0.0,-0.001,0,0
26316000,0.0,-0.0,1.611704,0.0,0.69249684,0.0,0.0,0.72142094,0.0,0.0,-0.001,0,0
26364000,0.0,-0.0,1.611712,0.0,0.692494,0.0,0.0,0.7214237,0.0,0.0,-0.001,0,0
26412000,0.0,-0.0,1.6116718,0.0,0.69250846,0.0,0.0,0.72140974,0.0,0.0,-0.001,0,0
26468000,0.0,-0.0,1.6115434,0.0,0.6925548,0.0,0.0,0.7213653,0.0,0.0,-0.001,0,0
26516000,0.0,-0.0,1.6114118,0.0,0.6926022,0.0,0.0,0.7213198,0.0,0.0,-0.001,0,0
26564000,0.0,-0.0,1.6113772,0.0,0.6926147,0.0,0.0,0.7213079,0.0,0.0,-0.001,0,0
26612000,0.0,-0.0,1.6114076,0.0,0.6926037,0.0,0.0,0.72131836,0.0,0.0,-0.001,0,0
26668000,0.0,-0.0,1.6113951,0.0,0.69260824,0.0,0.0,0.721314,0.0,0.0,-0.001,0,0
26716000,0.0,-0.0,1.6113442,0.0,0.6926266,0.0,0.0,0.7212963,0.0,0.0,-0.001,0,0
26764000,0.0,-0.0,1.6113316,0.0,0.6926312,0.0,0.0,0.72129196,0.0,0.0,-0.001,0,0
26812000,0.0,-0.0,1.6112406,0.0,0.69266397,0.0,0.0,0.72126055,0.0,0.0,-0.001,0,0
26868000,0.0,-0.0,1.6112018,0.0,0.692678,0.0,0.0,0.721247,0.0,0.0,-0.001,0,0
26916000,0.0,-0.0,1.6110947,0.0,0.6927166,0.0,0.0,0.7212099,0.0,0.0,-0.001,0,0
26964000,0.0,-0.0,1.6111101,0.0,0.692711,0.0,0.0,0.7212153,0.0,0.0,-0.001,0,0
27020000,0.0,-0.0,1.6111526,0.0,0.6926957,0.0,0.0,0.72123,0.0,0.0,-0.001,0,0
27068000,0.0,-0.0,1.6112661,0.0,0.6926547,0.0,0.0,0.7212693,0.0,0.0,-0.001,0,0
27116000,0.0,-0.0,1.6113368,0.0,0.6926293,0.0,0.0,0.72129375,0.0,0.0,-0.001,0,0
27164000,0.0,-0.0,1.6113011,0.0,0.69264215,0.0,0.0,0.72128147,0.0,0.0,-0.001,0,0
27212000,0.0,-0.0,1.6112403,0.0,0.6926641,0.0,0.0,0.72126037,0.0,0.0,-0.001,0,0
27268000,0.0,-0.0,1.6112593,0.0,0.6926572,0.0,0.0,0.721267,0.0,0.0,-0.001,0,0
27316000,0.0,-0.0,1.6113368,0.0,0.6926293,0.0,0.0,0.72129375,0.0,0.0,-0.001,0,0
27364000,0.0,-0.0,1.6113364,0.0,0.69262946,0.0,0.0,0.7212936,0.0,0.0,-0.001,0,0
27412000,0.0,-0.0,1.6113755,0.0,0.69261533,0.0,0.0,0.72130716,0.0,0.0,-0.001,0,0
27468000,0.0,-0.0,1.6112685,0.0,0.6926539,0.0,0.0,0.7212702,0.0,0.0,-0.001,0,0
27516000,0.0,-0.0,1.6112165,0.0,0.69267267,0.0,0.0,0.72125214,0.0,0.0,-0.001,0,0
27564000,0.0,-0.0,1.6111883,0.0,0.69268286,0.0,0.0,0.72124225,0.0,0.0,-0.001,0,0
27612000,0.0,-0.0,1.6112832,0.0,0.6926486,0.0,0.0,0.72127527,0.0,0.0,-0.001,0,0
27668000,0.0,-0.0,1.6114011,0.0,0.6926061,0.0,0.0,0.7213161,0.0,0.0,-0.001,0,0
27716000,0.0,-0.0,1.6114436,0.0,0.6925908,0.0,0.0,0.7213308,0.0,0.0,-0.001,0,0
27764000,0.0,-0.0,1.6114246,0.0,0.6925976,0.0,0.0,0.7213242,0.0,0.0,-0.001,0,0
27812000,0.0,-0.0,1.6113997,0.0,0.6926066,0.0,0.0,0.72131556,0.0,0.0,-0.001,0,0
27868000,0.0,-0.0,1.6114366,0.0,0.6925933,0.0,0.0,0.7213283,0.0,0.0,-0.001,0,0
27916000,0.0,-0.0,1.611406,0.0,0.6926043,0.0,0.0,0.72131777,0.0,0.0,-0.001,0,0
27964000,0.0,-0.0,1.6114011,0.0,0.6926061,0.0,0.0,0.7213161,0.0,0.0,-0.001,0,0
28012000,0.0,-0.0,1.6113288,0.0,0.69263214,0.0,0.0,0.72129107,0.0,0.0,-0.001,0,0
28068000,0.0,-0.0,1.611242,0.0,0.69266343,0.0,0.0,0.721261,0.0,0.0,-0.001,0,0
28116000,0.0,-0.0,1.6111608,0.0,0.69269276,0.0,0.0,0.7212329,0.0,0.0,-0.001,0,0
28164000,0.0,-0.0,1.6111807,0.0,0.6926856,0.0,0.0,0.7212397,0.0,0.0,-0.001,0,0
28212000,0.0,-0.0,1.6112437,0.0,0.69266284,0.0,0.0,0.7212616,0.0,0.0,-0.001,0,0
28268000,0.0,-0.0,1.6113542,0.0,0.692623,0.0,0.0,0.7212998,0.0,0.0,-0.001,0,0
28316000,0.0,-0.0,1.6113706,0.0,0.6926171,0.0,0.0,0.72130543,0.0,0.0,-0.001,0,0
28364000,0.0,-0.0,1.6113195,0.0,0.69263554,0.0,0.0,0.7212878,0.0,0.0,-0.001,0,0
28412000,0.0,-0.0,1.6112511,0.0,0.69266015,0.0,0.0,0.72126424,0.0,0.0,-0.001,0,0
28468000,0.0,-0.0,1.6110547,0.0,0.692731,0.0,0.0,0.72119606,0.0,0.0,-0.001,0,0
28516000,0.0,-0.0,1.6109326,0.0,0.692775,0.0,0.0,0.72115386,0.0,0.0,-0.001,0,0
28564000,0.0,-0.0,1.6107956,0.0,0.6928244,0.0,0.0,0.72110635,0.0,0.0,-0.001,0,0
28612000,0.0,-0.0,1.6106728,0.0,0.6928687,0.0,0.0,0.7210638,0.0,0.0,-0.001,0,0
28668000,0.0,-0.0,1.6105636,0.0,0.69290805,0.0,0.0,0.721026,0.0,0.0,-0.001,0,0
28716000,0.0,-0.0,1.6105634,0.0,0.69290817,0.0,0.0,0.7210259,0.0,0.0,-0.001,0,0
28764000,0.0,-0.0,1.6105893,0.0,0.6928988,0.0,0.0,0.7210348,0.0,0.0,-0.001,0,0
28820000,0.0,-0.0,1.6105832,0.0,0.692901,0.0,0.0,0.72103274,0.0,0.0,-0.001,0,0
28868000,0.0,-0.0,1.6105403,0.0,0.6929165,0.0,0.0,0.7210179,0.0,0.0,-0.001,0,0
28916000,0.0,-0.0,1.6104192,0.0,0.69296014,0.0,0.0,0.72097594,0.0,0.0,-0.001,0,0
28964000,0.0,-0.0,1.6103085,0.0,0.693,0.0,0.0,0.7209376,0.0,0.0,-0.001,0,0
29012000,0.0,-0.0,1.6102548,0.0,0.6930194,0.0,0.0,0.72091895,0.0,0.0,-0.001,0,0
29068000,0.0,-0.0,1.6102538,0.0,0.69301975,0.0,0.0,0.72091866,0.0,0.0,-0.001,0,0
29116000,0.0,-0.0,1.6102378,0.0,0.6930255,0.0,0.0,0.72091305,0.0,0.0,-0.001,0,0
29164000,0.0,-0.0,1.6103172,0.0,0.6929969,0.0,0.0,0.72094053,0.0,0.0,-0.001,0,0
29212000,0.0,-0.0,1.6103711,0.0,0.6929774,0.0,0.0,0.7209593,0.0,0.0,-0.001,0,0
29268000,0.0,-0.0,1.6103597,0.0,0.6929816,0.0,0.0,0.7209554,0.0,0.0,-0.001,0,0
29316000,0.0,-0.0,1.6102936,0.0,0.6930054,0.0,0.0,0.7209325,0.0,0.0,-0.001,0,0
29364000,0.0,-0.0,1.6101681,0.0,0.6930506,0.0,0.0,0.7208889,0.0,0.0,-0.001,0,0
29412000,0.0,-0.0,1.6101032,0.0,0.69307405,0.0,0.0,0.7208664,0.0,0.0,-0.001,0,0
29468000,0.0,-0.0,1.6099353,0.0,0.69313455,0.0,0.0,0.7208083,0.0,0.0,-0.001,0,0
29516000,0.0,-0.0,1.6097643,0.0,0.6931962,0.0,0.0,0.720749,0.0,0.0,-0.001,0,0
29564000,0.0,-0.0,1.6096925,0.0,0.69322205,0.0,0.0,0.72072405,0.0,0.0,-0.001,0,0
29612000,0.0,-0.0,1.6096467,0.0,0.69323856,0.0,0.0,0.7207082,0.0,0.0,-0.001,0,0
29668000,0.0,-0.0,1.6096474,0.0,0.6932383,0.0,0.0,0.72070843,0.0,0.0,-0.001,0,0
29716000,0.0,-0.0,1.6096109,0.0,0.69325143,0.0,0.0,0.7206958,0.0,0.0,-0.001,0,0
29764000,0.0,-0.0,1.609546,0.0,0.69327486,0.0,0.0,0.72067326,0.0,0.0,-0.001,0,0
29812000,0.0,-0.0,1.609452,0.0,0.6933087,0.0,0.0,0.7206407,0.0,0.0,-0.001,0,0
29868000,0.0,-0.0,1.6094383,0.0,0.69331366,0.0,0.0,0.72063595,0.0,0.0,-0.001,0,0
29916000,0.0,-0.0,1.6095622,0.0,0.693269,0.0,0.0,0.7206789,0.0,0.0,-0.001,0,0
29964000,0.0,-0.0,1.6096739,0.0,0.6932288,0.0,0.0,0.72071767,0.0,0.0,-0.001,0,0
30012000,0.0,-0.0,1.6098199,0.0,0.69317615,0.0,0.0,0.7207682,0.0,0.0,-0.001,0,0
30068000,0.0,-0.0,1.6099961,0.0,0.6931127,0.0,0.0,0.7208293,0.0,0.0,-0.001,0,0
30116000,0.0,-0.0,1.6100994,0.0,0.6930754,0.0,0.0,0.72086513,0.0,0.0,-0.001,0,0
30164000,0.0,-0.0,1.6102241,0.0,0.6930304,0.0,0.0,0.72090834,0.0,0.0,-0.001,0,0
30220000,0.0,-0.0,1.610353,0.0,0.692984,0.0,0.0,0.720953,0.0,0.0,-0.001,0,0
30268000,0.0,-0.0,1.6104122,0.0,0.69296265,0.0,0.0,0.72097355,0.0,0.0,-0.001,0,0
30316000,0.0,-0.0,1.6105031,0.0,0.69292986,0.0,0.0,0.7210051,0.0,0.0,-0.001,0,0
30364000,0.0,-0.0,1.6105876,0.0,0.69289947,0.0,0.0,0.7210342,0.0,0.0,-0.001,0,0
30412000,0.0,-0.0,1.6107125,0.0,0.6928544,0.0,0.0,0.7210775,0.0,0.0,-0.001,0,0
30468000,0.0,-0.0,1.6108185,0.0,0.69281614,0.0,0.0,0.7211143,0.0,0.0,-0.001,0,0
30516000,0.0,-0.0,1.6108527,0.0,0.69280386,0.0,0.0,0.721126,0.0,0.0,-0.001,0,0
30564000,0.0,-0.0,1.6108913,0.0,0.6927899,0.0,0.0,0.72113943,0.0,0.0,-0.001,0,0
30612000,0.0,-0.0,1.6109227,0.0,0.6927786,0.0,0.0,0.72115034,0.0,0.0,-0.001,0,0
30668000,0.0,-0.0,1.6110486,0.0,0.6927332,0.0,0.0,0.7211939,0.0,0.0,-0.001,0,0
30716000,0.0,-0.0,1.6110666,0.0,0.69272673,0.0,0.0,0.72120017,0.0,0.0,-0.001,0,0
30764000,0.0,-0.0,1.6110684,0.0,0.6927261,0.0,0.0,0.7212008,0.0,0.0,-0.001,0,0
30812000,0.0,-0.0,1.6110462,0.0,0.69273406,0.0,0.0,0.7211931,0.0,0.0,-0.001,0,0
30868000,0.0,-0.0,1.6109505,0.0,0.6927686,0.0,0.0,0.72116005,0.0,0.0,-0.001,0,0
30916000,0.0,-0.0,1.6109239,0.0,0.69277817,0.0,0.0,0.7211507,0.0,0.0,-0.001,0,0
30964000,0.0,-0.0,1.6109024,0.0,0.6927859,0.0,0.0,0.7211433,0.0,0.0,-0.001,0,0
31012000,0.0,-0.0,1.6109463,0.0,0.69277006,0.0,0.0,0.7211585,0.0,0.0,-0.001,0,0
31068000,0.0,-0.0,1.6109864,0.0,0.69275564,0.0,0.0,0.7211724,0.0,0.0,-0.001,0,0
31116000,0.0,-0.0,1.6110569,0.0,0.6927302,0.0,0.0,0.72119683,0.0,0.0,-0.001,0,0
31164000,0.0,-0.0,1.6110077,0.0,0.69274795,0.0,0.0,0.7211798,0.0,0.0,-0.001,0,0
31220000,0.0,-0.0,1.6109856,0.0,0.69275594,0.0,0.0,0.7211721,0.0,0.0,-0.001,0,0
31268000,0.0,-0.0,1.6109191,0.0,0.6927799,0.0,0.0,0.7211491,0.0,0.0,-0.001,0,0
31316000,0.0,-0.0,1.6108879,0.0,0.69279116,0.0,0.0,0.7211383,0.0,0.0,-0.001,0,0
31364000,0.0,-0.0,1.6109219,0.0,0.6927789,0.0,0.0,0.7211501,0.0,0.0,-0.001,0,0
31420000,-0.008026711,-0.0074015935,1.6109425,0.0,0.69277185,-0.00011148296,-0.005458012,0.7211362,0.0,0.0,-0.021365397,0,0
31468000,-0.0008414717,-0.0076588816,1.6109918,0.0,0.6927497,0.0024702228,-0.0029562742,0.7211679,0.0,0.0,-0.027940834,0,0
31516000,-0.0006423751,-0.007600118,1.6110446,0.0,0.6927305,0.0025180713,-0.0028640623,0.7211865,0.0,0.0,-0.034923732,0,0
31564000,-0.00070381706,-0.008154794,1.611047,0.0,0.692729,0.0026968063,-0.0030783345,0.72118646,0.0,0.0,-0.04238947,0,0
31612000,-0.0007963832,-0.007810079,1.6110482,0.0,0.6927291,0.002540444,-0.002992315,0.7211873,0.0,0.0,-0.05027297,0,0
31668000,-0.00030321119,-0.0076679685,1.6110498,0.0,0.6927281,0.0026600196,-0.0027652564,0.72118866,0.0,0.0,-0.059705824,0,0
31716000,-0.00010624208,-0.007266269,1.611024,0.0,0.69273764,0.0025833587,-0.0025551296,0.72118056,0.0,0.0,-0.068406574,0,0
31764000,-9.251774e-05,-0.007404591,1.611004,0.0,0.6927447,0.002637964,-0.0025981173,0.72117347,0.0,0.0,-0.07750971,0,0
31812000,0.00034803836,-0.007548537,1.6109543,0.0,0.6927618,0.0028424037,-0.0024891882,0.7211566,0.0,0.0,-0.087078586,0,0
31868000,0.00046470368,-0.008039544,1.6108863,0.0,0.69278544,0.0030597714,-0.002617301,0.72113246,0.0,0.0,-0.09884764,0,0
31916000,0.00024317275,-0.008144987,1.6108023,0.0,0.6928159,0.0030209392,-0.002733829,0.721103,0.0,0.0,-0.10947602,0,0
31964000,0.00064033346,-0.008225502,1.6108147,0.0,0.6928107,0.0031875642,-0.0026185035,0.7211078,0.0,0.0,-0.12051528,0,0
32012000,0.00107006,-0.007914058,1.6108378,0.0,0.6928022,0.0032241594,-0.0023556403,0.72111666,0.0,0.0,-0.13182923,0,0
32068000,0.0013286688,-0.0075422763,1.6108805,0.0,0.69278693,0.0031797388,-0.0021335424,0.72113216,0.0,0.0,-0.14541927,0,0
32116000,0.0010076455,-0.0072873817,1.610895,0.0,0.6927826,0.0029766478,-0.0021609766,0.72113717,0.0,0.0,-0.15771513,0,0
32164000,0.0011935408,-0.0074457093,1.6109715,0.0,0.6927545,0.0030982103,-0.0021486739,0.7211637,0.0,0.0,-0.17040427,0,0
32212000,0.0012704723,-0.0072708214,1.6109744,0.0,0.69275355,0.0030617993,-0.002060352,0.721165,0.0,0.0,-0.18356359,0,0
32268000,0.0012995428,-0.0075710043,1.611074,0.0,0.6927172,0.003180216,-0.002153688,0.7211991,0.0,0.0,-0.19955392,0,0
32316000,0.0015633989,-0.007967367,1.6110998,0.0,0.69270676,0.0034145608,-0.0021957818,0.7212079,0.0,0.0,-0.21380086,0,0
32364000,0.0018657829,-0.007894479,1.6110462,0.0,0.6927257,0.003492954,-0.0020615892,0.72118974,0.0,0.0,-0.22834066,0,0
32412000,0.0028951985,-0.0072808713,1.611069,0.0,0.6927167,0.0036282598,-0.0014778131,0.72119915,0.0,0.0,-0.24321334,0,0
32468000,0.0037113596,-0.007130065,1.6110098,0.0,0.6927368,0.00385653,-0.0011313858,0.72117925,0.0,0.0,-0.26112863,0,0
32516000,0.004335369,-0.0068214303,1.6109571,0.0,0.6927552,0.0039613573,-0.0007995761,0.7211615,0.0,0.0,-0.27670413,0,0
32564000,0.004727038,-0.007164307,1.610844,0.0,0.6927945,0.004220611,-0.000777353,0.7211223,0.0,0.0,-0.29295033,0,0
32620000,0.0053967955,-0.0073703597,1.6108004,0.0,0.69280833,0.004526893,-0.0006073407,0.72110736,0.0,0.0,-0.31245375,0,0
32668000,0.005525091,-0.007167374,1.6107304,0.0,0.6928337,0.0044981316,-0.0004909241,0.7210833,0.0,0.0,-0.32968292,0,0
32716000,0.006344605,-0.007343215,1.6107886,0.0,0.6928104,0.0048454287,-0.00025623,0.7211035,0.0,0.0,-0.34403944,0,0
32764000,0.006571661,-0.008058414,1.6109095,0.0,0.69276446,0.0051819677,-0.00042180603,0.72114533,0.0,0.0,-0.34834927,0,0
32812000,0.0063809534,-0.007785437,1.6110586,0.0,0.6927119,0.005017514,-0.00039563875,0.7211969,0.0,0.0,-0.3541209,0,0
32868000,0.006623289,-0.0076896446,1.6110649,0.0,0.6927092,0.0050669075,-0.000275058,0.7211992,0.0,0.0,-0.35822937,0,0
32916000,0.0067013097,-0.007645175,1.6110601,0.0,0.6927109,0.0050778943,-0.00023153328,0.7211976,0.0,0.0,-0.36519226,0,0
32964000,0.007217971,-0.007372698,1.6110152,0.0,0.69272643,0.0051585915,4.9034745e-05,0.72118205,0.0,0.0,-0.3697332,0,0
33012000,0.007450364,-0.007512102,1.6110369,0.0,0.6927177,0.0052893497,8.460558e-05,0.7211895,0.0,0.0,-0.3761256,0,0
33068000,0.007796267,-0.008309026,1.6110517,0.0,0.69270915,0.005696515,-6.665147e-05,0.7211946,0.0,0.0,-0.38128203,0,0
33116000,0.008431058,-0.008773761,1.6111754,0.0,0.69266135,0.006083953,1.660864e-06,0.72123736,0.0,0.0,-0.38882232,0,0
33164000,0.008375611,-0.009040221,1.6112673,0.0,0.69262755,0.006160843,-0.00011033838,0.72126913,0.0,0.0,-0.39389172,0,0
33212000,0.008490228,-0.008764251,1.6113821,0.0,0.69258666,0.006101014,2.6922613e-05,0.7213089,0.0,0.0,-0.40040234,0,0
33268000,0.008555666,-0.00876863,1.611396,0.0,0.6925814,0.006125253,4.9049042e-05,0.7213138,0.0,0.0,-0.40572944,0,0
33316000,0.008786912,-0.0089925425,1.6114217,0.0,0.6925707,0.006286084,5.4988483e-05,0.72132266,0.0,0.0,-0.41396406,0,0
33364000,0.009228718,-0.009086414,1.6114451,0.0,0.69256055,0.006472926,0.00018189795,0.72133064,0.0,0.0,-0.41936854,0,0
33420000,0.009376722,-0.009019924,1.6113912,0.0,0.69257975,0.0065002055,0.00025812854,0.72131205,0.0,0.0,-0.42661607,0,0
33468000,0.009933219,-0.009501781,1.6113725,0.0,0.692583,0.006866694,0.000291899,0.7213055,0.0,0.0,-0.43250808,0,0
33516000,0.010563393,-0.009844746,1.6113844,0.0,0.69257534,0.0072085997,0.00040044397,0.7213095,0.0,0.0,-0.44133925,0,0
33564000,0.010740152,-0.009943637,1.611446,0.0,0.6925521,0.0073054587,0.00043017074,0.7213308,0.0,0.0,-0.44744954,0,0
33620000,0.0105105415,-0.009464057,1.6115453,0.0,0.69251883,0.0070529655,0.0005137856,0.72136515,0.0,0.0,-0.4548438,0,0
33668000,0.010257545,-0.009451909,1.6116104,0.0,0.69249624,0.006960968,0.000426967,0.7213877,0.0,0.0,-0.46076304,0,0
33716000,0.010074428,-0.009559952,1.6116742,0.0,0.69247353,0.0069365227,0.00032372764,0.72140986,0.0,0.0,-0.4701581,0,0
33764000,0.010062852,-0.009775479,1.6117027,0.0,0.69246256,0.007010249,0.00024502436,0.72141975,0.0,0.0,-0.47652626,0,0
33812000,0.0104989,-0.009901464,1.6117673,0.0,0.69243723,0.0072066514,0.00035892188,0.7214421,0.0,0.0,-0.4841126,0,0
33868000,0.010774656,-0.010445172,1.6117774,0.0,0.69243056,0.0074982396,0.0002701789,0.7214455,0.0,0.0,-0.49149737,0,0
33916000,0.010994674,-0.010770116,1.6117454,0.0,0.69244003,0.007691625,0.000236914,0.7214344,0.0,0.0,-0.501709,0,0
33964000,0.011319107,-0.011306247,1.6116959,0.0,0.6924545,0.007997334,0.0001681141,0.72141725,0.0,0.0,-0.5088623,0,0
34012000,0.010871992,-0.011121383,1.6117352,0.0,0.69244283,0.0077758515,7.0998525e-05,0.72143084,0.0,0.0,-0.51656425,0,0
34068000,0.011134044,-0.011602116,1.6117951,0.0,0.69241834,0.0080399765,-6.8562844e-07,0.72145146,0.0,0.0,-0.5234405,0,0
34116000,0.011210316,-0.011697827,1.6118329,0.0,0.692404,0.008100906,-6.1580054e-06,0.72146463,0.0,0.0,-0.5340754,0,0
34164000,0.011502741,-0.011926377,1.6117758,0.0,0.69242245,0.008284585,1.996347e-05,0.7214448,0.0,0.0,-0.5411866,0,0
34212000,0.011503099,-0.012236879,1.6116854,0.0,0.69245374,0.008396702,-8.779462e-05,0.72141343,0.0,0.0,-0.54932356,0,0
34268000,0.0119738225,-0.01283742,1.6116507,0.0,0.69246167,0.008776281,-0.00012609159,0.72140133,0.0,0.0,-0.55723035,0,0
34316000,0.012190362,-0.013329988,1.6116598,0.0,0.69245523,0.00902891,-0.00021850107,0.7214044,0.0,0.0,-0.5684937,0,0
34364000,0.0125777535,-0.014302998,1.611633,0.0,0.6924586,0.009513967,-0.0004158076,0.72139484,0.0,0.0,-0.5764079,0,0
34412000,0.012487509,-0.014244414,1.611612,0.0,0.6924669,0.009461588,-0.00042817197,0.72138745,0.0,0.0,-0.58464575,0,0
34468000,0.0125602055,-0.013861491,1.6115834,0.0,0.69247866,0.009348648,-0.00026949204,0.7213778,0.0,0.0,-0.61829185,0,0
34516000,0.012854512,-0.013650284,1.6114889,0.0,0.69251233,0.009374371,-9.0646674e-05,0.72134525,0.0,0.0,-0.63008714,0,0
34564000,0.013376096,-0.013867975,1.6114403,0.0,0.69252634,0.009633481,2.1856671e-05,0.7213282,0.0,0.0,-0.63825583,0,0
34612000,0.013485229,-0.014606621,1.6114248,0.0,0.69252783,0.009937647,-0.00019465038,0.7213227,0.0,0.0,-0.64703125,0,0
34668000,0.013424973,-0.014767351,1.6114914,0.0,0.6925033,0.009974754,-0.00027171057,0.7213457,0.0,0.0,-0.6564037,0,0
34716000,0.013939882,-0.015212037,1.6114264,0.0,0.69252187,0.010313405,-0.00024032139,0.7213231,0.0,0.0,-0.6690847,0,0
34764000,0.013481985,-0.01569924,1.6113782,0.0,0.6925391,0.010330536,-0.0005744346,0.7213062,0.0,0.0,-0.6770619,0,0
34812000,0.012592837,-0.015651532,1.6113825,0.0,0.6925423,0.010005448,-0.0008785648,0.72130734,0.0,0.0,-0.68371165,0,0
34868000,0.01088673,-0.015254151,1.6113138,0.0,0.6925772,0.009271317,-0.0013565817,0.7212829,0.0,0.0,-0.6894231,0,0
34916000,0.009723866,-0.01522296,1.6113311,0.0,0.6925764,0.0088573955,-0.0017650794,0.7212881,0.0,0.0,-0.699495,0,0
34964000,0.008516939,-0.015174536,1.6113037,0.0,0.69259167,0.0084219575,-0.0021836956,0.72127736,0.0,0.0,-0.7054045,0,0
35012000,0.0060154465,-0.014191747,1.611391,0.0,0.6925738,0.0072013983,-0.002745157,0.7213059,0.0,0.0,-0.7120983,0,0
35068000,-0.0020526191,-0.013899675,1.6129696,0.0,0.6920282,0.0043065283,-0.0055503575,0.7218363,0.0,0.0,-0.719594,0,0
35116000,-0.01374383,-0.015809754,1.6149931,0.0,0.6913108,0.0009611094,-0.010429699,0.72248167,0.0,0.0,-0.73114866,0,0
35164000,-0.024194622,-0.018401891,1.6164297,0.0,0.690791,-0.0017039374,-0.015101808,0.7228948,0.0,0.0,-0.7365088,0,0
35212000,-0.032925323,-0.02058317,1.6173246,0.0,0.69045913,-0.0039223805,-0.01901224,0.72311085,0.0,0.0,-0.7405547,0,0
35268000,-0.040944554,-0.02333009,1.6178572,0.0,0.69025517,-0.0056912713,-0.022860842,0.72318244,0.0,0.0,-0.74243134,0,0
35316000,-0.045715913,-0.025332434,1.6179457,0.0,0.6902158,-0.0066125207,-0.025276996,0.7231317,0.0,0.0,-0.7491338,0,0
35364000,-0.04934431,-0.027124764,1.6180184,0.0,0.6901843,-0.007215314,-0.027207242,0.723086,0.0,0.0,-0.7494891,0,0
35412000,-0.051960558,-0.02833554,1.6179721,0.0,0.6901966,-0.0076807938,-0.028570436,0.7230169,0.0,0.0,-0.7501509,0,0
35468000,-0.053736363,-0.029251654,1.6179106,0.0,0.69021606,-0.007963113,-0.029528037,0.72295666,0.0,0.0,-0.74868137,0,0
35516000,-0.054806147,-0.029628482,1.6179036,0.0,0.69021606,-0.008196091,-0.030044647,0.7229328,0.0,0.0,-0.7541485,0,0
35564000,-0.055980917,-0.029797832,1.6179031,0.0,0.6902122,-0.008540258,-0.030527668,0.7229123,0.0,0.0,-0.7532618,0,0
35612000,-0.05720867,-0.028764723,1.6178312,0.0,0.6902273,-0.0093387775,-0.030614894,0.72288424,0.0,0.0,-0.75298935,0,0
35668000,-0.05879675,-0.028075777,1.6178391,0.0,0.6902129,-0.010135929,-0.03095137,0.72287303,0.0,0.0,-0.7497163,0,0
35716000,-0.05913882,-0.027782658,1.6177906,0.0,0.690227,-0.010360756,-0.030973682,0.72285545,0.0,0.0,-0.7554603,0,0
35764000,-0.059443075,-0.027852736,1.617695,0.0,0.69026035,-0.010441899,-0.031107314,0.72281665,0.0,0.0,-0.75399673,0,0
35820000,-0.06008899,-0.028202122,1.6176267,0.0,0.6902837,-0.010539528,-0.03146087,0.7227776,0.0,0.0,-0.7521056,0,0
35868000,-0.059921708,-0.028629288,1.6176592,0.0,0.6902754,-0.010326781,-0.031547885,0.72278494,0.0,0.0,-0.7503565,0,0
35916000,-0.059556253,-0.028776797,1.617665,0.0,0.69027597,-0.010147204,-0.031466708,0.72279036,0.0,0.0,-0.74399257,0,0
35964000,-0.059058137,-0.02910312,1.6176033,0.0,0.69030267,-0.009858224,-0.031398907,0.7227718,0.0,0.0,-0.7338756,0,0
36012000,-0.059194494,-0.0280496,1.6174737,0.0,0.6903427,-0.010288341,-0.031084223,0.72274125,0.0,0.0,-0.72601116,0,0
36068000,-0.05918861,-0.02716675,1.6173228,0.0,0.6903921,-0.0106079215,-0.030776827,0.7227026,0.0,0.0,-0.724897,0,0
36116000,-0.058424085,-0.026789505,1.6172695,0.0,0.6904131,-0.010481237,-0.030370165,0.72270143,0.0,0.0,-0.7317487,0,0
36164000,-0.05740317,-0.026446404,1.6173041,0.0,0.6904039,-0.01025237,-0.029883081,0.722734,0.0,0.0,-0.731789,0,0
36212000,-0.0565633,-0.025806993,1.6172353,0.0,0.69042933,-0.010194684,-0.029358676,0.7227319,0.0,0.0,-0.7322189,0,0
36268000,-0.054882564,-0.025737397,1.6171428,0.0,0.6904707,-0.009640963,-0.028726846,0.72272545,0.0,0.0,-0.73036516,0,0
36316000,-0.05383999,-0.02614945,1.6171157,0.0,0.69048756,-0.0091324095,-0.028492123,0.72272515,0.0,0.0,-0.7359459,0,0
36364000,-0.05271294,-0.02650898,1.6170648,0.0,0.6905128,-0.008614011,-0.028208666,0.72271854,0.0,0.0,-0.7349744,0,0
36420000,-0.052769613,-0.025720092,1.6169678,0.0,0.69054365,-0.008920195,-0.02795654,0.7226952,0.0,0.0,-0.7330668,0,0
36468000,-0.05233112,-0.025468893,1.6168858,0.0,0.690574,-0.008860761,-0.027711054,0.7226764,0.0,0.0,-0.73164076,0,0
36516000,-0.05148318,-0.024861349,1.6168379,0.0,0.69059193,-0.008788299,-0.027194815,0.7226797,0.0,0.0,-0.7369391,0,0
36564000,-0.050673142,-0.024611982,1.6167856,0.0,0.6906131,-0.008599457,-0.02681584,0.72267586,0.0,0.0,-0.7353577,0,0
36612000,-0.04955998,-0.024368986,1.6168187,0.0,0.6906047,-0.008302495,-0.026329892,0.7227053,0.0,0.0,-0.7349222,0,0
36668000,-0.04818699,-0.024813129,1.6167939,0.0,0.6906212,-0.0076681334,-0.025986923,0.722709,0.0,0.0,-0.7318482,0,0
36716000,-0.046225715,-0.024683548,1.6167775,0.0,0.6906337,-0.007037939,-0.02523342,0.7227301,0.0,0.0,-0.7371163,0,0
36764000,-0.044698827,-0.024692832,1.6167339,0.0,0.6906547,-0.0065078586,-0.02468471,0.7227339,0.0,0.0,-0.7354637,0,0
36820000,-0.043865856,-0.024407161,1.616585,0.0,0.6907101,-0.006325305,-0.024284633,0.7226962,0.0,0.0,-0.7332913,0,0
36868000,-0.043016806,-0.024290584,1.6164963,0.0,0.6907444,-0.0060752886,-0.02393732,0.7226771,0.0,0.0,-0.7315284,0,0
36916000,-0.04217517,-0.024004262,1.6163598,0.0,0.6907952,-0.0058897277,-0.023533963,0.72264344,0.0,0.0,-0.7370764,0,0
36964000,-0.040757112,-0.023964336,1.6163405,0.0,0.69080603,-0.0054145874,-0.023007752,0.7226537,0.0,0.0,-0.7354233,0,0
37012000,-0.03934393,-0.023981867,1.616337,0.0,0.69081104,-0.0049201734,-0.02250317,0.7226684,0.0,0.0,-0.7349429,0,0
37068000,-0.037960887,-0.023760429,1.6163746,0.0,0.6908001,-0.0045220964,-0.021927057,0.72269905,0.0,0.0,-0.731635,0,0
37116000,-0.036019005,-0.023628267,1.6162384,0.0,0.69085306,-0.0039005897,-0.021179453,0.7226745,0.0,0.0,-0.73729116,0,0
37164000,-0.034682732,-0.02433007,1.6161617,0.0,0.6908847,-0.0031861158,-0.020938797,0.72265476,0.0,0.0,-0.73552865,0,0
37220000,-0.033979464,-0.02327222,1.6161644,0.0,0.6908826,-0.003325532,-0.020319419,0.7226737,0.0,0.0,-0.7331944,0,0
37268000,-0.033350404,-0.02260959,1.6260098,0.0,0.68731636,-0.0032499316,-0.019879548,0.7260788,0.0,0.0,-0.731277,0,0
37316000,-0.03273381,-0.022311302,1.6259437,0.0,0.68734074,-0.0031470105,-0.019553125,0.72606504,0.0,0.0,-0.73709404,0,0
37364000,-0.031671073,-0.02196083,1.6259577,0.0,0.6873365,-0.0029089209,-0.019046932,0.72608346,0.0,0.0,-0.73517686,0,0
37412000,-0.030487856,-0.02224874,1.6259047,0.0,0.6873579,-0.0023982245,-0.018716218,0.7260738,0.0,0.0,-0.73483115,0,0
37468000,-0.029249307,-0.022101916,1.6257513,0.0,0.6874147,-0.002027279,-0.01821598,0.72603387,0.0,0.0,-0.7310349,0,0
37516000,-0.027922776,-0.021802992,1.625467,0.0,0.6875187,-0.0016823935,-0.017631471,0.72595066,0.0,0.0,-0.7369506,0,0
37564000,-0.026856935,-0.022245942,1.6252058,0.0,0.6876148,-0.0011574469,-0.017396666,0.7258663,0.0,0.0,-0.7350779,0,0
37612000,-0.025980555,-0.021851905,1.6248974,0.0,0.68772674,-0.0010018018,-0.016943011,0.7257711,0.0,0.0,-0.73491687,0,0
37668000,-0.024797024,-0.021396795,1.6245962,0.0,0.68783617,-0.00076248805,-0.016356954,0.72568125,0.0,0.0,-0.7310261,0,0
37716000,-0.023675974,-0.021216858,1.6242458,0.0,0.68796355,-0.0004450306,-0.015888244,0.7255712,0.0,0.0,-0.7372757,0,0
37764000,-0.02299391,-0.0212223,1.6239388,0.0,0.688075,-0.00021083765,-0.015642641,0.7254709,0.0,0.0,-0.7353367,0,0
37812000,-0.021960126,-0.021021087,1.6232201,0.0,0.6883356,6.6357534e-05,-0.015198468,0.72523314,0.0,0.0,-0.73506147,0,0
37868000,-0.020844469,-0.020965658,1.622544,0.0,0.6885806,0.0004252319,-0.01477498,0.72500914,0.0,0.0,-0.7310995,0,0
37916000,-0.019721935,-0.021373693,1.6222583,0.0,0.68868375,0.0009575817,-0.014508641,0.724916,0.0,0.0,-0.7374909,0,0
37964000,-0.01853062,-0.021222996,1.6221168,0.0,0.6887344,0.0013121777,-0.014025051,0.72487694,0.0,0.0,-0.7354576,0,0
38012000,-0.018375563,-0.019614143,1.6221044,0.0,0.6887391,0.00078227127,-0.01341493,0.7248848,0.0,0.0,-0.73504865,0,0
38068000,-0.018326305,-0.017781252,1.6221153,0.0,0.68873495,0.00013487198,-0.012765998,0.7249007,0.0,0.0,-0.7306342,0,0
38116000,-0.017979488,-0.016743815,1.6220284,0.0,0.6887661,-0.00012230768,-0.012283087,0.7248795,0.0,0.0,-0.7369428,0,0
38164000,-0.01775228,-0.016164426,1.6219172,0.0,0.6888062,-0.0002547519,-0.012001222,0.72484624,0.0,0.0,-0.73488516,0,0
38212000,-0.01691786,-0.015588543,1.6219321,0.0,0.68880063,-0.00017603103,-0.011500502,0.7248596,0.0,0.0,-0.73488736,0,0
38268000,-0.016334154,-0.015534105,1.6221079,0.0,0.688737,6.2560366e-06,-0.011270202,0.7249237,0.0,0.0,-0.7309223,0,0
38316000,-0.015979854,-0.015664136,1.6221185,0.0014188413,0.6887331,0.0001754621,-0.011186553,0.7249287,0.0,0.0,-0.7376077,0,0
38364000,-0.015207029,-0.015838794,1.6221185,0.0011729838,0.688733,0.0005049117,-0.010966571,0.72493196,0.0,0.0,-0.7355422,0,0
38412000,-0.016377307,-0.015834985,1.6221185,0.0013468453,0.68873316,0.000100527155,-0.011389445,0.7249254,0.0,0.0,-0.7352448,0,0
38468000,-0.017800078,-0.015562172,1.6221185,0.0011134634,0.6887329,-0.0004883246,-0.011811209,0.7249188,0.0,0.0,-0.7306283,0,0
38516000,-0.018337518,-0.015213902,1.6221185,0.0005479297,0.68873256,-0.00079965143,-0.011886093,0.72491753,0.0,0.0,-0.73725384,0,0
