timestamp,timestamp_sample,time_last_fuse,device_id,observation,observation_variance,innovation,innovation_variance,test_ratio,estimator_instance,fusion_enabled,innovation_rejected,fused
3596000,3473268,0,0,-488.10403,1.0,488.0999,101.90604,93.5142,3,0,1,0
3988000,3873553,0,0,-488.11102,1.0,488.12244,34.333355,277.58838,3,0,1,0
4388000,4273730,0,0,-0.042022705,1.0,-7.0702285e-05,3.7282925,5.3631124e-11,3,0,0,0
4788000,4673837,0,0,-0.043029785,1.0,-0.00043500587,2.0663128,3.6631453e-09,3,0,0,0
5188000,5073901,0,0,-0.043029785,1.0,-0.0019198433,1.6632533,8.86407e-08,3,0,0,0
5596000,5473941,0,0,-0.038024902,1.0,-0.010574922,1.4823458,3.0176216e-06,3,0,0,0
5988000,5873964,0,0,-0.044036865,1.0,-0.009687901,1.3927366,2.6955684e-06,3,0,0,0
6396000,6273979,0,0,-0.039031982,1.0,-0.014066458,1.3235686,5.97975e-06,3,0,0,0
6796000,6673987,0,0,-0.05001831,1.0,-0.0022840723,1.2759285,1.6355106e-07,3,0,0,0
7188000,7073992,0,0,-0.05102539,1.0,0.0019204244,1.2410896,1.18864264e-07,3,0,0,0
7588000,7473996,0,0,-0.045043945,1.0,-0.0006420575,1.2185512,1.3532065e-08,3,0,0,0
7988000,7873998,0,0,-0.043029785,1.0,-0.0031756759,1.1971992,3.3695034e-07,3,0,0,0
8396000,8273999,0,0,-0.044036865,1.0,-0.002303008,1.1802394,1.797549e-07,3,0,0,0
8788000,8673999,8708000,0,-0.044036865,1.0,-0.005554609,1.166186,1.0582764e-06,3,0,0,0
9188000,9074000,9108000,0,-0.047027588,1.0,0.010080248,1.6369431,2.482955e-06,3,1,0,1
9588000,9474000,9508000,0,-0.042022705,1.0,0.0001843758,1.3279741,1.0239487e-09,3,1,0,1
9988000,9874000,9908000,0,-0.03302002,1.0,-0.0045438334,1.2180068,6.7803967e-07,3,1,0,1
10388000,10274000,10308000,0,-0.032043457,1.0,-0.0037125424,1.1642841,4.7352603e-07,3,1,0,1
10788000,10674000,10708000,0,-0.037017822,1.0,0.0015988089,1.1327201,9.026731e-08,3,1,0,1
11188000,11074000,11108000,0,-0.038024902,1.0,0.0049974434,1.1127598,8.977477e-07,3,1,0,1
11596000,11474000,11516000,0,-0.05404663,1.0,0.023056677,1.0986066,1.9355804e-05,3,1,0,1
11996000,11874000,11916000,0,-0.05102539,1.0,0.020642996,1.0882231,1.5663452e-05,3,1,0,1
12396000,12274000,12316000,0,-0.042022705,1.0,0.012029344,1.0803837,5.3575454e-06,3,1,0,1
12796000,12674000,12716000,0,-0.044036865,1.0,0.013357755,1.0747586,6.6407324e-06,3,1,0,1
13188000,13074000,13108000,0,-0.046020508,1.0,0.014958795,1.0697851,8.366747e-06,3,1,0,1
13588000,13474000,13508000,0,-0.05001831,1.0,0.021013381,1.0658822,1.6570768e-05,3,1,0,1
13988000,13874000,13908000,0,-0.05102539,1.0,0.019925455,1.0630188,1.4939482e-05,3,1,0,1
14388000,14274000,14308000,0,-0.05303955,1.0,0.021840414,1.0603627,1.7993982e-05,3,1,0,1
14796000,14674000,14716000,0,-0.048034668,1.0,0.018029504,1.0582591,1.2286708e-05,3,1,0,1
15188000,15074000,15108000,0,-0.049041748,1.0,0.017860647,1.0562812,1.208022e-05,3,1,0,1
15596000,15474000,15516000,0,-0.057037354,1.0,0.024327014,1.055061,2.2436754e-05,3,1,0,1
15988000,15874000,15908000,0,-0.040039062,1.0,0.0059432276,1.0535883,1.3410155e-06,3,1,0,1
16388000,16274000,16308000,0,-0.045043945,1.0,0.011769991,1.0538124,5.2583437e-06,3,1,0,1
16796000,16674000,16716000,0,-0.040039062,1.0,0.006787397,1.0529324,1.7501128e-06,3,1,0,1
17188000,17074000,17108000,0,-0.041046143,1.0,0.008216772,1.051925,2.5673064e-06,3,1,0,1
17588000,17474000,17508000,0,-0.047027588,1.0,0.013886947,1.0513687,7.337e-06,3,1,0,1
17996000,17874000,17916000,0,-0.046020508,1.0,0.012628298,1.0508074,6.0705293e-06,3,1,0,1
18388000,18274000,18308000,0,-0.044036865,1.0,0.011085965,1.0500727,4.681528e-06,3,1,0,1
18796000,18674000,18716000,0,-0.038024902,1.0,0.0058725663,1.0496565,1.3142217e-06,3,1,0,1
19196000,19074000,19116000,0,-0.041046143,1.0,0.008838844,1.0491693,2.9785529e-06,3,1,0,1
19596000,19474000,19516000,0,-0.044036865,1.0,0.012198042,1.0487326,5.6751255e-06,3,1,0,1
19988000,19874000,19908000,0,-0.039031982,1.0,0.006318856,1.0484091,1.5233726e-06,3,1,0,1
20396000,20274000,20316000,0,-0.05303955,1.0,0.020559464,1.0481738,1.613059e-05,3,1,0,1
20796000,20674000,20716000,0,-0.041046143,1.0,0.008507252,1.0478431,2.7627545e-06,3,1,0,1
21188000,21074000,21108000,0,-0.047027588,1.0,0.015601002,1.0476091,9.293209e-06,3,1,0,1
21588000,21474000,21508000,0,-0.05303955,1.0,0.024343481,1.0487707,2.2601895e-05,3,1,0,1
21988000,21874000,21908000,0,-0.041046143,1.0,0.012043204,1.048493,5.5332275e-06,3,1,0,1
22388000,22274000,22308000,0,-0.038024902,1.0,0.008622995,1.0482349,2.8373806e-06,3,1,0,1
22796000,22674000,22716000,0,-0.037017822,1.0,0.007346116,1.0481162,2.0595205e-06,3,1,0,1
23196000,23074000,23116000,0,-0.049041748,1.0,0.018653097,1.0478808,1.3281588e-05,3,1,0,1
23588000,23474000,23508000,0,-0.045043945,1.0,0.0135803,1.0477192,7.0409906e-06,3,1,0,1
23988000,23874000,23908000,0,-0.046020508,1.0,0.013539825,1.0475134,7.0004585e-06,3,1,0,1
24388000,24274000,24308000,0,-0.045043945,1.0,0.013908727,1.0473189,7.388492e-06,3,1,0,1
24788000,24674000,24708000,0,-0.042022705,1.0,0.010083128,1.0471337,3.8837243e-06,3,1,0,1
25196000,25074000,25116000,0,-0.03604126,1.0,0.0037944317,1.0470738,5.500171e-07,3,1,0,1
25596000,25474000,25516000,0,-0.044036865,1.0,0.013039194,1.0470755,6.4950646e-06,3,1,0,1
25988000,25874000,25908000,0,-0.047027588,1.0,0.01523285,1.0467856,8.866753e-06,3,1,0,1
26396000,26274000,26316000,0,-0.037017822,1.0,0.004870463,1.046736,9.064907e-07,3,1,0,1
26796000,26674000,26716000,0,-0.047027588,1.0,0.014331285,1.0467454,7.8485455e-06,3,1,0,1
27196000,27074000,27116000,0,-0.046020508,1.0,0.015912598,1.0479983,9.664549e-06,3,1,0,1
27588000,27474000,27508000,0,-0.038024902,1.0,0.008216443,1.0476832,2.577494e-06,3,1,0,1
27988000,27874000,27908000,0,-0.03302002,1.0,0.0038413033,1.0476903,5.6335773e-07,3,1,0,1
28388000,28274000,28308000,0,-0.05102539,1.0,0.022998817,1.0475186,2.019804e-05,3,1,0,1
28788000,28674000,28708000,0,-0.039031982,1.0,0.010224413,1.0471786,3.9931533e-06,3,1,0,1
29188000,29074000,29108000,0,-0.048034668,1.0,0.019349433,1.0472077,1.430091e-05,3,1,0,1
29588000,29474000,29508000,0,-0.05404663,1.0,0.02582069,1.0470601,2.5469712e-05,3,1,0,1
29996000,29874000,29916000,0,-0.041046143,1.0,0.013461139,1.0470309,6.922518e-06,3,1,0,1
30388000,30274000,30308000,0,-0.042022705,1.0,0.014244605,1.0469364,7.752477e-06,3,1,0,1
30788000,30670000,30708000,0,-0.038024902,1.0,0.009488348,1.0467898,3.4401844e-06,3,1,0,1
31188000,31074000,31108000,0,-0.05001831,1.0,0.020996733,1.046646,1.6848593e-05,3,1,0,1
31596000,31474000,31516000,0,-0.044036865,1.0,0.015418058,1.0466166,9.085144e-06,3,1,0,1
31988000,31874000,31908000,0,-0.043029785,1.0,0.019082129,1.0479575,1.3898565e-05,3,1,0,1
32396000,32274000,32316000,0,-0.048034668,1.0,0.02340216,1.0477402,2.0908277e-05,3,1,0,1
32788000,32674000,32708000,0,-0.044036865,1.0,0.027724033,1.0513813,2.9242368e-05,3,1,0,1
33188000,33074000,33108000,0,-0.0340271,1.0,0.026605945,1.0563672,2.6804175e-05,3,1,0,1
33596000,33474000,33516000,0,-0.03503418,1.0,0.038080703,1.0631441,5.4560434e-05,3,1,0,1
33996000,33874000,33916000,0,-0.029022217,1.0,0.04289224,1.0716326,6.8670706e-05,3,1,0,1
34388000,34274000,34308000,0,-0.049041748,1.0,0.07187271,1.0807637,0.00019118654,3,1,0,1
34796000,34674000,34716000,0,-0.047027588,1.0,0.07705635,1.0917249,0.00021755227,3,1,0,1
35188000,35074000,35108000,0,-0.05303955,1.0,0.06932549,1.1021886,0.00017441748,3,1,0,1
35588000,35474000,35508000,0,-0.13702393,1.0,0.06586079,1.1129396,0.00015589864,3,1,0,1
35996000,35874000,35916000,0,-0.3590393,1.0,0.053742856,1.123482,0.00010283368,3,1,0,1
36388000,36274000,36308000,0,-0.69802856,1.0,0.068481386,1.1314715,0.00016579119,3,1,0,1
36788000,36674000,36708000,0,-1.0610352,1.0,0.05746925,1.1386958,0.00011601744,3,1,0,1
37188000,37074000,37108000,0,-1.4710388,1.0,0.049232483,1.1459999,8.4601656e-05,3,1,0,1
37588000,37474000,37508000,0,-1.9270325,1.0,0.052490592,1.1500838,9.5828225e-05,3,1,0,1
37988000,37874000,37908000,0,-2.4030457,1.0,0.046020985,1.1527075,7.349414e-05,3,1,0,1
38388000,38274000,38308000,0,-2.9230347,1.0,0.05873537,1.1560817,0.00011936332,3,1,0,1
38788000,38674000,38708000,0,-3.4530334,1.0,0.059181213,1.156634,0.00012112444,3,1,0,1
39196000,39074000,39116000,0,-4.0110474,1.0,0.06096077,1.1571648,0.00012845933,3,1,0,1
39588000,39474000,39508000,0,-4.581024,1.0,0.083005905,1.1557844,0.0002384521,3,1,0,1
39996000,39874000,39916000,0,-5.15802,1.0,0.07463503,1.155693,0.00019279816,3,1,0,1
40396000,40274000,40316000,0,-5.7550354,1.0,0.09103775,1.1566669,0.00028661225,3,1,0,1
40788000,40674000,40708000,0,-6.357025,1.0,0.11886883,1.1549934,0.00048934645,3,1,0,1
41196000,41074000,41116000,0,-6.961029,1.0,0.112859726,1.1548774,0.00044116608,3,1,0,1
41588000,41474000,41508000,0,-7.5940247,1.0,0.15684032,1.1552602,0.0008517176,3,1,0,1
41988000,41874000,41908000,0,-8.180023,1.0,0.1843605,1.1545659,0.0011775437,3,1,0,1
42388000,42274000,42308000,0,-8.683044,1.0,0.19902802,1.1540005,0.0013730376,3,1,0,1
42796000,42674000,42716000,0,-9.113037,1.0,0.20771313,1.154178,0.0014952545,3,1,0,1
43188000,43074000,43108000,0,-9.485046,1.0,0.24973297,1.152966,0.002163691,3,1,0,1
43588000,43474000,43508000,0,-9.739044,1.0,0.26722717,1.1545768,0.0024739928,3,1,0,1
43988000,43874000,43908000,0,-9.870026,1.0,0.2791605,1.1540358,0.0027011496,3,1,0,1
44396000,44274000,44316000,0,-9.917023,1.0,0.28704643,1.1528301,0.0028589002,3,1,0,1
44796000,44674000,44716000,0,-9.952026,1.0,0.29149723,1.149931,0.002955678,3,1,0,1
45196000,45074000,45116000,0,-9.951019,1.0,0.290205,1.1464896,0.0029383237,3,1,0,1
45596000,45474000,45516000,0,-9.92804,1.0,0.29398918,1.1427823,0.0030252354,3,1,0,1
45988000,45874000,45908000,0,-9.899048,1.0,0.28627586,1.1384116,0.0028795865,3,1,0,1
46388000,46274000,46308000,0,-9.890045,1.0,0.28596497,1.1346713,0.002882807,3,1,0,1
46796000,46678000,46716000,0,-9.894043,1.0,0.28500557,1.1315515,0.0028713911,3,1,0,1
47188000,47074000,47108000,0,-9.893036,1.0,0.2714262,1.1292237,0.0026096576,3,1,0,1
47588000,47474000,47508000,0,-9.910034,1.0,0.2760496,1.1265789,0.0027056567,3,1,0,1
47988000,47874000,47908000,0,-9.919037,1.0,0.27048683,1.1246628,0.0026021358,3,1,0,1
48396000,48274000,48316000,0,-9.927032,1.0,0.26563263,1.1240665,0.0025109083,3,1,0,1
48796000,48674000,48716000,0,-9.915039,1.0,0.24403381,1.1251267,0.0021171838,3,1,0,1
49188000,49074000,49108000,0,-9.926025,1.0,0.24729347,1.125343,0.0021737039,3,1,0,1
49596000,49474000,49516000,0,-9.936035,1.0,0.25008202,1.127437,0.002218874,3,1,0,1
49988000,49874000,49908000,0,-9.942047,1.0,0.24591064,1.1291032,0.0021423036,3,1,0,1
50388000,50274000,50308000,0,-9.950043,1.0,0.24403,1.1318519,0.0021045383,3,1,0,1
50788000,50674000,50708000,0,-9.959045,1.0,0.24584198,1.1364617,0.002127244,3,1,0,1
51196000,51074000,51116000,0,-9.960022,1.0,0.24469185,1.1403818,0.0021001424,3,1,0,1
51588000,51474000,51508000,0,-9.970032,1.0,0.2545719,1.1428463,0.0022682613,3,1,0,1
51988000,51874000,51908000,0,-9.982025,1.0,0.2624979,1.1475176,0.0024018856,3,1,0,1
52396000,52274000,52316000,0,-9.978027,1.0,0.25771236,1.1508653,0.0023083729,3,1,0,1
52796000,52674000,52716000,0,-9.994019,1.0,0.27347183,1.1529349,0.0025946598,3,1,0,1
53188000,53074000,53108000,0,-9.99704,1.0,0.27600098,1.1537528,0.0026410003,3,1,0,1
53596000,53474000,53516000,0,-10.01004,1.0,0.29086208,1.1557137,0.002928087,3,1,0,1
53996000,53874000,53916000,0,-10.009033,1.0,0.28650284,1.1584027,0.0028343813,3,1,0,1
54396000,54274000,54316000,0,-10.02002,1.0,0.29554844,1.1586945,0.003015424,3,1,0,1
54796000,54674000,54716000,0,-10.028046,1.0,0.30182076,1.1586777,0.0031448184,3,1,0,1
55196000,55078000,55116000,0,-10.036041,1.0,0.31081867,1.1583446,0.0033360794,3,1,0,1
55588000,55474000,55508000,0,-10.045044,1.0,0.3247881,1.159123,0.0036402459,3,1,0,1
55996000,55874000,55916000,0,-10.048035,1.0,0.3355646,1.1592087,0.003885534,3,1,0,1
56396000,56274000,56316000,0,-10.051025,1.0,0.34046745,1.1583085,0.0040030126,3,1,0,1
56796000,56678000,56716000,0,-10.042023,1.0,0.3375244,1.1573294,0.003937435,3,1,0,1
57188000,57074000,57108000,0,-10.052032,1.0,0.3472767,1.1576288,0.004167177,3,1,0,1
57596000,57474000,57516000,0,-10.05603,1.0,0.34855556,1.1574447,0.004198593,3,1,0,1
57996000,57874000,57916000,0,-10.058044,1.0,0.34735584,1.1565765,0.00417287,3,1,0,1
58388000,58274000,58308000,0,-10.063019,1.0,0.34871864,1.155122,0.0042109727,3,1,0,1
58796000,58674000,58716000,0,-10.071045,1.0,0.3562832,1.1552043,0.004395334,3,1,0,1
59188000,59074000,59108000,0,-10.074036,1.0,0.35551834,1.1558878,0.0043738945,3,1,0,1
59596000,59474000,59516000,0,-10.06604,1.0,0.34209824,1.1561036,0.0040491596,3,1,0,1
59996000,59878000,59916000,0,-10.071045,1.0,0.33998585,1.1555418,0.0040012533,3,1,0,1
60396000,60274000,60316000,0,-10.078033,1.0,0.34105682,1.1550317,0.0040282793,3,1,0,1
60788000,60674000,60708000,0,-10.070038,1.0,0.32735252,1.1557813,0.003708649,3,1,0,1
61196000,61074000,61116000,0,-10.058044,1.0,0.3131628,1.1560544,0.0033932985,3,1,0,1
61588000,61474000,61508000,0,-10.055023,1.0,0.30286026,1.1548066,0.0031771325,3,1,0,1
61996000,61874000,61916000,0,-10.0460205,1.0,0.28766346,1.1570098,0.002860832,3,1,0,1
62388000,62274000,62308000,0,-10.048035,1.0,0.2872715,1.1557305,0.0028561994,3,1,0,1
62796000,62674000,62716000,0,-10.044037,1.0,0.2897663,1.1559864,0.0029053807,3,1,0,1
63196000,63074000,63116000,0,-10.048035,1.0,0.30095768,1.1555372,0.0031353561,3,1,0,1
63596000,63474000,63516000,0,-10.052032,1.0,0.31629372,1.1571065,0.0034583407,3,1,0,1
63996000,63878000,63916000,0,-10.06604,1.0,0.34428215,1.1567807,0.004098623,3,1,0,1
64388000,64274000,64308000,0,-10.070038,1.0,0.3551464,1.1558361,0.004364943,3,1,0,1
64788000,64674000,64708000,0,-10.083038,1.0,0.376647,1.1557276,0.00490991,3,1,0,1
65188000,65074000,65108000,0,-10.106018,1.0,0.38575745,1.1574341,0.005142714,3,1,0,1
65596000,65474000,65516000,0,-10.10202,1.0,0.39334202,1.1565121,0.005351191,3,1,0,1
65996000,65874000,65916000,0,-10.091034,1.0,0.3932724,1.1536015,0.005362794,3,1,0,1
66388000,66274000,66308000,0,-10.091034,1.0,0.38296986,1.149445,0.005103886,3,1,0,1
66788000,66674000,66708000,0,-10.110046,1.0,0.3698702,1.1458317,0.0047757085,3,1,0,1
67196000,67074000,67116000,0,-10.110046,1.0,0.32667828,1.1442405,0.0037306387,3,1,0,1
67596000,67474000,67516000,0,-10.092041,1.0,0.27607918,1.1401811,0.0026739512,3,1,0,1
67996000,67874000,67916000,0,-10.068024,1.0,0.2265644,1.1362046,0.0018071192,3,1,0,1
68396000,68274000,68316000,0,-10.067047,1.0,0.19833088,1.1323946,0.0013894499,3,1,0,1
68788000,68674000,68708000,0,-10.044037,1.0,0.14552402,1.1297864,0.0007497786,3,1,0,1
69188000,69074000,69108000,0,-10.030029,1.0,0.11190224,1.1267588,0.00044453563,3,1,0,1
69588000,69474000,69508000,0,-10.0260315,1.0,0.094693184,1.124356,0.00031900214,3,1,0,1
69988000,69874000,69908000,0,-10.01004,1.0,0.07969093,1.1227849,0.00022624618,3,1,0,1
70396000,70274000,70316000,0,-9.992035,1.0,0.06078911,1.1224859,0.00013168328,3,1,0,1
70796000,70674000,70716000,0,-9.966034,1.0,0.043686867,1.1226182,6.800326e-05,3,1,0,1
71196000,71074000,71116000,0,-9.961029,1.0,0.051151276,1.1236383,9.314218e-05,3,1,0,1
71596000,71474000,71516000,0,-9.935028,1.0,0.045708656,1.1267499,7.417019e-05,3,1,0,1
71996000,71874000,71916000,0,-9.92804,1.0,0.070661545,1.1293325,0.00017684973,3,1,0,1
72388000,72274000,72308000,0,-9.902039,1.0,0.087617874,1.1319473,0.0002712809,3,1,0,1
72796000,72674000,72716000,0,-9.890045,1.0,0.12615871,1.1362766,0.00056028686,3,1,0,1
73188000,73074000,73108000,0,-9.889038,1.0,0.18194675,1.1395811,0.0011619927,3,1,0,1
73596000,73474000,73516000,0,-9.8750305,1.0,0.2290926,1.1441891,0.0018347811,3,1,0,1
73996000,73874000,73916000,0,-9.88504,1.0,0.2796564,1.1477289,0.002725651,3,1,0,1
74388000,74274000,74308000,0,-9.887024,1.0,0.30223274,1.150089,0.0031769585,3,1,0,1
74788000,74670000,74708000,0,-9.8810425,1.0,0.31971073,1.154622,0.003541071,3,1,0,1
75188000,75074000,75108000,0,-9.873047,1.0,0.3373556,1.1567502,0.0039354675,3,1,0,1
75588000,75474000,75508000,0,-9.865021,1.0,0.32898617,1.158241,0.0037378024,3,1,0,1
75996000,75874000,75916000,0,-9.870026,1.0,0.29976368,1.1596845,0.0030994038,3,1,0,1
76388000,76274000,76308000,0,-9.873047,1.0,0.25021553,1.1577623,0.0021630626,3,1,0,1
76788000,76674000,76708000,0,-9.8550415,1.0,0.18526363,1.1551659,0.0011884912,3,1,0,1
77188000,77074000,77108000,0,-9.844025,1.0,0.13171005,1.1515787,0.0006025655,3,1,0,1
77596000,77474000,77516000,0,-9.843048,1.0,0.08967972,1.1480482,0.00028021305,3,1,0,1
77996000,77874000,77916000,0,-9.846039,1.0,0.06278229,1.1454983,0.00013763846,3,1,0,1
78396000,78274000,78316000,0,-9.850037,1.0,0.037506104,1.1399359,4.9360948e-05,3,1,0,1
78788000,78674000,78708000,0,-9.863037,1.0,0.0258255,1.1376619,2.3450077e-05,3,1,0,1
79196000,79074000,79116000,0,-9.867035,1.0,0.010093689,1.1356456,3.5885334e-06,3,1,0,1
79596000,79478000,79516000,0,-9.87204,1.0,-0.0014381409,1.133859,7.296318e-08,3,1,0,1
79988000,79874000,79908000,0,-9.896027,1.0,0.012011528,1.132418,5.0962385e-06,3,1,0,1
80388000,80274000,80308000,0,-9.922028,1.0,0.032078743,1.1324334,3.6348127e-05,3,1,0,1
80788000,80674000,80708000,0,-9.926025,1.0,0.026599884,1.1346853,2.4942734e-05,3,1,0,1
81196000,81074000,81116000,0,-9.922028,1.0,0.020524979,1.1367246,1.4824162e-05,3,1,0,1
81588000,81474000,81508000,0,-9.94104,1.0,0.04629135,1.1380246,7.531961e-05,3,1,0,1
81988000,81874000,81908000,0,-9.953033,1.0,0.061593056,1.1419212,0.0001328885,3,1,0,1
82388000,82274000,82308000,0,-9.952026,1.0,0.06794357,1.1444466,0.00016134711,3,1,0,1
82796000,82674000,82716000,0,-9.969025,1.0,0.09309864,1.1476582,0.00030208845,3,1,0,1
83196000,83074000,83116000,0,-9.975037,1.0,0.105690956,1.1499568,0.00038855645,3,1,0,1
83588000,83474000,83508000,0,-9.9800415,1.0,0.11755276,1.1513323,0.00048009254,3,1,0,1
83988000,83874000,83908000,0,-9.972046,1.0,0.12167168,1.1532325,0.00051347836,3,1,0,1
84396000,84274000,84316000,0,-9.982025,1.0,0.1552248,1.155459,0.0008341183,3,1,0,1
84788000,84674000,84708000,0,-9.970032,1.0,0.16957283,1.157708,0.0009935128,3,1,0,1
85196000,85074000,85116000,0,-9.9800415,1.0,0.21102333,1.159158,0.0015366618,3,1,0,1
85588000,85474000,85508000,0,-9.990021,1.0,0.2544546,1.1587223,0.0022351223,3,1,0,1
85996000,85874000,85916000,0,-9.985046,1.0,0.28158283,1.1596261,0.0027349812,3,1,0,1
86388000,86274000,86308000,0,-10.002045,1.0,0.3222828,1.1607864,0.0035791667,3,1,0,1
86788000,86674000,86708000,0,-10.027039,1.0,0.34356213,1.1604166,0.004068709,3,1,0,1
87188000,87074000,87108000,0,-10.027039,1.0,0.34770584,1.1593897,0.0041711377,3,1,0,1
87588000,87474000,87508000,0,-10.041046,1.0,0.37234497,1.1570342,0.004792971,3,1,0,1
87988000,87874000,87908000,0,-10.036041,1.0,0.36350727,1.1537137,0.004581294,3,1,0,1
88388000,88274000,88308000,0,-10.051025,1.0,0.35156345,1.1517396,0.004292528,3,1,0,1
88788000,88674000,88708000,0,-10.06604,1.0,0.32507992,1.1475723,0.0036834965,3,1,0,1
89188000,89074000,89108000,0,-10.06604,1.0,0.293005,1.1432645,0.0030037465,3,1,0,1
89596000,89474000,89516000,0,-10.05304,1.0,0.25258446,1.1394731,0.002239593,3,1,0,1
89988000,89874000,89908000,0,-10.034027,1.0,0.20998001,1.134848,0.0015540973,3,1,0,1
90396000,90274000,90316000,0,-10.036041,1.0,0.19568825,1.1315646,0.0013536616,3,1,0,1
90796000,90674000,90716000,0,-10.039032,1.0,0.17624569,1.1282415,0.0011012728,3,1,0,1
91196000,91074000,91116000,0,-10.0460205,1.0,0.17847443,1.126911,0.0011306348,3,1,0,1
91588000,91474000,91508000,0,-10.040039,1.0,0.15824509,1.1245396,0.0008907292,3,1,0,1
91988000,91874000,91908000,0,-10.029022,1.0,0.13834572,1.1235573,0.0006813907,3,1,0,1
92396000,92274000,92316000,0,-10.03302,1.0,0.14244366,1.1239682,0.0007220914,3,1,0,1
92796000,92674000,92716000,0,-10.024048,1.0,0.13564682,1.1247575,0.0006543654,3,1,0,1
93188000,93074000,93108000,0,-10.008026,1.0,0.13143158,1.1271645,0.0006130165,3,1,0,1
93588000,93474000,93508000,0,-9.993042,1.0,0.13942051,1.1295532,0.00068834575,3,1,0,1
93996000,93874000,93916000,0,-9.969025,1.0,0.14535618,1.1330917,0.0007458679,3,1,0,1
94396000,94274000,94316000,0,-9.973022,1.0,0.17930126,1.1364031,0.0011316035,3,1,0,1
94796000,94674000,94716000,0,-9.970032,1.0,0.20832348,1.1398745,0.0015229281,3,1,0,1
95196000,95074000,95116000,0,-9.943024,1.0,0.21088123,1.1433815,0.0015557675,3,1,0,1
95588000,95474000,95508000,0,-9.934021,1.0,0.23845291,1.1477389,0.001981628,3,1,0,1
95996000,95874000,95916000,0,-9.924042,1.0,0.26218796,1.1514771,0.0023879772,3,1,0,1
96388000,96270000,96308000,0,-10.048035,1.0,0.26504612,1.1531487,0.0024367871,3,1,0,1
96788000,96674000,96708000,0,-10.555023,1.0,0.24937344,1.1570231,0.0021499004,3,1,0,1
97188000,97074000,97108000,0,-11.476044,1.0,0.22826004,1.1584129,0.0017991045,3,1,0,1
97596000,97474000,97516000,0,-12.574036,1.0,0.21879959,1.1600842,0.0016506823,3,1,0,1
97996000,97874000,97916000,0,-13.639038,1.0,0.24366951,1.1603165,0.0020468496,3,1,0,1
98388000,98274000,98308000,0,-14.670044,1.0,0.27868462,1.1613946,0.0026748916,3,1,0,1
98796000,98674000,98716000,0,-15.690033,1.0,0.25371265,1.1616737,0.002216461,3,1,0,1
99188000,99074000,99108000,0,-16.706024,1.0,0.26835632,1.1600697,0.0024831304,3,1,0,1
99596000,99474000,99516000,0,-17.722046,1.0,0.2412014,1.1599314,0.0020062604,3,1,0,1
99988000,99874000,99908000,0,-18.756042,1.0,0.27629852,1.1601672,0.0026320645,3,1,0,1
100396000,100278000,100316000,0,-19.79602,1.0,0.27350235,1.1598864,0.002579685,3,1,0,1
100788000,100670000,100708000,0,-20.820038,1.0,0.2889309,1.1581045,0.0028833686,3,1,0,1
101188000,101074000,101108000,0,-21.848022,1.0,0.28791428,1.1572472,0.002865235,3,1,0,1
101596000,101474000,101516000,0,-22.87503,1.0,0.26241875,1.1572205,0.0023803106,3,1,0,1
101996000,101874000,101916000,0,-23.916046,1.0,0.28290558,1.1565391,0.0027681058,3,1,0,1
102388000,102270000,102308000,0,-24.820038,1.0,0.31524467,1.1552181,0.0034410541,3,1,0,1
102796000,102674000,102716000,0,-25.603058,1.0,0.30908585,1.1554365,0.003307289,3,1,0,1
103188000,103074000,103108000,0,-26.278046,1.0,0.3255787,1.1561918,0.0036672626,3,1,0,1
103596000,103474000,103516000,0,-26.863007,1.0,0.31900787,1.1565838,0.003519538,3,1,0,1
103996000,103874000,103916000,0,-27.376007,1.0,0.34303474,1.1562831,0.0040707276,3,1,0,1
104396000,104274000,104316000,0,-27.799042,1.0,0.35489273,1.156094,0.0043577375,3,1,0,1
104788000,104674000,104708000,0,-28.152008,1.0,0.3599205,1.1552564,0.004485334,3,1,0,1
105188000,105074000,105108000,0,-28.453033,1.0,0.35902405,1.1552416,0.0044630757,3,1,0,1
105588000,105474000,105508000,0,-28.70401,1.0,0.3598957,1.1551876,0.0044849827,3,1,0,1
105996000,105874000,105916000,0,-28.910004,1.0,0.35562706,1.155734,0.0043771532,3,1,0,1
106388000,106274000,106308000,0,-29.075043,1.0,0.35459137,1.1567463,0.004347887,3,1,0,1
106796000,106674000,106716000,0,-29.219025,1.0,0.345438,1.1572254,0.004124604,3,1,0,1
107188000,107074000,107108000,0,-29.354034,1.0,0.3448124,1.1560329,0.004113917,3,1,0,1
107588000,107474000,107508000,0,-29.468048,1.0,0.3331566,1.1564269,0.003839181,3,1,0,1
107988000,107874000,107908000,0,-29.540009,1.0,0.30608368,1.1536982,0.00324824,3,1,0,1
108388000,108274000,108308000,0,-29.594025,1.0,0.2851162,1.1502624,0.0028268765,3,1,0,1
108788000,108674000,108708000,0,-29.600006,1.0,0.2532158,1.148262,0.002233575,3,1,0,1
109188000,109074000,109108000,0,-29.582062,1.0,0.23148918,1.1442652,0.0018732457,3,1,0,1
109588000,109474000,109508000,0,-29.593048,1.0,0.21874428,1.1402359,0.001678567,3,1,0,1
109996000,109874000,109916000,0,-29.604034,1.0,0.19831848,1.136868,0.0013838096,3,1,0,1
110396000,110274000,110316000,0,-29.611053,1.0,0.16960526,1.1333001,0.0010152983,3,1,0,1
110788000,110674000,110708000,0,-29.614044,1.0,0.1361084,1.1298243,0.00065587176,3,1,0,1
111188000,111074000,111108000,0,-29.617035,1.0,0.09854889,1.1275407,0.00034453333,3,1,0,1
111596000,111474000,111516000,0,-29.626007,1.0,0.06442261,1.1265513,0.00014736204,3,1,0,1
111996000,111878000,111916000,0,-29.637054,1.0,0.043603897,1.1260349,6.7539644e-05,3,1,0,1
112396000,112274000,112316000,0,-29.657013,1.0,0.012659073,1.127569,5.6848717e-06,3,1,0,1
112788000,112674000,112708000,0,-29.68106,1.0,-0.009340286,1.1281351,3.0932802e-06,3,1,0,1
113196000,113074000,113116000,0,-29.706024,1.0,-0.030155182,1.1305609,3.217288e-05,3,1,0,1
113596000,113474000,113516000,0,-29.739044,1.0,-0.03393364,1.1329948,4.0653034e-05,3,1,0,1
113996000,113874000,113916000,0,-29.769012,1.0,-0.038002014,1.1358719,5.0856193e-05,3,1,0,1
114388000,114274000,114308000,0,-29.794037,1.0,-0.041858673,1.13998,6.147998e-05,3,1,0,1
114796000,114674000,114716000,0,-29.813019,1.0,-0.043823242,1.1439352,6.7153334e-05,3,1,0,1
115188000,115074000,115108000,0,-29.843048,1.0,-0.031105042,1.1462481,3.376315e-05,3,1,0,1
115588000,115474000,115508000,0,-29.887054,1.0,0.0025749207,1.1490452,2.3080784e-07,3,1,0,1
115988000,115874000,115908000,0,-29.901031,1.0,0.007675171,1.1533077,2.0431062e-06,3,1,0,1
116396000,116274000,116316000,0,-29.929047,1.0,0.037334442,1.1559744,4.8231537e-05,3,1,0,1
116796000,116674000,116716000,0,-29.953033,1.0,0.0783062,1.1573538,0.00021192693,3,1,0,1
117196000,117074000,117116000,0,-29.968048,1.0,0.121032715,1.1582711,0.0005058891,3,1,0,1
117596000,117474000,117516000,0,-29.98703,1.0,0.16703415,1.1587503,0.0009631206,3,1,0,1
117988000,117874000,117908000,0,-30.001007,1.0,0.20992279,1.1602559,0.0015192365,3,1,0,1
118396000,118274000,118316000,0,-30.004059,1.0,0.24805832,1.1610072,0.0021199845,3,1,0,1
118796000,118674000,118716000,0,-29.85904,1.0,0.31715965,1.1606371,0.0034667251,3,1,0,1
119196000,119078000,119116000,0,-29.34903,1.0,0.3741684,1.1600323,0.0048275203,3,1,0,1
119596000,119474000,119516000,0,-28.730011,1.0,0.39413643,1.1613905,0.0053502596,3,1,0,1
119988000,119874000,119908000,0,-28.147064,1.0,0.3924904,1.1598725,0.0053126086,3,1,0,1
120388000,120274000,120308000,0,-27.558014,1.0,0.41320992,1.1590755,0.0058923666,3,1,0,1
120796000,120674000,120716000,0,-26.946014,1.0,0.42959785,1.1589311,0.0063698115,3,1,0,1
121196000,121074000,121116000,0,-26.343048,1.0,0.4419632,1.157958,0.0067474456,3,1,0,1
121588000,121474000,121508000,0,-25.730011,1.0,0.43643188,1.156276,0.006589181,3,1,0,1
121996000,121874000,121916000,0,-25.117035,1.0,0.460577,1.1561505,0.007339224,3,1,0,1
122388000,122270000,122308000,0,-24.505035,1.0,0.45778847,1.1565976,0.00724782,3,1,0,1
122796000,122674000,122716000,0,-23.888031,1.0,0.47154045,1.1565578,0.0076900753,3,1,0,1
123188000,123074000,123108000,0,-23.285034,1.0,0.4716606,1.1550995,0.0077037085,3,1,0,1
123596000,123474000,123516000,0,-22.670044,1.0,0.48753548,1.1552961,0.008229608,3,1,0,1
123988000,123874000,123908000,0,-22.051025,1.0,0.47071266,1.1541258,0.0076792464,3,1,0,1
124396000,124274000,124316000,0,-21.429047,1.0,0.48795128,1.1545734,0.008248811,3,1,0,1
124788000,124674000,124708000,0,-20.810028,1.0,0.47707176,1.155498,0.007878765,3,1,0,1
125188000,125074000,125108000,0,-20.205048,1.0,0.4910679,1.1552873,0.008349358,3,1,0,1
125588000,125474000,125508000,0,-19.587036,1.0,0.48505592,1.1551489,0.008147149,3,1,0,1
125996000,125874000,125916000,0,-18.983032,1.0,0.50839806,1.155764,0.008945377,3,1,0,1
126396000,126274000,126316000,0,-18.366028,1.0,0.5046463,1.1556426,0.008814762,3,1,0,1
126788000,126674000,126708000,0,-17.751038,1.0,0.4857769,1.1547847,0.008173963,3,1,0,1
127188000,127074000,127108000,0,-17.154022,1.0,0.49825668,1.1546427,0.0086004,3,1,0,1
127596000,127474000,127516000,0,-16.536041,1.0,0.49306297,1.1553004,0.008417242,3,1,0,1
127988000,127874000,127908000,0,-15.922028,1.0,0.46886253,1.1564114,0.00760394,3,1,0,1
128388000,128274000,128308000,0,-15.323029,1.0,0.46978378,1.1563323,0.0076343734,3,1,0,1
128796000,128674000,128716000,0,-14.71402,1.0,0.46754456,1.1568536,0.0075583607,3,1,0,1
129188000,129074000,129108000,0,-14.111023,1.0,0.44134998,1.1557587,0.0067415386,3,1,0,1
129588000,129474000,129508000,0,-13.516022,1.0,0.43448544,1.1573784,0.006524317,3,1,0,1
129996000,129874000,129916000,0,-12.907043,1.0,0.42324734,1.1576433,0.0061897584,3,1,0,1
130396000,130274000,130316000,0,-12.313019,1.0,0.41351128,1.1571239,0.0059109163,3,1,0,1
130796000,130674000,130716000,0,-11.743042,1.0,0.38113594,1.1566391,0.0050236797,3,1,0,1
131196000,131074000,131116000,0,-11.298035,1.0,0.34252167,1.1561326,0.004059088,3,1,0,1
131588000,131474000,131508000,0,-10.963043,1.0,0.3202114,1.1569238,0.003545103,3,1,0,1
131988000,131874000,131908000,0,-10.692047,1.0,0.29444027,1.1564888,0.0029985616,3,1,0,1
132388000,132274000,132308000,0,-10.484039,1.0,0.2733307,1.1560044,0.0025850998,3,1,0,1
132796000,132674000,132716000,0,-10.229034,1.0,0.28019238,1.1581796,0.0027114192,3,1,0,1
133196000,133074000,133116000,0,-9.694031,1.0,0.27391815,1.1575177,0.0025928295,3,1,0,1
133588000,133474000,133508000,0,-9.09903,1.0,0.22545624,1.1561337,0.0017586381,3,1,0,1
133988000,133874000,133908000,0,-8.607025,1.0,0.20035267,1.1576074,0.0013870399,3,1,0,1
134396000,134274000,134316000,0,-8.139038,1.0,0.19638538,1.1578647,0.0013323567,3,1,0,1
134788000,134674000,134708000,0,-7.6760254,1.0,0.15249348,1.1566118,0.0008042201,3,1,0,1
135188000,135074000,135108000,0,-7.2500305,1.0,0.13146877,1.1561854,0.0005979677,3,1,0,1
135596000,135474000,135516000,0,-6.866028,1.0,0.1379447,1.156487,0.00065815664,3,1,0,1
135988000,135874000,135908000,0,-6.472046,1.0,0.093248844,1.1553612,0.00030104342,3,1,0,1
136396000,136274000,136316000,0,-6.123047,1.0,0.08934975,1.1558177,0.000276285,3,1,0,1
136796000,136674000,136716000,0,-5.787018,1.0,0.06763506,1.1555235,0.00015835252,3,1,0,1
137196000,137074000,137116000,0,-5.4780273,1.0,0.054187775,1.1552135,0.00010167177,3,1,0,1
137596000,137474000,137516000,0,-5.1810303,1.0,0.0364213,1.1568239,4.5867346e-05,3,1,0,1
137988000,137874000,137908000,0,-4.8950195,1.0,0.010674953,1.1558034,3.9437373e-06,3,1,0,1
138388000,138274000,138308000,0,-4.6500244,1.0,0.021082401,1.1555547,1.538543e-05,3,1,0,1
138788000,138674000,138708000,0,-4.3770447,1.0,0.004732132,1.1571969,7.740454e-07,3,1,0,1
139188000,139074000,139108000,0,-4.114044,1.0,-0.00010585785,1.1568686,3.8745573e-10,3,1,0,1
139588000,139474000,139508000,0,-3.8590393,1.0,0.0070881844,1.1565096,1.7377238e-06,3,1,0,1
139996000,139874000,139916000,0,-3.591034,1.0,0.013682604,1.1569116,6.4728765e-06,3,1,0,1
140396000,140274000,140316000,0,-3.3240356,1.0,0.021274328,1.1565189,1.565377e-05,3,1,0,1
140788000,140674000,140708000,0,-3.0680237,1.0,0.03266716,1.1553879,3.694494e-05,3,1,0,1
141188000,141074000,141108000,0,-2.790039,1.0,0.026466846,1.1570412,2.4216735e-05,3,1,0,1
141588000,141474000,141508000,0,-2.5300293,1.0,0.043533564,1.1566523,6.5539876e-05,3,1,0,1
141996000,141878000,141916000,0,-2.262024,1.0,0.05529356,1.1569078,0.00010570861,3,1,0,1
142388000,142274000,142308000,0,-2.0090332,1.0,0.075443625,1.1575941,0.00019667484,3,1,0,1
142796000,142674000,142716000,0,-1.7470398,1.0,0.09541607,1.1577749,0.00031454215,3,1,0,1
143188000,143074000,143108000,0,-1.5080261,1.0,0.12466943,1.1564126,0.00053760974,3,1,0,1
143596000,143474000,143516000,0,-1.2420349,1.0,0.13844001,1.1565353,0.0006628639,3,1,0,1
143996000,143874000,143916000,0,-0.98101807,1.0,0.1574192,1.1578898,0.0008560678,3,1,0,1
144396000,144274000,144316000,0,-0.717041,1.0,0.17278981,1.1572788,0.0010319491,3,1,0,1
144796000,144674000,144716000,0,-0.4550476,1.0,0.1913816,1.1567295,0.0012665682,3,1,0,1
145196000,145074000,145116000,0,-0.1800232,1.0,0.18965073,1.1561682,0.0012443656,3,1,0,1
145596000,145474000,145516000,0,-0.059020996,1.0,0.19399543,1.1554155,0.0013028812,3,1,0,1
145996000,145878000,145916000,0,-0.047027588,1.0,0.19092877,1.1533756,0.0012642471,3,1,0,1
146396000,146274000,146316000,0,-0.048034668,1.0,0.1975867,1.1521397,0.0013554088,3,1,0,1
146788000,146674000,146708000,0,-0.05203247,1.0,0.14195496,1.1241305,0.0007170417,3,1,0,1
147188000,147074000,147108000,0,-0.040039062,1.0,0.081784524,1.0996493,0.00024330334,3,1,0,1
147588000,147470000,147508000,0,-0.05001831,1.0,0.07508668,1.087186,0.00020743498,3,1,0,1
147988000,147874000,147908000,0,-0.045043945,1.0,0.06295384,1.0792184,0.00014689096,3,1,0,1
148396000,148274000,148316000,0,-0.047027588,1.0,0.06289275,1.0735866,0.00014737509,3,1,0,1
148796000,148674000,148716000,0,-0.044036865,1.0,0.057702564,1.0694304,0.00012453679,3,1,0,1
149188000,149074000,149108000,0,-0.040039062,1.0,0.052848592,1.0655742,0.0001048439,3,1,0,1
