timestamp,timestamp_sample,control_mode_flags,output_tracking_error[0],output_tracking_error[1],output_tracking_error[2],filter_fault_flags,pos_horiz_accuracy,pos_vert_accuracy,mag_test_ratio,vel_test_ratio,pos_test_ratio,hgt_test_ratio,tas_test_ratio,hagl_test_ratio,beta_test_ratio,time_slip,accel_device_id,gyro_device_id,baro_device_id,mag_device_id,gps_check_fail_flags,innovation_check_flags,solution_status_flags,reset_count_vel_ne,reset_count_vel_d,reset_count_pos_ne,reset_count_pod_d,reset_count_quat,pre_flt_fail_innov_heading,pre_flt_fail_innov_vel_horiz,pre_flt_fail_innov_vel_vert,pre_flt_fail_innov_height,pre_flt_fail_mag_field_disturbed,health_flags,timeout_flags
3444000,3364000,13421772800,0.00028196987,0.010736789,0.00059153617,0,14.166938,10.007018,nan,nan,nan,nan,0.0,0.0,0.0,0.0,1310988,1310988,6620172,197388,0,0,128,1,1,1,1,0,0,0,0,0,0,0,0
3452000,3372000,13421772800,0.00025618353,0.010579698,0.0006742755,0,14.171185,10.008221,nan,nan,nan,nan,0.0,0.0,0.0,0.0,1310988,1310988,6620172,197388,0,0,128,1,1,1,1,0,0,0,0,0,0,0,0
3460000,3380000,13421772800,0.00023388492,0.010386463,0.00075248006,0,14.175758,10.009516,nan,nan,nan,nan,0.0,0.0,0.0,0.0,1310988,1310988,6620172,197388,0,0,128,1,1,1,1,0,0,0,0,0,0,0,0
3468000,3388000,13421772800,6.940107e-05,0.0010572978,3.5891273e-05,0,14.180656,10.010903,nan,nan,nan,nan,0.0,0.0,0.0,0.0,1310988,1310988,6620172,197388,0,0,128,1,1,1,1,0,0,0,0,0,0,0,0
3476000,3396000,13421772800,8.8840745e-05,0.0011312959,5.4870554e-05,0,14.185877,10.0123825,nan,nan,nan,nan,0.0,0.0,0.0,0.0,1310988,1310988,6620172,197388,0,0,128,1,1,1,1,0,0,0,0,0,0,0,0
3484000,3404000,13421772800,0.00010758877,0.001413345,0.00014224637,0,14.191417,10.013951,nan,nan,nan,nan,0.0,0.0,0.0,0.0,1310988,1310988,6620172,197388,0,0,128,1,1,1,1,0,0,0,0,0,0,0,0
3492000,3412000,13421772800,0.00012590719,0.0018359426,0.00022672814,0,14.197274,10.015612,nan,nan,nan,nan,0.0,0.0,0.0,0.0,1310988,1310988,6620172,197388,0,0,128,1,1,1,1,0,0,0,0,0,0,0,0
3500000,3420000,13421772800,0.00014383941,0.0019905756,0.00030845223,0,14.203448,10.017362,nan,nan,nan,nan,0.0,0.0,0.0,0.0,1310988,1310988,6620172,197388,0,0,128,1,1,1,1,0,0,0,0,0,0,0,0
3508000,3428000,13421772800,0.00016154996,0.0023063112,0.00038772103,0,14.209936,10.0192,nan,nan,nan,nan,0.0,0.0,0.0,0.0,1310988,1310988,6620172,197388,0,0,128,1,1,1,1,0,0,0,0,0,0,0,0
3516000,3436000,13421772800,0.0001790441,0.0020910292,0.0004641746,0,14.216737,10.021129,nan,nan,nan,nan,0.0,0.0,0.0,0.0,1310988,1310988,6620172,197388,0,0,128,1,1,1,1,0,0,0,0,0,0,0,0
3524000,3444000,13421772800,0.0001949375,0.002302605,0.00053701154,0,14.223847,10.023146,nan,nan,nan,nan,0.0,0.0,0.0,0.0,1310988,1310988,6620172,197388,0,0,128,1,1,1,1,0,0,0,0,0,0,0,0
3532000,3452000,13421772800,0.00020903411,0.0026056445,0.0006069883,0,14.231266,10.02525,nan,nan,nan,nan,0.0,0.0,0.0,0.0,1310988,1310988,6620172,197388,0,0,128,1,1,1,1,0,0,0,0,0,0,0,0
3540000,3460000,13421772800,0.00022186222,0.0025614765,0.000673385,0,14.238991,10.027443,nan,nan,nan,nan,0.0,0.0,0.0,0.0,1310988,1310988,6620172,197388,0,0,128,1,1,1,1,0,0,0,0,0,0,0,0
3548000,3468000,13421772800,0.00020537718,0.002508921,0.0008593454,0,14.247021,10.029722,nan,nan,nan,nan,0.0,0.0,0.0,0.0,1310988,1310988,6620172,197388,0,0,128,1,1,1,1,0,0,0,0,0,0,0,0
3556000,3476000,13421772800,0.00020196039,0.0024115737,0.0008363146,0,14.255352,10.032087,nan,nan,nan,nan,0.0,0.0,0.0,0.0,1310988,1310988,6620172,197388,0,0,128,1,1,1,1,0,0,0,0,0,0,0,0
3564000,3484000,13421772800,0.00019761732,0.0023170728,0.0008147894,0,14.263986,10.034539,nan,nan,nan,nan,0.0,0.0,0.0,0.0,1310988,1310988,6620172,197388,0,0,128,1,1,1,1,0,0,0,0,0,0,0,0
3572000,3492000,13421772800,0.00019228098,0.0022254472,0.00079444883,0,14.272917,10.037077,nan,nan,nan,nan,0.0,0.0,0.0,0.0,1310988,1310988,6620172,197388,0,0,128,1,1,1,1,0,0,0,0,0,0,0,0
3580000,3500000,13421772800,0.00018612486,0.002136122,0.00077504915,0,14.282145,10.0397005,nan,nan,nan,nan,0.0,0.0,0.0,0.0,1310988,1310988,6620172,197388,0,0,128,1,1,1,1,0,0,0,0,0,0,0,0
3588000,3508000,13421772800,0.00017897965,0.0020507071,0.0007567533,0,14.291668,10.042408,nan,nan,nan,nan,0.0,0.0,0.0,0.0,1310988,1310988,6620172,197388,0,0,128,1,1,1,1,0,0,0,0,0,0,0,0
3596000,3516000,13421772800,0.00017125551,0.0019676983,0.0007397813,0,14.301484,10.045199,nan,nan,nan,nan,0.0,0.0,0.0,0.0,1310988,1310988,6620172,197388,0,0,128,1,1,1,1,0,0,0,0,0,0,0,0
3604000,3524000,13421772800,0.00016264936,0.0018879069,0.00072319485,0,14.311591,10.048075,nan,nan,nan,nan,0.0,0.0,0.0,0.0,1310988,1310988,6620172,197388,0,0,128,1,1,1,1,0,0,0,0,0,0,0,0
3612000,3532000,13421772800,0.00015324938,0.0018112051,0.0007078629,0,14.321988,10.051034,nan,nan,nan,nan,0.0,0.0,0.0,0.0,1310988,1310988,6620172,197388,0,0,128,1,1,1,1,0,0,0,0,0,0,0,0
3620000,3540000,13421772800,0.00014324121,0.001737161,0.0006929606,0,14.332673,10.054076,nan,nan,nan,nan,0.0,0.0,0.0,0.0,1310988,1310988,6620172,197388,0,0,128,1,1,1,1,0,0,0,0,0,0,0,0
3628000,3548000,13421772800,0.0001325144,0.0016663711,0.00067898846,0,14.343643,10.057201,nan,nan,nan,nan,0.0,0.0,0.0,0.0,1310988,1310988,6620172,197388,0,0,128,1,1,1,1,0,0,0,0,0,0,0,0
3636000,3556000,13421772800,0.00012247649,0.0015847194,0.0022057935,0,0.7062431,7.0923285,nan,nan,nan,nan,0.0,0.0,0.0,0.0,1310988,1310988,6620172,197388,0,0,128,1,1,1,1,0,0,0,0,0,0,0,0
3644000,3564000,13421772800,0.000112595575,0.0015200246,0.0021367045,0,0.70982546,7.094678,nan,nan,nan,nan,0.0,0.0,0.0,0.0,1310988,1310988,6620172,197388,0,0,128,1,1,1,1,0,0,0,0,0,0,0,0
3652000,3572000,13421772800,0.000102929094,0.0014583187,0.0020697536,0,0.71934915,7.0971456,nan,nan,nan,nan,0.0,0.0,0.0,0.0,1310988,1310988,6620172,197388,0,0,128,1,1,1,1,0,0,0,0,0,0,0,0
3660000,3580000,13421772800,9.353073e-05,0.0013996124,0.0020048711,0,0.73455936,7.0997314,nan,nan,nan,nan,0.0,0.0,0.0,0.0,1310988,1310988,6620172,197388,0,0,128,1,1,1,1,0,0,0,0,0,0,0,0
3668000,3588000,13421772800,8.446536e-05,0.0013430435,0.0019421288,0,0.7550896,7.102435,nan,nan,nan,nan,0.0,0.0,0.0,0.0,1310988,1310988,6620172,197388,0,0,128,1,1,1,1,0,0,0,0,0,0,0,0
3676000,3596000,13421772800,7.566169e-05,0.001288894,0.0018812425,0,0.78049845,7.105255,nan,nan,nan,nan,0.0,0.0,0.0,0.0,1310988,1310988,6620172,197388,0,0,128,1,1,1,1,0,0,0,0,0,0,0,0
3684000,3604000,13421772800,6.73579e-05,0.0012373377,0.001822452,0,0.8103067,7.108192,nan,nan,nan,nan,0.0,0.0,0.0,0.0,1310988,1310988,6620172,197388,0,0,128,1,1,1,1,0,0,0,0,0,0,0,0
3692000,3612000,13421772800,5.9422335e-05,0.0011873717,0.0017653075,0,0.84402907,7.1112437,nan,nan,nan,nan,0.0,0.0,0.0,0.0,1310988,1310988,6620172,197388,0,0,128,1,1,1,1,0,0,0,0,0,0,0,0
3700000,3620000,13421772800,5.203104e-05,0.0011398178,0.0017100319,0,0.8811979,7.114411,nan,nan,nan,nan,0.0,0.0,0.0,0.0,1310988,1310988,6620172,197388,0,0,128,1,1,1,1,0,0,0,0,0,0,0,0
3708000,3628000,13421772800,4.5116623e-05,0.0010948095,0.0016566741,0,0.9213793,7.117692,nan,nan,nan,nan,0.0,0.0,0.0,0.0,1310988,1310988,6620172,197388,0,0,128,1,1,1,1,0,0,0,0,0,0,0,0
3716000,3636000,13421772800,3.878944e-05,0.0010514468,0.00160463,0,0.9641807,7.1210876,nan,nan,nan,nan,0.0,0.0,0.0,0.0,1310988,1310988,6620172,197388,0,0,128,1,1,1,1,0,0,0,0,0,0,0,0
3724000,3644000,13421772800,3.2999927e-05,0.0010098601,0.0015544166,0,1.0092536,7.1245956,nan,nan,nan,nan,0.0,0.0,0.0,0.0,1310988,1310988,6620172,197388,0,0,128,1,1,1,1,0,0,0,0,0,0,0,0
3732000,3652000,13421772800,2.772305e-05,0.0009691836,0.0015056302,0,1.0562934,7.1282163,nan,nan,nan,nan,0.0,0.0,0.0,0.0,1310988,1310988,6620172,197388,0,0,128,1,1,1,1,0,0,0,0,0,0,0,0
3740000,3660000,13421772800,2.297422e-05,0.0009303603,0.0014586342,0,1.1050355,7.131949,nan,nan,nan,nan,0.0,0.0,0.0,0.0,1310988,1310988,6620172,197388,0,0,128,1,1,1,1,0,0,0,0,0,0,0,0
3748000,3668000,13421772800,1.8764182e-05,0.00089341705,0.001412719,0,1.1552521,7.1357927,nan,nan,nan,nan,0.0,0.0,0.0,0.0,1310988,1310988,6620172,197388,0,0,128,1,1,1,1,0,0,0,0,0,0,0,0
3756000,3676000,13421772800,1.5145253e-05,0.00085788313,0.0013682795,0,1.2067474,7.1397476,nan,nan,nan,nan,0.0,0.0,0.0,0.0,1310988,1310988,6620172,197388,0,0,128,1,1,1,1,0,0,0,0,0,0,0,0
3764000,3684000,13421772800,1.2139278e-05,0.0008241933,0.0013250334,0,1.2593536,7.1438127,nan,nan,nan,nan,0.0,0.0,0.0,0.0,1310988,1310988,6620172,197388,0,0,128,1,1,1,1,0,0,0,0,0,0,0,0
3772000,3692000,13421772800,9.90924e-06,0.0007917981,0.0012834306,0,1.3129271,7.1479874,nan,nan,nan,nan,0.0,0.0,0.0,0.0,1310988,1310988,6620172,197388,0,0,128,1,1,1,1,0,0,0,0,0,0,0,0
3780000,3700000,13421772800,8.553122e-06,0.0007608539,0.0012429239,0,1.3673441,7.152271,nan,nan,nan,nan,0.0,0.0,0.0,0.0,1310988,1310988,6620172,197388,0,0,128,1,1,1,1,0,0,0,0,0,0,0,0
3788000,3708000,13421772800,7.885372e-06,0.00073086715,0.0012036872,0,1.422499,7.156663,nan,nan,nan,nan,0.0,0.0,0.0,0.0,1310988,1310988,6620172,197388,0,0,128,1,1,1,1,0,0,0,0,0,0,0,0
3796000,3716000,13421772800,8.046618e-06,0.00070222974,0.0011656826,0,1.4783002,7.1611624,nan,nan,nan,nan,0.0,0.0,0.0,0.0,1310988,1310988,6620172,197388,0,0,128,1,1,1,1,0,0,0,0,0,0,0,0
3804000,3724000,13421772800,8.520051e-06,0.00067523797,0.0011285626,0,1.5346692,7.1657696,nan,nan,nan,nan,0.0,0.0,0.0,0.0,1310988,1310988,6620172,197388,0,0,128,1,1,1,1,0,0,0,0,0,0,0,0
3812000,3732000,13421772800,9.338121e-06,0.0006489399,0.0010926998,0,1.591538,7.1704836,nan,nan,nan,nan,0.0,0.0,0.0,0.0,1310988,1310988,6620172,197388,0,0,128,1,1,1,1,0,0,0,0,0,0,0,0
3820000,3740000,13421772800,9.985859e-06,0.0006239255,0.0010580105,0,1.6488475,7.1753035,nan,nan,nan,nan,0.0,0.0,0.0,0.0,1310988,1310988,6620172,197388,0,0,128,1,1,1,1,0,0,0,0,0,0,0,0
3828000,3748000,13421772800,1.0725901e-05,0.0005998816,0.0010243467,0,1.7065465,7.1802287,nan,nan,nan,nan,0.0,0.0,0.0,0.0,1310988,1310988,6620172,197388,0,0,128,1,1,1,1,0,0,0,0,0,0,0,0
3836000,3756000,13421772800,1.1337053e-05,0.00057665433,0.0009915688,0,1.7645901,7.185259,nan,nan,nan,nan,0.0,0.0,0.0,0.0,1310988,1310988,6620172,197388,0,0,128,1,1,1,1,0,0,0,0,0,0,0,0
3844000,3764000,13421772800,1.1028929e-05,0.0028075012,0.005530476,0,0.6592481,5.837909,nan,nan,nan,nan,0.0,0.0,0.0,0.0,1310988,1310988,6620172,197388,0,0,128,1,1,1,1,0,0,0,0,0,0,0,0
3852000,3772000,13421772800,1.1177759e-05,0.0027241348,0.005357394,0,0.68083453,5.842185,nan,nan,nan,nan,0.0,0.0,0.0,0.0,1310988,1310988,6620172,197388,0,0,128,1,1,1,1,0,0,0,0,0,0,0,0
3860000,3780000,13421772800,1.1348385e-05,0.0026431018,0.0051896097,0,0.70323265,5.8465905,nan,nan,nan,nan,0.0,0.0,0.0,0.0,1310988,1310988,6620172,197388,0,0,128,1,1,1,1,0,0,0,0,0,0,0,0
3868000,3788000,13421772800,1.1535422e-05,0.002564659,0.0050267517,0,0.72636396,5.8511252,nan,nan,nan,nan,0.0,0.0,0.0,0.0,1310988,1310988,6620172,197388,0,0,128,1,1,1,1,0,0,0,0,0,0,0,0
3876000,3796000,13421772800,1.1676714e-05,0.0024883435,0.004868648,0,0.7501574,5.8557878,nan,nan,nan,nan,0.0,0.0,0.0,0.0,1310988,1310988,6620172,197388,0,0,128,1,1,1,1,0,0,0,0,0,0,0,0
3884000,3804000,13421772800,1.1952354e-05,0.0024141476,0.004715319,0,0.77454907,5.8605785,nan,nan,nan,nan,0.0,0.0,0.0,0.0,1310988,1310988,6620172,197388,0,0,128,1,1,1,1,0,0,0,0,0,0,0,0
3892000,3812000,13421772800,1.17173195e-05,0.0023419159,0.00456656,0,0.7994813,5.8654957,nan,nan,nan,nan,0.0,0.0,0.0,0.0,1310988,1310988,6620172,197388,0,0,128,1,1,1,1,0,0,0,0,0,0,0,0
3900000,3820000,13488881664,1.1683633e-05,0.0022719784,0.004422427,0,0.8249024,5.8705387,nan,nan,nan,nan,0.0,0.0,0.0,0.0,1310988,1310988,6620172,197388,0,0,128,1,1,1,1,0,0,0,0,0,0,0,0
3908000,3828000,13488881664,3.122308e-05,0.07267237,0.029261349,0,0.50109494,5.7735047,nan,nan,nan,nan,0.0,0.0,0.0,0.0,1310988,1310988,6620172,197388,0,0,128,1,1,1,1,0,0,0,0,0,0,0,0
3916000,3836000,13488881664,3.1646287e-05,0.070349775,0.02889696,0,0.50109494,5.7735047,nan,nan,nan,nan,0.0,0.0,0.0,0.0,1310988,1310988,6620172,197388,0,0,128,1,1,1,1,0,0,0,0,0,0,0,0
3924000,3844000,13488881664,3.2125616e-05,0.06809428,0.028541524,0,0.50108594,5.7735047,nan,nan,nan,nan,0.0,0.0,0.0,0.0,1310988,1310988,6620172,197388,0,0,128,1,1,1,1,0,0,0,0,0,0,0,0
3932000,3852000,13488881664,3.233808e-05,0.06590398,0.028194444,0,0.5010681,5.7735047,nan,nan,nan,nan,0.0,0.0,0.0,0.0,1310988,1310988,6620172,197388,0,0,128,1,1,1,1,0,0,0,0,0,0,0,0
3940000,3860000,13488881664,3.2615375e-05,0.063777044,0.027855521,0,0.50104153,5.7735047,nan,nan,nan,nan,0.0,0.0,0.0,0.0,1310988,1310988,6620172,197388,0,0,128,1,1,1,1,0,0,0,0,0,0,0,0
3948000,3868000,13488881664,3.287203e-05,0.061711624,0.02752453,0,0.5010065,5.7735047,nan,nan,nan,nan,0.0,0.0,0.0,0.0,1310988,1310988,6620172,197388,0,0,128,1,1,1,1,0,0,0,0,0,0,0,0
3956000,3876000,13488881664,3.317034e-05,0.059705958,0.027201233,0,0.5009633,5.7735047,nan,nan,nan,nan,0.0,0.0,0.0,0.0,1310988,1310988,6620172,197388,0,0,128,1,1,1,1,0,0,0,0,0,0,0,0
3964000,3884000,13488881664,3.346291e-05,0.057758383,0.026885372,0,0.5009125,5.7735047,nan,nan,nan,nan,0.0,0.0,0.0,0.0,1310988,1310988,6620172,197388,0,0,128,1,1,1,1,0,0,0,0,0,0,0,0
3972000,3892000,13488881664,3.3729797e-05,0.055867247,0.026576856,0,0.5008546,5.7735047,nan,nan,nan,nan,0.0,0.0,0.0,0.0,1310988,1310988,6620172,197388,0,0,128,1,1,1,1,0,0,0,0,0,0,0,0
3980000,3900000,13488881664,3.394117e-05,0.054030906,0.02627558,0,0.5007902,5.7735047,nan,nan,nan,nan,0.0,0.0,0.0,0.0,1310988,1310988,6620172,197388,0,0,128,1,1,1,1,0,0,0,0,0,0,0,0
3988000,3908000,13488881664,3.418958e-05,0.05224782,0.025981056,0,0.5007199,5.7735047,nan,nan,nan,nan,0.0,0.0,0.0,0.0,1310988,1310988,6620172,197388,0,0,128,1,1,1,1,0,0,0,0,0,0,0,0
3996000,3916000,13488881664,3.308825e-05,0.05051636,0.025674615,0,0.50064486,5.7735047,nan,nan,nan,nan,0.0,0.0,0.0,0.0,1310988,1310988,6620172,197388,0,0,128,1,1,1,1,0,0,0,0,0,0,0,0
4004000,3924000,13488881664,3.191721e-05,0.04883512,0.02535744,0,0.5005657,5.7735047,nan,nan,nan,nan,0.0,0.0,0.0,0.0,1310988,1310988,6620172,197388,0,0,128,1,1,1,1,0,0,0,0,0,0,0,0
4012000,3932000,13488881664,3.0755105e-05,0.047202684,0.025030408,0,0.50048363,5.7735047,nan,nan,nan,nan,0.0,0.0,0.0,0.0,1310988,1310988,6620172,197388,0,0,128,1,1,1,1,0,0,0,0,0,0,0,0
4020000,3940000,13488881664,2.9591461e-05,0.04561767,0.024694106,0,0.50039965,5.7735047,nan,nan,nan,nan,0.0,0.0,0.0,0.0,1310988,1310988,6620172,197388,0,0,128,1,1,1,1,0,0,0,0,0,0,0,0
4028000,3948000,13488881664,2.8405091e-05,0.04407865,0.02434945,0,0.500315,5.7735047,nan,nan,nan,nan,0.0,0.0,0.0,0.0,1310988,1310988,6620172,197388,0,0,128,1,1,1,1,0,0,0,0,0,0,0,0
4036000,3956000,13488881664,2.7167805e-05,0.042584382,0.023997577,0,0.50023115,5.7735047,nan,nan,nan,nan,0.0,0.0,0.0,0.0,1310988,1310988,6620172,197388,0,0,128,1,1,1,1,0,0,0,0,0,0,0,0
4044000,3964000,13488881664,2.5988264e-05,0.041133557,0.023639021,0,0.5001493,5.7735047,nan,nan,nan,nan,0.0,0.0,0.0,0.0,1310988,1310988,6620172,197388,0,0,128,1,1,1,1,0,0,0,0,0,0,0,0
4052000,3972000,13488881664,2.7538385e-05,0.039725322,0.020624816,0,0.014136459,5.000001,nan,nan,nan,nan,0.0,0.0,0.0,0.0,1310988,1310988,6620172,197388,0,0,128,1,1,1,1,0,0,0,0,0,0,0,0
4060000,3980000,13488881664,2.6314898e-05,0.038357772,0.020339798,0,0.014314566,5.000001,nan,nan,nan,nan,0.0,0.0,0.0,0.0,1310988,1310988,6620172,197388,0,0,128,1,1,1,1,0,0,0,0,0,0,0,0
4068000,3988000,13488881664,2.4992843e-05,0.03703002,0.020047197,0,0.014879827,5.000001,nan,nan,nan,nan,0.0,0.0,0.0,0.0,1310988,1310988,6620172,197388,0,0,128,1,1,1,1,0,0,0,0,0,0,0,0
4076000,3996000,13488881664,2.3747503e-05,0.035740927,0.019748434,0,0.015849208,5.0000014,nan,nan,nan,nan,0.0,0.0,0.0,0.0,1310988,1310988,6620172,197388,0,0,128,1,1,1,1,0,0,0,0,0,0,0,0
4084000,4004000,13488881664,2.2564542e-05,0.034489457,0.01944351,0,0.017211359,5.000002,nan,nan,nan,nan,0.0,0.0,0.0,0.0,1310988,1310988,6620172,197388,0,0,128,1,1,1,1,0,0,0,0,0,0,0,0
4092000,4012000,13488881664,2.1401445e-05,0.033274453,0.019133432,0,0.018936096,5.000002,nan,nan,nan,nan,0.0,0.0,0.0,0.0,1310988,1310988,6620172,197388,0,0,128,1,1,1,1,0,0,0,0,0,0,0,0
4100000,4020000,13488881664,2.027772e-05,0.03209491,0.01881877,0,0.020986028,5.0000024,nan,nan,nan,nan,0.0,0.0,0.0,0.0,1310988,1310988,6620172,197388,0,0,128,1,1,1,1,0,0,0,0,0,0,0,0
4108000,4028000,13488881664,1.927355e-05,0.030949859,0.018499693,0,0.023324266,5.000003,nan,nan,nan,nan,0.0,0.0,0.0,0.0,1310988,1310988,6620172,197388,0,0,128,1,1,1,1,0,0,0,0,0,0,0,0
4116000,4036000,4898947584,0.0038471636,0.05541498,0.020387162,0,0.014147562,5.000001,nan,nan,nan,0.0030297579,0.0,0.0,0.0,0.0,1310988,1310988,6620172,197388,0,0,164,1,1,1,1,0,0,0,0,0,0,0,0
4124000,4044000,4898947585,0.0038621214,0.05435613,0.020195846,0,0.014147639,5.000001,nan,nan,nan,0.0030297579,0.0,0.0,0.0,0.0,1310988,1310988,6620172,197388,0,0,164,1,1,1,1,0,0,0,0,0,0,0,0
4132000,4052000,4898947585,0.0038771674,0.053327225,0.020003831,0,0.014147568,5.000001,nan,nan,nan,0.0030297579,0.0,0.0,0.0,0.0,1310988,1310988,6620172,197388,0,0,164,1,1,1,1,0,0,0,0,0,0,0,0
4140000,4060000,4898947585,0.0038921353,0.05232791,0.019811954,0,0.014147474,5.000001,nan,nan,nan,0.0030297579,0.0,0.0,0.0,0.0,1310988,1310988,6620172,197388,0,0,164,1,1,1,1,0,0,0,0,0,0,0,0
4148000,4068000,4898947585,0.0039071804,0.051355015,0.019620229,0,0.014147527,5.000001,nan,nan,nan,0.0030297579,0.0,0.0,0.0,0.0,1310988,1310988,6620172,197388,0,0,164,1,1,1,1,0,0,0,0,0,0,0,0
4156000,4076000,4898947585,0.0039223023,0.050410017,0.01942896,0,0.01414794,5.000001,nan,nan,nan,0.0030297579,0.0,0.0,0.0,0.0,1310988,1310988,6620172,197388,0,0,164,1,1,1,1,0,0,0,0,0,0,0,0
4164000,4084000,4898947585,0.003937507,0.04949148,0.019238586,0,0.01414899,5.000001,nan,nan,nan,0.0030297579,0.0,0.0,0.0,0.0,1310988,1310988,6620172,197388,0,0,164,1,1,1,1,0,0,0,0,0,0,0,0
4172000,4092000,4898947585,0.00395279,0.04859862,0.019049462,0,0.01415101,5.000001,nan,nan,nan,0.0030297579,0.0,0.0,0.0,0.0,1310988,1310988,6620172,197388,0,0,164,1,1,1,1,0,0,0,0,0,0,0,0
4180000,4100000,4898947603,0.0040997546,0.04773127,0.07568225,0,0.014154404,2.867312,0.011631566,nan,nan,0.004609262,0.0,0.0,0.0,0.0,1310988,1310988,6620172,197388,0,0,165,1,1,1,1,1,0,0,0,0,0,0,0
4188000,4108000,4898947603,0.0041146916,0.046888955,0.07284501,0,0.014159655,2.867312,0.011631566,nan,nan,0.004609262,0.0,0.0,0.0,0.0,1310988,1310988,6620172,197388,0,0,165,1,1,1,1,1,0,0,0,0,0,0,0
4196000,4116000,4898947603,0.0041297413,0.04607064,0.07009394,0,0.014166839,2.867312,0.011631566,nan,nan,0.004609262,0.0,0.0,0.0,0.0,1310988,1310988,6620172,197388,0,0,165,1,1,1,1,1,0,0,0,0,0,0,0
4204000,4124000,4898947603,0.003943366,0.044495467,0.067435384,0,0.014176339,2.867312,0.011631566,nan,nan,0.004609262,0.0,0.0,0.0,0.0,1310988,1310988,6620172,197388,0,0,165,1,1,1,1,1,0,0,0,0,0,0,0
4212000,4132000,4898947603,0.0037568414,0.042964775,0.0648698,0,0.01418889,2.867312,0.011631566,nan,nan,0.004609262,0.0,0.0,0.0,0.0,1310988,1310988,6620172,197388,0,0,165,1,1,1,1,1,0,0,0,0,0,0,0
4220000,4140000,4898947603,0.0035702002,0.041477747,0.06239458,0,0.01420558,2.867312,0.011631566,nan,nan,0.004609262,0.0,0.0,0.0,0.0,1310988,1310988,6620172,197388,0,0,165,1,1,1,1,1,0,0,0,0,0,0,0
4228000,4148000,4898947603,0.0033836053,0.040032133,0.060006194,0,0.0142278345,2.867312,0.011631566,nan,nan,0.004609262,0.0,0.0,0.0,0.0,1310988,1310988,6620172,197388,0,0,165,1,1,1,1,1,0,0,0,0,0,0,0
4236000,4156000,4898947603,0.003197145,0.03862635,0.01639875,0,0.014257413,2.218035,0.011631566,nan,nan,0.008133192,0.0,0.0,0.0,0.0,1310988,1310988,6620172,197388,0,0,165,1,1,1,1,1,0,0,0,0,0,0,0
4244000,4164000,4898947603,0.003011078,0.03725951,0.016256543,0,0.014296398,2.218035,0.011631566,nan,nan,0.008133192,0.0,0.0,0.0,0.0,1310988,1310988,6620172,197388,0,0,165,1,1,1,1,1,0,0,0,0,0,0,0
4252000,4172000,4898947603,0.0027790817,0.03592971,0.01610379,0,0.014347178,2.218035,0.0018472575,nan,nan,0.008133192,0.0,0.0,0.0,0.0,1310988,1310988,6620172,197388,0,0,165,1,1,1,1,1,0,0,0,0,0,0,0
4260000,4180000,4898947603,0.0025867508,0.03463394,0.015938753,0,0.010094202,2.218035,0.0018472575,nan,nan,0.008133192,0.0,0.0,0.0,0.0,1310988,1310988,6620172,197388,0,0,165,1,1,1,1,1,0,0,0,0,0,0,0
4268000,4188000,4898947603,0.0023828545,0.033374887,0.015766377,0,0.010156873,2.218035,0.0018472575,nan,nan,0.008133192,0.0,0.0,0.0,0.0,1310988,1310988,6620172,197388,0,0,165,1,1,1,1,1,0,0,0,0,0,0,0
4276000,4196000,4898947603,0.0021783477,0.032149736,0.015585033,0,0.010244995,2.218035,0.0018472575,nan,nan,0.008133192,0.0,0.0,0.0,0.0,1310988,1310988,6620172,197388,0,0,165,1,1,1,1,1,0,0,0,0,0,0,0
4284000,4204000,4898947603,0.0019734115,0.03095626,0.012614067,0,0.0103631215,1.8735071,0.0018472575,nan,nan,0.0046472317,0.0,0.0,0.0,0.0,1310988,1310988,6620172,197388,0,0,165,1,1,1,1,1,0,0,0,0,0,0,0
4292000,4212000,4898947603,0.0017775826,0.029794812,0.011946751,0,0.010515796,1.8735073,0.0018472575,nan,nan,0.0046472317,0.0,0.0,0.0,0.0,1310988,1310988,6620172,197388,0,0,165,1,1,1,1,1,0,0,0,0,0,0,0
4300000,4220000,4898947603,0.0015910713,0.028663766,0.01131268,0,0.010707495,1.8735074,0.0018472575,nan,nan,0.0046472317,0.0,0.0,0.0,0.0,1310988,1310988,6620172,197388,0,0,165,1,1,1,1,1,0,0,0,0,0,0,0
4308000,4228000,4898947603,0.0014137771,0.02756254,0.010710867,0,0.010942418,1.8735075,0.0018472575,nan,nan,0.0046472317,0.0,0.0,0.0,0.0,1310988,1310988,6620172,197388,0,0,165,1,1,1,1,1,0,0,0,0,0,0,0
4316000,4236000,4898947603,0.0012457134,0.026490342,0.010139611,0,0.011224379,1.8735076,0.0018472575,nan,nan,0.0046472317,0.0,0.0,0.0,0.0,1310988,1310988,6620172,197388,0,0,165,1,1,1,1,1,0,0,0,0,0,0,0
4324000,4244000,4898947603,0.0009967625,0.02551583,0.0095930435,0,0.011434966,1.8735077,0.00762377,nan,nan,0.0046472317,0.0,0.0,0.0,0.0,1310988,1310988,6620172,197388,0,0,165,1,1,1,1,1,0,0,0,0,0,0,0
4332000,4252000,4898947603,0.0008618229,0.024498817,0.009078937,0,0.0117911715,1.8735079,0.00762377,nan,nan,0.0046472317,0.0,0.0,0.0,0.0,1310988,1310988,6620172,197388,0,0,165,1,1,1,1,1,0,0,0,0,0,0,0
4340000,4260000,4898947603,0.0007407731,0.023508823,0.008592237,0,0.012199368,1.8735081,0.00762377,nan,nan,0.0046472317,0.0,0.0,0.0,0.0,1310988,1310988,6620172,197388,0,0,165,1,1,1,1,1,0,0,0,0,0,0,0
4348000,4268000,4898947603,0.00063662004,0.02254522,0.009695382,0,0.012661279,1.651753,0.00762377,nan,nan,0.0003679314,0.0,0.0,0.0,0.0,1310988,1310988,6620172,197388,0,0,165,1,1,1,1,1,0,0,0,0,0,0,0
4356000,4276000,4898947603,0.0005506765,0.021607395,0.009202229,0,0.013178122,1.6517532,0.00762377,nan,nan,0.0003679314,0.0,0.0,0.0,0.0,1310988,1310988,6620172,197388,0,0,165,1,1,1,1,1,0,0,0,0,0,0,0
4364000,4284000,4898947603,0.0004854102,0.020694884,0.008734576,0,0.013750625,1.6517535,0.00762377,nan,nan,0.0003679314,0.0,0.0,0.0,0.0,1310988,1310988,6620172,197388,0,0,165,1,1,1,1,1,0,0,0,0,0,0,0
4372000,4292000,4898947603,0.00044258282,0.019807128,0.008290594,0,0.014379094,1.6517538,0.00762377,nan,nan,0.0003679314,0.0,0.0,0.0,0.0,1310988,1310988,6620172,197388,0,0,165,1,1,1,1,1,0,0,0,0,0,0,0
4380000,4300000,4898947603,0.00042106758,0.018943915,0.007869731,0,0.015063516,1.651754,0.00762377,nan,nan,0.0003679314,0.0,0.0,0.0,0.0,1310988,1310988,6620172,197388,0,0,165,1,1,1,1,1,0,0,0,0,0,0,0
4388000,4308000,4898947603,0.0018964643,0.018104883,0.0074705337,0,0.015803574,1.6517544,0.02349467,nan,nan,0.0003679314,0.0,0.0,0.0,0.0,1310988,1310988,6620172,197388,0,0,165,1,1,1,1,1,0,0,0,0,0,0,0
4396000,4316000,4898947603,0.001922155,0.017288694,0.0070924307,0,0.016598798,1.6517547,0.02349467,nan,nan,0.0003679314,0.0,0.0,0.0,0.0,1310988,1310988,6620172,197388,0,0,165,1,1,1,1,1,0,0,0,0,0,0,0
4404000,4324000,4898947603,0.0019471846,0.016495824,0.009277307,0,0.017448504,1.493766,0.02349467,nan,nan,0.004337851,0.0,0.0,0.0,0.0,1310988,1310988,6620172,197388,0,0,165,1,1,1,1,1,0,0,0,0,0,0,0
4412000,4332000,4898947603,0.0019449807,0.01572368,0.009139621,0,0.01835192,1.4937663,0.02349467,nan,nan,0.004337851,0.0,0.0,0.0,0.0,1310988,1310988,6620172,197388,0,0,165,1,1,1,1,1,0,0,0,0,0,0,0
4420000,4340000,4898947603,0.0019409083,0.014973623,0.0089973705,0,0.019308288,1.4937668,0.02349467,nan,nan,0.004337851,0.0,0.0,0.0,0.0,1310988,1310988,6620172,197388,0,0,165,1,1,1,1,1,0,0,0,0,0,0,0
4428000,4348000,4898947603,0.001935205,0.014245098,0.00885088,0,0.020316854,1.4937673,0.02349467,nan,nan,0.004337851,0.0,0.0,0.0,0.0,1310988,1310988,6620172,197388,0,0,165,1,1,1,1,1,0,0,0,0,0,0,0
4436000,4356000,4898947603,0.0019277905,0.013537338,0.008700817,0,0.021376893,1.4937679,0.02349467,nan,nan,0.004337851,0.0,0.0,0.0,0.0,1310988,1310988,6620172,197388,0,0,165,1,1,1,1,1,0,0,0,0,0,0,0
4444000,4364000,4898947603,0.0019179608,0.012850258,0.008547007,0,0.022487707,1.4937685,0.02349467,nan,nan,0.004337851,0.0,0.0,0.0,0.0,1310988,1310988,6620172,197388,0,0,165,1,1,1,1,1,0,0,0,0,0,0,0
4452000,4372000,4898947603,0.0019062221,0.012183458,0.00838989,0,0.023648527,1.493769,0.02349467,nan,nan,0.004337851,0.0,0.0,0.0,0.0,1310988,1310988,6620172,197388,0,0,165,1,1,1,1,1,0,0,0,0,0,0,0
4460000,4380000,4898947603,0.0018262418,0.011536761,0.008230308,0,0.024858829,1.4937698,0.0011174454,nan,nan,0.004337851,0.0,0.0,0.0,0.0,1310988,1310988,6620172,197388,0,0,165,1,1,1,1,1,0,0,0,0,0,0,0
4468000,4388000,4898947603,0.0018134252,0.011051732,0.007905116,0,0.012436096,1.3738756,0.0011174454,nan,nan,6.2135994e-05,0.0,0.0,0.0,0.0,1310988,1310988,6620172,197388,0,0,165,1,1,1,1,1,0,0,0,0,0,0,0
4476000,4396000,4898947603,0.0017206564,0.01044569,0.007746591,0,0.013068309,1.3738765,0.0011174454,nan,nan,6.2135994e-05,0.0,0.0,0.0,0.0,1310988,1310988,6620172,197388,0,0,165,1,1,1,1,1,0,0,0,0,0,0,0
4484000,4404000,4898947603,0.0016262529,0.0098585095,0.007586306,0,0.013741928,1.3738773,0.0011174454,nan,nan,6.2135994e-05,0.0,0.0,0.0,0.0,1310988,1310988,6620172,197388,0,0,165,1,1,1,1,1,0,0,0,0,0,0,0
4492000,4412000,4898947603,0.001530635,0.009289566,0.0074237236,0,0.014455854,1.3738781,0.0011174454,nan,nan,6.2135994e-05,0.0,0.0,0.0,0.0,1310988,1310988,6620172,197388,0,0,165,1,1,1,1,1,0,0,0,0,0,0,0
4500000,4420000,4898947603,0.0014349484,0.008738626,0.00726002,0,0.015209069,1.3738792,0.0011174454,nan,nan,6.2135994e-05,0.0,0.0,0.0,0.0,1310988,1310988,6620172,197388,0,0,165,1,1,1,1,1,0,0,0,0,0,0,0
4508000,4428000,4898947603,0.0013395277,0.008205145,0.007094835,0,0.016000666,1.3738803,0.0011174454,nan,nan,6.2135994e-05,0.0,0.0,0.0,0.0,1310988,1310988,6620172,197388,0,0,165,1,1,1,1,1,0,0,0,0,0,0,0
4516000,4436000,4898947603,0.0012445978,0.007687327,0.0117670065,0,0.01682979,1.2788812,0.0011174454,nan,nan,0.0072707594,0.0,0.0,0.0,0.0,1310988,1310988,6620172,197388,0,0,165,1,1,1,1,1,0,0,0,0,0,0,0
4524000,4444000,4898947603,0.0011500507,0.0071881125,0.011343849,0,0.01769573,1.2788824,0.0011174454,nan,nan,0.0072707594,0.0,0.0,0.0,0.0,1310988,1310988,6620172,197388,0,0,165,1,1,1,1,1,0,0,0,0,0,0,0
4532000,4452000,4898947603,0.00043071806,0.0072191656,0.010895522,0,0.01737588,1.2788832,0.024210187,nan,nan,0.0072707594,0.0,0.0,0.0,0.0,1310988,1310988,6620172,197388,0,0,165,1,1,1,1,1,0,0,0,0,0,0,0
4540000,4460000,4898947603,0.00050850236,0.0067492644,0.010505388,0,0.018216208,1.2788845,0.024210187,nan,nan,0.0072707594,0.0,0.0,0.0,0.0,1310988,1310988,6620172,197388,0,0,165,1,1,1,1,1,0,0,0,0,0,0,0
4548000,4468000,4898947603,0.00058811554,0.0062959236,0.010131102,0,0.01908946,1.2788858,0.024210187,nan,nan,0.0072707594,0.0,0.0,0.0,0.0,1310988,1310988,6620172,197388,0,0,165,1,1,1,1,1,0,0,0,0,0,0,0
4556000,4476000,4898947603,0.00066543266,0.0058569284,0.009771981,0,0.019995319,1.2788873,0.024210187,nan,nan,0.0072707594,0.0,0.0,0.0,0.0,1310988,1310988,6620172,197388,0,0,165,1,1,1,1,1,0,0,0,0,0,0,0
4564000,4484000,4898947603,0.00074158766,0.0054339184,0.0094277905,0,0.020933524,1.2788888,0.024210187,nan,nan,0.0072707594,0.0,0.0,0.0,0.0,1310988,1310988,6620172,197388,0,0,165,1,1,1,1,1,0,0,0,0,0,0,0
4572000,4492000,4898947603,0.0008153282,0.0050266455,0.0107874805,0,0.021903878,1.201212,0.024210187,nan,nan,0.00078214955,0.0,0.0,0.0,0.0,1310988,1310988,6620172,197388,0,0,165,1,1,1,1,1,0,0,0,0,0,0,0
4580000,4500000,4898947603,0.0008860566,0.0046358127,0.010416093,0,0.022906264,1.2012137,0.024210187,nan,nan,0.00078214955,0.0,0.0,0.0,0.0,1310988,1310988,6620172,197388,0,0,165,1,1,1,1,1,0,0,0,0,0,0,0
4588000,4508000,4898947603,0.00095308083,0.004261323,0.010059223,0,0.023940656,1.2012155,0.024210187,nan,nan,0.00078214955,0.0,0.0,0.0,0.0,1310988,1310988,6620172,197388,0,0,165,1,1,1,1,1,0,0,0,0,0,0,0
4596000,4516000,4898947603,0.00052484195,0.003903901,0.009716406,0,0.02500705,1.2012174,0.00973603,nan,nan,0.00078214955,0.0,0.0,0.0,0.0,1310988,1310988,6620172,197388,0,0,165,1,1,1,1,1,0,0,0,0,0,0,0
4604000,4524000,4898947603,0.00057784043,0.003563121,0.00938736,0,0.026105432,1.2012194,0.00973603,nan,nan,0.00078214955,0.0,0.0,0.0,0.0,1310988,1310988,6620172,197388,0,0,165,1,1,1,1,1,0,0,0,0,0,0,0
4612000,4532000,4898947603,0.0006280399,0.0032406815,0.009071308,0,0.027235853,1.2012216,0.00973603,nan,nan,0.00078214955,0.0,0.0,0.0,0.0,1310988,1310988,6620172,197388,0,0,165,1,1,1,1,1,0,0,0,0,0,0,0
4620000,4540000,4898947603,0.000607308,0.0029324633,0.008767952,0,0.028398462,1.2012239,0.00973603,nan,nan,0.00078214955,0.0,0.0,0.0,0.0,1310988,1310988,6620172,197388,0,0,165,1,1,1,1,1,0,0,0,0,0,0,0
4628000,4548000,4898947603,0.000582142,0.002645441,0.008476862,0,0.029593423,1.2012264,0.00973603,nan,nan,0.00078214955,0.0,0.0,0.0,0.0,1310988,1310988,6620172,197388,0,0,165,1,1,1,1,1,0,0,0,0,0,0,0
4636000,4556000,4898947603,0.00055249647,0.0023819327,0.005569,0,0.030820925,1.1361752,0.00973603,nan,nan,0.001379314,0.0,0.0,0.0,0.0,1310988,1310988,6620172,197388,0,0,165,1,1,1,1,1,0,0,0,0,0,0,0
4644000,4564000,4898947603,0.0005188919,0.0021449332,0.005385938,0,0.032081246,1.1361777,0.00973603,nan,nan,0.001379314,0.0,0.0,0.0,0.0,1310988,1310988,6620172,197388,0,0,165,1,1,1,1,1,0,0,0,0,0,0,0
4652000,4572000,4898947603,0.00048136618,0.0019390105,0.005211092,0,0.033374622,1.1361804,0.00973603,nan,nan,0.001379314,0.0,0.0,0.0,0.0,1310988,1310988,6620172,197388,0,0,165,1,1,1,1,1,0,0,0,0,0,0,0
4660000,4580000,4898947603,0.00043986033,0.0017700644,0.005044287,0,0.034701325,1.1361833,0.00973603,nan,nan,0.001379314,0.0,0.0,0.0,0.0,1310988,1310988,6620172,197388,0,0,165,1,1,1,1,1,0,0,0,0,0,0,0
4668000,4588000,4898947603,0.0001324087,0.0016444117,0.0048849788,0,0.03606169,1.1361862,0.0072299317,nan,nan,0.001379314,0.0,0.0,0.0,0.0,1310988,1310988,6620172,197388,0,0,165,1,1,1,1,1,0,0,0,0,0,0,0
4676000,4596000,4898947603,0.00055414997,0.0035848408,0.00486295,0,0.013230501,1.1361895,0.0072299317,nan,nan,0.001379314,0.0,0.0,0.0,0.0,1310988,1310988,6620172,197388,0,0,165,1,1,1,1,1,0,0,0,0,0,0,0
4684000,4604000,4898947603,0.00055166555,0.0035018479,0.0047193835,0,0.0137426695,1.1361928,0.0072299317,nan,nan,0.001379314,0.0,0.0,0.0,0.0,1310988,1310988,6620172,197388,0,0,165,1,1,1,1,1,0,0,0,0,0,0,0
4692000,4612000,4898947603,0.00055087067,0.0034415054,0.004571587,0,0.014282375,1.0806797,0.0072299317,nan,nan,6.783228e-06,0.0,0.0,0.0,0.0,1310988,1310988,6620172,197388,0,0,165,1,1,1,1,1,0,0,0,0,0,0,0
4700000,4620000,4898947603,0.0005521693,0.003403079,0.004441815,0,0.014850136,1.0806832,0.0072299317,nan,nan,6.783228e-06,0.0,0.0,0.0,0.0,1310988,1310988,6620172,197388,0,0,165,1,1,1,1,1,0,0,0,0,0,0,0
4708000,4628000,4898947603,0.00055526436,0.00338471,0.004318003,0,0.015446587,1.0806869,0.0072299317,nan,nan,6.783228e-06,0.0,0.0,0.0,0.0,1310988,1310988,6620172,197388,0,0,165,1,1,1,1,1,0,0,0,0,0,0,0
4716000,4636000,4898947603,0.00055998913,0.0033849867,0.004199789,0,0.016072307,1.0806909,0.0072299317,nan,nan,6.783228e-06,0.0,0.0,0.0,0.0,1310988,1310988,6620172,197388,0,0,165,1,1,1,1,1,0,0,0,0,0,0,0
4724000,4644000,4898947603,0.0005659707,0.0034025656,0.0040873997,0,0.016727883,1.0806949,0.0072299317,nan,nan,6.783228e-06,0.0,0.0,0.0,0.0,1310988,1310988,6620172,197388,0,0,165,1,1,1,1,1,0,0,0,0,0,0,0
4732000,4652000,4898947603,0.0005730434,0.0034350299,0.0039804284,0,0.01741385,1.0806992,0.0072299317,nan,nan,6.783228e-06,0.0,0.0,0.0,0.0,1310988,1310988,6620172,197388,0,0,165,1,1,1,1,1,0,0,0,0,0,0,0
4740000,4660000,4898947603,0.0009996024,0.003336902,0.0036889275,0,0.017334737,1.0806998,0.009608872,nan,nan,6.783228e-06,0.0,0.0,0.0,0.0,1310988,1310988,6620172,197388,0,0,165,1,1,1,1,1,0,0,0,0,0,0,0
4748000,4668000,4898947603,0.001016364,0.0033340773,0.0035918874,0,0.018017154,1.0807042,0.009608872,nan,nan,6.783228e-06,0.0,0.0,0.0,0.0,1310988,1310988,6620172,197388,0,0,165,1,1,1,1,1,0,0,0,0,0,0,0
4756000,4676000,4898947603,0.0010180571,0.0033464807,0.0025983802,0,0.01872941,1.0326045,0.009608872,nan,nan,0.0033797342,0.0,0.0,0.0,0.0,1310988,1310988,6620172,197388,0,0,165,1,1,1,1,1,0,0,0,0,0,0,0
4764000,4684000,4898947603,0.0010012935,0.0033677462,0.0025091846,0,0.019472169,1.032609,0.009608872,nan,nan,0.0033797342,0.0,0.0,0.0,0.0,1310988,1310988,6620172,197388,0,0,165,1,1,1,1,1,0,0,0,0,0,0,0
4772000,4692000,4898947603,0.0009841528,0.0034005793,0.0024206797,0,0.020246096,1.0326139,0.009608872,nan,nan,0.0033797342,0.0,0.0,0.0,0.0,1310988,1310988,6620172,197388,0,0,165,1,1,1,1,1,0,0,0,0,0,0,0
4780000,4700000,4898947603,0.0009662839,0.0034440611,0.00233309,0,0.02105178,1.032619,0.009608872,nan,nan,0.0033797342,0.0,0.0,0.0,0.0,1310988,1310988,6620172,197388,0,0,165,1,1,1,1,1,0,0,0,0,0,0,0
4788000,4708000,4898947603,0.00094765454,0.0034966902,0.0022465966,0,0.021889905,1.0326242,0.009608872,nan,nan,0.0033797342,0.0,0.0,0.0,0.0,1310988,1310988,6620172,197388,0,0,165,1,1,1,1,1,0,0,0,0,0,0,0
4796000,4716000,4898947603,0.0009283492,0.003557435,0.0021610623,0,0.022761123,1.0326298,0.009608872,nan,nan,0.0033797342,0.0,0.0,0.0,0.0,1310988,1310988,6620172,197388,0,0,165,1,1,1,1,1,0,0,0,0,0,0,0
4804000,4724000,4898947603,0.0009081469,0.0036247177,0.002076954,0,0.0236661,1.0326356,0.009608872,nan,nan,0.0033797342,0.0,0.0,0.0,0.0,1310988,1310988,6620172,197388,0,0,165,1,1,1,1,1,0,0,0,0,0,0,0
4812000,4732000,4898947603,0.0010770205,0.003696379,0.0037472448,0,0.024605474,0.990433,0.0047738394,nan,nan,0.0013449276,0.0,0.0,0.0,0.0,1310988,1310988,6620172,197388,0,0,165,1,1,1,1,1,0,0,0,0,0,0,0
4820000,4740000,4898947603,0.0010571834,0.0037725647,0.0036005767,0,0.02557987,0.99043906,0.0047738394,nan,nan,0.0013449276,0.0,0.0,0.0,0.0,1310988,1310988,6620172,197388,0,0,165,1,1,1,1,1,0,0,0,0,0,0,0
4828000,4748000,4898947603,0.00100999,0.0038602476,0.003456131,0,0.026589923,0.9904454,0.0047738394,nan,nan,0.0013449276,0.0,0.0,0.0,0.0,1310988,1310988,6620172,197388,0,0,165,1,1,1,1,1,0,0,0,0,0,0,0
4836000,4756000,4898947603,0.0009620569,0.0039503034,0.003314454,0,0.02763626,0.99045193,0.0047738394,nan,nan,0.0013449276,0.0,0.0,0.0,0.0,1310988,1310988,6620172,197388,0,0,165,1,1,1,1,1,0,0,0,0,0,0,0
4844000,4764000,4898947603,0.0009141793,0.0040420247,0.003174751,0,0.028719507,0.9904588,0.0047738394,nan,nan,0.0013449276,0.0,0.0,0.0,0.0,1310988,1310988,6620172,197388,0,0,165,1,1,1,1,1,0,0,0,0,0,0,0
4852000,4772000,4898947603,0.0008669595,0.0041347006,0.003038042,0,0.029840365,0.99046594,0.0047738394,nan,nan,0.0013449276,0.0,0.0,0.0,0.0,1310988,1310988,6620172,197388,0,0,165,1,1,1,1,1,0,0,0,0,0,0,0
4860000,4780000,4898947603,0.00082070427,0.004227952,0.0029036219,0,0.030999584,0.99047345,0.0047738394,nan,nan,0.0013449276,0.0,0.0,0.0,0.0,1310988,1310988,6620172,197388,0,0,165,1,1,1,1,1,0,0,0,0,0,0,0
4868000,4788000,4898947603,0.0007752841,0.0043211477,0.0027715915,0,0.032197725,0.9904812,0.0047738394,nan,nan,0.0013449276,0.0,0.0,0.0,0.0,1310988,1310988,6620172,197388,0,0,165,1,1,1,1,1,0,0,0,0,0,0,0
4876000,4796000,4898947603,0.00073079683,0.0044100313,0.0070565417,0,0.033435475,0.9530602,0.0047738394,nan,nan,0.0033673043,0.0,0.0,0.0,0.0,1310988,1310988,6620172,197388,0,0,165,1,1,1,1,1,0,0,0,0,0,0,0
4884000,4804000,4898947603,0.0011788479,0.0059492374,0.0068864105,0,0.0130969705,0.95306826,0.008334725,nan,nan,0.0033673043,0.0,0.0,0.0,0.0,1310988,1310988,6620172,197388,0,0,165,1,1,1,1,1,0,0,0,0,0,0,0
4892000,4812000,4898947603,0.001155881,0.0059664072,0.0066214036,0,0.013606734,0.95307666,0.008334725,nan,nan,0.0033673043,0.0,0.0,0.0,0.0,1310988,1310988,6620172,197388,0,0,165,1,1,1,1,1,0,0,0,0,0,0,0
4900000,4820000,4898947603,0.0011331885,0.005985878,0.006363124,0,0.014156972,0.95308536,0.008334725,nan,nan,0.0033673043,0.0,0.0,0.0,0.0,1310988,1310988,6620172,197388,0,0,165,1,1,1,1,1,0,0,0,0,0,0,0
4908000,4828000,4898947603,0.0011133509,0.006007906,0.0061110705,0,0.014748381,0.9530944,0.008334725,nan,nan,0.0033673043,0.0,0.0,0.0,0.0,1310988,1310988,6620172,197388,0,0,165,1,1,1,1,1,0,0,0,0,0,0,0
4916000,4836000,4898947603,0.0010970932,0.0060317465,0.005865665,0,0.01538155,0.95310384,0.008334725,nan,nan,0.0033673043,0.0,0.0,0.0,0.0,1310988,1310988,6620172,197388,0,0,165,1,1,1,1,1,0,0,0,0,0,0,0
4924000,4844000,4898947603,0.001084267,0.0060568172,0.0056263637,0,0.016056882,0.9531136,0.008334725,nan,nan,0.0033673043,0.0,0.0,0.0,0.0,1310988,1310988,6620172,197388,0,0,165,1,1,1,1,1,0,0,0,0,0,0,0
4932000,4852000,4898947603,0.0010747379,0.0060869153,0.002231014,0,0.016774675,0.91963404,0.008334725,nan,nan,0.0027688062,0.0,0.0,0.0,0.0,1310988,1310988,6620172,197388,0,0,165,1,1,1,1,1,0,0,0,0,0,0,0
4940000,4860000,4898947603,0.0010682781,0.006114733,0.0021245969,0,0.017535213,0.9196442,0.008334725,nan,nan,0.0027688062,0.0,0.0,0.0,0.0,1310988,1310988,6620172,197388,0,0,165,1,1,1,1,1,0,0,0,0,0,0,0
4948000,4868000,4898947603,0.0012951804,0.004996567,0.0024664882,0,0.01733586,0.91963714,0.008334725,nan,nan,0.0027688062,0.0,0.0,0.0,0.0,1310988,1310988,6620172,197388,0,0,165,1,1,1,1,1,0,0,0,0,0,0,0
4956000,4876000,4898947603,0.0013412456,0.0050219363,0.0023594447,0,0.018081881,0.919647,0.0051848046,nan,nan,0.0027688062,0.0,0.0,0.0,0.0,1310988,1310988,6620172,197388,0,0,165,1,1,1,1,1,0,0,0,0,0,0,0
4964000,4884000,4898947603,0.0013508615,0.005051062,0.0022557946,0,0.018867686,0.9196572,0.0051848046,nan,nan,0.0027688062,0.0,0.0,0.0,0.0,1310988,1310988,6620172,197388,0,0,165,1,1,1,1,1,0,0,0,0,0,0,0
4972000,4892000,4898947603,0.0013034487,0.005084057,0.0021549796,0,0.019693471,0.9196678,0.0051848046,nan,nan,0.0027688062,0.0,0.0,0.0,0.0,1310988,1310988,6620172,197388,0,0,165,1,1,1,1,1,0,0,0,0,0,0,0
4980000,4900000,4898947603,0.0012568631,0.0051168175,0.0020573086,0,0.020559585,0.9196787,0.0051848046,nan,nan,0.0027688062,0.0,0.0,0.0,0.0,1310988,1310988,6620172,197388,0,0,165,1,1,1,1,1,0,0,0,0,0,0,0
4988000,4908000,4898947603,0.0012107502,0.005149706,0.001962328,0,0.021466196,0.91969,0.0051848046,nan,nan,0.0027688062,0.0,0.0,0.0,0.0,1310988,1310988,6620172,197388,0,0,165,1,1,1,1,1,0,0,0,0,0,0,0
4996000,4916000,4898947603,0.0011649743,0.0051806783,0.0032127248,0,0.02241356,0.88950455,0.0051848046,nan,nan,0.0013432739,0.0,0.0,0.0,0.0,1310988,1310988,6620172,197388,0,0,165,1,1,1,1,1,0,0,0,0,0,0,0
5004000,4924000,4898947603,0.001119536,0.0052131824,0.0030654306,0,0.023401903,0.8895163,0.0051848046,nan,nan,0.0013432739,0.0,0.0,0.0,0.0,1310988,1310988,6620172,197388,0,0,165,1,1,1,1,1,0,0,0,0,0,0,0
5012000,4932000,4898947603,0.001074112,0.0052455105,0.0029216371,0,0.024431467,0.88952845,0.0051848046,nan,nan,0.0013432739,0.0,0.0,0.0,0.0,1310988,1310988,6620172,197388,0,0,165,1,1,1,1,1,0,0,0,0,0,0,0
5020000,4940000,4898947603,0.0010287887,0.0052773333,0.0027821276,0,0.025502516,0.889541,0.0051848046,nan,nan,0.0013432739,0.0,0.0,0.0,0.0,1310988,1310988,6620172,197388,0,0,165,1,1,1,1,1,0,0,0,0,0,0,0
5028000,4948000,4898947603,0.00090554944,0.0053095818,0.0026460772,0,0.026615353,0.88955396,0.014740571,nan,nan,0.0013432739,0.0,0.0,0.0,0.0,1310988,1310988,6620172,197388,0,0,165,1,1,1,1,1,0,0,0,0,0,0,0
5036000,4956000,4898947603,0.0008452139,0.0053539365,0.0025134126,0,0.027770119,0.8895674,0.014740571,nan,nan,0.0013432739,0.0,0.0,0.0,0.0,1310988,1310988,6620172,197388,0,0,165,1,1,1,1,1,0,0,0,0,0,0,0
5044000,4964000,4898947603,0.0007897854,0.005397415,0.0023835455,0,0.028967015,0.8895812,0.014740571,nan,nan,0.0013432739,0.0,0.0,0.0,0.0,1310988,1310988,6620172,197388,0,0,165,1,1,1,1,1,0,0,0,0,0,0,0
5052000,4972000,4898947603,0.0007369079,0.0054375245,0.0035897135,0,0.030206382,0.8621818,0.014740571,nan,nan,0.0013179423,0.0,0.0,0.0,0.0,1310988,1310988,6620172,197388,0,0,165,1,1,1,1,1,0,0,0,0,0,0,0
5060000,4980000,4898947603,0.00068926293,0.0054793223,0.003416409,0,0.031488467,0.8621961,0.014740571,nan,nan,0.0013179423,0.0,0.0,0.0,0.0,1310988,1310988,6620172,197388,0,0,165,1,1,1,1,1,0,0,0,0,0,0,0
5068000,4988000,4898947603,0.00064737943,0.0055204835,0.0032469805,0,0.032813508,0.86221087,0.014740571,nan,nan,0.0013179423,0.0,0.0,0.0,0.0,1310988,1310988,6620172,197388,0,0,165,1,1,1,1,1,0,0,0,0,0,0,0
5076000,4996000,4898947603,0.0006114348,0.005561071,0.0030818202,0,0.034181956,0.86222607,0.014740571,nan,nan,0.0013179423,0.0,0.0,0.0,0.0,1310988,1310988,6620172,197388,0,0,165,1,1,1,1,1,0,0,0,0,0,0,0
5084000,5004000,4898947603,0.0005818152,0.0056014406,0.0029204236,0,0.03559406,0.86224186,0.014740571,nan,nan,0.0013179423,0.0,0.0,0.0,0.0,1310988,1310988,6620172,197388,0,0,165,1,1,1,1,1,0,0,0,0,0,0,0
5092000,5012000,4898947603,0.0014803525,0.007187201,0.0029670617,0,0.013212356,0.8622581,0.014740571,nan,nan,0.0013179423,0.0,0.0,0.0,0.0,1310988,1310988,6620172,197388,0,0,165,1,1,1,1,1,0,0,0,0,0,0,0
5100000,5020000,4898947603,0.0016283061,0.0071655046,0.0028223684,0,0.013759122,0.8622748,0.010151,nan,nan,0.0013179423,0.0,0.0,0.0,0.0,1310988,1310988,6620172,197388,0,0,165,1,1,1,1,1,0,0,0,0,0,0,0
5108000,5028000,4898947603,0.0016116622,0.0071447277,0.002682173,0,0.014345033,0.8622921,0.010151,nan,nan,0.0013179423,0.0,0.0,0.0,0.0,1310988,1310988,6620172,197388,0,0,165,1,1,1,1,1,0,0,0,0,0,0,0
5116000,5036000,4898947603,0.0015791367,0.0071314173,0.0019315309,0,0.014969869,0.8372729,0.010151,nan,nan,0.0033763493,0.0,0.0,0.0,0.0,1310988,1310988,6620172,197388,0,0,165,1,1,1,1,1,0,0,0,0,0,0,0
5124000,5044000,4898947603,0.0015491352,0.0071128896,0.0019383763,0,0.015633428,0.83729064,0.010151,nan,nan,0.0033763493,0.0,0.0,0.0,0.0,1310988,1310988,6620172,197388,0,0,165,1,1,1,1,1,0,0,0,0,0,0,0
5132000,5052000,4898947603,0.0015212497,0.0070957933,0.0019458993,0,0.016335469,0.837309,0.010151,nan,nan,0.0033763493,0.0,0.0,0.0,0.0,1310988,1310988,6620172,197388,0,0,165,1,1,1,1,1,0,0,0,0,0,0,0
5140000,5060000,4898947603,0.0014953106,0.007080191,0.0019538903,0,0.01707577,0.8373279,0.010151,nan,nan,0.0033763493,0.0,0.0,0.0,0.0,1310988,1310988,6620172,197388,0,0,165,1,1,1,1,1,0,0,0,0,0,0,0
5148000,5068000,4898947603,0.0014712614,0.0070656473,0.0019622166,0,0.017854132,0.8373474,0.010151,nan,nan,0.0033763493,0.0,0.0,0.0,0.0,1310988,1310988,6620172,197388,0,0,165,1,1,1,1,1,0,0,0,0,0,0,0
5156000,5076000,4898947603,0.0014696212,0.005047314,0.0013745218,0,0.017603787,0.8373109,0.010151,nan,nan,0.0033763493,0.0,0.0,0.0,0.0,1310988,1310988,6620172,197388,0,0,165,1,1,1,1,1,0,0,0,0,0,0,0
5164000,5084000,4898947603,0.0014490499,0.005041013,0.0013698555,0,0.018362422,0.8373289,0.010151,nan,nan,0.0033763493,0.0,0.0,0.0,0.0,1310988,1310988,6620172,197388,0,0,165,1,1,1,1,1,0,0,0,0,0,0,0
5172000,5092000,4898947603,0.0017835984,0.0050360095,0.0018850395,0,0.019155646,0.81436586,0.012635959,nan,nan,0.002039522,0.0,0.0,0.0,0.0,1310988,1310988,6620172,197388,0,0,165,1,1,1,1,1,0,0,0,0,0,0,0
5180000,5100000,4898947603,0.0017245775,0.005042821,0.0017949503,0,0.019983342,0.81438446,0.012635959,nan,nan,0.002039522,0.0,0.0,0.0,0.0,1310988,1310988,6620172,197388,0,0,165,1,1,1,1,1,0,0,0,0,0,0,0
5188000,5108000,4898947603,0.0016488774,0.005050166,0.0017077627,0,0.02084537,0.8144036,0.012635959,nan,nan,0.002039522,0.0,0.0,0.0,0.0,1310988,1310988,6620172,197388,0,0,165,1,1,1,1,1,0,0,0,0,0,0,0
5196000,5116000,4898947603,0.0015739583,0.0050578644,0.0016241268,0,0.021741694,0.81442326,0.012635959,nan,nan,0.002039522,0.0,0.0,0.0,0.0,1310988,1310988,6620172,197388,0,0,165,1,1,1,1,1,0,0,0,0,0,0,0
5204000,5124000,4898947603,0.0015007423,0.0050659785,0.0015434233,0,0.02267224,0.81444347,0.012635959,nan,nan,0.002039522,0.0,0.0,0.0,0.0,1310988,1310988,6620172,197388,0,0,165,1,1,1,1,1,0,0,0,0,0,0,0
5212000,5132000,4898947603,0.0014293952,0.005074631,0.0014660641,0,0.02363688,0.8144643,0.012635959,nan,nan,0.002039522,0.0,0.0,0.0,0.0,1310988,1310988,6620172,197388,0,0,165,1,1,1,1,1,0,0,0,0,0,0,0
5220000,5140000,4898947603,0.0013596925,0.0050838715,0.0013918449,0,0.024635581,0.8144856,0.012635959,nan,nan,0.002039522,0.0,0.0,0.0,0.0,1310988,1310988,6620172,197388,0,0,165,1,1,1,1,1,0,0,0,0,0,0,0
5228000,5148000,4898947603,0.0012915597,0.0050939466,0.0013209628,0,0.025668288,0.81450754,0.012635959,nan,nan,0.002039522,0.0,0.0,0.0,0.0,1310988,1310988,6620172,197388,0,0,165,1,1,1,1,1,0,0,0,0,0,0,0
5236000,5156000,4898947603,0.0012250756,0.005106204,0.0010641867,0,0.026735079,0.79333,0.012635959,nan,nan,0.0006076085,0.0,0.0,0.0,0.0,1310988,1310988,6620172,197388,0,0,165,1,1,1,1,1,0,0,0,0,0,0,0
5244000,5164000,4898947603,0.00076658104,0.0051320265,0.0010343124,0,0.027835986,0.7933526,0.012377136,nan,nan,0.0006076085,0.0,0.0,0.0,0.0,1310988,1310988,6620172,197388,0,0,165,1,1,1,1,1,0,0,0,0,0,0,0
5252000,5172000,4898947603,0.00069479225,0.005159377,0.0010078845,0,0.028971044,0.7933758,0.012377136,nan,nan,0.0006076085,0.0,0.0,0.0,0.0,1310988,1310988,6620172,197388,0,0,165,1,1,1,1,1,0,0,0,0,0,0,0
5260000,5180000,4898947603,0.000607473,0.0051874127,0.0009853519,0,0.030140325,0.7933996,0.012377136,nan,nan,0.0006076085,0.0,0.0,0.0,0.0,1310988,1310988,6620172,197388,0,0,165,1,1,1,1,1,0,0,0,0,0,0,0
5268000,5188000,4898947603,0.00052433606,0.005215969,0.00096663495,0,0.031343937,0.79342407,0.012377136,nan,nan,0.0006076085,0.0,0.0,0.0,0.0,1310988,1310988,6620172,197388,0,0,165,1,1,1,1,1,0,0,0,0,0,0,0
5276000,5196000,4898947603,0.0004466539,0.005245383,0.0009515271,0,0.032581892,0.79344916,0.012377136,nan,nan,0.0006076085,0.0,0.0,0.0,0.0,1310988,1310988,6620172,197388,0,0,165,1,1,1,1,1,0,0,0,0,0,0,0
5284000,5204000,4898947603,0.00037517937,0.005276132,0.00094030274,0,0.033854302,0.793475,0.012377136,nan,nan,0.0006076085,0.0,0.0,0.0,0.0,1310988,1310988,6620172,197388,0,0,165,1,1,1,1,1,0,0,0,0,0,0,0
5292000,5212000,4898947603,0.00031135886,0.005297216,0.0025900353,0,0.035161342,0.7738625,0.012377136,nan,nan,0.0031511132,0.0,0.0,0.0,0.0,1310988,1310988,6620172,197388,0,0,165,1,1,1,1,1,0,0,0,0,0,0,0
5300000,5220000,4898947603,0.00040470288,0.0055166413,0.0024869277,0,0.013187059,0.77388895,0.012377136,nan,nan,0.0031511132,0.0,0.0,0.0,0.0,1310988,1310988,6620172,197388,0,0,165,1,1,1,1,1,0,0,0,0,0,0,0
5308000,5228000,4898947603,0.00037010948,0.005535881,0.0023435531,0,0.0136925345,0.7739161,0.012377136,nan,nan,0.0031511132,0.0,0.0,0.0,0.0,1310988,1310988,6620172,197388,0,0,165,1,1,1,1,1,0,0,0,0,0,0,0
5316000,5236000,4898947603,0.0003544747,0.0055567436,0.0022038403,0,0.014226728,0.77394396,0.00058134185,nan,nan,0.0031511132,0.0,0.0,0.0,0.0,1310988,1310988,6620172,197388,0,0,165,1,1,1,1,1,0,0,0,0,0,0,0
5324000,5244000,4898947603,0.00034879427,0.0055789864,0.0020678788,0,0.0147894565,0.7739725,0.00058134185,nan,nan,0.0031511132,0.0,0.0,0.0,0.0,1310988,1310988,6620172,197388,0,0,165,1,1,1,1,1,0,0,0,0,0,0,0
5332000,5252000,4898947603,0.00033903137,0.005602617,0.0019348025,0,0.01538043,0.77400184,0.00058134185,nan,nan,0.0031511132,0.0,0.0,0.0,0.0,1310988,1310988,6620172,197388,0,0,165,1,1,1,1,1,0,0,0,0,0,0,0
5340000,5260000,4898947603,0.00033389765,0.005611083,0.005324504,0,0.015999373,0.7557708,0.00058134185,nan,nan,0.0043727304,0.0,0.0,0.0,0.0,1310988,1310988,6620172,197388,0,0,165,1,1,1,1,1,0,0,0,0,0,0,0
5348000,5268000,4898947603,0.00033147229,0.005637647,0.0050789886,0,0.01664614,0.75580084,0.00058134185,nan,nan,0.0043727304,0.0,0.0,0.0,0.0,1310988,1310988,6620172,197388,0,0,165,1,1,1,1,1,0,0,0,0,0,0,0
5356000,5276000,4898947603,0.000330744,0.005665335,0.0048397104,0,0.017320428,0.7558317,0.00058134185,nan,nan,0.0043727304,0.0,0.0,0.0,0.0,1310988,1310988,6620172,197388,0,0,165,1,1,1,1,1,0,0,0,0,0,0,0
5364000,5284000,4898947603,0.00037056458,0.0024145287,0.0061077448,0,0.017230231,0.7557389,0.00058134185,nan,nan,0.0043727304,0.0,0.0,0.0,0.0,1310988,1310988,6620172,197388,0,0,165,1,1,1,1,1,0,0,0,0,0,0,0
5372000,5292000,4898947603,0.00037199704,0.0024735397,0.0058613154,0,0.01789863,0.75576645,0.00058134185,nan,nan,0.0043727304,0.0,0.0,0.0,0.0,1310988,1310988,6620172,197388,0,0,165,1,1,1,1,1,0,0,0,0,0,0,0
5380000,5300000,4898947603,0.0003728316,0.002542244,0.0056213625,0,0.018592516,0.7557947,0.00058134185,nan,nan,0.0043727304,0.0,0.0,0.0,0.0,1310988,1310988,6620172,197388,0,0,165,1,1,1,1,1,0,0,0,0,0,0,0
5388000,5308000,4898947603,0.00027303526,0.002620054,0.005387806,0,0.019311715,0.7558236,0.004116696,nan,nan,0.0043727304,0.0,0.0,0.0,0.0,1310988,1310988,6620172,197388,0,0,165,1,1,1,1,1,0,0,0,0,0,0,0
5396000,5316000,4898947603,0.00026156317,0.0027036688,0.00516078,0,0.020056184,0.75585324,0.004116696,nan,nan,0.0043727304,0.0,0.0,0.0,0.0,1310988,1310988,6620172,197388,0,0,165,1,1,1,1,1,0,0,0,0,0,0,0
5404000,5324000,4898947603,0.00025000982,0.002794207,0.004500864,0,0.020825792,0.73884934,0.004116696,nan,nan,0.00055451435,0.0,0.0,0.0,0.0,1310988,1310988,6620172,197388,0,0,165,1,1,1,1,1,0,0,0,0,0,0,0
5412000,5332000,4898947603,0.0002386345,0.0028861116,0.0042999685,0,0.021620465,0.7388797,0.004116696,nan,nan,0.00055451435,0.0,0.0,0.0,0.0,1310988,1310988,6620172,197388,0,0,165,1,1,1,1,1,0,0,0,0,0,0,0
5420000,5340000,4898947603,0.00022776505,0.0029805736,0.004104435,0,0.022440152,0.7389108,0.004116696,nan,nan,0.00055451435,0.0,0.0,0.0,0.0,1310988,1310988,6620172,197388,0,0,165,1,1,1,1,1,0,0,0,0,0,0,0
5428000,5348000,4898947603,0.00021743814,0.0030768758,0.0039145215,0,0.023284785,0.7389426,0.004116696,nan,nan,0.00055451435,0.0,0.0,0.0,0.0,1310988,1310988,6620172,197388,0,0,165,1,1,1,1,1,0,0,0,0,0,0,0
5436000,5356000,4898947603,0.00020775871,0.003174177,0.003729489,0,0.024154322,0.7389752,0.004116696,nan,nan,0.00055451435,0.0,0.0,0.0,0.0,1310988,1310988,6620172,197388,0,0,165,1,1,1,1,1,0,0,0,0,0,0,0
5444000,5364000,4898947603,0.00019882816,0.0032718102,0.003549859,0,0.025048729,0.73900855,0.004116696,nan,nan,0.00055451435,0.0,0.0,0.0,0.0,1310988,1310988,6620172,197388,0,0,165,1,1,1,1,1,0,0,0,0,0,0,0
5452000,5372000,4898947603,0.00018641757,0.003388769,0.0033739735,0,0.025967957,0.73904264,0.004116696,nan,nan,0.00055451435,0.0,0.0,0.0,0.0,1310988,1310988,6620172,197388,0,0,165,1,1,1,1,1,0,0,0,0,0,0,0
5460000,5380000,4898947603,0.0004605222,0.003530843,0.001429844,0,0.026911987,0.723131,0.0102362605,nan,nan,0.005972697,0.0,0.0,0.0,0.0,1310988,1310988,6620172,197388,0,0,165,1,1,1,1,1,0,0,0,0,0,0,0
5468000,5388000,4898947603,0.0004448471,0.00364456,0.0014411261,0,0.027880795,0.7231659,0.0102362605,nan,nan,0.005972697,0.0,0.0,0.0,0.0,1310988,1310988,6620172,197388,0,0,165,1,1,1,1,1,0,0,0,0,0,0,0
5476000,5396000,4898947603,0.0004381968,0.003756507,0.0014538422,0,0.02887438,0.7232017,0.0102362605,nan,nan,0.005972697,0.0,0.0,0.0,0.0,1310988,1310988,6620172,197388,0,0,165,1,1,1,1,1,0,0,0,0,0,0,0
5484000,5404000,4898947603,0.00043184275,0.0038664283,0.0014677068,0,0.029892841,0.7232383,0.0102362605,nan,nan,0.005972697,0.0,0.0,0.0,0.0,1310988,1310988,6620172,197388,0,0,165,1,1,1,1,1,0,0,0,0,0,0,0
5492000,5412000,4898947603,0.00042598855,0.0039741485,0.0014826616,0,0.030936234,0.7232757,0.0102362605,nan,nan,0.005972697,0.0,0.0,0.0,0.0,1310988,1310988,6620172,197388,0,0,165,1,1,1,1,1,0,0,0,0,0,0,0
5500000,5420000,4898947603,0.00042096223,0.0040794048,0.0014991924,0,0.032004524,0.723314,0.0102362605,nan,nan,0.005972697,0.0,0.0,0.0,0.0,1310988,1310988,6620172,197388,0,0,165,1,1,1,1,1,0,0,0,0,0,0,0
5508000,5428000,4898947603,0.00062179816,0.0044557485,0.0015608617,0,0.013004733,0.7233531,0.0102362605,nan,nan,0.005972697,0.0,0.0,0.0,0.0,1310988,1310988,6620172,197388,0,0,165,1,1,1,1,1,0,0,0,0,0,0,0
5516000,5436000,4898947603,0.00061575364,0.0045436705,0.0015788698,0,0.013449735,0.72339314,0.0102362605,nan,nan,0.005972697,0.0,0.0,0.0,0.0,1310988,1310988,6620172,197388,0,0,165,1,1,1,1,1,0,0,0,0,0,0,0
5524000,5444000,4898947603,0.00061030535,0.0046160296,0.00061803247,0,0.013915595,0.70845854,0.0102362605,nan,nan,0.002764692,0.0,0.0,0.0,0.0,1310988,1310988,6620172,197388,0,0,165,1,1,1,1,1,0,0,0,0,0,0,0
5532000,5452000,4898947603,0.0005132379,0.0047006863,0.00054786005,0,0.014402174,0.70849943,0.0037356901,nan,nan,0.002764692,0.0,0.0,0.0,0.0,1310988,1310988,6620172,197388,0,0,165,1,1,1,1,1,0,0,0,0,0,0,0
5540000,5460000,4898947603,0.0005079582,0.0047832113,0.00048646468,0,0.014909314,0.7085413,0.0037356901,nan,nan,0.002764692,0.0,0.0,0.0,0.0,1310988,1310988,6620172,197388,0,0,165,1,1,1,1,1,0,0,0,0,0,0,0
5548000,5468000,4898947603,0.0004926274,0.004863336,0.00043655536,0,0.015436877,0.708584,0.0037356901,nan,nan,0.002764692,0.0,0.0,0.0,0.0,1310988,1310988,6620172,197388,0,0,165,1,1,1,1,1,0,0,0,0,0,0,0
5556000,5476000,4898947603,0.00047871695,0.0049411803,0.0004008426,0,0.015984688,0.7086277,0.0037356901,nan,nan,0.002764692,0.0,0.0,0.0,0.0,1310988,1310988,6620172,197388,0,0,165,1,1,1,1,1,0,0,0,0,0,0,0
5564000,5484000,4898947603,0.00046599822,0.0050167334,0.00038209668,0,0.016552575,0.70867234,0.0037356901,nan,nan,0.002764692,0.0,0.0,0.0,0.0,1310988,1310988,6620172,197388,0,0,165,1,1,1,1,1,0,0,0,0,0,0,0
5572000,5492000,4898947603,0.00053939957,0.002009264,0.0020828655,0,0.01659429,0.70847994,0.0037356901,nan,nan,0.002764692,0.0,0.0,0.0,0.0,1310988,1310988,6620172,197388,0,0,165,1,1,1,1,1,0,0,0,0,0,0,0
5580000,5500000,4898947603,0.0005308365,0.002090271,0.00091757,0,0.017165473,0.69443274,0.0037356901,nan,nan,0.0015964897,0.0,0.0,0.0,0.0,1310988,1310988,6620172,197388,0,0,165,1,1,1,1,1,0,0,0,0,0,0,0
5588000,5508000,4898947603,0.0005235122,0.002179517,0.0008612038,0,0.01775559,0.6944715,0.0037356901,nan,nan,0.0015964897,0.0,0.0,0.0,0.0,1310988,1310988,6620172,197388,0,0,165,1,1,1,1,1,0,0,0,0,0,0,0
5596000,5516000,4898947603,0.0004971328,0.0022784572,0.00080892415,0,0.018364556,0.69451106,0.0037356901,nan,nan,0.0015964897,0.0,0.0,0.0,0.0,1310988,1310988,6620172,197388,0,0,165,1,1,1,1,1,0,0,0,0,0,0,0
5604000,5524000,4898947603,0.00079868524,0.0023810246,0.0007616591,0,0.018992256,0.69455147,0.013394225,nan,nan,0.0015964897,0.0,0.0,0.0,0.0,1310988,1310988,6620172,197388,0,0,165,1,1,1,1,1,0,0,0,0,0,0,0
5612000,5532000,4898947603,0.0007704425,0.0024878967,0.00071955915,0,0.019638631,0.6945927,0.013394225,nan,nan,0.0015964897,0.0,0.0,0.0,0.0,1310988,1310988,6620172,197388,0,0,165,1,1,1,1,1,0,0,0,0,0,0,0
5620000,5540000,4898947603,0.0007494506,0.0025963255,0.0006834441,0,0.020303639,0.69463485,0.013394225,nan,nan,0.0015964897,0.0,0.0,0.0,0.0,1310988,1310988,6620172,197388,0,0,165,1,1,1,1,1,0,0,0,0,0,0,0
5628000,5548000,4898947603,0.00072883314,0.0027053594,0.00065343856,0,0.020987218,0.6946778,0.013394225,nan,nan,0.0015964897,0.0,0.0,0.0,0.0,1310988,1310988,6620172,197388,0,0,165,1,1,1,1,1,0,0,0,0,0,0,0
5636000,5556000,4898947603,0.00070941774,0.0028145507,0.0006300001,0,0.021689277,0.69472164,0.013394225,nan,nan,0.0015964897,0.0,0.0,0.0,0.0,1310988,1310988,6620172,197388,0,0,165,1,1,1,1,1,0,0,0,0,0,0,0
5644000,5564000,4898947603,0.0006913917,0.0029300235,0.0010397634,0,0.022409806,0.68146974,0.013394225,nan,nan,0.0017236258,0.0,0.0,0.0,0.0,1310988,1310988,6620172,197388,0,0,165,1,1,1,1,1,0,0,0,0,0,0,0
5652000,5572000,4898947603,0.00067462795,0.0030375225,0.0010664529,0,0.023148792,0.68151456,0.013394225,nan,nan,0.0017236258,0.0,0.0,0.0,0.0,1310988,1310988,6620172,197388,0,0,165,1,1,1,1,1,0,0,0,0,0,0,0
5660000,5580000,4898947603,0.0006564807,0.0031589225,0.0010941742,0,0.023906203,0.6815603,0.013394225,nan,nan,0.0017236258,0.0,0.0,0.0,0.0,1310988,1310988,6620172,197388,0,0,165,1,1,1,1,1,0,0,0,0,0,0,0
5668000,5588000,4898947603,0.0011526912,0.0032775337,0.0011223094,0,0.024682028,0.6816069,0.012660441,nan,nan,0.0017236258,0.0,0.0,0.0,0.0,1310988,1310988,6620172,197388,0,0,165,1,1,1,1,1,0,0,0,0,0,0,0
5676000,5596000,4898947603,0.0011442774,0.0033945842,0.0011512373,0,0.025476296,0.6816545,0.012660441,nan,nan,0.0017236258,0.0,0.0,0.0,0.0,1310988,1310988,6620172,197388,0,0,165,1,1,1,1,1,0,0,0,0,0,0,0
5684000,5604000,4898947603,0.0011376241,0.0035092507,0.0011808403,0,0.026289014,0.68170303,0.012660441,nan,nan,0.0017236258,0.0,0.0,0.0,0.0,1310988,1310988,6620172,197388,0,0,165,1,1,1,1,1,0,0,0,0,0,0,0
5692000,5612000,4898947603,0.001102326,0.0036209146,0.0012107432,0,0.027120182,0.68175256,0.012660441,nan,nan,0.0017236258,0.0,0.0,0.0,0.0,1310988,1310988,6620172,197388,0,0,165,1,1,1,1,1,0,0,0,0,0,0,0
5700000,5620000,4898947603,0.0010686169,0.0037243783,0.000756832,0,0.027969833,0.6692236,0.012660441,nan,nan,0.0010441847,0.0,0.0,0.0,0.0,1310988,1310988,6620172,197388,0,0,165,1,1,1,1,1,0,0,0,0,0,0,0
5708000,5628000,4898947603,0.0010358909,0.0038305668,0.00079527905,0,0.02883795,0.6692741,0.012660441,nan,nan,0.0010441847,0.0,0.0,0.0,0.0,1310988,1310988,6620172,197388,0,0,165,1,1,1,1,1,0,0,0,0,0,0,0
5716000,5636000,4898947603,0.0012489608,0.005711047,0.0014615306,0,0.012770447,0.66932565,0.012660441,nan,nan,0.0010441847,0.0,0.0,0.0,0.0,1310988,1310988,6620172,197388,0,0,165,1,1,1,1,1,0,0,0,0,0,0,0
5724000,5644000,4898947603,0.0012178553,0.005741441,0.0014886073,0,0.013163358,0.66937816,0.012660441,nan,nan,0.0010441847,0.0,0.0,0.0,0.0,1310988,1310988,6620172,197388,0,0,165,1,1,1,1,1,0,0,0,0,0,0,0
5732000,5652000,4898947603,0.0011876866,0.0057723084,0.0015165933,0,0.013572242,0.66943175,0.012660441,nan,nan,0.0010441847,0.0,0.0,0.0,0.0,1310988,1310988,6620172,197388,0,0,165,1,1,1,1,1,0,0,0,0,0,0,0
5740000,5660000,4898947603,0.0009799079,0.005803768,0.0015455362,0,0.013996999,0.6694863,0.005651376,nan,nan,0.0010441847,0.0,0.0,0.0,0.0,1310988,1310988,6620172,197388,0,0,165,1,1,1,1,1,0,0,0,0,0,0,0
5748000,5668000,4898947603,0.00095283857,0.0058352808,0.0015751467,0,0.014437521,0.66954195,0.005651376,nan,nan,0.0010441847,0.0,0.0,0.0,0.0,1310988,1310988,6620172,197388,0,0,165,1,1,1,1,1,0,0,0,0,0,0,0
5756000,5676000,4898947603,0.00090860383,0.0058672293,0.0016053619,0,0.014893719,0.66959864,0.005651376,nan,nan,0.0010441847,0.0,0.0,0.0,0.0,1310988,1310988,6620172,197388,0,0,165,1,1,1,1,1,0,0,0,0,0,0,0
5764000,5684000,4898947603,0.0008668991,0.005876933,0.002692998,0,0.015365474,0.6577258,0.005651376,nan,nan,0.004781268,0.0,0.0,0.0,0.0,1310988,1310988,6620172,197388,0,0,165,1,1,1,1,1,0,0,0,0,0,0,0
5772000,5692000,4898947603,0.000828164,0.005909098,0.002582107,0,0.015852679,0.6577836,0.005651376,nan,nan,0.004781268,0.0,0.0,0.0,0.0,1310988,1310988,6620172,197388,0,0,165,1,1,1,1,1,0,0,0,0,0,0,0
5780000,5700000,4898947603,0.0008452073,0.0044510122,0.004703551,0,0.015966265,0.65747684,0.005651376,nan,nan,0.004781268,0.0,0.0,0.0,0.0,1310988,1310988,6620172,197388,0,0,165,1,1,1,1,1,0,0,0,0,0,0,0
5788000,5708000,4898947603,0.0008162186,0.0043960754,0.004539629,0,0.016460486,0.65752614,0.005651376,nan,nan,0.004781268,0.0,0.0,0.0,0.0,1310988,1310988,6620172,197388,0,0,165,1,1,1,1,1,0,0,0,0,0,0,0
5796000,5716000,4898947603,0.000791353,0.0043527475,0.0043806527,0,0.016969457,0.65757626,0.005651376,nan,nan,0.004781268,0.0,0.0,0.0,0.0,1310988,1310988,6620172,197388,0,0,165,1,1,1,1,1,0,0,0,0,0,0,0
5804000,5724000,4898947603,0.0007143415,0.00432344,0.0042267456,0,0.0174931,0.6576274,0.001904387,nan,nan,0.004781268,0.0,0.0,0.0,0.0,1310988,1310988,6620172,197388,0,0,165,1,1,1,1,1,0,0,0,0,0,0,0
5812000,5732000,4898947603,0.0006678015,0.0043014227,0.004077644,0,0.018031355,0.65767944,0.001904387,nan,nan,0.004781268,0.0,0.0,0.0,0.0,1310988,1310988,6620172,197388,0,0,165,1,1,1,1,1,0,0,0,0,0,0,0
5820000,5740000,4898947603,0.00062473404,0.0042789024,0.0081206765,0,0.018584171,0.64641726,0.001904387,nan,nan,0.0071809264,0.0,0.0,0.0,0.0,1310988,1310988,6620172,197388,0,0,165,1,1,1,1,1,0,0,0,0,0,0,0
5828000,5748000,4898947603,0.0005860366,0.0042675026,0.007831877,0,0.019151496,0.6464703,0.001904387,nan,nan,0.0071809264,0.0,0.0,0.0,0.0,1310988,1310988,6620172,197388,0,0,165,1,1,1,1,1,0,0,0,0,0,0,0
5836000,5756000,4898947603,0.0005495629,0.0042612036,0.0075516864,0,0.019733304,0.64652437,0.001904387,nan,nan,0.0071809264,0.0,0.0,0.0,0.0,1310988,1310988,6620172,197388,0,0,165,1,1,1,1,1,0,0,0,0,0,0,0
5844000,5764000,4898947603,0.00051526795,0.0042600404,0.007279359,0,0.020329546,0.6465794,0.001904387,nan,nan,0.0071809264,0.0,0.0,0.0,0.0,1310988,1310988,6620172,197388,0,0,165,1,1,1,1,1,0,0,0,0,0,0,0
5852000,5772000,4898947603,0.000482964,0.004262877,0.0070151617,0,0.020940186,0.64663535,0.001904387,nan,nan,0.0071809264,0.0,0.0,0.0,0.0,1310988,1310988,6620172,197388,0,0,165,1,1,1,1,1,0,0,0,0,0,0,0
