timestamp,timestamp_sample,device_id,bias,bias_var,innov,innov_var,innov_test_ratio
8836000,8751999,6620172,487.3378,0.00081135606,-0.084228516,13.251279,5.948644e-05
12940000,12854000,6620172,487.3388,0.061999567,0.017425537,12.43109,2.7140673e-06
13452000,13372000,6620172,487.3375,0.06754689,-0.07763672,12.438373,5.384288e-05
13756000,13672000,6620172,487.33853,0.07072212,0.083221436,12.43593,6.18799e-05
13996000,13912000,6620172,487.3396,0.0730836,0.018920898,12.443581,3.196654e-06
14412000,14332000,6620172,487.33813,0.076884836,-0.16625977,12.43384,0.00024701684
14596000,14512000,6620172,487.33707,0.078509465,-0.021820068,12.442492,4.2516976e-06
15004000,14920000,6620172,487.33813,0.08172625,0.034606934,12.444822,1.0692888e-05
15364000,15280000,6620172,487.33966,0.08442074,0.10543823,12.445223,9.925469e-05
15604000,15518000,6620172,487.34085,0.08609793,0.1053772,12.440357,9.917859e-05
15708000,15628000,6620172,487.34186,0.086636744,0.05731201,12.444505,2.9327239e-05
15892000,15808000,6620172,487.34085,0.087876454,-0.11325073,12.45298,0.00011443694
16180000,16096000,6620172,487.342,0.08952653,0.045806885,12.449685,1.8726674e-05
16644000,16562666,6620172,487.34305,0.09198016,0.036895752,12.454277,1.21448375e-05
16876000,16792000,6620172,487.34412,0.09309871,0.09515381,12.448713,8.081377e-05
16996000,16911000,6620172,487.34537,0.09370055,0.047790527,12.4539795,2.037666e-05
17172000,17092000,6620172,487.34378,0.09450353,-0.09188843,12.46192,7.528252e-05
17412000,17332000,6620172,487.34515,0.09560115,0.08685303,12.456631,6.7286324e-05
17652000,17572000,6620172,487.34616,0.096633606,0.04711914,12.451529,1.9812056e-05
18060000,17980000,6620172,487.34503,0.098090954,-0.048950195,12.453292,2.1378744e-05
18244000,18160000,6620172,487.34616,0.09882262,0.082214355,12.461461,6.026759e-05
18652000,18568000,6620172,487.34464,0.1000542,-0.106170654,12.463164,0.00010049354
18948000,18868000,6620172,487.34628,0.100930035,0.114868164,12.459998,0.00011766272
19780000,19696000,6620172,487.34796,0.10308455,0.13476562,12.463918,0.00016190534
20124000,20044000,6620172,487.35007,0.10366054,0.17138672,12.462269,0.00026188747
20364000,20280000,6620172,487.34888,0.10418595,-0.052856445,12.472944,2.488768e-05
20484000,20404000,6620172,487.34647,0.10443435,-0.20852661,12.461675,0.00038770735
20604000,20524000,6620172,487.34756,0.10467514,0.09857178,12.466829,8.659776e-05
20844000,20764000,6620172,487.34863,0.10513376,0.033447266,12.460984,9.97531e-06
20964000,20880000,6620172,487.34656,0.105350874,-0.2692871,12.466051,0.00064633804
21196000,21112000,6620172,487.34528,0.10564324,-0.07748413,12.471534,5.3488835e-05
21900000,21820000,6620172,487.34393,0.10651339,-0.115753174,12.472996,0.00011935828
22020000,21936000,6620172,487.3453,0.106684156,0.10385132,12.461839,9.616109e-05
22308000,22228000,6620172,487.3465,0.10690056,0.072143555,12.4737425,4.636132e-05
22668000,22588000,6620172,487.3476,0.10735714,0.08358765,12.472676,6.224178e-05
22900000,22816000,6620172,487.34918,0.10751031,0.08078003,12.465842,5.816261e-05
23020000,22936000,6620172,487.35043,0.10764922,0.111846924,12.470919,0.000111456946
23196000,23114666,6620172,487.35205,0.10778275,0.076049805,12.473949,5.1516898e-05
23316000,23234666,6620172,487.35306,0.107909374,0.081848145,12.466927,5.9705697e-05
23484000,23404000,6620172,487.3551,0.1078938,0.14709473,12.473687,0.00019273334
23724000,23644000,6620172,487.35672,0.1081357,0.07913208,12.467381,5.5806842e-05
23844000,23764000,6620172,487.35782,0.108250916,0.14907837,12.472455,0.00019798614
24316000,24232000,6620172,487.35635,0.10855813,-0.094940186,12.475796,8.027667e-05
24436000,24350000,6620172,487.3582,0.108660966,0.18746948,12.4644575,0.00031328909
24604000,24520000,6620172,487.35938,0.10861505,0.09613037,12.47101,8.23336e-05
25020000,24937333,6620172,487.36072,0.10888611,0.06491089,12.472038,3.753662e-05
25068000,24988000,6620172,487.3619,0.10873259,0.13616943,12.473693,0.0001651664
25252000,25168000,6620172,487.36075,0.1089405,-0.09567261,12.465249,8.158902e-05
25428000,25348000,6620172,487.3619,0.109006286,0.14425659,12.472396,0.00018538685
25548000,25468000,6620172,487.36075,0.109091945,-0.19171143,12.477592,0.00032728244
25732000,25648000,6620172,487.36185,0.10927953,0.059387207,12.468871,3.1427957e-05
25908000,25828000,6620172,487.36386,0.10932852,0.18814087,12.476191,0.00031524032
26028000,25948000,6620172,487.36545,0.1094022,0.13925171,12.464913,0.00017284996
26268000,26188000,6620172,487.36667,0.10954166,0.047790527,12.474823,2.0342613e-05
26572000,26487000,6620172,487.36783,0.10977004,0.062408447,12.471159,3.4700635e-05
26692000,26608000,6620172,487.36896,0.10983099,0.085357666,12.476248,6.488713e-05
26812000,26728000,6620172,487.37003,0.109889306,0.066223145,12.464916,3.9091985e-05
26932000,26848000,6620172,487.3714,0.10994506,0.05508423,12.469734,2.7036773e-05
26988000,26908000,6620172,487.37256,0.10990548,0.13208008,12.471917,0.00015541713
27108000,27028000,6620172,487.37357,0.10995947,0.07904053,12.477017,5.5634777e-05
27412000,27328000,6620172,487.37503,0.11015157,0.06838989,12.473248,4.166408e-05
27940000,27856000,6620172,487.37738,0.11015692,0.1609497,12.478546,0.00023066085
28116000,28036000,6620172,487.37854,0.11015933,0.024627686,12.469166,5.404647e-06
28572000,28488000,6620172,487.38016,0.10994997,0.07766724,12.470958,5.374442e-05
28620000,28538666,6620172,487.38123,0.109777555,0.12197876,12.472563,0.0001325471
28732000,28648000,6620172,487.38287,0.10970332,0.093566895,12.477082,7.7963065e-05
28972000,28888000,6620172,487.38474,0.10982649,0.14770508,12.470653,0.0001943834
29148000,29065333,6620172,487.38644,0.109847344,0.1293335,12.478019,0.00014894773
29436000,29356000,6620172,487.38773,0.1097961,0.053771973,12.473221,2.5756735e-05
29860000,29775000,6620172,487.389,0.11005465,0.090545654,12.474762,7.302313e-05
30036000,29956000,6620172,487.3911,0.11006322,0.18292236,12.465698,0.0002982459
30220000,30134000,6620172,487.39218,0.110201016,0.0670166,12.473341,4.0007322e-05
30396000,30316000,6620172,487.3945,0.11020251,0.16976929,12.47624,0.00025667998
30516000,30436000,6620172,487.3961,0.11024479,0.12530518,12.469144,0.00013991326
30636000,30552000,6620172,487.3973,0.11028634,0.113464355,12.474117,0.00011467442
30748000,30664000,6620172,487.3986,0.11019904,0.077301025,12.478668,5.3205895e-05
30924000,30842666,6620172,487.40027,0.11019837,0.0904541,12.469377,7.290701e-05
30988000,30904000,6620172,487.40164,0.110287085,0.1550293,12.472145,0.00021411342
31108000,31024000,6620172,487.40308,0.110329956,0.085510254,12.477244,6.511412e-05
31228000,31144000,6620172,487.40433,0.110370815,0.05078125,12.465929,2.2984741e-05
31468000,31384000,6620172,487.40646,0.11044802,0.16223145,12.475796,0.00023440091
31764000,31682666,6620172,487.4082,0.11047051,0.09692383,12.471468,8.36953e-05
32052000,31972000,6620172,487.40927,0.11035662,0.074798584,12.466721,4.9864564e-05
32164000,32080000,6620172,487.4107,0.11026099,0.15286255,12.47099,0.00020818945
32268000,32188000,6620172,487.41187,0.11003893,0.101989746,12.474817,9.264806e-05
32332000,32248000,6620172,487.41336,0.11013093,0.16662598,12.4777155,0.00024723378
32508000,32428000,6620172,487.4149,0.11013488,0.10140991,12.468468,9.164425e-05
32748000,32668000,6620172,487.41693,0.11022475,0.1411438,12.478575,0.00017738467
32932000,32847000,6620172,487.41818,0.110353254,0.038879395,12.469831,1.3469016e-05
32988000,32908000,6620172,487.4203,0.11030641,0.23513794,12.472008,0.00049256836
33108000,33028000,6620172,487.42188,0.11034626,0.06958008,12.477092,4.3113567e-05
33228000,33148000,6620172,487.42365,0.110384196,0.09729004,12.46576,8.436756e-05
33292000,33205000,6620172,487.42474,0.1104693,0.124053955,12.468432,0.00013714086
33412000,33327000,6620172,487.42624,0.11050511,0.10192871,12.473363,9.254799e-05
33588000,33508000,6620172,487.42798,0.11049098,0.08874512,12.480803,7.011386e-05
33892000,33807000,6620172,487.429,0.11063746,0.024810791,12.476943,5.4818925e-06
33948000,33868000,6620172,487.43024,0.110586114,0.14126587,12.479228,0.00017768233
34068000,33988000,6620172,487.43164,0.110614575,0.09780884,12.467694,8.5256506e-05
34188000,34104000,6620172,487.43375,0.11064279,0.23980713,12.472571,0.0005123016
34860000,34780000,6620172,487.43478,0.11007837,0.06707764,12.466315,4.010282e-05
35332000,35246000,6620172,487.43588,0.11012921,0.08081055,12.469264,5.819059e-05
35556000,35476000,6620172,487.4374,0.109967716,0.13302612,12.478219,0.00015757189
35740000,35656000,6620172,487.43854,0.11010967,0.019989014,12.469619,3.5603036e-06
36084000,36004000,6620172,487.4405,0.10998722,0.11288452,12.467156,0.000113568756
36388000,36302000,6620172,487.44168,0.1101779,0.024841309,12.475611,5.4959733e-06
36556000,36472000,6620172,487.44058,0.11005275,-0.06210327,12.470215,3.4364697e-05
36724000,36640000,6620172,487.44196,0.10993343,0.070373535,12.476935,4.4103017e-05
36964000,36880000,6620172,487.4431,0.110040635,0.020690918,12.470577,3.814437e-06
37140000,37060000,6620172,487.445,0.110050246,0.16375732,12.477931,0.00023879013
37740000,37660000,6620172,487.4461,0.11027413,0.05166626,12.470141,2.3784836e-05
38284000,38198000,6620172,487.4476,0.11051294,0.08911133,12.476529,7.071793e-05
38580000,38500000,6620172,487.44934,0.11052886,0.11355591,12.472177,0.00011487743
38884000,38798000,6620172,487.44806,0.1106726,-0.038330078,12.468537,1.30924645e-05
38940000,38860000,6620172,487.4492,0.11061994,0.12722778,12.470675,0.00014422197
39124000,39040000,6620172,487.4502,0.110729635,0.037506104,12.478565,1.2525548e-05
39708000,39628000,6620172,487.45145,0.11060925,0.03048706,12.469273,8.2822335e-06
39820000,39736000,6620172,487.45334,0.11050508,0.21157837,12.473613,0.0003987565
40116000,40036000,6620172,487.45456,0.11052276,0.0418396,12.46939,1.5598662e-05
40356000,40274666,6620172,487.45584,0.11058594,0.04055786,12.479501,1.4645708e-05
40420000,40334000,6620172,487.457,0.11066723,0.12911987,12.465866,0.00014860081
40524000,40444000,6620172,487.45587,0.11043228,-0.04498291,12.469506,1.8030316e-05
40708000,40622000,6620172,487.4547,0.11055159,-0.09274292,12.477347,7.6594355e-05
41052000,40972000,6620172,487.4564,0.11039704,0.1401062,12.474717,0.00017484027
41356000,41272000,6620172,487.4587,0.11055187,0.1486206,12.471065,0.00019679408
41532000,41452000,6620172,487.46008,0.11053471,0.11709595,12.478375,0.00012209086
41716000,41630000,6620172,487.46198,0.110646844,0.16558838,12.469677,0.00024432168
41940000,41860000,6620172,487.46335,0.11044038,0.11505127,12.478558,0.000117862575
42060000,41980000,6620172,487.4655,0.11047392,0.14447021,12.46715,0.00018601457
42180000,42100000,6620172,487.46747,0.11050704,0.21524048,12.472027,0.0004127322
42300000,42220000,6620172,487.46863,0.11053978,0.06958008,12.477102,4.311353e-05
42660000,42580000,6620172,487.47037,0.110629514,0.11264038,12.47563,0.000113001246
42844000,42759000,6620172,487.4714,0.110738575,0.07519531,12.467033,5.039366e-05
43020000,42940000,6620172,487.47034,0.110710576,-0.07156372,12.474086,4.5617828e-05
43372000,43288000,6620172,487.47137,0.110662155,0.010894775,12.472036,1.0574423e-06
43492000,43408000,6620172,487.47275,0.110691726,0.042785645,12.477106,1.630196e-05
43612000,43526000,6620172,487.47464,0.11071974,0.10858154,12.465796,0.000105087114
43900000,43816000,6620172,487.47574,0.11059954,0.021881104,12.477277,4.2635966e-06
43956000,43876000,6620172,487.47455,0.1105489,-0.13165283,12.47957,0.0001543186
44188000,44104000,6620172,487.47556,0.11047545,0.066223145,12.47235,3.9068684e-05
44308000,44222000,6620172,487.4766,0.11051169,0.12506104,12.477441,0.00013927591
44356000,44272000,6620172,487.47787,0.1103298,0.14505005,12.479111,0.00018733098
44988000,44908000,6620172,487.48035,0.11008462,0.23919678,12.471626,0.0005097357
45228000,45144000,6620172,487.4787,0.11017773,-0.1621399,12.465481,0.00023433016
45388000,45304000,6620172,487.4799,0.10991785,0.04586792,12.471507,1.8743758e-05
45748000,45662000,6620172,487.48114,0.11007804,0.034576416,12.47039,1.0652153e-05
45916000,45830000,6620172,487.48236,0.109959744,0.101379395,12.477417,9.152341e-05
46252000,46168000,6620172,487.48105,0.10973977,-0.053344727,12.474327,2.5346812e-05
46428000,46348000,6620172,487.48248,0.10976476,0.061340332,12.465168,3.3539116e-05
46612000,46528000,6620172,487.4841,0.10991813,0.077056885,12.473087,5.2894004e-05
46732000,46648000,6620172,487.4855,0.109974205,0.1545105,12.478459,0.00021257515
46852000,46766000,6620172,487.4866,0.1100278,0.08352661,12.466713,6.218065e-05
47028000,46946666,6620172,487.48804,0.11003718,0.056427002,12.47408,2.836109e-05
47388000,47306666,6620172,487.4891,0.110178314,0.061157227,12.472745,3.3318927e-05
47868000,47785333,6620172,487.49078,0.11034545,0.09957886,12.47661,8.830701e-05
48804000,48724000,6620172,487.49203,0.110288665,0.13864136,12.465496,0.00017133003
48988000,48904000,6620172,487.4935,0.11041459,0.064575195,12.473317,3.7145564e-05
49684000,49600000,6620172,487.49503,0.11028407,0.066986084,12.468802,3.9985443e-05
49980000,49898666,6620172,487.4962,0.11032195,0.039794922,12.481612,1.4097501e-05
50220000,50140000,6620172,487.49768,0.110397644,0.10131836,12.474767,9.143266e-05
50508000,50428000,6620172,487.49872,0.11029496,0.038635254,12.469825,1.33004e-05
51772000,51686000,6620172,487.49988,0.11071719,0.048065186,12.473234,2.057973e-05
52012000,51928000,6620172,487.50113,0.11077132,0.06726074,12.466781,4.0320552e-05
52420000,52334000,6620172,487.49896,0.11067477,-0.15078735,12.466815,0.00020264309
52540000,52456000,6620172,487.5003,0.110703036,0.07336426,12.471706,4.795133e-05
53020000,52936000,6620172,487.49927,0.11080896,-0.039794922,12.475116,1.4104842e-05
53140000,53054000,6620172,487.50073,0.11083382,0.12771606,12.480315,0.00014521884
53836000,53750000,6620172,487.5025,0.11062398,0.08981323,12.475183,7.184412e-05
54004000,53920000,6620172,487.50378,0.11047679,0.0664978,12.465426,3.941531e-05
54364000,54278000,6620172,487.50525,0.11058064,0.11895752,12.480399,0.00012598325
54468000,54388000,6620172,487.5063,0.110348456,0.06774902,12.467556,4.090555e-05
54708000,54628000,6620172,487.5075,0.11042318,0.061035156,12.477507,3.3173386e-05
55476000,55396000,6620172,487.50586,0.11045287,-0.104156494,12.475919,9.6617914e-05
55660000,55576000,6620172,487.5045,0.11057095,-0.08526611,12.467315,6.47944e-05
56796000,56716000,6620172,487.5022,0.11076973,-0.1730957,12.476699,0.00026682735
57396000,57312000,6620172,487.50418,0.11087563,0.16259766,12.472764,0.0002355176
57508000,57424000,6620172,487.50293,0.11076722,-0.114715576,12.477123,0.00011718926
57628000,57542000,6620172,487.5043,0.11079256,0.08810425,12.465893,6.9187525e-05
58380000,58298666,6620172,487.50623,0.11052877,0.13986206,12.479324,0.00017416714
58900000,58816000,6620172,487.50507,0.110348076,-0.021148682,12.467507,3.9860656e-06
59500000,59416000,6620172,487.50397,0.110535115,-0.09017944,12.475704,7.242817e-05
59556000,59476000,6620172,487.50513,0.110485494,0.13092041,12.477903,0.00015262673
59796000,59714666,6620172,487.50626,0.11054886,0.09945679,12.471439,8.812716e-05
60028000,59944000,6620172,487.50726,0.110481374,0.0032958984,12.464759,9.683252e-08
60508000,60424000,6620172,487.50598,0.11061521,-0.09408569,12.467954,7.888774e-05
60868000,60784000,6620172,487.5045,0.110703416,-0.09414673,12.466559,7.899896e-05
61108000,61024000,6620172,487.5034,0.1107576,-0.012207031,12.476101,1.3270849e-06
61708000,61623000,6620172,487.5023,0.11087654,-0.103149414,12.468221,9.481707e-05
62004000,61924000,6620172,487.5048,0.11086156,0.24456787,12.464195,0.0005332024
62124000,62044000,6620172,487.50372,0.1108804,-0.14416504,12.468746,0.0001852058
62244000,62164000,6620172,487.50232,0.110899314,-0.07699585,12.473476,5.2808595e-05
62484000,62404000,6620172,487.50064,0.11093492,-0.12738037,12.467284,0.00014460745
62668000,62583000,6620172,487.49945,0.111027084,-0.049224854,12.474641,2.158233e-05
62836000,62752000,6620172,487.4984,0.11085622,-0.0064086914,12.465241,3.6609646e-07
62892000,62812000,6620172,487.4971,0.11079999,-0.14477539,12.467233,0.00018680003
63436000,63352000,6620172,487.49603,0.11095857,-0.073028564,12.473032,4.7508463e-05
63724000,63640000,6620172,487.49457,0.1108031,-0.06472778,12.468298,3.7336344e-05
64612000,64528000,6620172,487.4934,0.11078947,-0.07424927,12.471734,4.9115097e-05
65076000,64994666,6620172,487.49445,0.11062801,0.080078125,12.474082,5.7118486e-05
65316000,65236000,6620172,487.49344,0.11068243,-0.07687378,12.467926,5.2664716e-05
65556000,65474666,6620172,487.4924,0.11073395,-0.1267395,12.477692,0.00014303661
65740000,65656000,6620172,487.49115,0.11083547,-0.14663696,12.469235,0.00019160399
65860000,65776000,6620172,487.49002,0.11085841,-0.087402344,12.474083,6.8044814e-05
66036000,65956000,6620172,487.48877,0.1108245,-0.0741272,12.465284,4.8979062e-05
66444000,66360000,6620172,487.4875,0.11070295,-0.04333496,12.465437,1.6738895e-05
66788000,66708000,6620172,487.48566,0.1105291,-0.14120483,12.478933,0.00017753302
66964000,66880000,6620172,487.48672,0.1105135,0.029022217,12.46983,7.5051285e-06
67324000,67240000,6620172,487.4852,0.11061187,-0.09979248,12.468551,8.874362e-05
67788000,67708000,6620172,487.48416,0.11046483,-0.05090332,12.470864,2.3086237e-05
68140000,68054000,6620172,487.4826,0.11043604,-0.07510376,12.468942,5.026333e-05
68620000,68536000,6620172,487.484,0.11057618,0.061920166,12.472391,3.4156394e-05
69084000,69004000,6620172,487.48254,0.11044728,-0.112701416,12.474742,0.00011313179
69268000,69184000,6620172,487.48105,0.11056449,-0.08239746,12.466448,6.0512128e-05
69324000,69244000,6620172,487.48215,0.11051359,0.12322998,12.468506,0.00013532431
69444000,69364000,6620172,487.4803,0.11054551,-0.20254517,12.473324,0.00036544248
69612000,69532000,6620172,487.4779,0.11039282,-0.18566895,12.463964,0.0003073122
69732000,69652000,6620172,487.4769,0.11042827,-0.10317993,12.468606,9.487025e-05
69972000,69892000,6620172,487.4757,0.11049774,-0.08786011,12.478448,6.873539e-05
70084000,70000000,6620172,487.47418,0.110396445,-0.06921387,12.466714,4.2696447e-05
70308000,70226666,6620172,487.4728,0.11020875,-0.04928589,12.475225,2.1634869e-05
70428000,70348000,6620172,487.47147,0.110251285,-0.06259155,12.464307,3.4923745e-05
70492000,70406000,6620172,487.4701,0.110338636,-0.15341187,12.466905,0.00020975713
70612000,70528000,6620172,487.4685,0.11037882,-0.070251465,12.47169,4.3968634e-05
70668000,70586666,6620172,487.46695,0.11033166,-0.175354,12.473854,0.00027389757
70732000,70648000,6620172,487.46518,0.11041836,-0.19857788,12.4766655,0.00035117264
70908000,70825333,6620172,487.46417,0.11040699,-0.018951416,12.467664,3.2007792e-06
71020000,70936000,6620172,487.46307,0.11031437,-0.070739746,12.4719,4.458121e-05
71140000,71056000,6620172,487.4613,0.11035623,-0.15374756,12.476899,0.00021050737
71316000,71236000,6620172,487.45926,0.110347845,-0.20318604,12.467893,0.00036791892
71556000,71476000,6620172,487.4554,0.110422686,-0.3201294,12.47776,0.0009125821
71724000,71644000,6620172,487.45358,0.11027498,-0.108673096,12.468103,0.00010524493
71844000,71764000,6620172,487.45102,0.110315286,-0.18374634,12.472967,0.00030076347
71964000,71884000,6620172,487.44962,0.11035497,-0.08441162,12.478021,6.3447755e-05
72028000,71942000,6620172,487.44812,0.1104403,-0.16699219,12.46478,0.00024857942
72132000,72052000,6620172,487.4468,0.11021321,-0.12069702,12.468356,0.00012981993
72196000,72110000,6620172,487.44516,0.11030158,-0.18399048,12.471071,0.00030160908
72244000,72160000,6620172,487.44397,0.11012292,-0.13354492,12.472649,0.00015887426
72364000,72278000,6620172,487.44266,0.11017167,-0.11129761,12.477727,0.00011030461
72412000,72328000,6620172,487.44165,0.10999459,-0.112335205,12.463403,0.00011250003
72532000,72446000,6620172,487.44064,0.11004638,-0.0289917,12.468119,7.490381e-06
72636000,72556000,6620172,487.43915,0.10983374,-0.059570312,12.471846,3.1614516e-05
72868000,72782000,6620172,487.43762,0.10981711,-0.10964966,12.465298,0.00010716905
72972000,72889333,6620172,487.4361,0.10961209,-0.0831604,12.468963,6.162548e-05
73140000,73060000,6620172,487.433,0.10951547,-0.24505615,12.475622,0.0005348432
73260000,73180000,6620172,487.43088,0.10958129,-0.16348267,12.464718,0.00023824206
73380000,73300000,6620172,487.42896,0.109645545,-0.1701355,12.469549,0.00025792688
73444000,73359000,6620172,487.4277,0.10974412,-0.13967896,12.472341,0.00017380867
73564000,73480000,6620172,487.42545,0.10980618,-0.15582275,12.477481,0.00021621825
73620000,73540000,6620172,487.42245,0.10976841,-0.3355713,12.463658,0.0010038794
73740000,73660000,6620172,487.42145,0.1098259,-0.002166748,12.468435,4.1837176e-08
73860000,73776000,6620172,487.42044,0.10988214,-0.005584717,12.473413,2.77827e-07
73972000,73888000,6620172,487.41916,0.109808974,-0.12954712,12.477973,0.00014944072
74028000,73948000,6620172,487.41797,0.10977119,-0.13549805,12.464071,0.00016366795
74148000,74066666,6620172,487.41632,0.10982865,-0.09661865,12.468874,8.318638e-05
74324000,74244000,6620172,487.41476,0.10984669,-0.117004395,12.476142,0.00012192185
74380000,74296000,6620172,487.413,0.10980937,-0.19787598,12.478446,0.00034864474
74500000,74416000,6620172,487.4115,0.10986754,-0.10601807,12.467199,0.00010017246
74556000,74476000,6620172,487.41,0.109829135,-0.16726685,12.469347,0.00024930644
74676000,74596000,6620172,487.40808,0.10988541,-0.108947754,12.474365,0.00010572449
74740000,74656000,6620172,487.40692,0.10998011,-0.13131714,12.477261,0.00015356104
74860000,74774000,6620172,487.40546,0.11003208,-0.06335449,12.46607,3.5775254e-05
74908000,74824000,6620172,487.4041,0.10985782,-0.15115356,12.467614,0.00020361553
75028000,74944000,6620172,487.4024,0.109915115,-0.113220215,12.472568,0.00011419566
75084000,75001333,6620172,487.4008,0.1098763,-0.18139648,12.474812,0.00029307668
75196000,75111000,6620172,487.39944,0.10980229,-0.12667847,12.463275,0.00014306417
75252000,75172000,6620172,487.3978,0.10976473,-0.18649292,12.465353,0.00031001135
75372000,75292000,6620172,487.3964,0.10982263,-0.05758667,12.47022,2.9547948e-05
75612000,75532000,6620172,487.3942,0.10993345,-0.1449585,12.464181,0.00018731868
75732000,75652000,6620172,487.3925,0.1099852,-0.10446167,12.468979,9.723901e-05
75852000,75768000,6620172,487.39136,0.11003591,-0.12008667,12.473978,0.00012845238
75964000,75880000,6620172,487.39008,0.10995743,-0.03970337,12.478552,1.4036151e-05
76084000,76000000,6620172,487.38892,0.11001037,-0.03036499,12.4671545,8.217438e-06
76252000,76168000,6620172,487.3877,0.1098879,-0.10983276,12.473694,0.0001074549
76308000,76228000,6620172,487.3866,0.109849654,-0.122924805,12.475956,0.00013457448
76420000,76336000,6620172,487.38538,0.10977214,-0.14398193,12.464278,0.00018480187
76540000,76456000,6620172,487.38434,0.109831914,-0.08325195,12.469094,6.176059e-05
76660000,76574000,6620172,487.3821,0.109890364,-0.14846802,12.474109,0.00019634225
76764000,76682666,6620172,487.38083,0.10968418,-0.144104,12.478061,0.0001849109
76884000,76802666,6620172,487.37927,0.10974438,-0.07058716,12.46677,4.440736e-05
77116000,77032000,6620172,487.3778,0.109727934,-0.06188965,12.476184,3.411236e-05
77236000,77152000,6620172,487.37607,0.109789886,-0.088134766,12.465045,6.924017e-05
77356000,77272000,6620172,487.37466,0.10984916,-0.076416016,12.4698925,5.2031166e-05
77476000,77392000,6620172,487.37357,0.10990713,-0.08972168,12.474937,7.1699134e-05
77716000,77630000,6620172,487.3707,0.110016465,-0.21713257,12.468607,0.00042013562
77764000,77680000,6620172,487.36893,0.10984268,-0.1998291,12.470181,0.00035579692
77884000,77800000,6620172,487.3677,0.10990092,-0.13226318,12.475235,0.0001558069
77940000,77860000,6620172,487.36618,0.109862566,-0.17297363,12.477519,0.00026643364
78276000,78196000,6620172,487.36475,0.10963805,-0.08654785,12.474331,6.6719505e-05
78460000,78376000,6620172,487.36325,0.10979857,-0.0619812,12.465951,3.4241442e-05
78636000,78553333,6620172,487.36148,0.10981975,-0.11425781,12.473037,0.000116293944
79156000,79072000,6620172,487.3604,0.10977242,-0.016296387,12.477966,2.3648104e-06
79276000,79192000,6620172,487.359,0.1098318,-0.049316406,12.46662,2.1676622e-05
80044000,79960000,6620172,487.3575,0.10998384,-0.108947754,12.465626,0.000105798616
80988000,80908000,6620172,487.35858,0.110129416,0.04260254,12.471652,1.6169794e-05
81052000,80968000,6620172,487.35736,0.110219546,-0.1366272,12.474473,0.00016626835
81948000,81868000,6620172,487.35892,0.11045312,0.06604004,12.47895,3.883239e-05
82708000,82624000,6620172,487.36063,0.11036622,0.108306885,12.477055,0.00010446181
83356000,83270000,6620172,487.36255,0.11038305,0.15237427,12.470751,0.00020686553
83508000,83428000,6620172,487.3615,0.10998311,-0.1578064,12.476217,0.00022178069
83748000,83664000,6620172,487.36267,0.110082105,0.05230713,12.469836,2.4379147e-05
83916000,83836000,6620172,487.364,0.10996111,0.052368164,12.476528,2.4422967e-05
84220000,84136000,6620172,487.3652,0.11015295,0.057739258,12.472984,2.9698158e-05
84340000,84254000,6620172,487.36374,0.1102007,-0.1741333,12.478132,0.00027000485
84996000,84914666,6620172,487.36478,0.110363655,0.0524292,12.472395,2.4488043e-05
85116000,85033333,6620172,487.36597,0.11040153,0.073638916,12.4774885,4.8288653e-05
85164000,85084000,6620172,487.36703,0.11022161,0.12112427,12.47916,0.00013062745
85284000,85204000,6620172,487.3681,0.110262975,0.13339233,12.467668,0.00015857474
85404000,85324000,6620172,487.36963,0.11030365,0.11077881,12.472577,0.00010932379
85876000,85792000,6620172,487.3707,0.11033208,0.033172607,12.475664,9.8006085e-06
86220000,86140000,6620172,487.37173,0.110198304,0.053833008,12.4730425,2.5815609e-05
86524000,86437000,6620172,487.37274,0.110369645,0.045654297,12.469526,1.857252e-05
86644000,86558000,6620172,487.3744,0.11040917,0.08898926,12.474513,7.0535716e-05
86940000,86860000,6620172,487.3755,0.110434555,0.07235718,12.470318,4.6649093e-05
87060000,86976000,6620172,487.37378,0.11046958,-0.17547607,12.475317,0.00027424688
87220000,87136000,6620172,487.37503,0.11019541,0.049926758,12.465083,2.2219232e-05
87340000,87256000,6620172,487.3766,0.11024038,0.07336426,12.469888,4.7958325e-05
87460000,87374000,6620172,487.37793,0.11028453,0.050445557,12.474892,2.2665565e-05
87924000,87844000,6620172,487.37927,0.1102026,0.078308105,12.4774,5.460681e-05
88276000,88192000,6620172,487.38043,0.11019391,0.08053589,12.475384,5.7767353e-05
88396000,88312000,6620172,487.38184,0.110240236,0.076538086,12.476059,5.2171734e-05
88564000,88480000,6620172,487.38303,0.11010498,0.13879395,12.47056,0.00017163766
88684000,88600000,6620172,487.3849,0.11015403,0.1149292,12.4755945,0.00011764054
88924000,88840000,6620172,487.3861,0.110245526,0.10348511,12.469196,9.5427764e-05
89220000,89140000,6620172,487.38748,0.110285476,0.04949951,12.465209,2.1840358e-05
89404000,89320000,6620172,487.38947,0.11041145,0.15631104,12.472757,0.00021765783
89524000,89438000,6620172,487.3907,0.11045002,0.054901123,12.477847,2.6839863e-05
89692000,89608000,6620172,487.38892,0.11031133,-0.14596558,12.468007,0.00018987217
89812000,89726000,6620172,487.39096,0.11035267,0.18347168,12.472912,0.0002998663
90444000,90364000,6620172,487.3922,0.110150434,0.071777344,12.46577,4.592119e-05
90564000,90484000,6620172,487.3944,0.11019477,0.1459961,12.470587,0.00018991229
90628000,90542000,6620172,487.39548,0.11028365,0.1187439,12.4733715,0.0001256019
90684000,90600000,6620172,487.3965,0.110238336,0.11495972,12.475599,0.00011770298
91276000,91192000,6620172,487.39774,0.11033018,0.050445557,12.467308,2.2679353e-05
91564000,91478000,6620172,487.39932,0.11023286,0.08050537,12.478907,5.770729e-05
91788000,91708000,6620172,487.40137,0.110055275,0.143219,12.471191,0.00018274722
91956000,91876000,6620172,487.4025,0.10992914,0.13470459,12.477896,0.00016157751
92244000,92164000,6620172,487.4035,0.10985736,0.07647705,12.473122,5.2100826e-05
92548000,92464000,6620172,487.4046,0.110058054,0.040405273,12.469636,1.4547214e-05
92892000,92812000,6620172,487.40616,0.10993856,0.074798584,12.467178,4.986273e-05
93076000,92991000,6620172,487.40512,0.11008326,-0.061340332,12.474907,3.3512933e-05
93252000,93172000,6620172,487.4062,0.11009001,0.03378296,12.465912,1.0172526e-05
93492000,93408000,6620172,487.40463,0.11018216,-0.07992554,12.475771,5.6893314e-05
93604000,93520000,6620172,487.40317,0.11009751,-0.066986084,12.464127,4.0000443e-05
93724000,93640000,6620172,487.4019,0.110145785,-0.06387329,12.468887,3.6355355e-05
93844000,93760000,6620172,487.40088,0.110193126,-0.09509277,12.4738455,8.0547514e-05
94020000,93938666,6620172,487.39917,0.110194206,-0.11621094,12.464906,0.00012038226
94252000,94168000,6620172,487.40045,0.11015287,0.074645996,12.474076,4.9632043e-05
94372000,94288000,6620172,487.39944,0.1102008,-0.053588867,12.479242,2.5569276e-05
95548000,95463000,6620172,487.3982,0.11025614,-0.038909912,12.478333,1.3480978e-05
95724000,95644000,6620172,487.3951,0.1102524,-0.27175903,12.46907,0.00065809925
96028000,95943000,6620172,487.39407,0.11042008,-0.11764526,12.465629,0.00012336507
96204000,96124000,6620172,487.393,0.11040852,-0.07406616,12.472622,4.8869668e-05
96324000,96244000,6620172,487.39163,0.11044485,-0.059906006,12.47772,3.1956777e-05
96628000,96544000,6620172,487.39044,0.11059512,-0.06991577,12.474049,4.35412e-05
96804000,96724000,6620172,487.3892,0.11057509,-0.035888672,12.465037,1.1480973e-05
96972000,96892000,6620172,487.39035,0.1104201,0.03189087,12.471382,9.060989e-06
97156000,97070000,6620172,487.3893,0.1105405,-0.118896484,12.479353,0.00012586455
97500000,97420000,6620172,487.38828,0.11038678,-0.022766113,12.476703,4.6156774e-06
97620000,97540000,6620172,487.38968,0.11042323,0.11303711,12.465418,0.000113891874
98452000,98368000,6620172,487.39072,0.11051173,0.09487915,12.466826,8.023118e-05
98628000,98546666,6620172,487.39175,0.11049565,0.03967285,12.473904,1.40198035e-05
98812000,98728000,6620172,487.39307,0.11061137,0.07901001,12.465464,5.564335e-05
99052000,98968000,6620172,487.3942,0.11067167,0.037841797,12.475274,1.2754132e-05
99340000,99256000,6620172,487.39536,0.11054881,0.036834717,12.470464,1.2088977e-05
99460000,99376000,6620172,487.39664,0.11058214,0.056030273,12.47549,2.7960528e-05
99820000,99736000,6620172,487.39798,0.11067477,0.056671143,12.474005,2.860721e-05
100228000,100144000,6620172,487.3993,0.11057837,0.041809082,12.47414,1.5569984e-05
100588000,100502000,6620172,487.40067,0.11067078,0.11578369,12.472675,0.000119424294
100756000,100672000,6620172,487.40195,0.11052186,0.13070679,12.47948,0.00015210983
101100000,101020000,6620172,487.40317,0.110356696,0.08175659,12.476795,5.9525082e-05
101220000,101140000,6620172,487.4046,0.110394225,0.09942627,12.46553,8.811483e-05
101676000,101596000,6620172,487.40625,0.11016007,0.087646484,12.46729,6.846276e-05
101908000,101824000,6620172,487.40765,0.11011962,0.089263916,12.476745,7.09591e-05
102028000,101944000,6620172,487.40588,0.11016784,-0.21105957,12.465448,0.00039706324
102148000,102064000,6620172,487.40704,0.110213846,0.088653564,12.470306,7.002817e-05
103260000,103178666,6620172,487.40817,0.11015202,0.060394287,12.466746,3.2508437e-05
103668000,103588000,6620172,487.40692,0.11011216,-0.063964844,12.466993,3.6465186e-05
103948000,103864000,6620172,487.40518,0.10990762,-0.14974976,12.478142,0.00019968241
104124000,104040000,6620172,487.40353,0.10992212,-0.087402344,12.468873,6.807324e-05
104236000,104152000,6620172,487.4012,0.10984682,-0.18508911,12.473302,0.00030516714
104404000,104320000,6620172,487.40018,0.10973312,-0.0871582,12.463824,6.77209e-05
104700000,104620000,6620172,487.39914,0.109816276,-0.10369873,12.475966,9.577015e-05
105100000,105014000,6620172,487.39813,0.10968786,-0.029388428,12.475724,7.6920915e-06
105396000,105316000,6620172,487.3959,0.10977446,-0.190979,12.471594,0.0003249427
105460000,105376000,6620172,487.3948,0.10987091,-0.12472534,12.474451,0.00013856242
105820000,105734000,6620172,487.39297,0.110035926,-0.13531494,12.473131,0.00016310734
105996000,105916000,6620172,487.39157,0.11004605,-0.07141113,12.4760475,4.541636e-05
106060000,105976000,6620172,487.39017,0.11013706,-0.1560669,12.466851,0.00021708124
106116000,106032000,6620172,487.3883,0.11009383,-0.20736694,12.468993,0.00038318205
106348000,106264000,6620172,487.3873,0.1100653,-0.044647217,12.478617,1.7749244e-05
106468000,106384000,6620172,487.38547,0.110114425,-0.1685791,12.467121,0.00025327876
106884000,106804000,6620172,487.3837,0.11020953,-0.1383667,12.467926,0.00017061863
106948000,106864000,6620172,487.38245,0.11029793,-0.14001465,12.470673,0.00017466849
107548000,107462000,6620172,487.38077,0.11049491,-0.09313965,12.479409,7.723829e-05
107716000,107632000,6620172,487.3789,0.11035293,-0.11956787,12.469431,0.00012739132
107956000,107872000,6620172,487.37714,0.11043252,-0.09213257,12.479567,7.557608e-05
108492000,108412000,6620172,487.3756,0.11052231,-0.08642578,12.468596,6.6562025e-05
108556000,108472000,6620172,487.37445,0.110605165,-0.1312561,12.471317,0.00015349145
108916000,108832000,6620172,487.37305,0.11069567,-0.1055603,12.46979,9.928865e-05
108972000,108892000,6620172,487.37164,0.110642694,-0.15835571,12.471941,0.00022340399
109156000,109070000,6620172,487.37003,0.110751495,-0.1973877,12.479882,0.0003468863
109380000,109300000,6620172,487.36896,0.110544935,-0.039764404,12.472057,1.408667e-05
109444000,109358000,6620172,487.36722,0.11062767,-0.19589233,12.474865,0.00034178776
109956000,109874666,6620172,487.366,0.11033367,-0.1211853,12.478965,0.00013076118
110124000,110044000,6620172,487.36465,0.110193186,-0.051208496,12.469047,2.3367287e-05
110244000,110164000,6620172,487.36328,0.110236555,-0.09588623,12.474018,8.189618e-05
110484000,110402666,6620172,487.36185,0.11031853,-0.11602783,12.467701,0.00011997631
110548000,110462000,6620172,487.36072,0.11040496,-0.1255188,12.470425,0.00014037629
110772000,110692000,6620172,487.35953,0.11022472,-0.07833862,12.47942,5.464054e-05
110892000,110812000,6620172,487.35794,0.110266015,-0.08078003,12.467919,5.815292e-05
111132000,111052000,6620172,487.35666,0.11034659,-0.03955078,12.477971,1.3929119e-05
111244000,111158000,6620172,487.35468,0.110254146,-0.19717407,12.466019,0.0003465208
111468000,111388000,6620172,487.3536,0.110082954,-0.0126953125,12.4747305,1.4355328e-06
111708000,111625333,6620172,487.35214,0.11017583,-0.11264038,12.4684105,0.00011306667
112116000,112036000,6620172,487.35095,0.11014451,-0.04421997,12.468698,1.742502e-05
112708000,112624000,6620172,487.34982,0.110233076,-0.047729492,12.476827,2.0287427e-05
112996000,112912000,6620172,487.35095,0.11014273,0.06713867,12.47198,4.0157585e-05
113172000,113092000,6620172,487.34982,0.11014733,-0.021362305,12.479424,4.0631153e-06
113356000,113272000,6620172,487.34842,0.110280074,-0.15209961,12.470648,0.00020612215
113532000,113449333,6620172,487.3474,0.110277124,-0.010406494,12.478,9.643205e-07
113884000,113800000,6620172,487.34634,0.11027931,-0.08746338,12.475981,6.812951e-05
114100000,114016000,6620172,487.3453,0.10997184,-0.123565674,12.46783,0.00013606998
114396000,114314666,6620172,487.34378,0.110035755,-0.08529663,12.475728,6.479707e-05
114580000,114496000,6620172,487.34274,0.11017456,-0.0630188,12.471489,3.538176e-05
114820000,114736000,6620172,487.34143,0.1102659,-0.08718872,12.465304,6.776029e-05
114996000,114916000,6620172,487.34274,0.110262394,0.053131104,12.472336,2.5148227e-05
115236000,115156000,6620172,487.34402,0.110343345,0.0519104,12.466129,2.4017878e-05
115452000,115372000,6620172,487.34552,0.11002639,0.1300354,12.474231,0.00015061453
115812000,115732000,6620172,487.34695,0.110168695,0.11035156,12.472864,0.00010847965
116052000,115972000,6620172,487.34924,0.110255964,0.16314697,12.466584,0.00023722915
116236000,116151000,6620172,487.35056,0.11038384,0.072387695,12.474285,4.6673602e-05
116292000,116208000,6620172,487.35233,0.11033681,0.19754028,12.476543,0.00034751577
116404000,116320000,6620172,487.35342,0.11024681,0.022735596,12.464685,4.6077494e-06
116700000,116620000,6620172,487.3555,0.11028615,0.1439209,12.47675,0.00018446064
116940000,116860000,6620172,487.35684,0.11036423,0.049835205,12.470249,2.2128648e-05
117060000,116980000,6620172,487.3584,0.110401735,0.06756592,12.4752655,4.0659597e-05
117180000,117100000,6620172,487.35953,0.110438734,0.029327393,12.480474,7.657258e-06
117300000,117220000,6620172,487.36108,0.11047259,0.06518555,12.468821,3.786472e-05
117532000,117448000,6620172,487.36264,0.11040624,0.09075928,12.478277,7.334743e-05
117772000,117688000,6620172,487.3644,0.11048099,0.09906006,12.471701,8.742366e-05
117892000,117808000,6620172,487.36636,0.11051693,0.10827637,12.476768,0.00010440535
118236000,118156000,6620172,487.36813,0.110349946,0.10491943,12.474088,9.805293e-05
118356000,118276000,6620172,487.3693,0.110388584,0.12033081,12.479255,0.00012892066
118716000,118636000,6620172,487.37073,0.11049357,0.06472778,12.477723,3.7308142e-05
118956000,118876000,6620172,487.37222,0.110557504,0.065582275,12.47115,3.831986e-05
119140000,119056000,6620172,487.37073,0.11067061,-0.1383667,12.479082,0.0001704661
119604000,119521333,6620172,487.3718,0.11052127,0.029205322,12.465001,7.603073e-06
119716000,119630000,6620172,487.37292,0.11042419,0.05441284,12.469205,2.6382839e-05
120012000,119932000,6620172,487.3717,0.11044876,-0.060699463,12.46516,3.2841977e-05
120244000,120160000,6620172,487.37054,0.110387534,-0.062347412,12.474345,3.462395e-05
120588000,120508000,6620172,487.36887,0.11023629,-0.07788086,12.471728,5.4037137e-05
120772000,120686000,6620172,487.36743,0.110366456,-0.07122803,12.479752,4.517034e-05
120940000,120856000,6620172,487.3661,0.11023131,-0.08932495,12.469789,7.1095805e-05
121116000,121036000,6620172,487.36508,0.110230714,-0.098968506,12.4770775,8.722453e-05
121236000,121154666,6620172,487.36322,0.11027274,-0.14700317,12.465773,0.0001926157
121468000,121384000,6620172,487.36218,0.11022164,-0.058258057,12.475047,3.0229245e-05
121764000,121684000,6620172,487.36057,0.11026304,-0.13845825,12.470914,0.00017080354
121932000,121852000,6620172,487.35956,0.11012593,-0.054626465,12.477641,2.6572427e-05
122172000,122092000,6620172,487.35785,0.110215075,-0.16442871,12.471161,0.00024088287
122532000,122452000,6620172,487.3568,0.11033793,-0.0803833,12.469851,5.75742e-05
122652000,122572000,6620172,487.35577,0.110376306,-0.07180786,12.474868,4.592673e-05
122836000,122750000,6620172,487.35458,0.11049855,-0.072753906,12.466349,4.7177058e-05
123012000,122928000,6620172,487.35352,0.11048305,-0.059906006,12.473412,3.1967815e-05
123060000,122978666,6620172,487.35178,0.110301346,-0.19360352,12.475041,0.00033384276
123292000,123208000,6620172,487.3492,0.11024629,-0.19915771,12.468065,0.00035347012
123580000,123496000,6620172,487.3477,0.11015423,-0.069122314,12.479873,4.2538668e-05
123700000,123616000,6620172,487.34595,0.110200405,-0.089782715,12.4683075,7.18349e-05
123820000,123736000,6620172,487.34473,0.11024572,-0.09677124,12.473281,8.341985e-05
123988000,123904000,6620172,487.3436,0.110112384,-0.045318604,12.48015,1.8284822e-05
124108000,124022000,6620172,487.34232,0.110160075,-0.05886841,12.468563,3.0882016e-05
124212000,124132000,6620172,487.34073,0.1099435,-0.12680054,12.472353,0.0001432357
124276000,124192000,6620172,487.33926,0.110037,-0.1656189,12.475215,0.00024430323
124396000,124312000,6620172,487.33728,0.11008885,-0.23815918,12.475887,0.00050515035
124572000,124492000,6620172,487.336,0.110094346,-0.03942871,12.471045,1.3850958e-05
124692000,124612000,6620172,487.33463,0.11014154,-0.08416748,12.476137,6.3090796e-05
124756000,124672000,6620172,487.3326,0.11023182,-0.22729492,12.4790745,0.00045999658
124876000,124792000,6620172,487.33075,0.11027514,-0.15621948,12.4676075,0.00021749274
124932000,124849333,6620172,487.32962,0.110229515,-0.12762451,12.469758,0.0001451335
124980000,124900000,6620172,487.32855,0.110052034,-0.12072754,12.471354,0.00012985438
125044000,124960000,6620172,487.32687,0.11014352,-0.18881226,12.47419,0.00031754517
125332000,125248000,6620172,487.32446,0.11006346,-0.18099976,12.469439,0.00029192184
125388000,125308000,6620172,487.32297,0.110021755,-0.16708374,12.471632,0.00024871534
125508000,125425333,6620172,487.32193,0.11007161,-0.058441162,12.476756,3.0415398e-05
125676000,125596000,6620172,487.32022,0.109950215,-0.13693237,12.466999,0.00016711207
125796000,125712000,6620172,487.3186,0.11000184,-0.11248779,12.471938,0.00011272866
125908000,125822000,6620172,487.31635,0.10992423,-0.1706543,12.476467,0.00025935838
126012000,125932000,6620172,487.31506,0.10971593,-0.15536499,12.464076,0.0002151809
126076000,125992000,6620172,487.3138,0.10981281,-0.13922119,12.466757,0.00017274867
126132000,126052000,6620172,487.31274,0.10977534,-0.120910645,12.46891,0.0001302741
126196000,126112000,6620172,487.31116,0.10987156,-0.18023682,12.4717045,0.00028941344
126300000,126220000,6620172,487.30936,0.10966334,-0.14675903,12.475611,0.00019182506
126364000,126279000,6620172,487.30807,0.10976208,-0.14501953,12.47856,0.00018726042
126484000,126400000,6620172,487.3064,0.10982191,-0.10354614,12.467119,9.555628e-05
126540000,126460000,6620172,487.30405,0.109784305,-0.26400757,12.469281,0.0006210818
126604000,126520000,6620172,487.303,0.10988039,-0.11553955,12.472083,0.00011892683
126724000,126639000,6620172,487.3015,0.109937616,-0.12496948,12.477248,0.00013907421
126844000,126760000,6620172,487.29984,0.10999233,-0.118377686,12.465896,0.00012490324
126900000,126820000,6620172,487.29797,0.1099516,-0.2083435,12.468027,0.00038682958
126964000,126880000,6620172,487.29623,0.110044606,-0.19647217,12.470792,0.0003439264
127020000,126940000,6620172,487.2952,0.110003345,-0.11685181,12.47301,0.00012163459
127084000,126999000,6620172,487.29346,0.110095836,-0.19534302,12.475888,0.0003398457
127188000,127108000,6620172,487.29224,0.10988002,-0.106048584,12.4753275,0.000100164834
127404000,127324000,6620172,487.28998,0.10959893,-0.15957642,12.471596,0.0002268678
127524000,127444000,6620172,487.28882,0.10966367,-0.10473633,12.47676,9.7690056e-05
127588000,127502000,6620172,487.28738,0.109762505,-0.1607666,12.479736,0.00023011437
127692000,127612000,6620172,487.28506,0.109556794,-0.1791687,12.467017,0.0002861009
127756000,127671000,6620172,487.28357,0.109656736,-0.16845703,12.469779,0.00025285818
127812000,127732000,6620172,487.28183,0.109622285,-0.1977539,12.471998,0.00034839474
127876000,127791000,6620172,487.28076,0.10972147,-0.121276855,12.474871,0.00013100181
127932000,127852000,6620172,487.27933,0.10968627,-0.16052246,12.477177,0.00022946307
128052000,127968000,6620172,487.27762,0.109746255,-0.19335938,12.465885,0.00033324593
128164000,128080000,6620172,487.27438,0.109676674,-0.26141357,12.470219,0.0006088912
128284000,128200000,6620172,487.2725,0.10974077,-0.12030029,12.475329,0.00012889583
128404000,128320000,6620172,487.2714,0.109802134,-0.033813477,12.464137,1.0192364e-05
128580000,128500000,6620172,487.26974,0.10982269,-0.14239502,12.471171,0.00018065078
128644000,128560000,6620172,487.2681,0.109918244,-0.18408203,12.474017,0.00030183804
128764000,128680000,6620172,487.2658,0.109974444,-0.15740967,12.479257,0.00022061325
128820000,128740000,6620172,487.2645,0.10993379,-0.14807129,12.465002,0.00019543702
128884000,128798000,6620172,487.2627,0.11002687,-0.20370483,12.467694,0.00036980605
128940000,128858666,6620172,487.26105,0.10998567,-0.18606567,12.469858,0.00030848105
129060000,128980000,6620172,487.25992,0.11003651,-0.0418396,12.474917,1.559175e-05
129180000,129100000,6620172,487.25775,0.11008637,-0.17181396,12.480172,0.00026281722
129300000,129220000,6620172,487.25574,0.11013265,-0.16171265,12.468515,0.00023304012
129420000,129340000,6620172,487.25464,0.110178076,-0.10321045,12.473503,9.488911e-05
129540000,129460000,6620172,487.2528,0.110222705,-0.14379883,12.478688,0.00018411927
129604000,129520000,6620172,487.25146,0.11031042,-0.14953613,12.465051,0.00019932222
129780000,129700000,6620172,487.2502,0.11030451,-0.037322998,12.472065,1.2410012e-05
129844000,129760000,6620172,487.24902,0.11039155,-0.13192749,12.474906,0.00015502109
129900000,129820000,6620172,487.24716,0.11034443,-0.20916748,12.4771805,0.00038960934
130020000,129938666,6620172,487.2454,0.110382445,-0.09176636,12.465772,7.505943e-05
130132000,130048000,6620172,487.24423,0.110288076,-0.04437256,12.470032,1.7543607e-05
130188000,130106666,6620172,487.24277,0.11024241,-0.1642456,12.472225,0.00024032616
130308000,130225333,6620172,487.24167,0.11028456,-0.048339844,12.47735,2.0808731e-05
130356000,130276000,6620172,487.24048,0.11010671,-0.13302612,12.479035,0.00015756158
130540000,130456000,6620172,487.23938,0.1102415,-0.04901123,12.470235,2.1402971e-05
130596000,130516000,6620172,487.2381,0.11019669,-0.14361572,12.472434,0.00018374277
130660000,130574000,6620172,487.237,0.110285684,-0.122406006,12.4752865,0.0001334481
130780000,130696000,6620172,487.23483,0.11032912,-0.14196777,12.480534,0.00017943366
131020000,130936000,6620172,487.23376,0.110408634,-0.03933716,12.473829,1.3783631e-05
131076000,130992000,6620172,487.23227,0.11036112,-0.16641235,12.476084,0.00024663252
131244000,131164000,6620172,487.23062,0.11022566,-0.10177612,12.466326,9.23232e-05
131364000,131284000,6620172,487.22955,0.11026744,-0.02508545,12.471206,5.606513e-06
131548000,131464000,6620172,487.22797,0.11039585,-0.13891602,12.479218,0.00017182041
131724000,131644000,6620172,487.22925,0.11038492,0.052581787,12.4697895,2.4635936e-05
131844000,131762666,6620172,487.22812,0.11042163,-0.039764404,12.474801,1.4083572e-05
132388000,132304000,6620172,487.22678,0.110639125,-0.040924072,12.481472,1.4909029e-05
132748000,132664000,6620172,487.22543,0.110726066,-0.14019775,12.479854,0.0001749968
132868000,132784000,6620172,487.2243,0.110751964,-0.08087158,12.468202,5.828349e-05
133108000,133024000,6620172,487.22244,0.110803366,-0.11715698,12.478233,0.00012221957
133404000,133324000,6620172,487.22122,0.11079481,-0.12185669,12.473764,0.0001322692
133468000,133384000,6620172,487.22015,0.110873215,-0.11819458,12.476616,0.00012441014
133932000,133850666,6620172,487.21912,0.11070212,-0.045410156,12.479012,1.836045e-05
134044000,133960000,6620172,487.21808,0.11059454,-0.105163574,12.466876,9.856677e-05
134580000,134498666,6620172,487.2167,0.11066011,-0.057678223,12.47245,2.9636672e-05
134868000,134788000,6620172,487.2157,0.11053834,-0.040222168,12.467727,1.4417872e-05
135052000,134968000,6620172,487.2144,0.11065162,-0.07788086,12.475474,5.402091e-05
135228000,135148000,6620172,487.21567,0.11062895,0.042297363,12.466358,1.5945734e-05
135460000,135374000,6620172,487.21667,0.11055324,0.020965576,12.475639,3.9147885e-06
135748000,135664000,6620172,487.21555,0.110447414,-0.021728516,12.470774,4.206532e-06
136036000,135952000,6620172,487.21667,0.11034471,0.024963379,12.466157,5.5543296e-06
136428000,136348000,6620172,487.21472,0.11003526,-0.14004517,12.465257,0.00017482055
136492000,136408000,6620172,487.21582,0.110126555,0.12258911,12.467949,0.00013392643
136780000,136696000,6620172,487.21698,0.110049374,0.034332275,12.479797,1.049434e-05
136900000,136816000,6620172,487.21826,0.11009924,0.14556885,12.468228,0.0001888381
137076000,136996000,6620172,487.21967,0.1101052,0.092803955,12.475471,7.670674e-05
137668000,137584000,6620172,487.22134,0.11019554,0.10647583,12.467158,0.00010103971
137836000,137752000,6620172,487.22318,0.110063344,0.138031,12.473713,0.00016971298
138012000,137932000,6620172,487.22452,0.11007121,0.10903931,12.464791,0.00010598359
138076000,137990000,6620172,487.22598,0.110161826,0.16445923,12.46747,0.00024104361
138252000,138172000,6620172,487.22733,0.11016432,0.07598877,12.474659,5.1431318e-05
138492000,138412000,6620172,487.22842,0.11025152,0.0791626,12.468328,5.5845645e-05
138676000,138592000,6620172,487.2295,0.11038006,0.05657959,12.476168,2.8509912e-05
138732000,138652000,6620172,487.23062,0.11033325,0.12649536,12.478467,0.00014247722
138900000,138820000,6620172,487.23224,0.11019359,0.08401489,12.468512,6.290069e-05
139020000,138938666,6620172,487.2333,0.11023685,0.04031372,12.473494,1.4476886e-05
139084000,139000000,6620172,487.23444,0.11032522,0.1251831,12.47637,0.00013955991
139260000,139180000,6620172,487.2357,0.110318646,0.06286621,12.467151,3.522288e-05
139324000,139238000,6620172,487.237,0.110405035,0.1473999,12.469875,0.00019359305
139436000,139356000,6620172,487.23804,0.11031053,0.026794434,12.474289,6.3948573e-06
139612000,139526000,6620172,487.2392,0.11030786,0.063934326,12.465235,3.643554e-05
139780000,139696000,6620172,487.24057,0.11017622,0.11187744,12.471683,0.00011151095
140124000,140044000,6620172,487.24173,0.11004665,0.024902344,12.469144,5.525878e-06
140308000,140224000,6620172,487.2429,0.11018615,0.021484375,12.477059,4.1104627e-06
140604000,140524000,6620172,487.24472,0.11023043,0.12017822,12.472768,0.00012866079
140724000,140641333,6620172,487.24615,0.11027309,0.06921387,12.477918,4.265811e-05
140956000,140872000,6620172,487.24802,0.110231005,0.12826538,12.47079,0.0001465826
141252000,141172000,6620172,487.2495,0.11027157,0.058898926,12.466751,3.0918538e-05
141372000,141292000,6620172,487.25122,0.11031179,0.08862305,12.471648,6.997243e-05
141492000,141412000,6620172,487.25223,0.11035138,0.06756592,12.476747,4.065477e-05
141732000,141652000,6620172,487.2545,0.11042492,0.22271729,12.470217,0.00044196853
141852000,141772000,6620172,487.25635,0.110460274,0.23822021,12.4752445,0.0005054354
141972000,141892000,6620172,487.25934,0.1104952,0.2710266,12.48047,0.0006539589
142156000,142072000,6620172,487.2605,0.11060984,0.06555176,12.471526,3.8283055e-05
142212000,142132000,6620172,487.25934,0.11055855,-0.13046265,12.473732,0.00015161195
142396000,142310000,6620172,487.2605,0.11067187,0.0715332,12.477209,4.5567518e-05
142756000,142672000,6620172,487.26193,0.110755615,0.065338135,12.480237,3.8007394e-05
142812000,142732000,6620172,487.26315,0.110701084,0.13546753,12.465881,0.00016357047
142932000,142852000,6620172,487.26483,0.11072593,0.13699341,12.4706955,0.0001672115
142996000,142911000,6620172,487.26584,0.11080532,0.113983154,12.473481,0.00011573139
143052000,142972000,6620172,487.26733,0.11075068,0.16571045,12.475712,0.00024456368
143172000,143092000,6620172,487.2691,0.11077538,0.12487793,12.480926,0.00013882961
143292000,143212000,6620172,487.27115,0.11079735,0.20541382,12.469234,0.0003759906
143412000,143332000,6620172,487.27347,0.110819325,0.20666504,12.474184,0.00038043404
143476000,143392000,6620172,487.27466,0.110897325,0.13150024,12.477044,0.00015399225
143596000,143510000,6620172,487.27597,0.110918984,0.0642395,12.477639,3.6747635e-05
143652000,143572000,6620172,487.2747,0.110861674,-0.14141846,12.467719,0.00017823077
143716000,143631000,6620172,487.27625,0.11093838,0.17352295,12.470427,0.00026828106
143820000,143740000,6620172,487.27762,0.110692225,0.08947754,12.474202,7.131367e-05
143940000,143860000,6620172,487.27872,0.11071875,0.05657959,12.479362,2.8502614e-05
144060000,143978666,6620172,487.27988,0.1107425,0.11654663,12.467768,0.00012105096
144124000,144040000,6620172,487.2818,0.11082135,0.21276855,12.470482,0.00040335656
144300000,144220000,6620172,487.2835,0.110789835,0.10134888,12.477749,9.146588e-05
144356000,144276000,6620172,487.28476,0.110735826,0.14071655,12.480052,0.00017629153
144468000,144386666,6620172,487.2865,0.11062859,0.09527588,12.4678335,8.0897e-05
144588000,144508000,6620172,487.28882,0.110656336,0.17050171,12.472737,0.0002589722
144828000,144748000,6620172,487.29077,0.11070997,0.14477539,12.466397,0.00018681253
144892000,144808000,6620172,487.29233,0.11078929,0.1748352,12.46908,0.00027238354
144948000,144866666,6620172,487.29355,0.11073459,0.1375122,12.471231,0.00016847314
145012000,144928000,6620172,487.2957,0.11081386,0.23809814,12.474029,0.00050496677
145132000,145046000,6620172,487.29703,0.110838376,0.104888916,12.4791765,9.795593e-05
145236000,145154666,6620172,487.29813,0.11059818,0.013092041,12.4664755,1.5276663e-06
145300000,145216000,6620172,487.2995,0.11067951,0.15362549,12.469166,0.00021030358
145420000,145336000,6620172,487.3011,0.11070798,0.0899353,12.474122,7.2045674e-05
145540000,145456000,6620172,487.30234,0.11073626,0.09509277,12.47919,8.0513026e-05
145596000,145516000,6620172,487.30365,0.11068297,0.14562988,12.477052,0.00018886285
145708000,145624000,6620172,487.30472,0.11057782,0.123565674,12.4691305,0.00013605578
145828000,145744000,6620172,487.30603,0.110609874,0.056365967,12.473785,2.8300437e-05
145940000,145860000,6620172,487.3078,0.1105087,0.11651611,12.477911,0.00012088922
146116000,146032000,6620172,487.31052,0.11049484,0.23226929,12.468561,0.00048075602
146236000,146152000,6620172,487.31274,0.1105297,0.15304565,12.472903,0.00020865651
146356000,146272000,6620172,487.3144,0.11056402,0.11767578,12.477294,0.00012331369
146460000,146380000,6620172,487.3174,0.11032976,0.27355957,12.465276,0.0006670516
146580000,146500000,6620172,487.3188,0.11036759,0.18057251,12.469307,0.00029054837
146820000,146740000,6620172,487.32074,0.11044003,0.21026611,12.462976,0.0003941616
146940000,146856000,6620172,487.3224,0.11047355,0.11138916,12.466755,0.0001105834
147172000,147088000,6620172,487.32477,0.110417515,0.15859985,12.473986,0.00022405664
147292000,147206000,6620172,487.32614,0.11045371,0.08291626,12.463802,6.128954e-05
147460000,147376000,6620172,487.3274,0.110306874,0.047729492,12.468557,2.0300882e-05
147700000,147616000,6620172,487.32907,0.110386774,0.08786011,12.462507,6.8823305e-05
147820000,147736000,6620172,487.3303,0.11042442,0.030853271,12.466076,8.484576e-06
148044000,147962666,6620172,487.3314,0.11023312,0.0256958,12.459355,5.8882497e-06
148276000,148192000,6620172,487.33252,0.110186875,0.016723633,12.465957,2.4928327e-06
148756000,148672000,6620172,487.33365,0.11035591,0.024810791,12.467694,5.485959e-06
148924000,148840000,6620172,487.33466,0.11021217,0.023529053,12.459782,4.9369187e-06
149452000,149368000,6620172,487.33575,0.11019609,0.13430786,12.465317,0.00016078925
