timestamp,timestamp_sample,xyz[0],xyz[1],xyz[2],xyz_derivative[0],xyz_derivative[1],xyz_derivative[2]
3448000,3448000,-0.003089103,-0.0043380666,0.00034848892,-0.09798272,-0.038834184,0.0727298
3452000,3452000,-0.0033339416,-0.005206329,0.0009623227,-0.082175136,-0.1154503,0.10743254
3460000,3460000,-0.0014833334,-0.004748809,-0.00090123963,0.1355546,0.039287914,-0.1395123
3468000,3468000,0.0009656857,-0.0029575943,-0.0024709636,0.21932638,0.14410202,-0.1658279
3480000,3480000,-0.0031697014,-0.007909161,0.0011301172,-0.13260704,-0.3069852,0.21318717
3488000,3488000,0.0012231588,-0.0052044624,9.4813906e-05,0.3173545,0.12935524,-0.01591591
3500000,3500000,-0.0004096898,-0.008982309,0.0007729441,-0.15523471,-0.20196196,0.07357777
3508000,3508000,-0.0013313056,-0.002814936,-0.000108188186,-0.080316395,0.44675398,-0.07302087
3520000,3520000,0.00021751873,-0.0062902747,0.0008838692,-0.0010056198,-0.10671027,0.03763371
3528000,3528000,-0.0027311204,-0.0030397256,0.0011060303,-0.20817752,0.22535437,0.017414777
3540000,3540000,-0.000536734,-0.00630744,0.00038157857,0.03251262,-0.17112768,0.054987762
3548000,3548000,-0.0010266264,-0.0045532985,-0.0011351997,-0.008188508,0.11533423,-0.14124037
3560000,3560000,-0.00027991907,-0.006979629,-0.00039324648,-0.0097633,-0.2943462,-0.0048879622
3568000,3568000,-0.002975041,-0.006779325,-0.0004146092,-0.19198343,-0.043092445,0.03463895
3580000,3580000,0.0008304892,-0.0035441667,-0.0005547579,0.18572856,0.24478923,-0.06482789
3588000,3588000,4.7864305e-05,-0.0056855096,-0.0009337237,-0.024406873,-0.14905986,-0.045481175
3596000,3596000,-0.00039229097,-0.005492009,-0.0002897893,-0.03750656,0.0373424,0.03679578
3604000,3604000,-0.0015199633,-0.0031942695,-0.0020333729,-0.11465004,0.15014416,-0.1290459
3620000,3620000,-0.0012607842,-0.005427116,0.0007949631,0.052453674,0.095855586,0.12390292
3628000,3628000,-0.0010084744,-0.0018596273,0.0011582498,0.023961667,0.29021192,0.043807376
3640000,3640000,-0.0006352719,-0.0038461906,0.00045786847,0.03461436,-0.059911143,0.04220382
3648000,3648000,-0.0016890777,-0.006574493,0.0016768284,-0.09994584,-0.29065895,0.095762804
3660000,3660000,-0.0037187277,-0.008129153,-0.00045853865,-0.10102785,-0.041069094,-0.13259847
3668000,3668000,-0.0019389369,-0.006182329,-0.0009570176,0.099459246,0.15269312,-0.086634226
3680000,3680000,-0.0027416274,-0.00528582,0.0005984383,0.002255192,0.14749686,0.036914025
3688000,3688000,-0.0017397329,-0.0052593625,-0.0011489923,0.09585756,0.015371578,-0.111413464
3700000,3700000,-0.0027689266,-0.004238336,0.0025630656,-0.1402961,0.029168408,0.2054989
3708000,3708000,-0.001690391,-0.0061830324,0.001806354,0.085547104,-0.119825855,-0.033027176
3720000,3720000,0.00071108434,-0.0034445361,-0.0021680617,0.20878151,0.23603797,-0.17240804
3728000,3728000,-0.0005144451,-0.0036475414,-0.0005455251,-0.08252982,0.025549239,0.07207371
3740000,3740000,-0.002486159,-0.0030951933,0.0021481416,-0.09031473,0.10772248,0.1379672
3748000,3748000,-0.00092866574,-0.0037303707,0.0012742903,0.09831822,-0.057489343,-0.010924456
3760000,3760000,-0.0016510759,-0.0043632835,0.0001544757,-0.086197145,0.014431448,-0.0555787
3768000,3768000,-0.0016278884,-0.0082976455,0.00017365217,0.0069786087,-0.35632774,-0.03416492
3780000,3780000,-0.0006806349,-0.007946523,-0.0015842394,0.017783355,0.06000696,-0.09209463
3788000,3788000,-0.0035934092,-0.0048612244,-0.00067977613,-0.25000355,0.28615627,0.047081713
3800000,3800000,-0.0020025044,-0.004115347,-0.0001948364,0.082012974,0.11369333,-0.017167328
3808000,3808000,0.00013716359,-0.0061358865,-0.0013364928,0.23206705,-0.15349098,-0.073849894
3820000,3820000,-4.9361668e-05,-0.006597967,-0.00057557994,0.01707362,-0.031240968,0.051237464
3828000,3828000,-0.0011108194,-0.0076238485,0.00017058181,-0.14004835,-0.10546428,0.06850755
3840000,3840000,-0.0009390883,-0.006938263,0.00080852216,0.04506841,0.10035269,0.10019952
3848000,3848000,0.0020947407,-0.0066856174,0.000321217,0.2866401,0.053597167,-0.029265227
3860000,3860000,9.591796e-05,-0.0082530705,-0.0015698579,-0.11584196,-0.06031191,-0.14724922
3868000,3868000,0.0001594789,-0.005697511,-0.0024841763,-0.017722573,0.19622359,-0.08429866
3880000,3880000,-0.00026505295,-0.005849857,2.0233754e-05,-0.07811274,0.04493425,0.049794108
3888000,3888000,-0.001435619,-0.006282177,-0.0017835215,-0.1132822,-0.013113221,-0.11823615
3900000,3900000,-0.0009473002,-0.007850628,0.0014113911,0.07294451,-0.12825884,0.21072957
3908000,3908000,-0.0009406419,-0.007740712,0.000803538,0.008589178,-0.011028837,-0.0008041488
3920000,3920000,-0.0012579978,-0.0021033254,0.00026881916,0.0047544446,0.35284352,-0.038421325
3928000,3928000,-0.00020599962,-0.0042791716,-0.0007167876,0.0925202,-0.098326534,-0.09328656
3940000,3940000,-0.0028277244,-0.004881748,-0.0008790441,-0.21921676,-0.016451204,-0.030540425
3948000,3948000,-0.001435649,-0.0048590703,-0.002122195,0.06369896,-0.0009475844,-0.10802408
3960000,3960000,-0.0009369648,-0.0036258642,-9.941613e-05,0.038153734,0.10774574,0.14949669
3968000,3968000,-0.0032842467,-0.0047552027,-0.0005750063,-0.17931013,-0.05533056,-0.040400267
3980000,3980000,-0.001986606,-0.008615052,0.0005954363,-0.017751597,-0.28764173,0.171722
3988000,3988000,-0.0033664969,-0.005853265,0.0006737575,-0.07548238,0.16609687,0.0030410616
4000000,4000000,-5.1504845e-05,-0.008554356,-0.003571775,0.106402546,-0.22309461,-0.25458384
4008000,4008000,-0.004350834,-0.003424155,-0.0019807317,-0.29992735,0.40401587,0.068348326
4020000,4020000,0.00093441794,-0.0060193255,0.0009133034,0.24938908,-0.22737965,0.19285432
4028000,4028000,-0.0025713022,-0.0063302564,-0.00028224167,-0.19830784,-0.047527425,-0.04135281
4040000,4040000,-0.0015099036,-0.0049337638,0.0018098244,-0.025157358,0.08092327,0.22214644
4048000,4048000,-0.0021264108,-0.0042356867,0.001468819,-0.035509847,0.069528885,-0.0027317393
4060000,4060000,-0.00023914345,-0.008418464,-0.00048508754,0.12195292,-0.31391603,-0.06422911
4068000,4068000,0.0003132439,-0.00770399,0.0013779297,0.07054563,0.006670338,0.15575142
4080000,4080000,-0.002646209,-0.004544732,0.0009701307,-0.16042289,0.07770235,-0.10990155
4088000,4088000,-0.0007262076,-0.0046189306,1.9351432e-05,0.11725109,0.033743773,-0.10061097
4100000,4100000,0.00049121864,-0.0063770413,-0.00073442806,0.11927627,-0.19030008,-0.0019666883
4108000,4108000,0.00032917003,-0.006401225,0.0017331276,0.012853831,-0.052715365,0.19865923
4120000,4120000,0.0021652216,-0.0057232897,0.001083354,0.13361157,-0.020969585,-0.01857968
4128000,4128000,0.0028019585,-0.004393221,0.00066268456,0.05583366,0.10275702,-0.055591475
4140000,4140000,-0.0010711832,-0.0012894125,-0.0013395338,-0.22327968,0.099355415,-0.22161329
4148000,4148000,-0.001521542,-0.00561068,-0.0013396787,-0.111192524,-0.31778648,-0.029699376
4160000,4160000,-0.0002225244,-0.004182765,0.0024009328,0.018511072,0.13299361,0.10575139
4168000,4168000,-0.00019966846,-0.003040167,-0.00042884113,0.03697749,0.1052271,-0.17160942
4180000,4180000,-3.579224e-05,-0.0042695417,-0.0013284116,-0.060707286,-0.068212755,-0.123432085
4188000,4188000,-0.0019115165,-0.0043576322,0.00014396712,-0.14417735,-0.025549956,0.09061505
4200000,4200000,0.00034844287,-0.004083978,0.00044865336,0.11490646,0.0347303,0.05530054
4208000,4208000,-0.001977254,-0.0016553934,0.00074049056,-0.17313868,0.21492095,0.042657692
4220000,4220000,-0.0009173644,-0.0030517299,0.00036152013,0.05188792,-0.076879136,-0.11226888
4228000,4228000,0.0023579015,-0.0049478915,-0.0009893083,0.3181569,-0.16901548,-0.12505239
4240000,4240000,-0.0016018171,-0.0033159507,-0.0019746544,-0.29189184,-0.09974508,-0.093153074
4248000,4248000,-0.0009672977,-0.004916899,-0.0005282787,-0.016730174,-0.13159905,0.0826801
4260000,4260000,0.00020509039,-0.0050303694,-0.0024853225,-0.012030132,0.028611967,-0.12844796
4268000,4268000,-0.0041834367,-0.0017403302,-0.0030331472,-0.37325627,0.27421248,-0.049323447
4280000,4280000,-0.003181476,-0.0022578933,-0.0011324458,0.045735948,-0.017900372,0.11755036
4288000,4288000,-0.0018639651,-0.00104153,-0.00050165836,0.13998003,0.10002423,0.09662236
4300000,4300000,-0.0011071772,-0.005405112,0.00018309287,-0.061764643,-0.2082293,-0.025831852
4308000,4308000,-0.003074006,-0.0020366143,-0.003247619,-0.14745496,0.21525447,-0.2873888
4320000,4320000,0.0012469958,-0.0025276076,0.0021672947,0.28396714,-0.047942907,0.3250908
4328000,4328000,4.043308e-05,-0.0029431172,0.0015843647,-0.035652258,-0.02678395,0.037529387
4340000,4340000,0.0010620111,-0.0071134437,0.0009856214,0.112050734,-0.31641126,0.007953716
4348000,4348000,-0.0025153265,-0.0043256013,0.00010160584,-0.29359257,0.19495079,-0.09198228
4356000,4356000,-0.00048568408,-0.0010184126,-0.0010170059,0.12611006,0.2696602,-0.10880733
4364000,4364000,0.0018910298,-0.0027791234,0.0014910921,0.21602994,-0.02348357,0.18779728
4380000,4380000,-0.003692365,-0.0061804354,0.0016481557,-0.30861324,-0.30094615,0.028188186
4384000,4384000,-0.003193659,-0.004306756,0.0002407191,-0.12235549,0.02978033,-0.13518232
4400000,4400000,0.0001278512,-0.0033466304,0.0018772437,0.008147463,-0.07263933,0.14154628
4408000,4408000,-0.0012599125,-0.0028677303,0.001003626,-0.06686458,0.023609262,-0.030549748
4420000,4420000,0.0013202244,-0.0042126784,0.00010316605,0.08652032,-0.07457047,-0.028167209
4428000,4428000,0.00077689526,-0.0034236293,-0.0007621657,-0.013862129,0.048303273,-0.110317625
4440000,4440000,-0.0007827343,-0.0023915907,-0.0010616435,-0.16314483,0.11081119,0.04774907
4448000,4448000,-0.00051341805,-0.0021393648,-0.0007675612,-0.00078618526,0.014949693,0.027068527
4460000,4460000,-0.0013102092,-0.0055751186,-1.742893e-05,-0.019806877,-0.17094025,0.015341514
4468000,4468000,0.0016517247,-0.004477937,-6.5079075e-05,0.23519042,0.020278977,0.007749493
4476000,4476000,0.0020303335,-0.0047527356,0.0018716332,0.11042644,-0.0038052222,0.16909158
4484000,4484000,0.002381662,-0.0038886394,-0.00220792,0.032351263,0.07532371,-0.3121455
4500000,4500000,0.0001597114,-0.005360186,0.00034011964,0.0025876611,-0.14922425,0.13723588
4508000,4508000,0.0008665903,-0.0042165313,0.0010229229,0.04326027,0.08447769,0.09324757
4520000,4520000,0.0021516916,-0.0030937588,0.00018022329,0.16250783,0.01810071,-0.08555912
4528000,4528000,0.0016924656,-0.0054667043,-6.336342e-05,0.0024602711,-0.20488892,-0.019210164
4540000,4540000,-0.0002683411,-0.003419877,-0.00054609816,-0.17718805,0.11944204,-0.124383084
4544000,4544000,-0.0015717831,-0.0039674114,-0.0020315766,-0.24109772,0.009255644,-0.23055494
4556000,4556000,0.0020473872,-0.002760829,-0.0001878256,0.26092422,0.1740527,0.12510294
4568000,4568000,-0.001065502,-0.0009183544,-0.000891732,-0.17485823,0.16643178,-0.039319158
4580000,4580000,-0.0037306133,-0.0034856359,-0.0014267626,-0.1132253,-0.15431544,-0.05593228
4588000,4588000,-0.0024658781,-0.001457592,-0.0019106271,0.05128251,0.11711565,-0.045647528
4600000,4600000,-0.0009746971,-0.0028318022,0.00093173236,0.1389098,-0.062145036,0.19483258
4608000,4608000,-0.0006935008,-0.0046727248,0.0021809908,0.07022476,-0.17772771,0.14696673
4620000,4620000,-0.00064932165,-0.005222153,0.0004903226,0.02171039,-0.05879172,-0.09550179
4628000,4628000,0.0014603102,-0.0031511625,0.0015552961,0.14301534,0.17668727,0.08445643
4640000,4640000,-0.0022387719,-0.0038465518,-0.0012420716,-0.16780865,-0.12541847,-0.22170326
4648000,4648000,-0.0027539313,-0.003498984,0.00021939036,-0.0842482,0.033417,0.053472787
4660000,4660000,0.0011397774,-0.0011040522,-0.0020390847,0.18107699,0.07322804,-0.14412583
4668000,4668000,0.00028686464,-0.0029194676,-0.00082476233,-0.023174886,-0.116620764,0.058408972
4680000,4680000,-0.001158986,-0.002466242,0.0018064894,-0.015622228,-0.043381255,0.20340264
4688000,4688000,0.00064732425,-0.0010971376,0.0006329079,0.1508483,0.12794942,-0.04819666
4700000,4700000,-0.00047920353,-0.0010851284,-0.00095154054,-0.08523822,0.056675125,-0.15228885
4708000,4708000,0.0009880781,-0.0015332622,-0.0002818023,0.09857896,-0.060904194,0.028411282
4720000,4720000,-0.002243888,-0.004283741,0.002003847,-0.22664149,-0.15134276,0.15502596
4728000,4728000,-0.0005533132,-0.0048640845,0.0019140473,0.0785725,-0.08022508,0.033985246
4740000,4740000,0.00072746683,-0.0007713379,0.0032624614,0.12915209,0.2802571,0.04217608
4748000,4748000,-0.0013245333,-0.002809139,0.0016717388,-0.13900061,-0.12710342,-0.10363573
4760000,4760000,-5.472661e-05,-0.004038375,0.0019533488,0.033468876,-0.041469462,-0.08956148
4768000,4768000,-0.0010766129,-0.0017212434,0.00068631116,-0.06585112,0.17620675,-0.117561266
4780000,4780000,0.0002066681,-0.0048279734,0.0029979425,0.071154684,-0.25586748,0.017155226
4788000,4788000,-0.0008029304,-0.0012321598,-7.474268e-05,-0.06358757,0.25144815,-0.20507312
4800000,4800000,-0.00035633967,-0.0027510459,0.00016215535,0.040699594,-0.11448675,-0.06446859
4808000,4808000,-0.001155775,-0.0026935632,0.0016433048,-0.0748121,-0.007634046,0.12170771
4820000,4820000,0.00073614996,-0.002543027,0.0045191906,0.15915197,-0.048836656,0.14060855
4828000,4828000,0.001610927,-0.0061920434,0.0024905547,0.12318319,-0.31895503,-0.15352668
4840000,4840000,-0.0005613858,-0.004680263,-0.00208922,-0.0848353,0.08122964,-0.23797306
4848000,4848000,-0.0021234895,-0.0030068383,0.0026712965,-0.16884077,0.15296982,0.346012
4860000,4860000,-0.0020005847,-0.0022900929,0.00039898456,0.009581305,0.025279598,-0.09352715
4864000,4864000,-0.0019221294,-0.0016783057,0.0012525887,0.013893975,0.08015975,0.038411714
4876000,4876000,0.0009197485,-0.0017214087,-0.0048278626,0.24136953,-0.053374335,-0.4700449
4888000,4888000,0.00042911177,-0.000943474,0.0011062812,-0.036712646,-0.039345726,0.34227496
4900000,4900000,-0.00012373552,0.00092482264,0.00045985103,-0.042579394,0.054878052,-0.024393966
4908000,4908000,-0.002021831,-0.0015065977,0.0015528615,-0.15059748,-0.19444206,0.10587481
4920000,4920000,0.0010565717,0.00028258353,0.0032577165,0.124802165,0.22353096,0.1551656
4928000,4928000,-0.00037981407,-0.00025937846,0.0028558844,-0.06164623,-0.008970857,-0.0054621473
4940000,4940000,0.0012087197,0.0023719117,0.0007874112,0.08346605,0.17493421,-0.13948555
4948000,4948000,0.0011235762,0.0024995608,0.002458898,0.0136479605,0.045374632,0.10967107
4960000,4960000,0.0003715033,-0.002559618,-0.0032869354,-0.047604878,-0.29824188,-0.3236427
4968000,4968000,0.0022059174,-0.002526707,-0.00046885683,0.13458042,-0.06628997,0.10759819
4980000,4980000,0.0009630996,0.0015849541,-0.0007672099,0.034854688,0.23045434,0.040106118
4988000,4988000,0.0048629954,-0.00010113558,-0.00041076925,0.3134024,-0.07340306,0.05123826
5000000,5000000,0.0032764068,-0.0037300484,-0.00054038217,-0.15359929,-0.24281403,-0.058634218
5008000,5008000,0.0027673389,-0.0043028826,-0.0040439945,-0.0640049,-0.11009088,-0.30954337
5020000,5020000,0.0006381661,0.001827589,0.00019452424,-0.1585733,0.35245776,0.22860229
5024000,5024000,6.3364045e-05,0.0006076419,-0.00022091616,-0.15217996,0.069842845,0.08568707
5040000,5040000,0.004094028,0.0010438587,-0.00049407146,0.11872274,-0.013694702,-0.08478609
5044000,5044000,0.0025123553,-0.00074136397,-0.0018474591,-0.1022904,-0.19966067,-0.193784
5060000,5060000,0.0020922185,-0.0008082539,-0.0011626447,0.050789338,0.031355567,-0.16831312
5068000,5068000,0.0038262112,-0.0007423386,-0.0006436527,0.13645434,-0.006652322,0.02691026
5080000,5080000,-0.0012049944,-0.0012486903,0.00068318035,-0.29181144,-0.048037194,0.045703422
5088000,5088000,-0.0006925013,-0.0014652428,0.0010216398,-0.028684296,-0.025742654,0.04760852
5100000,5100000,0.002424668,-0.0008508675,4.377542e-05,0.048135977,-0.07090459,-0.11493547
5108000,5108000,0.0045437487,-0.0011310899,-0.00018047135,0.18839233,-0.02181523,-0.039246716
5120000,5120000,0.0035469756,-0.00091326004,0.0003637525,0.027981304,-0.030266983,0.016666003
5128000,5128000,0.0006233449,0.00043585477,-0.002167913,-0.27098963,0.13142411,-0.20497058
5140000,5140000,-0.00052816514,0.0030371158,-0.0011281624,-0.025977746,0.115045115,-0.0041482914
5148000,5148000,0.0025521473,0.00014338316,-0.0019976767,0.23433474,-0.18593316,-0.05586149
5160000,5160000,0.003414858,-0.0009773006,0.0032150494,0.07728081,-0.1813901,0.30469647
5168000,5168000,0.0009509822,0.00018590689,0.0028882101,-0.1879338,0.025413083,0.056882422
5180000,5180000,0.0003195817,0.00088675786,-0.00032302432,-0.08628246,0.12383601,-0.12114659
5188000,5188000,0.0023515783,0.0019419801,0.0016750423,0.16298947,0.120462224,0.117873386
5200000,5200000,0.0022387756,0.00040703313,-0.004466646,-0.042577825,-0.18598765,-0.4601357
5208000,5208000,0.0010292678,-0.0010111071,-0.000618455,-0.099408,-0.12052154,0.24496567
5220000,5220000,0.0043154988,0.002711302,-7.179694e-05,0.23297366,0.12620664,-0.09956117
5228000,5228000,0.0040758187,0.0005814112,-0.001792155,0.029770315,-0.09611638,-0.14601415
5240000,5240000,0.0009997217,0.0022544512,0.001133754,-0.14972563,0.05084748,0.09886266
5248000,5248000,0.0025312905,0.0016315833,-0.0010613141,0.07450543,-0.054781813,-0.1587539
5260000,5260000,-0.0004122092,0.0002764361,-0.0013896708,-0.26575089,-0.06374514,-0.08368891
5268000,5268000,0.0034053447,-2.0549633e-05,-0.0014290632,0.28816354,-0.053573966,-0.012533893
5280000,5280000,0.0016025123,-0.0016692714,-0.0002457068,-0.09642729,-0.13075453,0.053572122
5288000,5288000,0.0021269314,-0.0018042279,-8.104506e-05,-0.024480455,-0.044520516,0.026156604
5300000,5300000,0.001746132,0.0021271254,-0.0007124869,0.092316076,0.27803355,0.0024203204
5308000,5308000,0.0025248302,0.0016040981,0.0005205119,0.07291707,0.03867423,0.122760415
5316000,5316000,0.00051224953,0.0013794142,-0.00014853393,-0.15761946,-0.006675542,-0.046190258
5324000,5324000,-0.0008810654,-0.00064255856,0.0004236679,-0.14941142,-0.18841799,0.058869027
5336000,5336000,0.0037269797,0.0025535133,-0.0008280608,0.31161863,0.226266,-0.118544854
5348000,5348000,0.0006807705,-0.00018725125,-0.0019451976,-0.082970776,-0.06370472,-0.061745502
5356000,5356000,0.00050249044,-0.00013144687,8.421019e-05,-0.06364781,-0.010721094,0.17133692
5368000,5368000,0.001854223,-0.00041947467,0.0012160698,0.15326019,-0.08668817,0.09277254
5380000,5380000,0.002376812,-0.0022316724,0.0021043504,0.022455033,-0.09182081,0.017306266
5388000,5388000,0.00015757536,-0.00027841004,-0.001579744,-0.16710919,0.14676462,-0.31398937
5400000,5400000,0.0015252809,6.5347645e-05,-0.0013640318,0.015680742,0.042048134,-0.037340272
5408000,5408000,0.0019567092,-0.00076931994,-0.00071668456,0.06306132,-0.08392703,0.07026017
5416000,5416000,0.0030182567,-0.0010959767,-0.00051885314,0.09619148,-0.029220916,0.019336995
5428000,5428000,7.8660436e-05,0.0012855874,0.00037077075,-0.23964545,0.14133553,0.12386735
5440000,5440000,-0.0005265302,-0.0013826471,0.0041402434,-0.11459701,-0.059541304,0.12099565
5448000,5448000,0.0010960539,0.0028690961,0.0023925186,0.1275162,0.29731482,-0.0844754
5460000,5460000,0.0051640584,-0.0019960492,0.0015555851,0.28630787,-0.25553212,-0.15810278
5468000,5468000,0.003951228,-0.0014590449,-0.0008574959,-0.015466571,-0.045182705,-0.26798198
5480000,5480000,0.0010964796,0.00048528658,-0.0042457357,-0.22022441,0.1947128,-0.1701873
5488000,5488000,0.00049766246,0.0009916704,-0.00032015826,-0.11085412,0.07528986,0.2583573
5500000,5500000,0.0036224234,0.00044377288,6.0864724e-05,0.20444077,0.0045999335,0.012093425
5508000,5508000,0.0038678083,0.0010484979,-0.0027092225,0.06527962,0.061584268,-0.2199195
5520000,5520000,0.0027870745,-0.00046884175,0.0025593536,-0.012947623,-0.084994934,0.3605631
5528000,5528000,0.0035656223,0.0026089218,0.002256753,0.037981883,0.24976033,0.06984512
5540000,5540000,-4.7416426e-05,-0.0024547526,0.0050819325,-0.2670485,-0.42893374,0.20763059
5544000,5544000,-0.0006350302,-0.0046433536,0.0038963596,-0.2154019,-0.47975135,-0.009033547
5560000,5560000,0.002536992,0.00045883516,0.001274017,0.18966985,0.16979887,-0.11266437
5568000,5568000,0.0033512602,0.00021212827,3.703285e-05,0.16851899,0.060479414,-0.15388937
5580000,5580000,0.002036135,-0.0020628092,-0.0012002946,-0.14885557,-0.23653154,-0.049364395
5588000,5588000,0.001098841,0.0006564427,0.0005899371,-0.11980254,0.17351864,0.14536513
5600000,5600000,0.0022212937,0.00014589075,0.0037178404,0.10280654,0.038597237,0.19824845
5608000,5608000,0.0030147259,0.0010240534,0.0006342202,0.08538162,0.060820483,-0.22315463
5620000,5620000,0.001337361,0.0008875672,0.0004928992,-0.041052308,0.038471244,0.013565452
5628000,5628000,0.0027452062,0.0006009871,0.000688158,0.06575152,-0.03520248,0.015143004
5640000,5640000,0.00025729253,0.00051624654,0.0014595587,-0.14127623,0.051141985,0.10191895
5648000,5648000,-0.00068819174,0.0011567301,0.0033529163,-0.12107165,0.06221253,0.17733961
5660000,5660000,-0.00019030087,-0.0014782446,0.0008989353,-0.026453104,-0.14882031,-0.115020715
5668000,5668000,-0.00020188047,0.0002529635,-5.8604433e-05,0.002206793,0.11915921,-0.11940025
5680000,5680000,0.0008744997,0.0010469304,-7.0642505e-05,0.016443558,0.09791615,0.026037266
5688000,5688000,0.00057892967,0.0011538528,0.00047613378,0.015858222,0.035571497,0.034010425
5700000,5700000,0.0012270623,0.003061469,0.00078806427,-0.012043618,0.12677398,0.08459051
5708000,5708000,-0.0007628219,0.0013668784,0.0025140345,-0.13689584,-0.1052473,0.12816826
5720000,5720000,0.0021275657,0.0016047014,0.00035836943,0.052152365,-0.032024454,-0.055700272
5728000,5728000,0.0023318385,0.00066141225,0.00060296094,0.06057036,-0.069548935,-8.2664475e-05
5740000,5740000,0.003133778,0.0007997183,0.002590335,0.062256794,-0.054007374,0.105687946
5748000,5748000,0.0029687923,0.00023972895,0.00044045746,-0.011990115,-0.040333483,-0.15074065
5760000,5760000,0.0011709312,0.0039809523,0.00020640773,-0.04735773,0.25740498,-0.019426199
5768000,5768000,6.406894e-05,0.0010063867,0.0010597387,-0.13333933,-0.22362265,0.07327383
5780000,5780000,0.00034072087,-0.0015953607,0.00021824433,-0.04328163,-0.146645,-0.09159627
5788000,5788000,-0.00027016504,0.0008318699,0.0005861815,0.0041864514,0.16105711,0.05446142
5800000,5800000,0.0023069596,4.443433e-05,-0.0009758029,0.16893618,-0.016797254,-0.17748302
5808000,5808000,0.00046212727,-0.0005255905,-0.004167422,-0.13627571,-0.050615437,-0.29254398
5820000,5820000,-0.0013716393,0.0013556262,-0.0009396704,-0.032339767,0.07541348,0.13816981
5828000,5828000,0.0007762435,0.0012313221,0.00040072904,0.1316958,-0.0026116287,0.16483228
5840000,5840000,0.00031060725,-0.00012832554,-0.00075766246,0.09479459,-0.13215335,-0.05090752
5848000,5848000,0.0013266511,0.0010537179,-0.00025412036,0.07264203,0.07173292,0.021136502
5860000,5860000,-0.0017647692,0.001927343,0.00014496675,-0.11800825,0.10391866,0.097355515
5868000,5868000,-0.00013877498,0.0025112294,0.0012512008,0.09942539,0.07507289,0.09911534
5880000,5880000,0.00038725697,0.003310164,-0.00084014056,0.09618234,0.12990107,-0.064724624
5888000,5888000,0.0006884758,0.0035160973,0.0005934714,0.031759597,0.024239404,0.10915627
5900000,5900000,0.0003084757,0.0005608485,-0.0022482874,-0.026503911,-0.21463093,-0.18732679
5908000,5908000,-0.0025156988,-0.0016517886,-0.00071798556,-0.25357014,-0.24166045,0.097418495
5920000,5920000,0.0023800535,-0.00025874563,-0.00056038983,0.33802256,0.075640865,-0.040339604
5928000,5928000,0.0009867832,0.0007380042,-0.00073631154,-0.024168007,0.116023675,-0.03088115
5940000,5940000,0.00019652839,-7.68234e-05,-0.0016474628,-0.039081354,-0.020235995,-0.024272777
5948000,5948000,0.0003757351,0.0021535787,0.0020003556,0.0013703043,0.1571985,0.31473583
5960000,5960000,0.00065796764,-0.00011706026,-0.0006027069,-0.027315285,-0.12748016,-0.20981038
5968000,5968000,-8.226768e-05,0.00012833858,-0.00053443364,-0.059440427,-0.016663106,-0.032211676
5980000,5980000,0.0007311697,-0.0014707935,0.0023808402,0.0041384473,-0.08463201,0.1122429
5988000,5988000,-0.0017583831,0.000109900255,-0.0010223278,-0.19431305,0.10301233,-0.22363406
6000000,6000000,-0.00045535376,0.004122507,-0.0018419245,0.03780599,0.32441014,-0.12547536
6008000,6008000,-0.0011902921,0.000679133,0.00037612478,-0.03700754,-0.20231606,0.15678994
6020000,6020000,0.0032958884,-0.004244249,-0.0009967957,0.26949805,-0.43406862,-0.07101445
6028000,6028000,0.0021397048,-0.0022324654,-0.00180745,-0.0108520165,0.07534735,-0.0935401
6040000,6040000,0.0026087544,-0.0012843446,-0.00013985657,-0.020651136,0.031157177,0.11065726
6048000,6048000,0.0011361728,-0.0018756608,-0.0012479736,-0.11120192,-0.03505317,-0.06961277
6060000,6060000,0.00048515876,-0.0002261228,0.00043258743,-0.10114546,0.15186094,0.2373138
6068000,6068000,0.0024859784,0.0005692062,0.0014646561,0.13505799,0.100650035,0.11656939
6080000,6080000,7.195352e-05,0.0021053352,0.0005236418,-0.12372002,0.22821996,0.017320048
6088000,6088000,0.0006901886,0.0032248162,-0.0003734545,0.016253218,0.14060679,-0.08638125
6100000,6100000,0.0019482176,0.000112128444,-0.00032643828,0.051043916,-0.2429623,0.10591094
6108000,6108000,0.00015077344,0.0022186185,0.0016982032,-0.11664133,0.10533635,0.15322588
6120000,6120000,0.0015644406,0.0010482995,0.00035878853,0.109301366,0.010400766,-0.051388774
6128000,6128000,0.0013959373,-0.00049890624,-0.000939448,-0.01943259,-0.15075378,-0.11761078
6140000,6140000,-0.0023273695,0.0010801889,0.0003309389,-0.20052986,0.045179337,0.04836859
6148000,6148000,-0.002329301,0.00042151147,0.0016817796,-0.07519795,-0.031803843,0.13547894
6160000,6160000,-0.0012332107,-0.00021544611,0.001964327,0.15014559,-0.014574666,0.08050839
6168000,6168000,0.0013607285,0.00057084626,0.0018268193,0.24446902,0.07774714,0.0017599887
6176000,6176000,0.00041328417,0.0017151781,0.0011286255,0.0025713257,0.11143345,-0.06130478
6188000,6188000,0.0014652279,0.00079118507,0.0002564945,0.04287338,-0.0387058,-0.033388074
6196000,6196000,0.00069397053,-0.002364044,0.0011275,-0.035710603,-0.29337987,0.05783761
6208000,6208000,-0.0002099307,0.0006693285,-0.0005408953,-0.21628046,0.22594851,-0.20031749
6220000,6220000,0.0010440423,-0.0024375059,0.0018469583,0.10231763,-0.297817,0.15801832
6228000,6228000,-0.00034016487,-0.00018551107,0.0019038183,-0.083231494,0.15278111,0.05348419
6240000,6240000,0.0029225918,0.001789636,0.0034113766,0.19978514,-0.0030027493,0.08316909
6248000,6248000,0.0017877517,0.00119534,0.0016699028,-0.053150013,-0.019829275,-0.12422381
6260000,6260000,2.0866515e-05,-0.0003449656,-0.00019302798,-0.053854566,-0.13279706,-0.09158919
6268000,6268000,-0.00046928367,-0.0005730856,-0.00081730087,-0.09049111,-0.047713295,-0.08955435
6280000,6280000,-0.0008397873,-0.002195159,-0.0019068482,0.012107626,-0.21315394,-0.08941232
6288000,6288000,0.002544797,-8.219667e-05,-0.0006920878,0.31754148,0.15457475,0.082740106
6300000,6300000,0.0011444672,0.00088373525,-0.00043794993,-0.10698143,-0.026532717,0.0047430093
6308000,6308000,-0.0006815861,-0.0009034877,0.00065355713,-0.19366364,-0.11190232,0.10308958
6320000,6320000,0.0027719405,0.001202119,0.0003923953,0.25335944,-0.071422115,-0.014839086
6328000,6328000,-0.0015973132,-0.000734949,0.0010039716,-0.32515177,-0.12370697,0.023643134
6340000,6340000,-0.0005477471,0.0038561248,-0.0019671198,0.10857575,0.23884663,-0.1881305
6348000,6348000,0.0021123593,-5.475059e-05,-0.0020840839,0.24528363,-0.2692451,-0.051659387
6360000,6360000,-0.0007527252,-0.0009187609,0.0011715362,-0.17306726,-0.009086217,0.15014264
6364000,6364000,4.2104395e-05,0.0008391505,0.0009569818,-0.013252929,0.18373752,0.062543444
6380000,6380000,0.0032426869,-0.00095895445,-0.0056754295,0.1630446,-0.18833657,-0.48105317
6388000,6388000,0.0021763034,-0.0015040012,-0.00245499,-0.043285258,-0.12803973,0.14108619
6400000,6400000,0.0005854389,-0.0021785945,0.0026970452,-0.11313394,-0.030250054,0.38213202
6408000,6408000,0.0012217296,-0.0009306823,0.0040303255,0.018250424,0.12635571,0.18128255
6420000,6420000,0.0018294568,0.0011954182,-0.0018695018,0.074053004,0.10730891,-0.3531227
6424000,6424000,0.0034166079,0.0016135271,-0.0011682499,0.21278661,0.10611315,-0.12596467
6440000,6440000,0.0018675958,0.001097498,0.0013333056,0.011366583,0.0021638628,0.049777254
6444000,6444000,0.0025584635,-0.0001703063,0.00133946,0.080726065,-0.13501371,0.02904096
6456000,6456000,0.00024518592,-0.0050035524,0.0007401668,-0.17081472,-0.24629818,-0.076147065
6468000,6468000,0.0037553976,0.00018842146,0.0037852938,0.23527719,0.26807505,0.052942652
6480000,6480000,0.0005796978,0.0015243082,-0.0005992621,-0.15618955,0.08550731,-0.18600559
6488000,6488000,0.00082496466,-0.0001020818,0.0009125072,-0.022335116,-0.09458606,0.077498175
6500000,6500000,-0.0012508113,-0.0014862991,0.0021395055,-0.155901,-0.113961264,0.06956551
6508000,6508000,0.0015596246,-0.001738409,0.0011761519,0.18206051,-0.07112509,-0.07660029
6520000,6520000,-0.00035319815,-0.0006146026,-0.00046551446,-0.042702347,0.20760183,-0.1124336
6528000,6528000,0.0021621417,0.0006175493,0.00055039354,0.19285211,0.1411021,0.055593383
6540000,6540000,4.1107647e-05,0.0022178406,0.0014835078,-0.13110416,0.21743998,0.07564946
6548000,6548000,0.00078085694,0.0025350582,0.0007844997,0.026470933,0.08087294,-0.059476044
6560000,6560000,0.0016102227,-0.0010294877,0.0033945884,0.014948916,-0.15411764,0.2314502
6568000,6568000,0.00021660642,0.002388169,0.0014447973,-0.103218324,0.25243124,-0.11230572
6580000,6580000,0.0011443426,-0.00041015306,-0.0018736222,-0.017925061,-0.22142956,-0.22083403
6588000,6588000,0.0006203706,-0.0031764065,-0.00052993966,-0.02969883,-0.28885752,0.057395373
6600000,6600000,0.001016245,-0.0020543993,-0.00049255555,0.031573504,0.03823911,-0.07087663
6608000,6608000,0.0009073985,0.0025791498,5.7752564e-05,-0.013765285,0.38161808,0.041543256
6620000,6620000,0.0019978287,0.00032530306,-0.0011570115,0.063927025,-0.018806899,-0.1324734
6624000,6624000,0.0018082636,0.0013187565,-0.001275854,0.016074749,0.09604127,-0.08829888
6640000,6640000,0.0002044203,0.0010024495,-0.00041635433,-0.04394961,0.02469854,0.07019713
6648000,6648000,0.0004489055,0.0028510457,0.0029760376,-0.01312531,0.13484824,0.3266859
6660000,6660000,0.00085365574,0.0021048244,0.002070515,0.10091605,0.0199909,-0.14554036
6668000,6668000,0.00027043698,2.834946e-06,-0.0019038935,-0.034644358,-0.15929918,-0.3619563
6680000,6680000,0.0007057319,-0.0004350068,-0.0013956826,0.0043325685,-0.110349745,-0.05829813
6688000,6688000,7.4057374e-05,-4.6259724e-05,-0.00097006024,-0.030017251,-0.003826036,0.039002568
6700000,6700000,0.002736807,-0.0007813843,-0.00037487963,0.18848267,-0.12543163,0.031543646
6708000,6708000,0.002903266,-0.00074088573,-9.352289e-05,0.05398888,0.0023407931,0.032439798
6720000,6720000,0.00086244434,0.001328228,-0.00032494607,-0.08764503,0.10366553,0.0026809908
6728000,6728000,0.0010618638,0.001031627,0.0004461999,-0.03408711,0.021995211,0.06129207
6740000,6740000,0.0014971604,0.0009307731,0.0027073151,0.13673168,-0.06005091,0.20593083
6748000,6748000,0.0050094076,0.0015235832,0.004148385,0.31191918,0.051009554,0.1597769
6760000,6760000,0.002471993,-0.00042860303,-0.0023372308,-0.1663343,-0.11681132,-0.43109906
6768000,6768000,0.0011104632,0.0024689522,0.0031342,-0.1523923,0.16531795,0.36354026
6780000,6780000,0.0015603122,0.001819808,0.00023149615,-0.052497156,0.19073644,-0.15813828
6788000,6788000,-0.0010143893,0.001901895,0.0006369203,-0.22168027,0.002619908,-0.03803333
6800000,6800000,0.0010388088,0.0005337554,-0.001180761,0.047781307,-0.054248247,-7.347857e-05
6808000,6808000,0.0034974734,-0.0016315859,0.002737034,0.26065674,-0.19760874,0.31209677
6820000,6820000,0.00063130085,-0.0015119994,0.004580086,-0.20663014,0.014493135,0.1772278
6828000,6828000,0.0002783941,0.00014305301,0.0016352402,-0.08497591,0.13336603,-0.24929968
6840000,6840000,0.0016861242,4.852796e-05,0.00048708406,0.12952714,-0.0022165102,-0.009130798
6848000,6848000,0.004132323,-0.0010518236,0.0008540537,0.2290039,-0.050311018,0.005493994
6860000,6860000,0.0019173312,0.0022010056,0.0015355672,-0.15088093,0.2398999,0.12880228
6868000,6868000,6.8276306e-05,0.0013038456,0.0029411623,-0.1651816,-0.060561452,0.14440367
6880000,6880000,-0.00017480913,-1.4686957e-06,0.0009734461,-0.07126353,0.062228847,-0.11714845
6888000,6888000,0.0010266457,-0.0005936739,-0.00063356,0.0835574,-0.08234056,-0.17860946
6900000,6900000,0.00014380075,-7.543294e-05,0.0015849194,-0.061804593,0.120247126,0.15050353
6908000,6908000,0.001680495,-4.505925e-05,-0.00044133083,0.140118,0.027470196,-0.1109567
6920000,6920000,0.0041429456,0.0029823973,0.00021725736,0.12170477,0.266456,-0.030265024
6928000,6928000,0.00087516126,0.0012274836,0.0026363756,-0.24175525,-0.09501312,0.19525903
6940000,6940000,0.0024233505,-0.0006683171,-0.0016030635,0.017859545,-0.08618637,-0.24922344
6948000,6948000,-0.001385459,0.0018657511,-0.000991774,-0.31285107,0.17671438,-0.011439105
6960000,6960000,0.00227306,0.0003497745,0.0041250116,0.23728445,-0.08603629,0.2878847
6968000,6968000,0.0011224961,0.0012441906,0.0016507288,-0.04758259,0.030061629,-0.121310964
6980000,6980000,0.0007968849,0.000458966,0.0023754067,-0.03058971,-0.020379154,0.07714923
6984000,6984000,0.0013605484,0.00076763704,0.0021783158,0.043135203,0.021553226,0.022804357
7000000,7000000,6.2322244e-05,0.00061720563,-0.0030512153,-0.14298373,0.13195713,-0.2883665
7008000,7008000,0.0011854575,0.001210399,-0.001028326,0.05838784,0.035952948,0.08831073
7020000,7020000,0.0005057447,0.0008489862,0.001953807,-0.009373277,0.07059407,0.18425086
7028000,7028000,0.0023726467,-0.0005791625,-0.001555828,0.16608728,-0.09265347,-0.25730368
7040000,7040000,0.0018175124,0.0018968678,0.0007623055,-0.042105593,0.121862926,0.14914958
7048000,7048000,0.00062983454,0.0005363547,0.0014131551,-0.12160103,-0.06202286,0.11018169
7060000,7060000,0.0011183328,0.0013450622,0.0022177726,0.06624523,-0.031964324,0.009525507
7068000,7068000,0.0042128973,0.0007411707,0.0020511951,0.28817138,-0.039403494,0.006952561
7080000,7080000,-0.00018101092,-0.003042209,0.002902272,-0.28514415,-0.23921347,-0.11944346
7088000,7088000,-0.0018061121,0.0013161553,0.0022652564,-0.22285011,0.30913883,-0.048465688
7100000,7100000,-0.0012316116,-0.0023285588,0.0025890367,0.085110165,-0.2617633,-0.07973545
7108000,7108000,0.002375294,-0.004461378,0.00093397696,0.32279974,-0.25455758,-0.13694678
7120000,7120000,0.001102363,0.00032975525,0.0008952697,0.0018852977,0.3983902,-0.09794825
7128000,7128000,0.0010385591,0.00044665346,0.0015799049,-0.014032224,0.12171291,0.06856978
7140000,7140000,0.0003620102,-0.0006838753,0.002598132,-0.009382639,-0.082777485,-0.03204277
7148000,7148000,0.00017639517,-0.00025669066,-0.00017324695,-0.02474446,0.0072004925,-0.21821204
7160000,7160000,0.0002519663,-6.112829e-05,0.0028112414,-0.039518103,0.056578215,0.20196474
7168000,7168000,0.00078358664,0.004099829,0.0022646687,0.050853997,0.35296533,-0.0008024437
7180000,7180000,-0.0003260316,-0.00072386116,-0.0018505731,-0.10070794,-0.27492517,-0.32354552
7188000,7188000,0.0011608734,-0.00017739413,0.0020228298,0.09099072,-0.049049903,0.26025712
7200000,7200000,0.002828377,0.00047298335,0.0014347744,0.20571017,-0.0068730405,-0.04494685
7208000,7208000,0.002834801,-0.002178323,0.0021591613,0.039148457,-0.2185842,0.06574268
7220000,7220000,0.0018730494,0.00074454444,0.002657831,-0.019949969,0.21129264,0.003312178
7228000,7228000,0.00055316766,0.0025923145,0.00018025958,-0.14311577,0.19640991,-0.19776143
7240000,7240000,-0.0012238914,-0.0011880998,0.0013003461,-0.09197218,-0.20002168,0.0706854
7248000,7248000,-0.0018398116,0.00020913873,0.0022922042,-0.058031924,0.06936577,0.065750286
7260000,7260000,-0.00091688323,-0.0003456818,0.000118497876,-0.06962831,-0.11294269,-0.13074711
7268000,7268000,-0.0015607035,0.00015784288,5.8808015e-05,-0.064132795,0.008124981,-0.025015347
7280000,7280000,-0.00085105735,-0.0011943541,0.0010670482,0.11712636,-0.102558926,-0.00036920042
7288000,7288000,0.0019321227,0.0022717726,-0.00036270637,0.2541896,0.27712157,-0.10548473
7300000,7300000,0.0020614038,0.00034396583,0.00033741503,0.050866917,-0.081242345,0.0772459
7308000,7308000,0.00032374228,0.0030301071,-0.0006898907,-0.14377026,0.20302105,-0.06748638
7320000,7320000,0.002766685,0.002221391,0.0015101781,0.19017743,-0.14675397,0.16540289
7328000,7328000,0.00268882,-0.0011692285,0.00036188192,0.033312954,-0.29862988,-0.07977914
7340000,7340000,0.0012182132,-0.00064481236,-0.0006522485,-0.07157011,0.015808009,-0.037230298
7348000,7348000,0.00026619178,-0.0022613844,0.0015421921,-0.11948124,-0.1584877,0.18723343
7360000,7360000,-0.00063129363,0.0007931357,0.0034961766,-0.104952514,0.22061889,0.120011434
7368000,7368000,-0.0021236045,0.0028132,0.0038032075,-0.13047253,0.23612449,0.08469387
7380000,7380000,0.0013973936,0.0042508105,0.001914143,0.19052194,0.0684316,-0.24562438
7388000,7388000,0.0015640918,-0.0010176729,-0.0011954922,0.06569521,-0.41440055,-0.33727473
7400000,7400000,0.0005091466,0.0014494499,0.0014948987,-0.101154916,0.14511117,0.1776907
7408000,7408000,-0.0016146271,-0.0004490316,0.0027527232,-0.19926623,-0.10457903,0.15630747
7420000,7420000,-9.6952426e-05,-0.00023336196,0.00025432336,0.14002845,-0.07216855,-0.19391663
7428000,7428000,0.0022215566,-0.00055981893,-0.00084884954,0.22416627,-0.02583001,-0.12325932
7440000,7440000,0.005243592,-0.00048639905,0.0013566222,0.21415864,-0.07124136,0.08295472
7448000,7448000,0.0029224837,7.516984e-05,0.0018524365,-0.11626786,0.04287829,0.09811021
7460000,7460000,0.003198066,-0.0014034351,0.0011757731,0.06254323,0.016951293,-0.020222496
7468000,7468000,0.0024056332,-3.201794e-05,0.0014568026,-0.071021795,0.10211824,0.016594397
7480000,7480000,0.0014772078,0.002890845,0.00062217464,-0.0077870116,0.2710377,-0.020548737
7488000,7488000,0.002778249,0.0023465275,0.0027619633,0.087813064,0.0028115113,0.15306377
7500000,7500000,0.00075937196,0.00301908,0.003968512,-0.0987224,0.12607206,0.15991738
7508000,7508000,0.0025795465,0.0016477569,0.0020357848,0.1496629,-0.10269783,-0.12211499
7520000,7520000,0.00014693616,-0.0010005282,0.002005126,-0.20845377,-0.2576913,-0.00015217143
7528000,7528000,0.00027345296,-0.003391209,0.0021784757,-0.012171306,-0.26581496,0.0070848754
7540000,7540000,-0.0027276925,-0.0012307344,0.0011613799,-0.3154223,0.09238668,-0.12375606
7544000,7544000,-0.0027511427,4.6237838e-05,-2.7301488e-05,-0.18235222,0.18990517,-0.19830146
7560000,7560000,0.0003582784,-0.0021126396,0.0030548093,0.011226252,-0.1576138,0.18222986
7568000,7568000,-0.0029743174,-0.0021238765,0.0023638802,-0.29597646,-0.07556351,-0.009019942
7580000,7580000,0.00016528787,-0.0012784707,0.00017941697,0.15313673,0.08746062,-0.12181438
7588000,7588000,0.0006358208,0.0012762654,0.0022303713,0.117915876,0.20836999,0.13443518
7600000,7600000,-0.0010815685,-0.0015210342,0.002453011,-0.18781182,-0.12733024,0.064340875
7608000,7608000,-0.00093077065,-0.0035874713,0.0005566013,0.0020088926,-0.2327188,-0.15507683
7620000,7620000,9.189069e-05,-0.000893075,0.0028146794,0.0040988848,0.16381559,0.13568951
7628000,7628000,0.0009933353,0.0022690413,-0.00065255316,0.08905137,0.31582862,-0.24965873
7640000,7640000,2.9155286e-05,-0.0029753372,0.0015411752,-0.14922516,-0.29799145,0.09872736
7648000,7648000,8.095917e-05,-0.0032815663,-0.00035662064,0.019566566,-0.098062195,-0.13943541
7660000,7660000,0.002891513,-0.0016715182,0.0005615459,0.05914948,0.081161454,0.07185647
7668000,7668000,0.001700453,0.00082252966,0.0024414442,-0.06459518,0.23036566,0.18614645
7680000,7680000,-0.0048077614,-0.0020726155,0.00019925926,-0.41431308,-0.21415287,-0.095904745
7688000,7688000,-0.0023266156,-0.0015793601,0.0014137222,0.07158797,-0.0014543098,0.06712468
7700000,7700000,-0.0021100198,0.0016893677,-9.8102726e-05,-0.022098675,0.17907093,-0.10104801
7708000,7708000,-0.00024151744,0.0011988683,-0.0011326369,0.16337362,0.033736166,-0.13740173
7720000,7720000,1.6055652e-05,0.0019284724,-0.0014547365,0.020910757,-0.013009898,-0.0016960579
7728000,7728000,0.0010177251,0.0017516608,0.00028304872,0.10142185,-0.026152963,0.15217742
7740000,7740000,0.002311018,-0.0003589345,-0.0005652249,0.10922572,-0.07903262,-0.0320687
7748000,7748000,0.0017789871,-0.0003676652,0.0004106171,-0.010291411,-0.024186056,0.09859468
7760000,7760000,-0.0016323879,0.00015096879,0.0022698254,-0.26374042,-0.080901965,0.022444582
7768000,7768000,0.0018796074,-0.0009900606,-0.001879675,0.22510913,-0.0676163,-0.3549617
7780000,7780000,0.0007315784,0.0012740996,-0.003601585,-0.07100447,0.10809768,-0.13805826
7784000,7784000,0.0006455488,0.0010623876,-0.0025263913,-0.049727224,0.038877763,0.03683676
7800000,7800000,9.536499e-05,-0.0023548743,0.0012328104,-0.08443527,-0.2788372,0.015708292
7808000,7808000,-0.0014188042,-0.0010372126,-0.00083193893,-0.16105556,0.06328738,-0.13921292
7820000,7820000,-0.002425808,0.0003159712,0.0010658278,-0.09627007,0.019376852,-0.0054327766
7828000,7828000,0.0016540965,0.0008596564,0.0003164648,0.3438891,0.07673267,-0.045967843
7840000,7840000,0.00041842135,0.0025820648,0.0013800057,-0.045478698,0.12461749,0.0936909
7848000,7848000,0.0030389982,0.0028485965,0.0026406818,0.1795546,0.041522782,0.14723152
7860000,7860000,-0.0010701349,0.0009577144,0.0003898529,-0.13220324,-0.046801664,-0.17311586
7868000,7868000,0.0011794681,0.0013448773,0.0010459756,0.11134571,0.012836263,0.01283535
7880000,7880000,-0.0011520971,0.001378418,0.0018522314,-0.10494765,-0.039849643,0.012709788
7888000,7888000,-0.0007275819,-0.0023466628,0.0018998847,0.01036476,-0.33108908,0.023187397
7900000,7900000,0.0009789293,-0.0029095812,0.005106159,0.1004607,-0.09502439,0.10872443
7908000,7908000,0.00020895037,-0.0011133561,4.8998045e-05,-0.043625765,0.15306011,-0.3795605
7920000,7920000,0.0006304488,0.0027819902,0.0005240143,0.04137359,0.26692706,-0.038945254
7928000,7928000,7.943495e-05,0.0015443771,-0.00050588476,-0.0105184475,-0.044435948,0.0033602545
7940000,7940000,0.0009019656,-0.0003136131,0.001415536,0.063389935,-0.08325636,0.23508342
7948000,7948000,0.001598902,0.001152914,0.0005394815,0.091073975,0.08514807,-0.037835136
7960000,7960000,-0.001378504,-0.0019780654,0.0008764201,-0.2211703,-0.15730074,0.07174142
7968000,7968000,0.0004731093,-0.0008286843,0.0005644823,0.12377896,0.03017901,-0.015593615
7980000,7980000,0.0009880287,-0.00045250962,-0.0015241045,0.020157065,0.059714023,-0.099644504
7984000,7984000,0.0023263383,0.0013242029,-0.000328316,0.15531659,0.22498317,0.071697615
7996000,7996000,0.0031932658,0.0011207424,-0.0009908415,0.12109067,-0.117122255,-0.06810901
8004000,8004000,0.0027184398,0.0011939299,-0.0020210585,-0.04843811,0.03752823,-0.07801393
8020000,8020000,0.0003274214,0.0005677063,0.0014887694,0.02534061,-0.097185045,-0.008058893
8028000,8028000,0.0025757495,0.001864607,-0.0003663742,0.19359066,0.028141769,-0.13629857
8040000,8040000,-0.00056312827,-0.0012585311,-0.001337972,-0.23993272,-0.05947633,-0.086536616
8044000,8044000,-0.0002982145,0.00055123866,-0.0019008239,-0.108323574,0.1605816,-0.10982536
8056000,8056000,0.002399108,-0.0019756635,0.0027827632,0.07300234,-0.14612179,0.2963115
8068000,8068000,-0.0017494751,0.0017775409,0.0008323335,-0.2596447,0.17919108,0.045175824
8080000,8080000,-0.0005886826,6.327499e-05,-0.0021585017,0.015423995,-0.059560116,-0.28105178
8088000,8088000,0.0007782254,0.0012735543,-0.002769084,0.13969761,0.09984406,-0.07363708
8100000,8100000,0.0011049442,-0.0023686732,-0.0026210283,0.025616571,-0.27150068,-0.16169073
8108000,8108000,0.001024618,-0.000994896,-0.0044178083,-0.001978035,0.049330097,-0.1687202
8120000,8120000,0.0007354491,-0.001261753,-0.00080597046,-0.03978784,-0.02545987,0.17130367
8128000,8128000,0.0011541031,0.00044650026,-0.0008265711,0.05345197,0.15121457,0.04206034
8140000,8140000,-0.00018109067,-4.201429e-05,0.0010258945,-0.100241736,-0.017081995,0.2019121
8148000,8148000,0.0011395793,-0.00039062742,7.4321055e-05,0.06268774,-0.027605107,-0.046598807
8160000,8160000,-0.0016410594,-0.00024534203,0.0010686994,-0.16831803,-0.06318728,0.06976167
8164000,8164000,-0.0020448603,-0.0008053039,0.000962577,-0.13935873,-0.09620258,0.028368616
8180000,8180000,0.00047104538,-0.0004084711,-0.00054050476,0.09694895,-0.17345123,-0.06375036
8188000,8188000,-0.00057325175,0.0002582348,0.00060911896,-0.04394307,0.018077517,0.08549131
8200000,8200000,2.9615243e-05,-0.00016292557,-0.0017973281,-0.0067521147,-0.0071468037,-0.21165423
8208000,8208000,-0.00020262937,0.00020652264,-0.00089765777,-0.017964177,0.008196418,0.03542743
8220000,8220000,0.0006295799,0.003548724,-3.97018e-05,0.020449229,0.22468,0.040200584
8228000,8228000,0.0006565365,0.0009119506,-0.0025381406,0.01950951,-0.18109316,-0.2121823
8240000,8240000,0.0010315054,-0.00031168107,-0.00016986944,0.04742548,0.003545141,0.09389337
8248000,8248000,0.00256458,0.0012270403,-0.00015769723,0.112994395,0.11607384,0.056654137
8260000,8260000,-0.001559703,0.0030170996,-5.5619385e-05,-0.2320301,0.19684105,-0.049249258
8268000,8268000,0.00039131066,0.00063954946,-0.0016746605,0.099366285,-0.19082841,-0.121394455
8280000,8280000,0.0005030925,0.00020140782,-0.0008493994,0.02021484,0.019714504,0.033412185
8288000,8288000,0.00076876604,0.0010257647,-0.0012092865,0.023057343,0.083863534,-0.04610056
8300000,8300000,0.0014357958,0.00058894465,-0.00076226285,0.036159053,-0.0070438003,0.066648155
8308000,8308000,0.00082661596,0.002800271,-0.0010673306,-0.032217257,0.1771715,0.0059638754
8320000,8320000,-0.00088251114,0.0007234742,0.00086634647,-0.1648772,-0.16242321,0.108214974
8328000,8328000,-0.0007227337,0.00115825,-0.00014116649,-0.0070615485,-0.021937238,-0.07283055
8340000,8340000,-0.0016652324,-0.0010672598,-0.00013383637,-0.13287593,-0.095291555,0.11606544
8348000,8348000,0.0037264144,-0.0012861243,-0.0012226234,0.4285714,-0.049617425,-0.06536456
8360000,8360000,0.0007099918,-0.0027378793,-0.00074355694,-0.17368656,-0.15944263,-0.028010918
8368000,8368000,0.0019669626,0.00083007244,-0.0017907518,0.07529813,0.27053624,-0.07553189
8380000,8380000,-0.0010206093,0.00086602056,0.0019277455,-0.20433038,0.03709923,0.15746255
8388000,8388000,-1.46346865e-05,0.002616736,0.0008016535,0.02898077,0.17329964,-0.029274575
8400000,8400000,0.00069003843,0.00085447496,1.6991733e-05,0.069212854,-0.21650484,-0.05913492
8408000,8408000,0.0016938972,0.0008781422,-0.0009332097,0.08132874,-0.018006062,-0.08036589
8420000,8420000,-0.000778532,0.0007828744,0.002690271,-0.09304686,-0.07144534,0.15896495
8428000,8428000,0.00033260725,0.0015722362,6.099607e-05,0.048869684,0.04026841,-0.17064719
8440000,8440000,-0.0018766223,0.0011927821,-0.0033429519,-0.09461133,0.016778627,-0.18917441
8448000,8448000,0.0002441986,-0.00055704266,-0.0027436994,0.14195994,-0.16276343,-0.013591302
8460000,8460000,0.0027473643,0.0025692524,-0.0016041965,0.1731359,0.24419504,0.044011094
8468000,8468000,-0.000610166,-0.0008312869,-0.0005395157,-0.23159087,-0.2289972,0.117175475
8480000,8480000,-0.0017183308,-0.0011830963,0.00084826536,-0.12707824,-0.03542398,0.050142746
8488000,8488000,-0.00017714943,-0.0005024518,0.0012231619,0.124000266,0.04119271,0.05832843
8500000,8500000,-0.0009519219,0.0015956888,0.0006634385,-0.1414058,0.16136286,-0.011793445
8508000,8508000,0.0015285299,0.0030424541,0.0011238443,0.21021095,0.16209374,0.027579814
8520000,8520000,0.0024309983,0.0009789821,6.629112e-05,-0.05072339,-0.13856584,-0.08088033
8528000,8528000,0.0022320948,0.0011496856,-0.00019119777,0.00082231313,-0.0026335707,-0.051995113
8540000,8540000,0.0031080795,0.0022504646,-0.00091879134,-0.037490025,0.007257074,-0.0035258492
8548000,8548000,0.00042672182,0.0005935808,-0.0026233825,-0.21377063,-0.12999216,-0.17121252
8560000,8560000,0.002333376,0.0004412462,-0.0013152335,0.100620955,0.011487069,0.13178165
8568000,8568000,0.00067783863,-0.00047956873,0.00075950735,-0.13022824,-0.11304699,0.19446774
8580000,8580000,0.002741591,0.0006604898,-0.0011507615,0.15912838,0.121105306,-0.07402389
8588000,8588000,0.0025130748,-0.0004053563,-0.001421266,0.012830205,-0.070475526,-0.06551017
8600000,8600000,0.00027406076,-0.0007360596,-0.0015621113,-0.1294415,-0.027576411,0.01973198
8608000,8608000,0.00047613285,-0.0011572903,-0.0015622056,-0.018879184,-0.059334587,-0.018786835
8620000,8620000,-0.0019516951,0.0015843273,-0.00081477215,-0.21441764,0.302708,0.061958585
8628000,8628000,-0.0003531376,0.0014758108,0.0014696722,0.07519245,0.06316181,0.21313173
8640000,8640000,0.002440937,0.0006265561,0.0019317362,0.16907139,-0.04820982,0.063088626
8648000,8648000,0.0017101079,0.0004402832,0.0009791703,-0.0232797,-0.015577846,-0.064066224
8660000,8660000,-0.00023454695,0.0013993653,-0.0006765643,-0.07715464,0.006848724,-0.08865643
8668000,8668000,0.00094002107,0.0007642973,-0.00012650462,0.066688634,-0.067257315,0.006395237
8680000,8680000,-0.0015888578,-0.0005732882,0.00077509054,-0.2074952,-0.117249265,0.05791591
8688000,8688000,0.0012948401,0.00074170204,-0.0025612772,0.1978194,0.11061114,-0.2607364
8700000,8700000,0.00059703697,0.0017119625,0.0012291871,-0.079537906,-0.0011176732,0.2405332
8708000,8708000,0.0006507495,0.0014297469,0.0017792153,-0.013878796,-0.004448017,0.107857324
8720000,8720000,-0.0016841057,-0.0012299116,9.440828e-05,-0.16084659,-0.21444798,-0.14110918
8728000,8728000,0.001187268,-4.611211e-05,-0.00026732907,0.20243725,0.036615003,-0.048628114
8740000,8740000,0.0022630608,0.0022522209,0.00074033014,0.09212626,0.14661905,0.038543705
8748000,8748000,0.0013412316,0.0010925094,-0.00017408642,-0.062430125,-0.065226704,-0.069400325
8760000,8760000,0.00080368784,0.0011630352,-0.000339526,-0.061977677,0.06240288,-0.023491215
8768000,8768000,0.0016042483,-0.0006312141,-0.00033266607,0.05503524,-0.13746679,-0.010767847
8780000,8780000,0.00050572987,0.0009330576,0.00044129902,-0.07375932,0.08104928,0.14649944
8788000,8788000,0.0020152214,-0.00050967,0.0010297531,0.11182581,-0.108625636,0.0570177
8796000,8796000,0.0010387369,-0.0005323631,-0.00048046553,-0.06953487,-0.004408708,-0.09798919
8804000,8804000,0.0019216932,0.0012592706,0.00046785828,0.06767015,0.13242216,0.060307283
8820000,8820000,0.001010569,-0.001991197,0.00031473953,0.04113317,-0.10944394,-0.009002646
8828000,8828000,-0.00040505873,-0.0018157093,0.0019028541,-0.14387314,-0.044308364,0.08211923
8840000,8840000,-0.0018321422,-0.0024994635,-0.0009587952,-0.015905261,-0.048852574,-0.12350721
8848000,8848000,0.0011062056,-0.0012829225,-0.0006802442,0.22608815,0.09988168,-0.008002004
8860000,8860000,0.0015191741,-0.0029785526,-0.0015755617,0.014728315,-0.13187231,-0.0892125
8868000,8868000,-0.0012221057,0.00065775076,-0.00045370066,-0.2133522,0.2921036,0.08171417
8876000,8876000,0.0013244452,0.00019082287,0.0020038479,0.15433602,0.019340586,0.2292274
8888000,8888000,-0.00069429795,0.0014129407,-0.0022028964,-0.17521952,0.07792147,-0.30442905
8900000,8900000,0.00039392093,0.0014472352,-0.001695246,0.0931033,0.1255651,0.009675922
8908000,8908000,-0.0012999,0.0020135911,0.00014315845,-0.12370483,0.058782775,0.16763762
8920000,8920000,0.000472099,0.00043634558,0.0024452973,0.06649515,-0.008363727,0.14498718
8924000,8924000,3.7770835e-05,0.00054608565,0.001596709,-0.008765079,0.0070250393,-0.008533709
8940000,8940000,-0.0006495109,-0.0003888514,0.00054537685,-0.05107469,0.078454636,-0.036408253
8948000,8948000,0.00011156581,0.0016147969,-0.002221286,0.061921347,0.18311766,-0.23210412
8960000,8960000,0.0010970634,0.0010013762,-0.00015519938,0.06328955,0.053197257,0.08479709
8964000,8964000,0.00068013987,0.0017177791,-0.0018095355,-0.008722268,0.107319236,-0.12944143
8980000,8980000,-0.00063833257,0.00046231225,0.0002702592,-0.047775157,-0.038998265,0.00725612
8988000,8988000,-0.0018883366,0.0015208223,-0.0018883931,-0.13236158,0.08503097,-0.13012947
9000000,9000000,0.0012667434,-0.0002302439,-0.00030803893,0.20877904,-0.22394273,0.016750641
9008000,9008000,0.0024408773,-0.004944463,-0.00013878004,0.17091507,-0.43677035,0.039298132
9020000,9020000,-0.0011236947,0.0019090846,-0.0028028388,-0.20069832,0.40683165,-0.21196681
9028000,9028000,-0.0014058282,0.0018015406,-0.000962212,-0.0826329,0.09504008,0.10803027
9040000,9040000,0.0018252373,-0.00072714547,-1.9227336e-05,0.15016522,-0.154966,0.0528736
9048000,9048000,0.0018933706,0.000721599,-0.0007348234,0.04416478,0.1100086,-0.047982097
9060000,9060000,-0.001105577,0.0043969937,0.00070763944,-0.18582453,0.18943898,0.123267576
9068000,9068000,-0.0013250313,-0.0018163952,-0.0005648628,-0.05478692,-0.48153406,-0.07569825
9080000,9080000,0.0016738106,-0.00089809624,-0.001001164,0.15413243,0.0727056,-0.034352005
9088000,9088000,0.004338503,-0.0001495271,0.0010547513,0.31166598,0.046576787,0.16592383
9100000,9100000,-0.000936348,0.00048411777,0.00055647496,-0.49826288,0.093298174,-0.0067480626
9108000,9108000,-0.0012666155,5.004462e-05,-0.000778671,-0.14608164,-0.026405683,-0.1249875
9116000,9116000,-0.002705314,-0.0013340102,-0.000843475,-0.16777605,-0.10595032,-0.039610546
9124000,9124000,-4.9248105e-05,0.0009680283,-0.0010923457,0.17944828,0.15121041,-0.016374517
9136000,9136000,-0.00025215093,-0.00038877083,-0.0003560012,-0.01828815,-0.035375975,0.05367461
9144000,9144000,-0.00020337536,0.0014672969,0.001061042,-0.0028074668,0.1404139,0.12272768
9160000,9160000,0.0021688677,0.00054095034,0.0012470401,0.14598598,-0.061670206,0.024362117
9164000,9164000,0.0019214487,-0.0010168958,0.0010056205,0.056641743,-0.20257749,-0.012055097
9180000,9180000,0.00090949883,0.0015782518,0.0010857363,-0.12068984,0.25881678,0.019253235
9188000,9188000,-0.00041367917,0.00062406063,-0.0013079676,-0.15688506,-0.02582078,-0.18925826
9200000,9200000,-0.0018269457,0.0037461664,-0.00058834284,-0.06348015,0.22107768,0.034717385
9208000,9208000,-0.001049594,0.0016943272,-0.00068658043,-0.0009399578,-0.124608845,-0.017922075
9220000,9220000,-0.000993317,0.001225078,-1.3323523e-05,0.10874309,-0.068100914,0.053363435
9228000,9228000,0.0009099541,-0.0014460022,0.00032062898,0.20371649,-0.226893,0.024450261
9240000,9240000,0.0013897959,0.0023021654,-0.0014018955,0.06817885,0.23372945,-0.074600875
9248000,9248000,-0.0001303677,0.0026581741,1.833323e-07,-0.12232253,0.07291934,0.10099414
9260000,9260000,-0.0013905773,-0.0012515085,0.00014972975,-0.065312445,-0.1953331,0.04087035
9268000,9268000,0.0019518149,-0.00023679947,-0.0003634379,0.2612512,0.015846422,-0.029511496
9280000,9280000,-0.0011229964,0.0031000343,0.0008395445,-0.14871618,0.22837387,0.07580189
9284000,9284000,-0.00058985385,0.001989161,0.0011277674,-0.02749239,0.0108205965,0.074191526
9296000,9296000,0.0004059967,0.0009900937,-4.0764797e-05,0.064852275,-0.002716116,-0.03490889
9304000,9304000,7.13052e-05,0.0013897014,0.0022243212,-0.016931659,-0.003034043,0.14604492
9316000,9316000,0.00062283047,0.003470478,-0.004004523,0.11297815,0.15341346,-0.39232695
9328000,9328000,-0.0013330784,-0.0030670534,0.00021944393,-0.19719994,-0.40474567,0.27016556
9340000,9340000,-0.0016760803,-0.0020932,-0.0011840253,0.013927765,-0.053293575,-0.19285583
9348000,9348000,-0.00016445969,-0.0011968296,-0.0019121087,0.1104897,0.06981401,-0.060408965
9360000,9360000,0.00025472953,-0.004804976,-0.0009574358,0.10912046,-0.24053171,-0.0964086
9368000,9368000,0.0008835715,-0.0017024516,-0.0020510647,0.0833563,0.20268248,-0.062902756
9380000,9380000,0.0011404987,0.0005127834,-0.00081538246,0.026456121,0.22724089,-0.025090251
9388000,9388000,0.00028493494,0.000581393,0.00030027886,-0.068266094,0.05671548,0.10386913
9400000,9400000,-0.00049874163,0.0016126472,-0.00045177748,-0.044472545,0.08696238,-0.05111056
9408000,9408000,-0.00031256187,-0.0001104339,-0.00250153,-0.017458929,-0.08078169,-0.21191993
9420000,9420000,0.0016738302,0.0007800404,-0.0037111433,0.19837506,-0.07361936,-0.015994864
9424000,9424000,0.0025087895,-0.0020407639,-0.000886807,0.20283055,-0.34511667,0.29440436
9440000,9440000,-0.00016777334,0.0016933964,0.0035985068,-0.08734887,0.2247386,0.20557088
9448000,9448000,0.0024784189,0.0013414952,0.0025657553,0.17826375,0.03504482,-0.05945617
9460000,9460000,0.0013725995,-0.0027093529,-0.00032711326,-0.022861676,-0.26907206,-0.15427257
9468000,9468000,0.0010405318,-0.0036361585,-0.001244222,-0.020077873,-0.1526598,-0.12143422
9480000,9480000,0.0034211152,0.0021372,0.0017816563,0.14560656,0.36918533,0.13329193
9488000,9488000,0.001155543,0.0012448947,0.000537935,-0.15394714,0.03270702,-0.06102076
9500000,9500000,0.00055418594,-0.0026170858,0.0023138754,-0.021088868,-0.16981511,0.18561623
9508000,9508000,2.5284477e-05,0.0018343055,0.0039751735,-0.06895581,0.3287586,0.16412248
9520000,9520000,-0.0004398285,0.0013245493,-0.0013926853,0.052089855,-0.058202177,-0.33555275
9528000,9528000,0.00024173257,-5.7113357e-06,-0.0011087887,0.041361574,-0.1119239,-0.048699204
9536000,9536000,-1.4439807e-05,-0.0021961513,-0.0013192224,0.01701223,-0.22660774,-0.06051534
9548000,9548000,-0.00016691815,-0.0015035509,0.00026212406,0.00030680187,-0.01029113,0.0879493
9560000,9560000,-0.00023714721,-0.0011484516,0.0019033005,-0.043641295,0.09230783,0.17448327
9568000,9568000,-0.003403895,-0.0019350494,0.0012690863,-0.2530756,-0.07092866,-0.01830122
9580000,9580000,0.0021386098,-0.00042943796,0.001064395,0.2747965,0.22738767,0.07527767
9588000,9588000,-0.00070618896,0.003697329,0.0012208152,-0.14694685,0.36844134,0.024218326
9596000,9596000,0.00041607034,0.0008974378,0.001914865,0.068291605,-0.114303306,0.064757265
9608000,9608000,0.0008494356,0.0027164202,0.0034718378,-0.024020799,0.1452066,0.12672769
9620000,9620000,0.0008913128,0.0036463654,0.00031919812,-0.012320151,0.009090576,-0.19042374
9628000,9628000,0.00044192857,0.0016173688,0.0009497913,-0.03389495,-0.13535026,0.0073035485
9640000,9640000,-0.0003741847,0.0013300614,0.00090430555,-0.071113795,-0.06381871,-0.04604692
9648000,9648000,0.00074461114,-0.0011190404,-0.0015091035,0.090178564,-0.2531023,-0.22529988
9660000,9660000,-0.00037128397,-0.0015845015,-5.5904653e-05,-0.1372811,-0.034542665,0.03836733
9668000,9668000,-0.00024425192,0.00050221756,-0.0013854686,-0.012380522,0.165472,-0.10691575
9680000,9680000,0.0015866761,0.0005448074,-9.143068e-05,0.033997312,-0.009600533,0.1016431
9688000,9688000,0.0008890297,0.0020188089,-0.0008544628,-0.013624858,0.11799036,-0.041729916
9700000,9700000,-0.00075475895,-0.0004479792,0.00062153395,-0.25291324,-0.12763125,0.09365635
9708000,9708000,0.00021499128,-0.0012003621,-0.00065032585,0.05112288,-0.11562057,-0.074258536
9720000,9720000,-0.00073072466,0.0019197962,-0.0011585439,-0.11013971,0.2398769,-0.06355575
9728000,9728000,0.00043742952,0.002725141,-0.0002693438,0.07225918,0.118453145,0.06131566
9740000,9740000,0.0035647089,0.0018889881,-0.0006762668,0.22442049,0.027920684,-0.08399841
9748000,9748000,0.0011669595,-0.0014238032,-0.0010674363,-0.12861577,-0.31075993,-0.024738362
9760000,9760000,0.0012297165,6.605545e-05,4.1111227e-05,-0.00532794,0.17282836,0.07214599
9768000,9768000,0.0020793462,0.0006866548,0.0001629571,0.06885953,0.078446895,0.017121414
9780000,9780000,-0.00062184525,-0.0016542766,0.00070982083,-0.1499323,-0.09059963,0.09536671
9788000,9788000,0.0012512254,-0.00067655137,0.00096581096,0.12482394,0.04348579,0.06703554
9800000,9800000,0.0016655186,-0.0014519328,0.0034776193,-0.041780315,-0.100031346,0.10953957
9808000,9808000,0.0008320788,-0.0003004712,-0.0006482909,-0.06806502,0.09232125,-0.30428207
9820000,9820000,-0.00047243526,0.0044212337,-0.002101859,-0.15406328,0.30087212,-0.181614
9828000,9828000,-0.0025645527,0.0025898265,-0.00023966271,-0.19550964,-0.084979154,0.1302443
9840000,9840000,-0.0025001457,0.00096640736,0.00040590312,-0.10588556,-0.100957245,-0.04425302
9848000,9848000,0.000840641,-0.0003132685,0.0004234392,0.2603384,-0.1412871,0.035262782
9860000,9860000,-0.0017396671,0.0020752833,0.002385727,-0.093364,0.23025145,0.047750372
9868000,9868000,-0.0021908348,0.004031728,-0.00057383796,-0.083003744,0.18553348,-0.24628057
9880000,9880000,-0.0019200273,0.00061723404,-0.0024952344,0.0064511634,-0.20410572,-0.06388172
9884000,9884000,-0.0005841381,0.0005894839,-0.0010724349,0.1472423,-0.11934926,0.11648336
9896000,9896000,-5.5612996e-05,0.001988256,9.5868745e-05,0.021832086,0.075372696,0.11164036
9908000,9908000,0.0011177232,0.0005599512,1.6222766e-06,0.0854958,-0.11217965,-0.00038223536
9920000,9920000,-0.0014759208,0.0023476277,0.0018718562,-0.14797916,0.08321273,0.18510124
9924000,9924000,0.00023678737,0.00087149534,0.0023740896,0.099692434,-0.11119365,0.1595056
9936000,9936000,0.00036906835,0.00038357358,-0.0032698163,-0.03196748,0.009946473,-0.43930966
