timestamp,timestamp_sample,time_last_fuse,device_id,observation[0],observation[1],observation[2],observation_variance[0],observation_variance[1],observation_variance[2],innovation[0],innovation[1],innovation[2],innovation_variance[0],innovation_variance[1],innovation_variance[2],test_ratio[0],test_ratio[1],test_ratio[2],estimator_instance,fusion_enabled,innovation_rejected,fused
3348000,3315000,0,0,0.011217158,-0.20997937,0.4273909,0.0,0.0,0.0,-0.011217158,0.20997937,-0.4273909,0.0,0.0,0.0,0.0,0.0,0.0,0,0,0,0
3468000,3386032,0,0,0.0076781046,-0.21528386,0.42834878,0.0,0.0,0.0,-0.0076781046,0.21528386,-0.42834878,0.0,0.0,0.0,inf,inf,inf,0,0,1,0
3540000,3455132,0,0,0.016584555,-0.21678011,0.42892292,0.0,0.0,0.0,-0.0055699144,0.0061988384,-0.0014752448,0.0,0.0,0.0,inf,inf,inf,0,0,1,0
3612000,3524461,0,0,0.010356781,-0.21734492,0.42832088,0.0,0.0,0.0,0.00082214456,0.00674589,-0.00088626146,0.0,0.0,0.0,inf,inf,inf,0,0,1,0
3676000,3591268,0,0,0.012662404,-0.2208443,0.42743695,0.0,0.0,0.0,-0.0013317699,0.010230094,-1.3828278e-05,0.0,0.0,0.0,inf,inf,inf,0,0,1,0
3748000,3661928,0,0,0.008857775,-0.21389131,0.4285528,0.0,0.0,0.0,0.0026353272,0.0032238513,-0.0011602044,0.0,0.0,0.0,inf,inf,inf,0,0,1,0
3820000,3735395,0,0,0.010165687,-0.21654108,0.42757124,0.0,0.0,0.0,0.0014639692,0.005821854,-0.0002078414,0.0,0.0,0.0,inf,inf,inf,0,0,1,0
3892000,3807485,0,0,0.010099129,-0.21675973,0.4295082,0.0,0.0,0.0,0.0017130142,0.0060014427,-0.0021691322,0.0,0.0,0.0,inf,inf,inf,0,0,1,0
3964000,3879491,0,0,0.003462465,-0.21183299,0.42760217,0.0,0.0,0.0,0.008560611,0.0010804087,-0.00026613474,0.0,0.0,0.0,inf,inf,inf,0,0,1,0
4036000,3950843,0,0,0.010888887,-0.21749772,0.42997167,0.0,0.0,0.0,0.0013000993,0.0067065805,-0.0026593506,0.0,0.0,0.0,inf,inf,inf,0,0,1,0
4108000,4023575,0,0,0.012772626,-0.22128722,0.4299018,0.0,0.0,0.0,-0.0003977334,0.010440916,-0.002622068,0.0,0.0,0.0,inf,inf,inf,0,0,1,0
4180000,4095278,0,0,0.012779201,-0.21504419,0.42934626,0.0,0.0,0.0,-0.0016883342,0.0050326437,-0.0016204119,0.0,0.0,0.0,inf,inf,inf,0,0,1,0
4252000,4167649,0,0,0.010802907,-0.21566938,0.42910835,0.0,0.0,0.0,0.00028904062,0.0011123717,-0.0007252395,0.0,0.0,0.0,inf,inf,inf,0,0,1,0
4324000,4238243,0,0,0.009917139,-0.21602196,0.42941433,0.0,0.0,0.0,0.0012564445,0.001447171,-0.001042217,0.0,0.0,0.0,inf,inf,inf,0,0,1,0
4388000,4307704,0,0,0.007231662,-0.21685575,0.4296651,0.0,0.0,0.0,0.003933346,0.002227366,-0.001319617,0.0,0.0,0.0,inf,inf,inf,0,0,1,0
4460000,4377346,0,0,0.011150447,-0.21787858,0.42812577,0.0,0.0,0.0,-0.0002020495,0.003232956,0.00021663308,0.0,0.0,0.0,inf,inf,inf,0,0,1,0
4532000,4447753,0,0,0.014970513,-0.2121627,0.42916214,0.0,0.0,0.0,-0.0039932374,-0.0025397837,-0.00084894896,0.0,0.0,0.0,inf,inf,inf,0,0,1,0
4596000,4514452,0,0,0.009711359,-0.21574779,0.42902395,0.0,0.0,0.0,0.0016048886,0.0010625571,-0.0007109344,0.0,0.0,0.0,inf,inf,inf,0,0,1,0
4668000,4586462,0,0,0.010106217,-0.21402764,0.42800888,0.0,0.0,0.0,0.0012086295,-0.00067457557,0.00029560924,0.0,0.0,0.0,inf,inf,inf,0,0,1,0
4740000,4653818,0,0,0.009481061,-0.21805646,0.42632106,0.0,0.0,0.0,0.0016466193,0.0033320189,0.001977235,0.0,0.0,0.0,inf,inf,inf,0,0,1,0
4812000,4725828,0,0,0.010234211,-0.21798316,0.4285852,0.0,0.0,0.0,0.0007802062,0.0032863766,-0.00027012825,0.0,0.0,0.0,inf,inf,inf,0,0,1,0
4884000,4797848,0,0,0.012487581,-0.21527961,0.4319436,0.0,0.0,0.0,-0.0014714804,0.0005685389,-0.0036357045,0.0,0.0,0.0,inf,inf,inf,0,0,1,0
4956000,4869857,0,0,0.011587353,-0.21362394,0.42798916,0.0,0.0,0.0,-0.000840405,-0.00080278516,0.00046798587,0.0,0.0,0.0,inf,inf,inf,0,0,1,0
5028000,4941374,0,0,0.008364423,-0.21703763,0.43136322,0.0,0.0,0.0,0.0023905644,0.0026276857,-0.0028978586,0.0,0.0,0.0,inf,inf,inf,0,0,1,0
5100000,5012882,0,0,0.008666268,-0.21604905,0.42568156,0.0,0.0,0.0,0.0017521102,0.0020685494,0.0030067265,0.0,0.0,0.0,inf,inf,inf,0,0,1,0
5172000,5085395,0,0,0.008170203,-0.2164442,0.4272483,0.0,0.0,0.0,0.0021371162,0.0025551617,0.001488328,0.0,0.0,0.0,inf,inf,inf,0,0,1,0
5244000,5157900,0,0,0.012354575,-0.21798992,0.4320932,0.0,0.0,0.0,-0.002175957,0.00416705,-0.0033205152,0.0,0.0,0.0,inf,inf,inf,0,0,1,0
5316000,5229412,0,0,0.010267179,-0.21667929,0.42843246,0.0,0.0,0.0,-0.00010222569,0.002921775,0.00037306547,0.0,0.0,0.0,inf,inf,inf,0,0,1,0
5388000,5300918,0,0,0.009433987,-0.21592398,0.42765188,0.0,0.0,0.0,0.00070325844,0.0022010058,0.0011715889,0.0,0.0,0.0,inf,inf,inf,0,0,1,0
5460000,5373426,0,0,0.011812012,-0.21588992,0.42895672,0.0,0.0,0.0,-0.0017222567,0.0022023171,-0.00011447072,0.0,0.0,0.0,inf,inf,inf,0,0,1,0
5532000,5444931,0,0,0.009483062,-0.21496086,0.42988855,0.0,0.0,0.0,0.0005924925,0.0011823326,-0.0010913014,0.0,0.0,0.0,inf,inf,inf,0,0,1,0
5604000,5516939,0,0,0.01229671,-0.21596436,0.42903498,0.0,0.0,0.0,-0.0022533573,0.002224937,-0.00021752715,0.0,0.0,0.0,inf,inf,inf,0,0,1,0
5668000,5583942,0,0,0.012343145,-0.21900335,0.42967033,0.0,0.0,0.0,-0.0021912893,0.0053056628,-0.00083464384,0.0,0.0,0.0,inf,inf,inf,0,0,1,0
5740000,5655060,0,0,0.009326998,-0.21358098,0.42997387,0.0,0.0,0.0,0.00090811774,-0.00035111606,-0.0012570322,0.0,0.0,0.0,inf,inf,inf,0,0,1,0
5804000,5721951,0,0,0.009935278,-0.21896699,0.43294817,0.0,0.0,0.0,0.00020710751,0.005021751,-0.004235685,0.0,0.0,0.0,inf,inf,inf,0,0,1,0
5876000,5793557,0,0,0.008062832,-0.21611486,0.43006015,0.0,0.0,0.0,0.0020258129,0.0022004396,-0.0013310313,0.0,0.0,0.0,inf,inf,inf,0,0,1,0
5948000,5865959,0,0,0.010550527,-0.21755031,0.42489126,0.0,0.0,0.0,-0.00060947053,0.0034441352,0.0037455857,0.0,0.0,0.0,inf,inf,inf,0,0,1,0
6020000,5936365,0,0,0.010361284,-0.2150224,0.42904902,0.0,0.0,0.0,-0.00040337443,0.00090904534,-0.00041610003,0.0,0.0,0.0,inf,inf,inf,0,0,1,0
6084000,6003965,0,0,0.008784853,-0.21525435,0.42559958,0.0,0.0,0.0,0.0011660084,0.0011342317,0.0030300617,0.0,0.0,0.0,inf,inf,inf,0,0,1,0
6156000,6075243,0,0,0.00981936,-0.2164536,0.42731443,0.0,0.0,0.0,0.00011485629,0.0023211092,0.0013094842,0.0,0.0,0.0,inf,inf,inf,0,0,1,0
6228000,6147971,0,0,0.011631881,-0.2077737,0.4310736,0.0,0.0,0.0,-0.0017503547,-0.006355077,-0.0024466217,0.0,0.0,0.0,inf,inf,inf,0,0,1,0
6300000,6219976,0,0,0.009829279,-0.21572012,0.42949414,0.0,0.0,0.0,0.00013859197,0.0016020536,-0.0008638501,0.0,0.0,0.0,inf,inf,inf,0,0,1,0
6372000,6291976,0,0,0.007708369,-0.21116191,0.43173984,0.0,0.0,0.0,0.002229223,-0.0029489994,-0.003105253,0.0,0.0,0.0,inf,inf,inf,0,0,1,0
6444000,6362525,0,0,0.010627935,-0.21364598,0.4292457,0.0,0.0,0.0,-0.0008415971,-0.00045724213,-0.00060385466,0.0,0.0,0.0,inf,inf,inf,0,0,1,0
6516000,6431980,0,0,0.00848913,-0.21504512,0.42758507,0.0,0.0,0.0,0.0013454799,0.0009970516,0.0010833144,0.0,0.0,0.0,inf,inf,inf,0,0,1,0
6588000,6500783,0,0,0.009204738,-0.2163533,0.42729554,0.0,0.0,0.0,0.00059305876,0.002347231,0.0013946295,0.0,0.0,0.0,inf,inf,inf,0,0,1,0
6652000,6567983,0,0,0.009645332,-0.22416125,0.43466383,0.0,0.0,0.0,9.9848956e-05,0.010177389,-0.0059613883,0.0,0.0,0.0,inf,inf,inf,0,0,1,0
6724000,6639622,0,0,0.010424283,-0.21557698,0.42935997,0.0,0.0,0.0,-0.0006906586,0.0016244203,-0.000641644,0.0,0.0,0.0,inf,inf,inf,0,0,1,0
6796000,6711986,0,0,0.0054610367,-0.21231653,0.4319994,0.0,0.0,0.0,0.0043909256,-0.0016131699,-0.0032723546,0.0,0.0,0.0,inf,inf,inf,0,0,1,0
6868000,6783260,0,0,0.0105250785,-0.21762085,0.4269039,0.0,0.0,0.0,-0.0009751478,0.0037425756,0.0018556118,0.0,0.0,0.0,inf,inf,inf,0,0,1,0
6940000,6855988,0,0,0.00060439704,-0.21949978,0.4369037,0.0,0.0,0.0,0.008988382,0.005678788,-0.008116573,0.0,0.0,0.0,inf,inf,inf,0,0,1,0
7012000,6927626,0,0,0.010045794,-0.21615216,0.43060535,0.0,0.0,0.0,-0.00089111645,0.0023479462,-0.0018002987,0.0,0.0,0.0,inf,inf,inf,0,0,1,0
7076000,6995990,0,0,0.00588824,-0.21735843,0.42946404,0.0,0.0,0.0,0.0032838718,0.0035791695,-0.0006468892,0.0,0.0,0.0,inf,inf,inf,0,0,1,0
7148000,7065592,0,0,0.011316824,-0.21633907,0.42972466,0.0,0.0,0.0,-0.0023748083,0.0026034564,-0.00088089705,0.0,0.0,0.0,inf,inf,inf,0,0,1,0
7220000,7137992,0,0,0.008274551,-0.21527502,0.42966115,0.0,0.0,0.0,0.0008582296,0.0014798641,-0.0008510947,0.0,0.0,0.0,inf,inf,inf,0,0,1,0
7292000,7208793,0,0,0.010710001,-0.2139099,0.42857963,0.0,0.0,0.0,-0.0016491637,0.00013664365,0.00024288893,0.0,0.0,0.0,inf,inf,inf,0,0,1,0
7356000,7275993,0,0,0.0102055175,-0.21823364,0.4308085,0.0,0.0,0.0,-0.0010764254,0.0044398904,-0.0019976199,0.0,0.0,0.0,inf,inf,inf,0,0,1,0
7428000,7346539,0,0,0.009859844,-0.21510667,0.42983404,0.0,0.0,0.0,-0.0006656563,0.0012445152,-0.0010587275,0.0,0.0,0.0,inf,inf,inf,0,0,1,0
7500000,7419995,0,0,0.008679099,-0.2133046,0.43374676,0.0,0.0,0.0,0.0004946366,-0.00057554245,-0.004979968,0.0,0.0,0.0,inf,inf,inf,0,0,1,0
7572000,7491631,0,0,0.009557594,-0.2136039,0.43281028,0.0,0.0,0.0,-0.00044265762,-0.00019659102,-0.0040025413,0.0,0.0,0.0,inf,inf,inf,0,0,1,0
7644000,7559996,0,0,0.009841133,-0.2108094,0.43551046,0.0,0.0,0.0,-0.00073555484,-0.003113985,-0.0067637563,0.0,0.0,0.0,inf,inf,inf,0,0,1,0
7716000,7629196,0,0,0.009243398,-0.21728142,0.43038955,0.0,0.0,0.0,-9.7735785e-05,0.0033483058,-0.0016485751,0.0,0.0,0.0,inf,inf,inf,0,0,1,0
7780000,7695996,0,0,0.012434333,-0.21520542,0.4352715,0.0,0.0,0.0,-0.003268621,0.0012533665,-0.0065404177,0.0,0.0,0.0,inf,inf,inf,0,0,1,0
7852000,7767633,0,0,0.011741137,-0.21540025,0.42851576,0.0,0.0,0.0,-0.0024514701,0.0013662577,0.00017178059,0.0,0.0,0.0,inf,inf,inf,0,0,1,0
7924000,7839997,0,0,0.019211145,-0.21862443,0.4303684,0.0,0.0,0.0,-0.009815553,0.0045892745,-0.0016838014,0.0,0.0,0.0,inf,inf,inf,0,0,1,0
7996000,7911270,0,0,0.009637286,-0.21529838,0.42735577,0.0,0.0,0.0,0.00023375731,0.0012580901,0.0013155937,0.0,0.0,0.0,inf,inf,inf,0,0,1,0
8068000,7983998,0,0,0.009773954,-0.21216011,0.42974904,0.0,0.0,0.0,5.2512623e-05,-0.0019187331,-0.0010958314,0.0,0.0,0.0,inf,inf,inf,0,0,1,0
8140000,8055270,0,0,0.010759866,-0.21632576,0.42931488,0.0,0.0,0.0,-0.0009523835,0.0022866428,-0.0006414056,0.0,0.0,0.0,inf,inf,inf,0,0,1,0
8212000,8127998,0,0,0.0079511935,-0.20995997,0.42956594,0.0,0.0,0.0,0.0019274643,-0.0040649325,-0.0008870065,0.0,0.0,0.0,inf,inf,inf,0,0,1,0
8284000,8199634,0,0,0.010581842,-0.21787333,0.4273735,0.0,0.0,0.0,-0.0008227434,0.0038034022,0.0012856722,0.0,0.0,0.0,inf,inf,inf,0,0,1,0
8356000,8271998,0,0,0.015311014,-0.21670856,0.43058854,0.0,0.0,0.0,-0.005534578,0.0026538074,-0.0019222796,0.0,0.0,0.0,inf,inf,inf,0,0,1,0
8428000,8342544,0,0,0.0073340544,-0.21666488,0.43023908,0.0,0.0,0.0,0.00271283,0.0026195943,-0.0015742779,0.0,0.0,0.0,inf,inf,inf,0,0,1,0
8500000,8415999,0,0,0.00471861,-0.21155635,0.42742297,0.0,0.0,0.0,0.0051644435,-0.0024760664,0.001252085,0.0,0.0,0.0,inf,inf,inf,0,0,1,0
8572000,8486544,0,0,0.010059209,-0.21632631,0.4284804,0.0,0.0,0.0,-0.00042938534,0.0022904128,0.00019866228,0.0,0.0,0.0,inf,inf,inf,0,0,1,0
8644000,8559999,0,0,0.013574279,-0.21360017,0.42507362,0.0,0.0,0.0,-0.003945506,-0.00038528442,0.003630668,0.0,0.0,0.0,inf,inf,inf,0,0,1,0
8716000,8631999,0,0,0.008420631,-0.21408388,0.42957163,0.0,0.0,0.0,0.0014120489,0.00012162328,-0.00086042285,0.0,0.0,0.0,inf,inf,inf,0,0,1,0
8788000,8703999,0,0,0.00765257,-0.21759647,0.43505022,0.0,0.0,0.0,0.0020760554,0.0036536753,-0.006326884,0.0,0.0,0.0,inf,inf,inf,0,0,1,0
8860000,8775636,0,0,0.010026203,-0.21669473,0.42762098,0.0,0.0,0.0,-0.00042340998,0.002780065,0.001119256,0.0,0.0,0.0,inf,inf,inf,0,0,1,0
8932000,8848000,0,0,0.006064358,-0.21317986,0.4293004,0.0,0.0,0.0,0.0035832198,-0.000718385,-0.0005530417,0.0,0.0,0.0,inf,inf,inf,0,0,1,0
9004000,8919272,0,0,0.009935566,-0.21636799,0.42895514,0.0,0.0,0.0,-0.0004717568,0.0024723709,-0.00020235777,0.0,0.0,0.0,inf,inf,inf,0,0,1,0
9076000,8992000,0,0,0.013349015,-0.22001146,0.43421534,0.0,0.0,0.0,-0.0038843267,0.006111756,-0.0054645836,0.0,0.0,0.0,inf,inf,inf,0,0,1,0
9148000,9063636,0,0,0.00790318,-0.2152264,0.42688873,0.0,0.0,0.0,0.0017275745,0.0013376325,0.0018637478,0.0,0.0,0.0,inf,inf,inf,0,0,1,0
9220000,9136000,0,0,0.0063860808,-0.21617322,0.42313918,0.0,0.0,0.0,0.0031725373,0.0022937208,0.0056195557,0.0,0.0,0.0,inf,inf,inf,0,0,1,0
9292000,9207272,0,0,0.009269306,-0.2157351,0.430062,0.0,0.0,0.0,0.000111600384,0.0018589348,-0.0012977123,0.0,0.0,0.0,inf,inf,inf,0,0,1,0
9364000,9280000,0,0,0.01271855,-0.22045527,0.4270669,0.0,0.0,0.0,-0.003377757,0.0065805465,0.0016990006,0.0,0.0,0.0,inf,inf,inf,0,0,1,0
9436000,9351636,0,0,0.008970546,-0.2166213,0.42909858,0.0,0.0,0.0,0.00052617304,0.0027320087,-0.00034335256,0.0,0.0,0.0,inf,inf,inf,0,0,1,0
9508000,9424000,0,0,0.015544773,-0.21945697,0.43399605,0.0,0.0,0.0,-0.006048464,0.0055867434,-0.005231291,0.0,0.0,0.0,inf,inf,inf,0,0,1,0
9580000,9494545,0,0,0.008476,-0.21571797,0.42905053,0.0,0.0,0.0,0.0012639277,0.0018881559,-0.00027111173,0.0,0.0,0.0,inf,inf,inf,0,0,1,0
9652000,9568000,0,0,0.0073896116,-0.21937042,0.43212155,0.0,0.0,0.0,0.0022921646,0.005516857,-0.0033527017,0.0,0.0,0.0,inf,inf,inf,0,0,1,0
9724000,9639636,0,0,0.008829288,-0.21578328,0.4306375,0.0,0.0,0.0,0.0006686598,0.0019462556,-0.0018562376,0.0,0.0,0.0,inf,inf,inf,0,0,1,0
9796000,9712000,0,0,0.01115999,-0.21506317,0.4346391,0.0,0.0,0.0,-0.0016851984,0.0012460649,-0.0058473647,0.0,0.0,0.0,inf,inf,inf,0,0,1,0
9868000,9783272,0,0,0.008576182,-0.21525288,0.42768857,0.0,0.0,0.0,0.0009604199,0.0014707744,0.0011192262,0.0,0.0,0.0,inf,inf,inf,0,0,1,0
9940000,9856000,0,0,0.0100808805,-0.2180678,0.42941278,0.0,0.0,0.0,-0.00063119736,0.004276365,-0.00060766935,0.0,0.0,0.0,inf,inf,inf,0,0,1,0
10012000,9927272,0,0,0.010144235,-0.21680836,0.4278489,0.0,0.0,0.0,-0.00070323143,0.0030147582,0.00095522404,0.0,0.0,0.0,inf,inf,inf,0,0,1,0
10084000,10000000,0,0,0.007030607,-0.2139015,0.43144014,0.0,0.0,0.0,0.002468801,0.00011061132,-0.0026359558,0.0,0.0,0.0,inf,inf,inf,0,0,1,0
10156000,10070909,0,0,0.008602706,-0.21693365,0.42860353,0.0,0.0,0.0,0.0007756157,0.0031551868,0.00020956993,0.0,0.0,0.0,inf,inf,inf,0,0,1,0
10228000,10144000,0,0,0.014932785,-0.22079116,0.43189722,0.0,0.0,0.0,-0.0055890866,0.007057905,-0.0030608177,0.0,0.0,0.0,inf,inf,inf,0,0,1,0
10300000,10215272,0,0,0.00890146,-0.21647461,0.4300657,0.0,0.0,0.0,0.00067730434,0.0027524978,-0.0012289286,0.0,0.0,0.0,inf,inf,inf,0,0,1,0
10372000,10288000,0,0,0.010719893,-0.21724771,0.42760715,0.0,0.0,0.0,-0.001142581,0.0035261363,0.001229912,0.0,0.0,0.0,inf,inf,inf,0,0,1,0
10444000,10359636,0,0,0.010097546,-0.21476877,0.42829308,0.0,0.0,0.0,-0.00045021344,0.0009725988,0.0005052388,0.0,0.0,0.0,inf,inf,inf,0,0,1,0
10516000,10432000,0,0,0.008010298,-0.21004076,0.4273562,0.0,0.0,0.0,0.0016347617,-0.0037651658,0.0014372468,0.0,0.0,0.0,inf,inf,inf,0,0,1,0
10588000,10503272,0,0,0.010140191,-0.2157945,0.4293101,0.0,0.0,0.0,-0.00058759283,0.001999095,-0.0005092919,0.0,0.0,0.0,inf,inf,inf,0,0,1,0
10660000,10576000,0,0,0.017293926,-0.21214804,0.437036,0.0,0.0,0.0,-0.007718865,-0.0016721487,-0.008248031,0.0,0.0,0.0,inf,inf,inf,0,0,1,0
10732000,10646909,0,0,0.00863326,-0.21498245,0.42945862,0.0,0.0,0.0,0.0012112968,0.0011818111,-0.0006670356,0.0,0.0,0.0,inf,inf,inf,0,0,1,0
10804000,10720000,0,0,0.012869426,-0.2144132,0.42863578,0.0,0.0,0.0,-0.0030747438,0.0006161332,0.00015872717,0.0,0.0,0.0,inf,inf,inf,0,0,1,0
10876000,10790545,0,0,0.008871242,-0.21591295,0.42980075,0.0,0.0,0.0,0.0010610819,0.002124384,-0.0010052025,0.0,0.0,0.0,inf,inf,inf,0,0,1,0
10948000,10864000,0,0,0.010902314,-0.21408793,0.43356484,0.0,0.0,0.0,-0.0009822166,0.00031353533,-0.0047619045,0.0,0.0,0.0,inf,inf,inf,0,0,1,0
11020000,10934909,0,0,0.009571639,-0.21421584,0.42935464,0.0,0.0,0.0,0.00034423452,0.00047820807,-0.00053325295,0.0,0.0,0.0,inf,inf,inf,0,0,1,0
11092000,11008000,0,0,0.0104713105,-0.21724881,0.43100715,0.0,0.0,0.0,-0.0006088801,0.0035357028,-0.0021723509,0.0,0.0,0.0,inf,inf,inf,0,0,1,0
11164000,11079636,0,0,0.008894472,-0.21748422,0.42900404,0.0,0.0,0.0,0.0010154331,0.0037994236,-0.00015619397,0.0,0.0,0.0,inf,inf,inf,0,0,1,0
11236000,11152000,0,0,0.012180447,-0.21007553,0.4286775,0.0,0.0,0.0,-0.0023716753,-0.0036545396,0.0001500845,0.0,0.0,0.0,inf,inf,inf,0,0,1,0
11308000,11223636,0,0,0.008234822,-0.21655281,0.42992598,0.0,0.0,0.0,0.0016644737,0.002846852,-0.0010884702,0.0,0.0,0.0,inf,inf,inf,0,0,1,0
11380000,11296000,0,0,0.0072647217,-0.21806352,0.4394099,0.0,0.0,0.0,0.0025890437,0.0043206364,-0.010589719,0.0,0.0,0.0,inf,inf,inf,0,0,1,0
11452000,11366181,0,0,0.009719498,-0.21655543,0.42961097,0.0,0.0,0.0,2.75895e-05,0.002830729,-0.0007793009,0.0,0.0,0.0,inf,inf,inf,0,0,1,0
11524000,11440000,0,0,0.009848465,-0.22153762,0.43021926,0.0,0.0,0.0,-0.000103925355,0.007813185,-0.0013874471,0.0,0.0,0.0,inf,inf,inf,0,0,1,0
11596000,11510909,0,0,0.009991032,-0.21559042,0.43029752,0.0,0.0,0.0,-0.00030537415,0.0018704385,-0.0014621317,0.0,0.0,0.0,inf,inf,inf,0,0,1,0
11668000,11584000,0,0,0.0100811375,-0.2096976,0.42866442,0.0,0.0,0.0,-0.00037568342,-0.004024714,0.0001693368,0.0,0.0,0.0,inf,inf,inf,0,0,1,0
11740000,11655272,0,0,0.008275834,-0.21635501,0.42973372,0.0,0.0,0.0,0.0014574854,0.0026174039,-0.0009082258,0.0,0.0,0.0,inf,inf,inf,0,0,1,0
11812000,11728000,0,0,0.01020868,-0.21675241,0.4247113,0.0,0.0,0.0,-0.0004948219,0.0030053854,0.0041099787,0.0,0.0,0.0,inf,inf,inf,0,0,1,0
11884000,11799636,0,0,0.008426809,-0.21635193,0.4289251,0.0,0.0,0.0,0.0013073375,0.002622351,-9.557605e-05,0.0,0.0,0.0,inf,inf,inf,0,0,1,0
11956000,11872000,0,0,0.009329486,-0.21481659,0.42441458,0.0,0.0,0.0,0.00034144986,0.0011017323,0.0044237375,0.0,0.0,0.0,inf,inf,inf,0,0,1,0
12028000,11943636,0,0,0.00949585,-0.21497601,0.4300591,0.0,0.0,0.0,0.00016114581,0.0012634397,-0.001219362,0.0,0.0,0.0,inf,inf,inf,0,0,1,0
12100000,12016000,0,0,0.012497788,-0.21677819,0.42054942,0.0,0.0,0.0,-0.0029049423,0.0030777156,0.008297771,0.0,0.0,0.0,inf,inf,inf,0,0,1,0
12172000,12086545,0,0,0.010074579,-0.21453626,0.42759547,0.0,0.0,0.0,-0.00039733294,0.0008532852,0.0012585223,0.0,0.0,0.0,inf,inf,inf,0,0,1,0
12244000,12160000,0,0,0.004879938,-0.21935719,0.43457127,0.0,0.0,0.0,0.004821813,0.005704552,-0.005702734,0.0,0.0,0.0,inf,inf,inf,0,0,1,0
12316000,12232000,0,0,0.008597025,-0.21416664,0.4288308,0.0,0.0,0.0,0.00091361906,0.00053194165,5.1021576e-05,0.0,0.0,0.0,inf,inf,inf,0,0,1,0
12388000,12304000,0,0,0.008761586,-0.21049003,0.42796037,0.0,0.0,0.0,0.0006887382,-0.0031284243,0.00093087554,0.0,0.0,0.0,inf,inf,inf,0,0,1,0
12460000,12375272,0,0,0.0100366445,-0.21767585,0.42888677,0.0,0.0,0.0,-0.0005664276,0.00411053,3.0487776e-05,0.0,0.0,0.0,inf,inf,inf,0,0,1,0
12532000,12448000,0,0,0.00710775,-0.22420448,0.427024,0.0,0.0,0.0,0.0024157683,0.010653168,0.001899004,0.0,0.0,0.0,inf,inf,inf,0,0,1,0
12604000,12519272,0,0,0.010659928,-0.2170943,0.42920998,0.0,0.0,0.0,-0.0011915965,0.0035504103,-0.00028201938,0.0,0.0,0.0,inf,inf,inf,0,0,1,0
12676000,12592000,0,0,0.0033400813,-0.2143264,0.4245207,0.0,0.0,0.0,0.0061682155,0.0007867664,0.0044085085,0.0,0.0,0.0,inf,inf,inf,0,0,1,0
12748000,12662909,0,0,0.00965611,-0.21664193,0.42908713,0.0,0.0,0.0,-0.00030565355,0.0031051934,-0.00015303493,0.0,0.0,0.0,inf,inf,inf,0,0,1,0
12820000,12736000,0,0,0.015868215,-0.21119565,0.42544195,0.0,0.0,0.0,-0.0064978804,-0.002304554,0.003509909,0.0,0.0,0.0,inf,inf,inf,0,0,1,0
12892000,12807272,0,0,0.0105604185,-0.21671575,0.427338,0.0,0.0,0.0,-0.0009914516,0.003219515,0.0016114712,0.0,0.0,0.0,inf,inf,inf,0,0,1,0
12964000,12880000,0,0,0.0067589083,-0.22149931,0.42833123,0.0,0.0,0.0,0.002836769,0.007993698,0.00061294436,0.0,0.0,0.0,inf,inf,inf,0,0,1,0
13036000,12951636,0,0,0.009247571,-0.2161364,0.4277598,0.0,0.0,0.0,0.0002785772,0.0026266873,0.0011839271,0.0,0.0,0.0,inf,inf,inf,0,0,1,0
13108000,13024000,0,0,0.014185695,-0.2186848,0.42904714,0.0,0.0,0.0,-0.0046720933,0.005197063,-9.217858e-05,0.0,0.0,0.0,inf,inf,inf,0,0,1,0
13180000,13094909,0,0,0.008436076,-0.21498466,0.4291479,0.0,0.0,0.0,0.0012322366,0.0015191287,-0.00018543005,0.0,0.0,0.0,inf,inf,inf,0,0,1,0
13252000,13168000,0,0,0.004180836,-0.21123336,0.4313056,0.0,0.0,0.0,0.0054263077,-0.0022483766,-0.002349794,0.0,0.0,0.0,inf,inf,inf,0,0,1,0
13324000,13238909,0,0,0.009215461,-0.21529691,0.42850044,0.0,0.0,0.0,0.0002144482,0.0017965883,0.00045007467,0.0,0.0,0.0,inf,inf,inf,0,0,1,0
13396000,13312000,0,0,0.011793492,-0.22074705,0.4288667,0.0,0.0,0.0,-0.002396984,0.0072625726,9.23872e-05,0.0,0.0,0.0,inf,inf,inf,0,0,1,0
13468000,13384000,0,0,0.009941699,-0.2161897,0.42826456,0.0,0.0,0.0,-0.0004879702,0.0027209222,0.00070112944,0.0,0.0,0.0,inf,inf,inf,0,0,1,0
13540000,13456000,0,0,0.0031983147,-0.22166738,0.4253915,0.0,0.0,0.0,0.006247919,0.00817585,0.0035630465,0.0,0.0,0.0,inf,inf,inf,0,0,1,0
13612000,13527636,0,0,0.00896727,-0.21737364,0.43208194,0.0,0.0,0.0,0.00031953584,0.004012823,-0.0030589104,0.0,0.0,0.0,inf,inf,inf,0,0,1,0
13684000,13600000,0,0,0.014570699,-0.21713595,0.43308666,0.0,0.0,0.0,-0.0053312564,0.0037739724,-0.004063189,0.0,0.0,0.0,inf,inf,inf,0,0,1,0
13756000,13671272,0,0,0.009716647,-0.21637559,0.43051937,0.0,0.0,0.0,-0.00032672472,0.0029800236,-0.0015158653,0.0,0.0,0.0,inf,inf,inf,0,0,1,0
13828000,13744000,0,0,0.0067222593,-0.21530037,0.42720923,0.0,0.0,0.0,0.0026843743,0.0019103587,0.0017966926,0.0,0.0,0.0,inf,inf,inf,0,0,1,0
13900000,13815636,0,0,0.008169498,-0.21709833,0.42981574,0.0,0.0,0.0,0.0011428632,0.0037551224,-0.00078448653,0.0,0.0,0.0,inf,inf,inf,0,0,1,0
13972000,13888000,0,0,0.009019811,-0.21489178,0.42845407,0.0,0.0,0.0,0.00028886274,0.0015741736,0.000589937,0.0,0.0,0.0,inf,inf,inf,0,0,1,0
14044000,13959636,0,0,0.010924404,-0.21608838,0.42941436,0.0,0.0,0.0,-0.001656686,0.0027743578,-0.00036767125,0.0,0.0,0.0,inf,inf,inf,0,0,1,0
14116000,14032000,0,0,0.0026499121,-0.21814518,0.41912267,0.0,0.0,0.0,0.006665407,0.004816368,0.00991565,0.0,0.0,0.0,inf,inf,inf,0,0,1,0
14188000,14103636,0,0,0.010809434,-0.21629465,0.42964578,0.0,0.0,0.0,-0.001670395,0.0029431283,-0.0006149411,0.0,0.0,0.0,inf,inf,inf,0,0,1,0
14260000,14176000,0,0,0.009971449,-0.22255306,0.427206,0.0,0.0,0.0,-0.00081258453,0.0092240125,0.0018356144,0.0,0.0,0.0,inf,inf,inf,0,0,1,0
14332000,14247272,0,0,0.010101741,-0.21613349,0.43012187,0.0,0.0,0.0,-0.0009423103,0.002804622,-0.0010802448,0.0,0.0,0.0,inf,inf,inf,0,0,1,0
14404000,14320000,0,0,-4.4517346e-05,-0.21591233,0.42928684,0.0,0.0,0.0,0.009174198,0.00253506,-0.00026863813,0.0,0.0,0.0,inf,inf,inf,0,0,1,0
14476000,14391636,0,0,0.012091538,-0.21522371,0.42781305,0.0,0.0,0.0,-0.003201073,0.0018715411,0.0012226999,0.0,0.0,0.0,inf,inf,inf,0,0,1,0
14548000,14464000,0,0,0.010953331,-0.21522139,0.4303931,0.0,0.0,0.0,-0.00201259,0.0018399209,-0.001372993,0.0,0.0,0.0,inf,inf,inf,0,0,1,0
14620000,14535636,0,0,0.007851839,-0.21497822,0.43000218,0.0,0.0,0.0,0.0011103079,0.0015927851,-0.0009844899,0.0,0.0,0.0,inf,inf,inf,0,0,1,0
14692000,14608000,0,0,0.017512685,-0.21545222,0.42725423,0.0,0.0,0.0,-0.008576719,0.002093345,0.0017772019,0.0,0.0,0.0,inf,inf,inf,0,0,1,0
14764000,14678181,0,0,0.008950211,-0.21646218,0.4290918,0.0,0.0,0.0,0.00018805265,0.0030926913,-6.9886446e-05,0.0,0.0,0.0,inf,inf,inf,0,0,1,0
14836000,14752000,0,0,0.009521082,-0.21067758,0.42892173,0.0,0.0,0.0,-0.00050869584,-0.0027226508,8.752942e-05,0.0,0.0,0.0,inf,inf,inf,0,0,1,0
14908000,14823272,0,0,0.010061963,-0.21558003,0.42954338,0.0,0.0,0.0,-0.0010452559,0.0021904558,-0.0005289018,0.0,0.0,0.0,inf,inf,inf,0,0,1,0
14980000,14896000,0,0,0.009366915,-0.22085537,0.4251265,0.0,0.0,0.0,-0.00034945458,0.007472709,0.0038914084,0.0,0.0,0.0,inf,inf,inf,0,0,1,0
15052000,14967272,0,0,0.011700204,-0.21578376,0.42952946,0.0,0.0,0.0,-0.0027024578,0.002414927,-0.0005042255,0.0,0.0,0.0,inf,inf,inf,0,0,1,0
15124000,15040000,0,0,0.009867457,-0.21494976,0.43380767,0.0,0.0,0.0,-0.000790325,0.0015882999,-0.0047804713,0.0,0.0,0.0,inf,inf,inf,0,0,1,0
15196000,15111636,0,0,0.007788553,-0.21593551,0.43095738,0.0,0.0,0.0,0.0013409639,0.0025749356,-0.0019308329,0.0,0.0,0.0,inf,inf,inf,0,0,1,0
15268000,15184000,0,0,0.011389497,-0.21378554,0.42554873,0.0,0.0,0.0,-0.0023120372,0.0003491789,0.0034412146,0.0,0.0,0.0,inf,inf,inf,0,0,1,0
15340000,15254909,0,0,0.009627087,-0.21440408,0.43034267,0.0,0.0,0.0,-0.00049689226,0.0009822696,-0.0013466477,0.0,0.0,0.0,inf,inf,inf,0,0,1,0
15404000,15324000,0,0,0.0120339375,-0.21804895,0.43376356,0.0,0.0,0.0,-0.0029430222,0.004633233,-0.004763603,0.0,0.0,0.0,inf,inf,inf,0,0,1,0
15476000,15393200,0,0,0.009678801,-0.21477513,0.4314053,0.0,0.0,0.0,-0.000559059,0.0014010221,-0.0023852587,0.0,0.0,0.0,inf,inf,inf,0,0,1,0
15540000,15460000,0,0,0.014997411,-0.21547991,0.42680916,0.0,0.0,0.0,-0.0058527915,0.0021199435,0.0022173226,0.0,0.0,0.0,inf,inf,inf,0,0,1,0
15612000,15531272,0,0,0.012433737,-0.21406698,0.43120354,0.0,0.0,0.0,-0.0032230234,0.0007864684,-0.0021389425,0.0,0.0,0.0,inf,inf,inf,0,0,1,0
15684000,15604000,0,0,0.010691349,-0.21743199,0.43061158,0.0,0.0,0.0,-0.0014469,0.0041629374,-0.001542002,0.0,0.0,0.0,inf,inf,inf,0,0,1,0
15756000,15675636,0,0,0.010299989,-0.21631874,0.42959198,0.0,0.0,0.0,-0.0010825703,0.003055051,-0.00051921606,0.0,0.0,0.0,inf,inf,inf,0,0,1,0
15828000,15744000,0,0,0.01378153,-0.21162769,0.4263618,0.0,0.0,0.0,-0.004569334,-0.0016259551,0.0027160943,0.0,0.0,0.0,inf,inf,inf,0,0,1,0
15900000,15813200,0,0,0.010161242,-0.21557967,0.42983213,0.0,0.0,0.0,-0.0008582389,0.0023223013,-0.00075802207,0.0,0.0,0.0,inf,inf,inf,0,0,1,0
15964000,15880000,0,0,0.011799461,-0.22078745,0.4327837,0.0,0.0,0.0,-0.0025104424,0.007528499,-0.0037100613,0.0,0.0,0.0,inf,inf,inf,0,0,1,0
16036000,15951636,0,0,0.00992477,-0.21537638,0.42975432,0.0,0.0,0.0,-0.0006197253,0.002147749,-0.0006659627,0.0,0.0,0.0,inf,inf,inf,0,0,1,0
16108000,16024000,0,0,0.006707663,-0.21875907,0.43125525,0.0,0.0,0.0,0.0026024408,0.0055406243,-0.0021619499,0.0,0.0,0.0,inf,inf,inf,0,0,1,0
16180000,16095272,0,0,0.010808136,-0.21615775,0.42891377,0.0,0.0,0.0,-0.0015887283,0.0029102266,0.00016707182,0.0,0.0,0.0,inf,inf,inf,0,0,1,0
16252000,16168000,0,0,0.012269268,-0.21769644,0.43848354,0.0,0.0,0.0,-0.0030415673,0.0044440925,-0.009405285,0.0,0.0,0.0,inf,inf,inf,0,0,1,0
16324000,16239272,0,0,0.011020747,-0.21687953,0.42985386,0.0,0.0,0.0,-0.0017822208,0.003629312,-0.0007748008,0.0,0.0,0.0,inf,inf,inf,0,0,1,0
16396000,16312000,0,0,0.012415771,-0.21544446,0.42722103,0.0,0.0,0.0,-0.0031299042,0.0021711588,0.0018455088,0.0,0.0,0.0,inf,inf,inf,0,0,1,0
16468000,16383636,0,0,0.010986678,-0.21499017,0.43152064,0.0,0.0,0.0,-0.0016026199,0.0017161369,-0.0024566054,0.0,0.0,0.0,inf,inf,inf,0,0,1,0
16540000,16456000,0,0,0.0033522001,-0.21808477,0.4306428,0.0,0.0,0.0,0.0060796984,0.0047888607,-0.001590699,0.0,0.0,0.0,inf,inf,inf,0,0,1,0
16612000,16527636,0,0,0.009700377,-0.21656932,0.4290813,0.0,0.0,0.0,-0.0004406087,0.0032903254,-1.7017126e-05,0.0,0.0,0.0,inf,inf,inf,0,0,1,0
16684000,16600000,0,0,0.014433957,-0.21917944,0.4288216,0.0,0.0,0.0,-0.0051699495,0.0059111863,0.00024798512,0.0,0.0,0.0,inf,inf,inf,0,0,1,0
16756000,16670181,0,0,0.00912319,-0.2178317,0.42762294,0.0,0.0,0.0,0.00021358673,0.00454396,0.0014353096,0.0,0.0,0.0,inf,inf,inf,0,0,1,0
16828000,16744000,0,0,0.006521792,-0.20972285,0.42615747,0.0,0.0,0.0,0.0028174585,-0.0035241395,0.0029209852,0.0,0.0,0.0,inf,inf,inf,0,0,1,0
16900000,16815636,0,0,0.009409036,-0.21663745,0.4288895,0.0,0.0,0.0,-0.000119867735,0.0033894032,0.00018954277,0.0,0.0,0.0,inf,inf,inf,0,0,1,0
16972000,16888000,0,0,0.007954788,-0.21587989,0.42933553,0.0,0.0,0.0,0.0013517989,0.002605334,-0.00027000904,0.0,0.0,0.0,inf,inf,inf,0,0,1,0
17044000,16959272,0,0,0.009200429,-0.21606715,0.43075186,0.0,0.0,0.0,7.0328824e-05,0.0027723163,-0.0016956627,0.0,0.0,0.0,inf,inf,inf,0,0,1,0
17116000,17032000,0,0,0.01039969,-0.21206586,0.42802906,0.0,0.0,0.0,-0.001121236,-0.0012600422,0.0010114908,0.0,0.0,0.0,inf,inf,inf,0,0,1,0
17188000,17104000,0,0,0.01038297,-0.21590976,0.43007192,0.0,0.0,0.0,-0.0011072056,0.002576232,-0.0010350645,0.0,0.0,0.0,inf,inf,inf,0,0,1,0
17260000,17176000,0,0,0.0118725635,-0.2127271,0.42911386,0.0,0.0,0.0,-0.0025975667,-0.0005927086,-7.021427e-05,0.0,0.0,0.0,inf,inf,inf,0,0,1,0
17332000,17246909,0,0,0.0084775025,-0.21465012,0.42832762,0.0,0.0,0.0,0.0008486947,0.0013322383,0.0007159412,0.0,0.0,0.0,inf,inf,inf,0,0,1,0
17396000,17316000,0,0,0.007499363,-0.21621192,0.42341584,0.0,0.0,0.0,0.0017883074,0.0029047579,0.005633861,0.0,0.0,0.0,inf,inf,inf,0,0,1,0
17468000,17385200,0,0,0.010605893,-0.2141817,0.43123785,0.0,0.0,0.0,-0.0013300022,0.0008780807,-0.0021861494,0.0,0.0,0.0,inf,inf,inf,0,0,1,0
17540000,17456000,0,0,0.007164976,-0.22010528,0.42425874,0.0,0.0,0.0,0.0021338998,0.006796658,0.004790038,0.0,0.0,0.0,inf,inf,inf,0,0,1,0
17604000,17523555,0,0,0.010143253,-0.21572788,0.43153837,0.0,0.0,0.0,-0.0008988185,0.0024191588,-0.0024885833,0.0,0.0,0.0,inf,inf,inf,0,0,1,0
17676000,17596000,0,0,0.0068111913,-0.21625964,0.43525812,0.0,0.0,0.0,0.0024459464,0.0029558092,-0.006206125,0.0,0.0,0.0,inf,inf,inf,0,0,1,0
17748000,17667111,0,0,0.00941057,-0.21553521,0.42854252,0.0,0.0,0.0,-0.00019726437,0.0022880286,0.0005386174,0.0,0.0,0.0,inf,inf,inf,0,0,1,0
17820000,17734000,0,0,0.005919509,-0.21490991,0.428149,0.0,0.0,0.0,0.003333747,0.0016956925,0.00094762444,0.0,0.0,0.0,inf,inf,inf,0,0,1,0
17892000,17805200,0,0,0.010111393,-0.2175596,0.43005124,0.0,0.0,0.0,-0.0009401757,0.0043657124,-0.00094273686,0.0,0.0,0.0,inf,inf,inf,0,0,1,0
17956000,17872000,0,0,0.010858326,-0.21822408,0.42105505,0.0,0.0,0.0,-0.0016677147,0.0050372034,0.008056492,0.0,0.0,0.0,inf,inf,inf,0,0,1,0
18028000,17943636,0,0,0.009529611,-0.21603926,0.4291874,0.0,0.0,0.0,-0.00038015656,0.002909705,-4.646182e-05,0.0,0.0,0.0,inf,inf,inf,0,0,1,0
18100000,18016000,0,0,0.009706304,-0.21673192,0.43380153,0.0,0.0,0.0,-0.0005858103,0.0036302358,-0.0046461225,0.0,0.0,0.0,inf,inf,inf,0,0,1,0
18172000,18087636,0,0,0.009896136,-0.21670917,0.42976913,0.0,0.0,0.0,-0.0007983735,0.0036120117,-0.000611037,0.0,0.0,0.0,inf,inf,inf,0,0,1,0
18244000,18160000,0,0,0.006251286,-0.21813662,0.43479154,0.0,0.0,0.0,0.002860424,0.0050132424,-0.005646765,0.0,0.0,0.0,inf,inf,inf,0,0,1,0
18316000,18231636,0,0,0.008513952,-0.21507281,0.4304533,0.0,0.0,0.0,0.00055784546,0.0019331276,-0.0013157725,0.0,0.0,0.0,inf,inf,inf,0,0,1,0
18388000,18304000,0,0,0.008748285,-0.2154347,0.42558166,0.0,0.0,0.0,0.00030618254,0.0023126602,0.0035650432,0.0,0.0,0.0,inf,inf,inf,0,0,1,0
18460000,18375272,0,0,0.009839223,-0.21567781,0.43014228,0.0,0.0,0.0,-0.0008233944,0.0025589913,-0.0009932518,0.0,0.0,0.0,inf,inf,inf,0,0,1,0
18532000,18448000,0,0,0.0136964135,-0.20868224,0.43515775,0.0,0.0,0.0,-0.0046703033,-0.0043983907,-0.005989939,0.0,0.0,0.0,inf,inf,inf,0,0,1,0
18604000,18519272,0,0,0.009992081,-0.21526706,0.42998302,0.0,0.0,0.0,-0.00087032,0.0022011995,-0.0008099079,0.0,0.0,0.0,inf,inf,inf,0,0,1,0
18676000,18592000,0,0,0.013258335,-0.211399,0.43366024,0.0,0.0,0.0,-0.004091208,-0.0016546845,-0.004482001,0.0,0.0,0.0,inf,inf,inf,0,0,1,0
18748000,18663636,0,0,0.007715351,-0.21610694,0.42823598,0.0,0.0,0.0,0.0015068809,0.0030171126,0.00092309713,0.0,0.0,0.0,inf,inf,inf,0,0,1,0
18820000,18736000,0,0,0.013132982,-0.21449836,0.42555234,0.0,0.0,0.0,-0.003979787,0.0014253706,0.0036165416,0.0,0.0,0.0,inf,inf,inf,0,0,1,0
18892000,18807636,0,0,0.009638152,-0.21586089,0.43101487,0.0,0.0,0.0,-0.00043270644,0.0027892739,-0.0018464029,0.0,0.0,0.0,inf,inf,inf,0,0,1,0
18964000,18880000,0,0,0.011323846,-0.20911078,0.42707527,0.0,0.0,0.0,-0.0021584025,-0.0039812773,0.0020839572,0.0,0.0,0.0,inf,inf,inf,0,0,1,0
19036000,18952000,0,0,0.0107269,-0.21486716,0.4290216,0.0,0.0,0.0,-0.0015268037,0.0017784387,0.00013849139,0.0,0.0,0.0,inf,inf,inf,0,0,1,0
19108000,19024000,0,0,0.0032195817,-0.21519585,0.43217802,0.0,0.0,0.0,0.006032527,0.002120003,-0.0030125976,0.0,0.0,0.0,inf,inf,inf,0,0,1,0
19180000,19095272,0,0,0.009872936,-0.21598773,0.42955574,0.0,0.0,0.0,-0.0007441491,0.0029073209,-0.0003899634,0.0,0.0,0.0,inf,inf,inf,0,0,1,0
19252000,19168000,0,0,0.013742636,-0.22312747,0.4277696,0.0,0.0,0.0,-0.0045912964,0.010113344,0.0014285743,0.0,0.0,0.0,inf,inf,inf,0,0,1,0
19324000,19238181,0,0,0.009710775,-0.21598676,0.42890793,0.0,0.0,0.0,-0.0004787678,0.0029605925,0.00028255582,0.0,0.0,0.0,inf,inf,inf,0,0,1,0
19396000,19312000,0,0,0.0144524565,-0.21821985,0.42815125,0.0,0.0,0.0,-0.0052286824,0.0051804483,0.0010328293,0.0,0.0,0.0,inf,inf,inf,0,0,1,0
19468000,19383636,0,0,0.010874207,-0.21551737,0.42824036,0.0,0.0,0.0,-0.0015706299,0.0024626404,0.000934422,0.0,0.0,0.0,inf,inf,inf,0,0,1,0
19540000,19456000,0,0,0.008677928,-0.21622628,0.42993668,0.0,0.0,0.0,0.0006534923,0.0031660497,-0.00076523423,0.0,0.0,0.0,inf,inf,inf,0,0,1,0
19612000,19527272,0,0,0.009337822,-0.2153706,0.4286333,0.0,0.0,0.0,-3.6973506e-06,0.0023231357,0.000544399,0.0,0.0,0.0,inf,inf,inf,0,0,1,0
19684000,19600000,0,0,0.0052186116,-0.21277414,0.42848864,0.0,0.0,0.0,0.004126391,-0.00025349855,0.00069871545,0.0,0.0,0.0,inf,inf,inf,0,0,1,0
19756000,19671636,0,0,0.009088948,-0.21466967,0.429833,0.0,0.0,0.0,0.00017919391,0.0016587526,-0.00063574314,0.0,0.0,0.0,inf,inf,inf,0,0,1,0
19828000,19744000,0,0,0.011539515,-0.21217854,0.43168765,0.0,0.0,0.0,-0.00229216,-0.00086177886,-0.0025045276,0.0,0.0,0.0,inf,inf,inf,0,0,1,0
19900000,19814909,0,0,0.01033854,-0.21738076,0.42889318,0.0,0.0,0.0,-0.0010697944,0.0043145567,0.00027659535,0.0,0.0,0.0,inf,inf,inf,0,0,1,0
19964000,19884000,0,0,0.0077510956,-0.21492171,0.4305514,0.0,0.0,0.0,0.001560804,0.0018534064,-0.0013836026,0.0,0.0,0.0,inf,inf,inf,0,0,1,0
20036000,19954000,0,0,0.009740806,-0.21500897,0.42940566,0.0,0.0,0.0,-0.0005069217,0.001935482,-0.0002387166,0.0,0.0,0.0,inf,inf,inf,0,0,1,0
20108000,20026000,0,0,0.0063878903,-0.21419704,0.4319335,0.0,0.0,0.0,0.0028445413,0.0011351705,-0.0027607381,0.0,0.0,0.0,inf,inf,inf,0,0,1,0
20180000,20097200,0,0,0.008226516,-0.21480358,0.43026915,0.0,0.0,0.0,0.0009384658,0.001745671,-0.0010930002,0.0,0.0,0.0,inf,inf,inf,0,0,1,0
20252000,20168000,0,0,0.0075425766,-0.21994314,0.42976576,0.0,0.0,0.0,0.0015945472,0.0068642497,-0.0005994439,0.0,0.0,0.0,inf,inf,inf,0,0,1,0
20316000,20234666,0,0,0.009139186,-0.21518639,0.42906848,0.0,0.0,0.0,-7.500313e-05,0.0021380484,0.00011458993,0.0,0.0,0.0,inf,inf,inf,0,0,1,0
20388000,20305333,0,0,0.009837842,-0.21402249,0.43098664,0.0,0.0,0.0,-0.0007942971,0.0010072589,-0.0017867386,0.0,0.0,0.0,inf,inf,inf,0,0,1,0
20460000,20373000,0,0,0.010156447,-0.21716124,0.4310431,0.0,0.0,0.0,-0.0011142511,0.0042403936,-0.0017963648,0.0,0.0,0.0,inf,inf,inf,0,0,1,0
20524000,20440000,0,0,0.008181455,-0.21750718,0.42706537,0.0,0.0,0.0,0.00084471516,0.004622951,0.0021998584,0.0,0.0,0.0,inf,inf,inf,0,0,1,0
20596000,20511555,0,0,0.011029467,-0.21450013,0.4286032,0.0,0.0,0.0,-0.0020360574,0.0016032457,0.00065651536,0.0,0.0,0.0,inf,inf,inf,0,0,1,0
20668000,20584000,0,0,0.008425139,-0.21593551,0.42689884,0.0,0.0,0.0,0.0006258935,0.0030566305,0.0023685992,0.0,0.0,0.0,inf,inf,inf,0,0,1,0
20740000,20656000,0,0,0.0076951003,-0.21341613,0.43112054,0.0,0.0,0.0,0.0013485411,0.00053200126,-0.001855582,0.0,0.0,0.0,inf,inf,inf,0,0,1,0
20812000,20728000,0,0,0.007548649,-0.21682167,0.4294034,0.0,0.0,0.0,0.0014090501,0.0039926767,-0.000109285116,0.0,0.0,0.0,inf,inf,inf,0,0,1,0
20884000,20799555,0,0,0.008434001,-0.2161469,0.43002114,0.0,0.0,0.0,0.0005275421,0.003295958,-0.0007379949,0.0,0.0,0.0,inf,inf,inf,0,0,1,0
20956000,20870666,0,0,0.0111550465,-0.2146275,0.4282782,0.0,0.0,0.0,-0.002168499,0.0017883778,0.0010102689,0.0,0.0,0.0,inf,inf,inf,0,0,1,0
21028000,20943111,0,0,0.009900601,-0.2147964,0.4277886,0.0,0.0,0.0,-0.0008866424,0.0019620806,0.0015016794,0.0,0.0,0.0,inf,inf,inf,0,0,1,0
21092000,21010000,0,0,0.011241853,-0.21383241,0.43027267,0.0,0.0,0.0,-0.002246879,0.0010034591,-0.0009792745,0.0,0.0,0.0,inf,inf,inf,0,0,1,0
21164000,21082000,0,0,0.010533725,-0.21282096,0.42936325,0.0,0.0,0.0,-0.0015176805,-4.2960048e-05,-8.767843e-05,0.0,0.0,0.0,inf,inf,inf,0,0,1,0
21236000,21154000,0,0,0.013126595,-0.21282,0.4306275,0.0,0.0,0.0,-0.0041188877,-2.8565526e-05,-0.0013441443,0.0,0.0,0.0,inf,inf,inf,0,0,1,0
21308000,21225200,0,0,0.009715279,-0.21412411,0.42930108,0.0,0.0,0.0,-0.00065742154,0.0012981296,-7.56979e-06,0.0,0.0,0.0,inf,inf,inf,0,0,1,0
21372000,21292000,0,0,0.012607628,-0.21678773,0.43474096,0.0,0.0,0.0,-0.0035260255,0.0039824247,-0.005437672,0.0,0.0,0.0,inf,inf,inf,0,0,1,0
21444000,21362545,0,0,0.008935225,-0.21428464,0.42967772,0.0,0.0,0.0,0.00022874307,0.0014725924,-0.00037956238,0.0,0.0,0.0,inf,inf,inf,0,0,1,0
21516000,21432000,0,0,0.007584733,-0.20993216,0.4273952,0.0,0.0,0.0,0.0015287129,-0.0028844029,0.0019018352,0.0,0.0,0.0,inf,inf,inf,0,0,1,0
21588000,21502000,0,0,0.009720748,-0.21678977,0.42754245,0.0,0.0,0.0,-0.00058088265,0.0039507,0.0017428398,0.0,0.0,0.0,inf,inf,inf,0,0,1,0
21660000,21574000,0,0,0.010579063,-0.21193373,0.43150696,0.0,0.0,0.0,-0.0014162641,-0.00085127354,-0.0021954179,0.0,0.0,0.0,inf,inf,inf,0,0,1,0
21732000,21645200,0,0,0.009086299,-0.21648577,0.42952776,0.0,0.0,0.0,0.00014590193,0.0036956966,-0.00022017956,0.0,0.0,0.0,inf,inf,inf,0,0,1,0
21796000,21712000,0,0,0.005027418,-0.21866228,0.42798406,0.0,0.0,0.0,0.0042296452,0.00584884,0.001311332,0.0,0.0,0.0,inf,inf,inf,0,0,1,0
21868000,21783636,0,0,0.008889037,-0.21517496,0.4300634,0.0,0.0,0.0,0.000325975,0.0023704618,-0.0007626116,0.0,0.0,0.0,inf,inf,inf,0,0,1,0
21940000,21856000,0,0,0.012293938,-0.21695498,0.43004465,0.0,0.0,0.0,-0.0030566333,0.004150212,-0.000744462,0.0,0.0,0.0,inf,inf,inf,0,0,1,0
22012000,21927272,0,0,0.008735004,-0.21370848,0.42871568,0.0,0.0,0.0,0.00056534726,0.0009467006,0.0006044805,0.0,0.0,0.0,inf,inf,inf,0,0,1,0
22084000,22000000,0,0,0.014498743,-0.21648468,0.42814842,0.0,0.0,0.0,-0.005195926,0.0037149638,0.0011677444,0.0,0.0,0.0,inf,inf,inf,0,0,1,0
22156000,22071636,0,0,0.007892971,-0.21425483,0.43011713,0.0,0.0,0.0,0.0014671413,0.0015074909,-0.00079116225,0.0,0.0,0.0,inf,inf,inf,0,0,1,0
22228000,22144000,0,0,0.014661798,-0.21266642,0.42172068,0.0,0.0,0.0,-0.0053148735,-9.8884106e-05,0.0075966716,0.0,0.0,0.0,inf,inf,inf,0,0,1,0
22300000,22214909,0,0,0.010142833,-0.21561679,0.42889288,0.0,0.0,0.0,-0.0007102415,0.0028698444,0.00043168664,0.0,0.0,0.0,inf,inf,inf,0,0,1,0
22372000,22288000,0,0,0.0042153527,-0.21434377,0.42809582,0.0,0.0,0.0,0.005234457,0.0015925616,0.0012262464,0.0,0.0,0.0,inf,inf,inf,0,0,1,0
22444000,22358909,0,0,0.009081164,-0.21317701,0.43102634,0.0,0.0,0.0,0.00034343265,0.00047639012,-0.001678586,0.0,0.0,0.0,inf,inf,inf,0,0,1,0
22516000,22432000,0,0,0.020881556,-0.21842743,0.4320175,0.0,0.0,0.0,-0.011455871,0.005757019,-0.0026548803,0.0,0.0,0.0,inf,inf,inf,0,0,1,0
22588000,22503636,0,0,0.00923149,-0.21571559,0.4295765,0.0,0.0,0.0,0.00034392904,0.0030578077,-0.00021091104,0.0,0.0,0.0,inf,inf,inf,0,0,1,0
22660000,22576000,0,0,0.007908446,-0.21220861,0.43425244,0.0,0.0,0.0,0.0016534058,-0.00044232607,-0.0048831105,0.0,0.0,0.0,inf,inf,inf,0,0,1,0
22732000,22646909,0,0,0.010626773,-0.21526241,0.4283776,0.0,0.0,0.0,-0.0010993807,0.0026193857,0.000996381,0.0,0.0,0.0,inf,inf,inf,0,0,1,0
22804000,22720000,0,0,0.0017133092,-0.2142148,0.4328768,0.0,0.0,0.0,0.00786471,0.0015996993,-0.00349015,0.0,0.0,0.0,inf,inf,inf,0,0,1,0
22876000,22790545,0,0,0.009954434,-0.21543111,0.42875117,0.0,0.0,0.0,-0.00047988072,0.00280492,0.0006322861,0.0,0.0,0.0,inf,inf,inf,0,0,1,0
22948000,22864000,0,0,0.011950903,-0.21489434,0.4351384,0.0,0.0,0.0,-0.0024687126,0.0022652447,-0.005756557,0.0,0.0,0.0,inf,inf,inf,0,0,1,0
23020000,22935272,0,0,0.008763097,-0.21480931,0.4286929,0.0,0.0,0.0,0.00072829425,0.002164781,0.0006811321,0.0,0.0,0.0,inf,inf,inf,0,0,1,0
23092000,23008000,0,0,0.0034361824,-0.22130896,0.43508753,0.0,0.0,0.0,0.006044316,0.0086667985,-0.0057120323,0.0,0.0,0.0,inf,inf,inf,0,0,1,0
23164000,23079272,0,0,0.009318517,-0.21466482,0.4295618,0.0,0.0,0.0,5.7994388e-05,0.0020111352,-0.00018981099,0.0,0.0,0.0,inf,inf,inf,0,0,1,0
23236000,23152000,0,0,0.011939407,-0.22065957,0.43047816,0.0,0.0,0.0,-0.002481238,0.007975295,-0.0011231303,0.0,0.0,0.0,inf,inf,inf,0,0,1,0
23308000,23222909,0,0,0.0074262554,-0.21523345,0.4279809,0.0,0.0,0.0,0.002056255,0.0025601685,0.0013791025,0.0,0.0,0.0,inf,inf,inf,0,0,1,0
23380000,23296000,0,0,0.008266221,-0.2166395,0.42743224,0.0,0.0,0.0,0.0011644857,0.0039750785,0.0019332767,0.0,0.0,0.0,inf,inf,inf,0,0,1,0
23452000,23366545,0,0,0.009602377,-0.21583684,0.4294871,0.0,0.0,0.0,-0.0001672227,0.003168419,-0.00012364984,0.0,0.0,0.0,inf,inf,inf,0,0,1,0
23524000,23440000,0,0,0.0065339035,-0.21357355,0.42997435,0.0,0.0,0.0,0.0029024952,0.000911355,-0.00060787797,0.0,0.0,0.0,inf,inf,inf,0,0,1,0
23596000,23511272,0,0,0.008645927,-0.21290617,0.43037164,0.0,0.0,0.0,0.0007279841,0.0002437383,-0.001003921,0.0,0.0,0.0,inf,inf,inf,0,0,1,0
23668000,23584000,0,0,0.0067739934,-0.21514305,0.43157575,0.0,0.0,0.0,0.002609551,0.002504617,-0.0021963418,0.0,0.0,0.0,inf,inf,inf,0,0,1,0
23740000,23655272,0,0,0.006430792,-0.21605806,0.43044868,0.0,0.0,0.0,0.0028908453,0.003408447,-0.00107342,0.0,0.0,0.0,inf,inf,inf,0,0,1,0
23812000,23728000,0,0,0.011052189,-0.21285763,0.43800336,0.0,0.0,0.0,-0.001784062,0.0002232194,-0.008619428,0.0,0.0,0.0,inf,inf,inf,0,0,1,0
23884000,23798545,0,0,0.008601787,-0.21608417,0.4309698,0.0,0.0,0.0,0.0007065218,0.0034450889,-0.00158903,0.0,0.0,0.0,inf,inf,inf,0,0,1,0
23956000,23872000,0,0,0.010046998,-0.21804374,0.42791623,0.0,0.0,0.0,-0.000739241,0.005410135,0.0014671683,0.0,0.0,0.0,inf,inf,inf,0,0,1,0
24028000,23943636,0,0,0.00933266,-0.21643941,0.42788896,0.0,0.0,0.0,5.0512142e-05,0.0038122386,0.0014959872,0.0,0.0,0.0,inf,inf,inf,0,0,1,0
24100000,24016000,0,0,0.011929697,-0.21233185,0.42811146,0.0,0.0,0.0,-0.0025671935,-0.00027129054,0.001285851,0.0,0.0,0.0,inf,inf,inf,0,0,1,0
24172000,24087636,0,0,0.009281695,-0.21488015,0.42987913,0.0,0.0,0.0,9.916723e-05,0.002283305,-0.00047904253,0.0,0.0,0.0,inf,inf,inf,0,0,1,0
24244000,24160000,0,0,0.0058794226,-0.21779837,0.42700648,0.0,0.0,0.0,0.0034654755,0.0052019656,0.0023946166,0.0,0.0,0.0,inf,inf,inf,0,0,1,0
24316000,24230545,0,0,0.008462463,-0.2155118,0.427319,0.0,0.0,0.0,0.0008236505,0.0029378533,0.0020944774,0.0,0.0,0.0,inf,inf,inf,0,0,1,0
24388000,24304000,0,0,0.012689908,-0.21402031,0.42752796,0.0,0.0,0.0,-0.003394355,0.0014559329,0.0018900633,0.0,0.0,0.0,inf,inf,inf,0,0,1,0
24460000,24375272,0,0,0.009501313,-0.21531175,0.42835873,0.0,0.0,0.0,-0.00016317237,0.0027800947,0.0010745525,0.0,0.0,0.0,inf,inf,inf,0,0,1,0
24532000,24448000,0,0,0.015328343,-0.21647385,0.4247004,0.0,0.0,0.0,-0.0060204444,0.0039326847,0.004728824,0.0,0.0,0.0,inf,inf,inf,0,0,1,0
24604000,24519272,0,0,0.011085823,-0.21425557,0.4297957,0.0,0.0,0.0,-0.0016743615,0.0017681718,-0.00034210086,0.0,0.0,0.0,inf,inf,inf,0,0,1,0
24676000,24592000,0,0,0.0045067077,-0.21118516,0.42449975,0.0,0.0,0.0,0.004920713,-0.0013028979,0.004953146,0.0,0.0,0.0,inf,inf,inf,0,0,1,0
24748000,24663272,0,0,0.01017137,-0.21592815,0.43077606,0.0,0.0,0.0,-0.0008002231,0.0034565777,-0.001313746,0.0,0.0,0.0,inf,inf,inf,0,0,1,0
24820000,24736000,0,0,0.012379472,-0.22003685,0.41910267,0.0,0.0,0.0,-0.0030134516,0.007581711,0.0103678405,0.0,0.0,0.0,inf,inf,inf,0,0,1,0
24892000,24806909,0,0,0.009483637,-0.21467456,0.4297243,0.0,0.0,0.0,-8.9349225e-05,0.0022334605,-0.00024744868,0.0,0.0,0.0,inf,inf,inf,0,0,1,0
24964000,24880000,0,0,0.007858313,-0.21080147,0.42646047,0.0,0.0,0.0,0.0015417123,-0.0016510934,0.0030105412,0.0,0.0,0.0,inf,inf,inf,0,0,1,0
25036000,24951636,0,0,0.010499781,-0.21460918,0.43070513,0.0,0.0,0.0,-0.0010981467,0.0021605343,-0.0012322068,0.0,0.0,0.0,inf,inf,inf,0,0,1,0
25108000,25024000,0,0,0.008202298,-0.22247896,0.43444553,0.0,0.0,0.0,0.0012120102,0.010025024,-0.0049754977,0.0,0.0,0.0,inf,inf,inf,0,0,1,0
25180000,25095636,0,0,0.009414905,-0.21490347,0.42937946,0.0,0.0,0.0,-2.6241876e-05,0.0024484098,9.0658665e-05,0.0,0.0,0.0,inf,inf,inf,0,0,1,0
25252000,25168000,0,0,0.010220339,-0.21242565,0.42912132,0.0,0.0,0.0,-0.0008101659,-1.5884638e-05,0.00035500526,0.0,0.0,0.0,inf,inf,inf,0,0,1,0
25324000,25239272,0,0,0.008824539,-0.21357884,0.42931128,0.0,0.0,0.0,0.00063019525,0.0011664182,0.0001784563,0.0,0.0,0.0,inf,inf,inf,0,0,1,0
25396000,25312000,0,0,0.011508225,-0.21411394,0.4282477,0.0,0.0,0.0,-0.0020469269,0.0017107427,0.0012464523,0.0,0.0,0.0,inf,inf,inf,0,0,1,0
25468000,25383636,0,0,0.0103239585,-0.21565323,0.43041322,0.0,0.0,0.0,-0.00080520846,0.0032373369,-0.0009266436,0.0,0.0,0.0,inf,inf,inf,0,0,1,0
25540000,25456000,0,0,0.012290716,-0.2168122,0.429848,0.0,0.0,0.0,-0.002767019,0.0043994784,-0.00035992265,0.0,0.0,0.0,inf,inf,inf,0,0,1,0
25612000,25526909,0,0,0.008798686,-0.21560049,0.4302168,0.0,0.0,0.0,0.000854644,0.003207475,-0.00072187185,0.0,0.0,0.0,inf,inf,inf,0,0,1,0
25684000,25600000,0,0,0.013701182,-0.21767889,0.43151867,0.0,0.0,0.0,-0.0040607415,0.0053156316,-0.002008766,0.0,0.0,0.0,inf,inf,inf,0,0,1,0
25756000,25670545,0,0,0.009227445,-0.21353868,0.42754698,0.0,0.0,0.0,0.00044211932,0.0011790842,0.0019640625,0.0,0.0,0.0,inf,inf,inf,0,0,1,0
25828000,25744000,0,0,0.011178857,-0.2162122,0.43595397,0.0,0.0,0.0,-0.0014962759,0.0038715452,-0.0064338446,0.0,0.0,0.0,inf,inf,inf,0,0,1,0
25900000,25815272,0,0,0.009305075,-0.21468118,0.42909506,0.0,0.0,0.0,0.00040129572,0.0023421794,0.00042533875,0.0,0.0,0.0,inf,inf,inf,0,0,1,0
25972000,25888000,0,0,0.010392273,-0.21755601,0.42652467,0.0,0.0,0.0,-0.00068149157,0.0051860064,0.0029803216,0.0,0.0,0.0,inf,inf,inf,0,0,1,0
26044000,25959272,0,0,0.008834761,-0.21577103,0.43112755,0.0,0.0,0.0,0.0009242557,0.003431365,-0.0016086996,0.0,0.0,0.0,inf,inf,inf,0,0,1,0
26116000,26032000,0,0,0.006494693,-0.2197386,0.42700446,0.0,0.0,0.0,0.0032802005,0.0073887706,0.002508998,0.0,0.0,0.0,inf,inf,inf,0,0,1,0
26188000,26103272,0,0,0.009182636,-0.21583939,0.42893362,0.0,0.0,0.0,0.0005164109,0.0034971833,0.0005853474,0.0,0.0,0.0,inf,inf,inf,0,0,1,0
26260000,26176000,0,0,0.0108122425,-0.21484429,0.428827,0.0,0.0,0.0,-0.0011153417,0.0025236905,0.00070270896,0.0,0.0,0.0,inf,inf,inf,0,0,1,0
26332000,26248000,0,0,0.009219271,-0.21387526,0.42962712,0.0,0.0,0.0,0.00049741846,0.0015553534,-9.74834e-05,0.0,0.0,0.0,inf,inf,inf,0,0,1,0
26404000,26320000,0,0,0.013208405,-0.213522,0.42756867,0.0,0.0,0.0,-0.0034942636,0.001186654,0.0019533634,0.0,0.0,0.0,inf,inf,inf,0,0,1,0
26476000,26392000,0,0,0.009605275,-0.21429825,0.42770213,0.0,0.0,0.0,0.00015544053,0.0019392222,0.0018071532,0.0,0.0,0.0,inf,inf,inf,0,0,1,0
26548000,26464000,0,0,0.006807612,-0.21479146,0.42803106,0.0,0.0,0.0,0.0029524178,0.0024489611,0.0014864504,0.0,0.0,0.0,inf,inf,inf,0,0,1,0
26620000,26535636,0,0,0.009376836,-0.21414554,0.42704505,0.0,0.0,0.0,0.00036281627,0.0018008947,0.0024718642,0.0,0.0,0.0,inf,inf,inf,0,0,1,0
26692000,26608000,0,0,0.010899657,-0.21461941,0.43166974,0.0,0.0,0.0,-0.0011553634,0.0022657365,-0.00215742,0.0,0.0,0.0,inf,inf,inf,0,0,1,0
26764000,26679636,0,0,0.010373163,-0.21510446,0.42925662,0.0,0.0,0.0,-0.00062835496,0.0027793348,0.00026971102,0.0,0.0,0.0,inf,inf,inf,0,0,1,0
26836000,26752000,0,0,0.012209138,-0.21352017,0.4348825,0.0,0.0,0.0,-0.002350567,0.0011952668,-0.005358577,0.0,0.0,0.0,inf,inf,inf,0,0,1,0
26908000,26823636,0,0,0.008905264,-0.21361832,0.4274033,0.0,0.0,0.0,0.00092593394,0.001285091,0.0021171272,0.0,0.0,0.0,inf,inf,inf,0,0,1,0
26980000,26896000,0,0,0.003439179,-0.21677814,0.43731835,0.0,0.0,0.0,0.0063916165,0.004453093,-0.0077938735,0.0,0.0,0.0,inf,inf,inf,0,0,1,0
27052000,26967636,0,0,0.009208264,-0.213149,0.4293451,0.0,0.0,0.0,0.00053669326,0.00084912777,0.0001938045,0.0,0.0,0.0,inf,inf,inf,0,0,1,0
27124000,27040000,0,0,0.013228414,-0.21869339,0.42239386,0.0,0.0,0.0,-0.0035150917,0.0063717216,0.007134974,0.0,0.0,0.0,inf,inf,inf,0,0,1,0
27196000,27111636,0,0,0.007644419,-0.21512316,0.4273092,0.0,0.0,0.0,0.0021094787,0.002774641,0.0022054613,0.0,0.0,0.0,inf,inf,inf,0,0,1,0
27268000,27184000,0,0,0.005780026,-0.21498658,0.43125242,0.0,0.0,0.0,0.004005641,0.002626881,-0.0017440319,0.0,0.0,0.0,inf,inf,inf,0,0,1,0
27340000,27256000,0,0,0.009899458,-0.21510571,0.43093294,0.0,0.0,0.0,-0.00014675222,0.0027412325,-0.0014262199,0.0,0.0,0.0,inf,inf,inf,0,0,1,0
27412000,27328000,0,0,0.014094597,-0.21760839,0.4238387,0.0,0.0,0.0,-0.004349103,0.005289972,0.005690962,0.0,0.0,0.0,inf,inf,inf,0,0,1,0
27484000,27399272,0,0,0.007952926,-0.21473989,0.4282995,0.0,0.0,0.0,0.0018494902,0.0024384707,0.0012373626,0.0,0.0,0.0,inf,inf,inf,0,0,1,0
27556000,27472000,0,0,0.002738696,-0.21600355,0.42784107,0.0,0.0,0.0,0.007052179,0.0036861151,0.001688093,0.0,0.0,0.0,inf,inf,inf,0,0,1,0
27628000,27542545,0,0,0.009478311,-0.21498594,0.4268228,0.0,0.0,0.0,0.0002932744,0.0026796758,0.0027122796,0.0,0.0,0.0,inf,inf,inf,0,0,1,0
27700000,27616000,0,0,0.012181571,-0.21516602,0.42921385,0.0,0.0,0.0,-0.0024019908,0.0028826743,0.0003323853,0.0,0.0,0.0,inf,inf,inf,0,0,1,0
27772000,27686181,0,0,0.008687596,-0.21814768,0.42995852,0.0,0.0,0.0,0.0011349814,0.005870566,-0.00041019917,0.0,0.0,0.0,inf,inf,inf,0,0,1,0
27844000,27760000,0,0,0.010929758,-0.2161088,0.42212042,0.0,0.0,0.0,-0.0011064876,0.003826052,0.0074251294,0.0,0.0,0.0,inf,inf,inf,0,0,1,0
27916000,27831272,0,0,0.010188841,-0.21638636,0.42975166,0.0,0.0,0.0,-0.0003394941,0.004097566,-0.00020965934,0.0,0.0,0.0,inf,inf,inf,0,0,1,0
27988000,27904000,0,0,0.012780896,-0.21206135,0.4230042,0.0,0.0,0.0,-0.0029332852,-0.00022393465,0.0065395534,0.0,0.0,0.0,inf,inf,inf,0,0,1,0
28060000,27975636,0,0,0.010073504,-0.21378247,0.43097293,0.0,0.0,0.0,-0.0001517823,0.0014546067,-0.0014519691,0.0,0.0,0.0,inf,inf,inf,0,0,1,0
28132000,28048000,0,0,0.0047256476,-0.22420342,0.4318344,0.0,0.0,0.0,0.005203145,0.011861056,-0.0023207664,0.0,0.0,0.0,inf,inf,inf,0,0,1,0
28204000,28119272,0,0,0.010114962,-0.21555012,0.43149373,0.0,0.0,0.0,-0.00023310073,0.0032423586,-0.0019619167,0.0,0.0,0.0,inf,inf,inf,0,0,1,0
28276000,28192000,0,0,0.012194757,-0.22081317,0.42548075,0.0,0.0,0.0,-0.0023265155,0.008501336,0.00404945,0.0,0.0,0.0,inf,inf,inf,0,0,1,0
28348000,28262909,0,0,0.010998311,-0.21606524,0.4284225,0.0,0.0,0.0,-0.0011247275,0.0037638545,0.0011126399,0.0,0.0,0.0,inf,inf,inf,0,0,1,0
28420000,28336000,0,0,0.014652805,-0.21576688,0.43355355,0.0,0.0,0.0,-0.0047484282,0.0034539104,-0.0040248334,0.0,0.0,0.0,inf,inf,inf,0,0,1,0
28492000,28408000,0,0,0.010349947,-0.2141723,0.43100405,0.0,0.0,0.0,-0.0003432287,0.0018663704,-0.0014742017,0.0,0.0,0.0,inf,inf,inf,0,0,1,0
28564000,28480000,0,0,0.013820938,-0.22033156,0.42683977,0.0,0.0,0.0,-0.0037982976,0.007995769,0.002674967,0.0,0.0,0.0,inf,inf,inf,0,0,1,0
28636000,28550545,0,0,0.008454847,-0.21452212,0.4295324,0.0,0.0,0.0,0.0015897425,0.0021882057,-1.7285347e-05,0.0,0.0,0.0,inf,inf,inf,0,0,1,0
28708000,28624000,0,0,0.008862663,-0.2211474,0.4284401,0.0,0.0,0.0,0.001186002,0.008838788,0.0010874867,0.0,0.0,0.0,inf,inf,inf,0,0,1,0
28780000,28695636,0,0,0.01226549,-0.21577899,0.43002957,0.0,0.0,0.0,-0.0022098366,0.0034923106,-0.0004913211,0.0,0.0,0.0,inf,inf,inf,0,0,1,0
28844000,28764000,0,0,0.014269468,-0.21857981,0.42530864,0.0,0.0,0.0,-0.004129273,0.0062325895,0.0041976273,0.0,0.0,0.0,inf,inf,inf,0,0,1,0
28916000,28832800,0,0,0.008256726,-0.2168833,0.4296484,0.0,0.0,0.0,0.0019192323,0.004559666,-0.00013121963,0.0,0.0,0.0,inf,inf,inf,0,0,1,0
28988000,28904000,0,0,0.009411713,-0.21715054,0.43303835,0.0,0.0,0.0,0.00074600615,0.0048149824,-0.0035266578,0.0,0.0,0.0,inf,inf,inf,0,0,1,0
29060000,28976000,0,0,0.009431716,-0.21445766,0.42728662,0.0,0.0,0.0,0.00077042356,0.0021231622,0.002224505,0.0,0.0,0.0,inf,inf,inf,0,0,1,0
29124000,29044000,0,0,0.007713003,-0.21508074,0.43582273,0.0,0.0,0.0,0.0024890248,0.002747953,-0.006310761,0.0,0.0,0.0,inf,inf,inf,0,0,1,0
29196000,29114909,0,0,0.009968199,-0.21659648,0.42885253,0.0,0.0,0.0,0.00026980788,0.0042125583,0.00063332915,0.0,0.0,0.0,inf,inf,inf,0,0,1,0
29268000,29188000,0,0,0.015280323,-0.22296783,0.43717498,0.0,0.0,0.0,-0.005068602,0.010587111,-0.007686913,0.0,0.0,0.0,inf,inf,inf,0,0,1,0
29340000,29259636,0,0,0.009271255,-0.21485743,0.4304498,0.0,0.0,0.0,0.0009887386,0.0024639368,-0.0009692013,0.0,0.0,0.0,inf,inf,inf,0,0,1,0
29412000,29332000,0,0,0.015815305,-0.21982746,0.4358476,0.0,0.0,0.0,-0.005541945,0.00741677,-0.0063758194,0.0,0.0,0.0,inf,inf,inf,0,0,1,0
29484000,29403272,0,0,0.010801448,-0.21496718,0.43168217,0.0,0.0,0.0,-0.00046964549,0.0025468469,-0.0022165477,0.0,0.0,0.0,inf,inf,inf,0,0,1,0
29556000,29476000,0,0,0.009896136,-0.22031711,0.42535055,0.0,0.0,0.0,0.00045430753,0.00789009,0.00411129,0.0,0.0,0.0,inf,inf,inf,0,0,1,0
29628000,29546909,0,0,0.00921022,-0.21520498,0.43236786,0.0,0.0,0.0,0.0012172628,0.0027991533,-0.0028973818,0.0,0.0,0.0,inf,inf,inf,0,0,1,0
29700000,29620000,0,0,0.01569155,-0.21353313,0.43114865,0.0,0.0,0.0,-0.005277278,0.001132369,-0.0016753078,0.0,0.0,0.0,inf,inf,inf,0,0,1,0
29772000,29691272,0,0,0.009801656,-0.21463646,0.42829406,0.0,0.0,0.0,0.0006867498,0.0022235364,0.0011714101,0.0,0.0,0.0,inf,inf,inf,0,0,1,0
29844000,29764000,0,0,0.0016616482,-0.21412897,0.4367195,0.0,0.0,0.0,0.008828315,0.0016930401,-0.0072654784,0.0,0.0,0.0,inf,inf,inf,0,0,1,0
29916000,29835636,0,0,0.010031566,-0.21537396,0.4290666,0.0,0.0,0.0,0.00037048757,0.0029399395,0.00039055943,0.0,0.0,0.0,inf,inf,inf,0,0,1,0
29988000,29904000,0,0,0.0059238165,-0.21593772,0.43452507,0.0,0.0,0.0,0.0044867904,0.0035008937,-0.0050694942,0.0,0.0,0.0,inf,inf,inf,0,0,1,0
30060000,29974000,0,0,0.009735682,-0.21565406,0.430593,0.0,0.0,0.0,0.00069141295,0.003178537,-0.0011570156,0.0,0.0,0.0,inf,inf,inf,0,0,1,0
30124000,30044000,0,0,0.005504951,-0.21549883,0.4313445,0.0,0.0,0.0,0.0048751608,0.003003925,-0.0019169748,0.0,0.0,0.0,inf,inf,inf,0,0,1,0
30196000,30110666,0,0,0.007897721,-0.21529068,0.43111402,0.0,0.0,0.0,0.0024068495,0.0028000623,-0.0016825795,0.0,0.0,0.0,inf,inf,inf,0,0,1,0
30268000,30182666,0,0,0.006923303,-0.21572328,0.4298837,0.0,0.0,0.0,0.0033548325,0.003224671,-0.0004555285,0.0,0.0,0.0,inf,inf,inf,0,0,1,0
30340000,30255111,0,0,0.010502481,-0.21422763,0.42729542,0.0,0.0,0.0,-0.00026489887,0.0017205626,0.0021294951,0.0,0.0,0.0,inf,inf,inf,0,0,1,0
30404000,30322000,0,0,0.0049298797,-0.21130183,0.4255885,0.0,0.0,0.0,0.0054394435,-0.0012465119,0.0038129091,0.0,0.0,0.0,inf,inf,inf,0,0,1,0
30476000,30393600,0,0,0.009811486,-0.21799584,0.430845,0.0,0.0,0.0,0.00046332646,0.005411133,-0.0014593303,0.0,0.0,0.0,inf,inf,inf,0,0,1,0
30548000,30466000,0,0,0.009698932,-0.21535012,0.4266647,0.0,0.0,0.0,0.00061795395,0.002776146,0.0027252436,0.0,0.0,0.0,inf,inf,inf,0,0,1,0
30620000,30536400,0,0,0.009311845,-0.2158011,0.42966715,0.0,0.0,0.0,0.00097031426,0.0032498091,-0.00026515126,0.0,0.0,0.0,inf,inf,inf,0,0,1,0
30684000,30604000,0,0,0.00933347,-0.21229604,0.41812852,0.0,0.0,0.0,0.00095334556,-0.00027281046,0.011264682,0.0,0.0,0.0,inf,inf,inf,0,0,1,0
30756000,30675636,0,0,0.008116476,-0.21516363,0.4281941,0.0,0.0,0.0,0.0021918043,0.0025883764,0.001195401,0.0,0.0,0.0,inf,inf,inf,0,0,1,0
30828000,30748000,0,0,0.013581845,-0.21409295,0.42674616,0.0,0.0,0.0,-0.0032757772,0.0015017092,0.0026355386,0.0,0.0,0.0,inf,inf,inf,0,0,1,0
30900000,30819272,0,0,0.010554221,-0.21433924,0.4324836,0.0,0.0,0.0,-0.00021472294,0.0017549694,-0.0030993223,0.0,0.0,0.0,inf,inf,inf,0,0,1,0
30972000,30888000,0,0,0.0053980215,-0.21764131,0.4352322,0.0,0.0,0.0,0.004945843,0.0050567985,-0.0058481395,0.0,0.0,0.0,inf,inf,inf,0,0,1,0
31044000,30957600,0,0,0.010327681,-0.21612465,0.4300765,0.0,0.0,0.0,-1.38049945e-05,0.0035277456,-0.0006978512,0.0,0.0,0.0,inf,inf,inf,0,0,1,0
31116000,31030000,0,0,0.014866374,-0.21275087,0.43151897,0.0,0.0,0.0,-0.0045496672,0.00012169778,-0.002156347,0.0,0.0,0.0,inf,inf,inf,0,0,1,0
31188000,31102000,0,0,0.009685048,-0.21537785,0.42860776,0.0,0.0,0.0,0.0006509563,0.002722755,0.0007415414,0.0,0.0,0.0,inf,inf,inf,0,0,1,0
31252000,31172000,0,0,0.0074947933,-0.22094649,0.42796403,0.0,0.0,0.0,0.0029062321,0.008266091,0.0013711452,0.0,0.0,0.0,inf,inf,inf,0,0,1,0
31324000,31239555,0,0,0.008663107,-0.21416445,0.42739737,0.0,0.0,0.0,0.0016921498,0.0014806241,0.0019372702,0.0,0.0,0.0,inf,inf,inf,0,0,1,0
31396000,31312000,0,0,0.007007028,-0.21659708,0.42488846,0.0,0.0,0.0,0.0033763843,0.0039004982,0.0044391453,0.0,0.0,0.0,inf,inf,inf,0,0,1,0
31468000,31383555,0,0,0.010235145,-0.21477662,0.42973188,0.0,0.0,0.0,0.00012289826,0.0020691901,-0.00040906668,0.0,0.0,0.0,inf,inf,inf,0,0,1,0
31540000,31454666,0,0,0.010161691,-0.2162581,0.43030304,0.0,0.0,0.0,0.00020839926,0.0035547167,-0.0009784698,0.0,0.0,0.0,inf,inf,inf,0,0,1,0
31604000,31521500,0,0,0.007966111,-0.21475875,0.42992154,0.0,0.0,0.0,0.0024548369,0.0020401478,-0.0006057918,0.0,0.0,0.0,inf,inf,inf,0,0,1,0
31676000,31594000,0,0,0.009791886,-0.21380652,0.42937684,0.0,0.0,0.0,0.0006122235,0.001069516,-6.979704e-05,0.0,0.0,0.0,inf,inf,inf,0,0,1,0
31748000,31665500,0,0,0.010313015,-0.21447816,0.43119162,0.0,0.0,0.0,6.1344355e-05,0.0017406046,-0.0018841028,0.0,0.0,0.0,inf,inf,inf,0,0,1,0
31820000,31738000,0,0,0.011481117,-0.21395224,0.43017033,0.0,0.0,0.0,-0.0010775365,0.0012150109,-0.0008633733,0.0,0.0,0.0,inf,inf,inf,0,0,1,0
31892000,31808500,0,0,0.010089613,-0.21355917,0.4289571,0.0,0.0,0.0,0.00032322202,0.0008203536,0.00034883618,0.0,0.0,0.0,inf,inf,inf,0,0,1,0
31956000,31876000,0,0,0.011497779,-0.21668172,0.42950544,0.0,0.0,0.0,-0.0010888558,0.0039646924,-0.0001885891,0.0,0.0,0.0,inf,inf,inf,0,0,1,0
32028000,31948000,0,0,0.008278595,-0.21546544,0.42825797,0.0,0.0,0.0,0.0022273865,0.0027310848,0.0010479391,0.0,0.0,0.0,inf,inf,inf,0,0,1,0
32100000,32020000,0,0,0.007519038,-0.21728832,0.43282384,0.0,0.0,0.0,0.0029467926,0.0045380294,-0.0035248697,0.0,0.0,0.0,inf,inf,inf,0,0,1,0
32172000,32090666,0,0,0.010647804,-0.21496776,0.43036503,0.0,0.0,0.0,-0.00020184368,0.0022242963,-0.0010620952,0.0,0.0,0.0,inf,inf,inf,0,0,1,0
32244000,32158000,0,0,0.008223493,-0.21562079,0.43202013,0.0,0.0,0.0,0.0022211708,0.0028727055,-0.0027195513,0.0,0.0,0.0,inf,inf,inf,0,0,1,0
32316000,32229200,0,0,0.010221666,-0.21612957,0.4284753,0.0,0.0,0.0,0.00024125166,0.0033983141,0.00083324313,0.0,0.0,0.0,inf,inf,inf,0,0,1,0
32380000,32296000,0,0,0.010184716,-0.21176746,0.42784125,0.0,0.0,0.0,0.00028270856,-0.0009596944,0.0014691949,0.0,0.0,0.0,inf,inf,inf,0,0,1,0
32452000,32367636,0,0,0.010316378,-0.21543564,0.42817363,0.0,0.0,0.0,0.00025921408,0.002664879,0.0011125505,0.0,0.0,0.0,inf,inf,inf,0,0,1,0
32524000,32440000,0,0,0.013751754,-0.21579324,0.429209,0.0,0.0,0.0,-0.0031887228,0.0030086786,7.0631504e-05,0.0,0.0,0.0,inf,inf,inf,0,0,1,0
32596000,32511272,0,0,0.010552153,-0.21542099,0.42949948,0.0,0.0,0.0,1.0728836e-06,0.00265494,-0.0002104938,0.0,0.0,0.0,inf,inf,inf,0,0,1,0
32668000,32584000,0,0,0.004972548,-0.21779862,0.42684162,0.0,0.0,0.0,0.005639731,0.0050056577,0.0024325848,0.0,0.0,0.0,inf,inf,inf,0,0,1,0
32740000,32656000,0,0,0.007807457,-0.21496852,0.42923686,0.0,0.0,0.0,0.002735435,0.0021563917,2.9593706e-05,0.0,0.0,0.0,inf,inf,inf,0,0,1,0
32812000,32728000,0,0,0.017023247,-0.2134681,0.43054613,0.0,0.0,0.0,-0.006472159,0.00068193674,-0.0012670457,0.0,0.0,0.0,inf,inf,inf,0,0,1,0
32884000,32799636,0,0,0.0099857105,-0.21415906,0.4298932,0.0,0.0,0.0,0.0006169053,0.0013890713,-0.0006073117,0.0,0.0,0.0,inf,inf,inf,0,0,1,0
32956000,32872000,0,0,0.0056233453,-0.2140145,0.42679036,0.0,0.0,0.0,0.005000162,0.0012309253,0.0024882555,0.0,0.0,0.0,inf,inf,inf,0,0,1,0
33028000,32943272,0,0,0.007599839,-0.21583013,0.43056077,0.0,0.0,0.0,0.0029734662,0.0030296892,-0.0012892485,0.0,0.0,0.0,inf,inf,inf,0,0,1,0
33100000,33016000,0,0,0.009280977,-0.22076789,0.42786393,0.0,0.0,0.0,0.0012822403,0.0079481155,0.0013982356,0.0,0.0,0.0,inf,inf,inf,0,0,1,0
33172000,33087636,0,0,0.008544134,-0.21484712,0.4313693,0.0,0.0,0.0,0.002025066,0.0020396411,-0.002101183,0.0,0.0,0.0,inf,inf,inf,0,0,1,0
33244000,33160000,0,0,0.01102619,-0.2110847,0.42810884,0.0,0.0,0.0,-0.00042938534,-0.0017409325,0.0011496246,0.0,0.0,0.0,inf,inf,inf,0,0,1,0
33316000,33231636,0,0,0.009595001,-0.21707915,0.4283091,0.0,0.0,0.0,0.0010026377,0.0042627454,0.00095388293,0.0,0.0,0.0,inf,inf,inf,0,0,1,0
33388000,33304000,0,0,0.00855693,-0.21894355,0.43308294,0.0,0.0,0.0,0.0020304564,0.006105557,-0.003830403,0.0,0.0,0.0,inf,inf,inf,0,0,1,0
33460000,33375636,0,0,0.008815658,-0.21512938,0.4316647,0.0,0.0,0.0,0.0017453833,0.0022892058,-0.0024126172,0.0,0.0,0.0,inf,inf,inf,0,0,1,0
33532000,33448000,0,0,0.00909703,-0.20838886,0.43191433,0.0,0.0,0.0,0.0014829878,-0.004449308,-0.0026617348,0.0,0.0,0.0,inf,inf,inf,0,0,1,0
33604000,33518181,0,0,0.009390339,-0.21494639,0.4291708,0.0,0.0,0.0,0.001275681,0.0021278858,8.946657e-05,0.0,0.0,0.0,inf,inf,inf,0,0,1,0
33676000,33592000,0,0,0.008025335,-0.21747118,0.42964232,0.0,0.0,0.0,0.0026460718,0.004666358,-0.00037539005,0.0,0.0,0.0,inf,inf,inf,0,0,1,0
