timestamp,timestamp_sample,states[0],states[1],states[2],states[3],states[4],states[5],states[6],states[7],states[8],states[9],states[10],states[11],states[12],states[13],states[14],states[15],states[16],states[17],states[18],states[19],states[20],states[21],states[22],states[23],covariances[0],covariances[1],covariances[2],covariances[3],covariances[4],covariances[5],covariances[6],covariances[7],covariances[8],covariances[9],covariances[10],covariances[11],covariances[12],covariances[13],covariances[14],covariances[15],covariances[16],covariances[17],covariances[18],covariances[19],covariances[20],covariances[21],covariances[22],covariances[23],n_states
4196000,4116000,0.9998916,-0.009747579,-0.011046948,-0.00013776224,0.00036783546,0.00023917889,-0.002956681,-3.200223e-05,1.7681574e-05,-0.08577514,-9.4732195e-06,-1.5342626e-05,2.0899206e-07,-9.110766e-06,1.1129212e-05,-0.0008692142,0.0,0.0,0.0,0.0,0.0,0.0,0.0,0.0,7.691016e-08,0.00028870918,0.00028878113,3.9110833e-05,0.0002585433,0.0002585866,0.00013082476,0.000100355115,0.00010035498,8.2214775,6.0421485e-07,6.045051e-07,1.9832696e-07,3.851835e-06,3.8521275e-06,3.4562024e-07,0.0,0.0,0.0,0.0,0.0,0.0,0.0,0.0,24
5188000,5108000,0.99989444,-0.009489139,-0.011002479,-9.017145e-05,0.001060333,-0.002174127,-0.020213865,0.000115450086,-0.0003230225,-0.04494963,-1.2891006e-05,-3.906519e-05,8.07447e-07,-2.0159969e-05,1.4888618e-05,-0.00091711927,0.0,0.0,0.0,0.0,0.0,0.0,0.0,0.0,6.283377e-08,0.00022643169,0.00022651919,0.00054259767,0.0033062492,0.0033063008,0.0053213323,0.00016340589,0.00016340628,0.66325337,2.0505881e-08,2.0510907e-08,9.864451e-08,3.7670275e-06,3.7673262e-06,2.6673345e-07,0.0,0.0,0.0,0.0,0.0,0.0,0.0,0.0,24
6196000,6116000,0.9999027,-0.009240206,-0.010457397,-0.00018042371,0.0008884447,3.1183896e-05,-0.018857418,0.000118192096,6.271271e-05,-0.05230015,-1.31367005e-05,-4.4239543e-05,9.3190386e-07,-2.6939473e-05,1.5557194e-05,-0.0010089583,0.0,0.0,0.0,0.0,0.0,0.0,0.0,0.0,4.766713e-08,0.00016903951,0.00016909683,0.00066331297,0.0014649789,0.0014649893,0.007496969,0.00010379574,0.00010379617,0.34882042,1.7771791e-09,1.775815e-09,3.5870062e-08,3.7530085e-06,3.7533787e-06,1.255329e-07,0.0,0.0,0.0,0.0,0.0,0.0,0.0,0.0,24
7188000,7108000,0.9999049,-0.008855915,-0.010582401,-0.00013424094,-0.0008845115,0.0037954708,-0.012239397,-0.00021118489,0.00028334965,-0.049104966,-1.2431343e-05,-4.3036966e-05,1.036571e-06,-2.6012962e-05,1.4877462e-05,-0.0010474876,0.0,0.0,0.0,0.0,0.0,0.0,0.0,0.0,4.389154e-08,0.00015984691,0.00015988969,0.0004795308,0.0008815158,0.0008814862,0.00785268,7.155441e-05,7.1554176e-05,0.24108957,4.4724874e-10,4.4635828e-10,1.2487336e-08,3.7505954e-06,3.75099e-06,7.084668e-08,0.0,0.0,0.0,0.0,0.0,0.0,0.0,0.0,24
8196000,8116000,0.99990433,-0.009048265,-0.010453975,-0.00038482685,0.00038901143,0.0011288533,-0.0062868395,0.00018380622,0.0006374971,-0.046174366,-9.96406e-06,-4.3221808e-05,7.0941053e-07,-2.6673311e-05,1.1252019e-05,-0.0010634054,0.0,0.0,0.0,0.0,0.0,0.0,0.0,0.0,4.2526832e-08,0.00015862899,0.00015868293,0.00036618274,0.0012485925,0.0012485596,0.0064885337,0.0001577015,0.00015769934,0.18689142,2.161619e-10,2.1601737e-10,5.58192e-09,3.7500565e-06,3.7504512e-06,5e-08,0.0,0.0,0.0,0.0,0.0,0.0,0.0,0.0,24
9196000,9116000,0.9999078,-0.008884842,-0.010264304,-0.00043630923,0.0027603721,0.0021545142,-0.0038276464,0.00034113252,0.00039410492,-0.040901594,-9.537938e-06,-4.3103777e-05,1.2868001e-07,-2.6454427e-05,1.0035435e-05,-0.0010709137,0.0,0.0,0.0,0.0,0.0,0.0,0.0,0.0,4.055229e-08,0.00015691244,0.0001569653,0.0002929687,0.0009992785,0.0009992849,0.0056538247,0.000122774,0.00012277422,0.38912192,1.1329505e-10,1.132028e-10,2.9535014e-09,3.7492782e-06,3.7496773e-06,5.0000036e-08,0.0,0.0,0.0,0.0,0.0,0.0,0.0,0.0,24
10188000,10108000,0.99991214,-0.008913863,-0.009810899,-0.00038146978,0.0017232738,0.00088553986,0.0005739853,0.00063489383,0.0003523934,-0.03589101,-8.939605e-06,-4.3922868e-05,-1.974836e-07,-2.9487812e-05,8.3435625e-06,-0.0010735856,0.0,0.0,0.0,0.0,0.0,0.0,0.0,0.0,3.9046352e-08,0.00015599893,0.00015605443,0.00024295428,0.0008248382,0.0008247759,0.005192912,9.53312e-05,9.532878e-05,0.17002192,7.0436566e-11,7.0423646e-11,1.7519626e-09,3.7487466e-06,3.749172e-06,5.000004e-08,0.0,0.0,0.0,0.0,0.0,0.0,0.0,0.0,24
11188000,11108000,0.99991506,-0.008723247,-0.009673652,-0.0004373315,-0.00039974865,-0.0030671258,0.0061943065,-6.3571875e-05,-0.00049699785,-0.03427399,-9.074063e-06,-4.400698e-05,-4.2780505e-07,-3.0085468e-05,9.078608e-06,-0.0010694482,0.0,0.0,0.0,0.0,0.0,0.0,0.0,0.0,3.810538e-08,0.00015553851,0.00015558764,0.00022679968,0.0007120236,0.00071196945,0.004911929,7.821933e-05,7.8216806e-05,0.10083253,4.9079792e-11,4.9050417e-11,1.2247191e-09,3.7484338e-06,3.7488958e-06,5e-08,0.0,0.0,0.0,0.0,0.0,0.0,0.0,0.0,24
12196000,12116000,0.9999182,-0.008467259,-0.009575013,-0.00044866177,-0.0029153968,5.654816e-05,0.012035623,-0.00050199364,-0.00039279068,-0.03090316,-9.6481435e-06,-4.3697735e-05,-6.3650646e-07,-3.006949e-05,1.1494342e-05,-0.0010590238,0.0,0.0,0.0,0.0,0.0,0.0,0.0,0.0,3.7100047e-08,0.00015536352,0.00015540847,0.00019645177,0.0006475132,0.00064755423,0.0054168785,6.782098e-05,6.782156e-05,0.08096777,3.7046585e-11,3.7000937e-11,8.2831636e-10,3.7482969e-06,3.7487418e-06,5.0000146e-08,0.0,0.0,0.0,0.0,0.0,0.0,0.0,0.0,24
13188000,13108000,0.999919,-0.008270662,-0.009675784,-0.0004024581,0.0005000907,0.004926239,0.012403997,5.9801372e-05,0.0010675769,-0.03203752,-9.692313e-06,-4.344928e-05,-7.94417e-07,-2.9689452e-05,1.3067727e-05,-0.0010448449,0.0,0.0,0.0,0.0,0.0,0.0,0.0,0.0,3.6543966e-08,0.00015538318,0.00015542637,0.00017267838,0.0009189527,0.0009188669,0.005189078,0.00013316044,0.00013315787,0.06523287,3.0800893e-11,3.0764592e-11,5.8853245e-10,3.7479701e-06,3.7483774e-06,5e-08,0.0,0.0,0.0,0.0,0.0,0.0,0.0,0.0,24
14188000,14108000,0.9999193,-0.008445646,-0.009480769,-0.00039396685,0.0013349882,-0.00069139,0.009348333,0.0005567589,0.0003176,-0.03245387,-9.324528e-06,-4.359065e-05,-9.1033735e-07,-3.1874035e-05,1.0996879e-05,-0.001031693,0.0,0.0,0.0,0.0,0.0,0.0,0.0,0.0,3.5962305e-08,0.00015508426,0.00015512768,0.00015432233,0.0008258856,0.0008257419,0.0050615477,0.00011120784,0.00011120001,0.059682135,2.5435362e-11,2.5418213e-11,4.3483261e-10,3.7474772e-06,3.7479042e-06,5.0000075e-08,0.0,0.0,0.0,0.0,0.0,0.0,0.0,0.0,24
15196000,15116000,0.99992394,-0.008274988,-0.009140251,-0.0003525121,0.001929517,0.000421723,0.006200649,0.00054999354,-0.00018785174,-0.032083027,-9.39983e-06,-4.3777196e-05,-9.894151e-07,-3.499259e-05,1.2377229e-05,-0.00102167,0.0,0.0,0.0,0.0,0.0,0.0,0.0,0.0,3.4649165e-08,0.0001548109,0.00015484971,0.0001397526,0.0007576016,0.0007574175,0.0049243616,9.6335825e-05,9.632637e-05,0.05338875,2.1741301e-11,2.1731093e-11,3.316674e-10,3.746906e-06,3.7473885e-06,5.0000036e-08,0.0,0.0,0.0,0.0,0.0,0.0,0.0,0.0,24
16188000,16108000,0.9999297,-0.008125128,-0.008636321,-0.00022002234,0.00014372022,-0.002267961,0.0069833025,0.00011422684,-0.00025458244,-0.034651816,-9.416467e-06,-4.3909167e-05,-1.0242168e-06,-3.753076e-05,1.3083302e-05,-0.0010124058,0.0,0.0,0.0,0.0,0.0,0.0,0.0,0.0,3.2627256e-08,0.00015458728,0.00015461998,0.00013424938,0.00066887593,0.00066867244,0.0047979024,7.811238e-05,7.8103774e-05,0.05154642,1.9086618e-11,1.9081932e-11,2.7235306e-10,3.7464092e-06,3.7469974e-06,5.0000036e-08,0.0,0.0,0.0,0.0,0.0,0.0,0.0,0.0,24
17196000,17116000,0.99993163,-0.008120258,-0.008421616,-0.0001515971,-0.0006131582,-0.002856429,0.013569348,-0.00010901271,-0.00060524157,-0.033127226,-9.6277245e-06,-4.3917844e-05,-1.0349954e-06,-3.974183e-05,1.5153939e-05,-0.0010026647,0.0,0.0,0.0,0.0,0.0,0.0,0.0,0.0,3.2188346e-08,0.00015451126,0.0001545377,0.00012322151,0.0006230494,0.00062283274,0.005312698,6.854594e-05,6.853748e-05,0.049481284,1.7135574e-11,1.7134084e-11,2.1725377e-10,3.7461061e-06,3.7467987e-06,5.0000036e-08,0.0,0.0,0.0,0.0,0.0,0.0,0.0,0.0,24
18196000,18116000,0.99993545,-0.007826213,-0.008245354,-0.000118595926,-0.000246561,-0.0005549252,0.010254732,-0.00019529717,-0.00012576356,-0.03326632,-9.813534e-06,-4.384221e-05,-1.0168499e-06,-4.1934505e-05,1.7977216e-05,-0.0009890357,0.0,0.0,0.0,0.0,0.0,0.0,0.0,0.0,3.09345e-08,0.00015441264,0.00015442962,0.00011378401,0.0005579525,0.0005577757,0.0052194437,5.7902398e-05,5.789678e-05,0.04918829,1.5625579e-11,1.5627746e-11,1.7678102e-10,3.7456982e-06,3.7465206e-06,5.0000008e-08,0.0,0.0,0.0,0.0,0.0,0.0,0.0,0.0,24
19196000,19116000,0.99993825,-0.007727658,-0.00798751,-5.761437e-05,-0.00029343768,-0.006482355,0.013397136,0.00063788553,-0.0015952849,-0.032621533,-9.981569e-06,-4.395105e-05,-9.866465e-07,-4.587476e-05,2.03853e-05,-0.00097486825,0.0,0.0,0.0,0.0,0.0,0.0,0.0,0.0,3.0408252e-08,0.00015448661,0.00015449343,0.00010573358,0.0008175514,0.0008172383,0.005067137,0.00011617571,0.00011615295,0.046864934,1.474744e-11,1.4754335e-11,1.4636045e-10,3.7452535e-06,3.746242e-06,5e-08,0.0,0.0,0.0,0.0,0.0,0.0,0.0,0.0,24
20196000,20116000,0.99994165,-0.007533457,-0.0077427416,-6.187271e-05,0.001188017,-0.0020956686,0.009481855,0.00017547116,-0.0006230753,-0.033297174,-1.0255172e-05,-4.3983055e-05,-9.674377e-07,-4.9737937e-05,2.4043315e-05,-0.00096081384,0.0,0.0,0.0,0.0,0.0,0.0,0.0,0.0,2.972335e-08,0.00015438914,0.00015438577,9.879107e-05,0.00074639334,0.0007462527,0.0049781865,9.803605e-05,9.802579e-05,0.047152158,1.3769234e-11,1.37788505e-11,1.2303848e-10,3.7448085e-06,3.7459408e-06,5.000004e-08,0.0,0.0,0.0,0.0,0.0,0.0,0.0,0.0,24
21196000,21116000,0.9999445,-0.007354747,-0.007540709,6.352439e-05,-0.005359203,0.0029128566,0.011362478,-0.0009292179,0.00027254695,-0.03170889,-1.0312238e-05,-4.3948152e-05,-9.2081575e-07,-5.171613e-05,2.6284664e-05,-0.00094812096,0.0,0.0,0.0,0.0,0.0,0.0,0.0,0.0,2.8585077e-08,0.00015427088,0.00015425845,9.2747876e-05,0.0006784252,0.0006783454,0.0048321467,8.268091e-05,8.267707e-05,0.04538811,1.2982924e-11,1.2994702e-11,1.04849414e-10,3.7443656e-06,3.7456578e-06,5e-08,0.0,0.0,0.0,0.0,0.0,0.0,0.0,0.0,24
22196000,22116000,0.9999418,-0.00742024,-0.007828746,6.144909e-05,-0.0054833,0.0013675567,0.011536449,-0.0010766607,0.0002993851,-0.0295425,-1.0182895e-05,-4.36312e-05,-8.785961e-07,-5.0148363e-05,2.8278835e-05,-0.00093686336,0.0,0.0,0.0,0.0,0.0,0.0,0.0,0.0,2.8506975e-08,0.00015421411,0.00015419746,9.06216e-05,0.0006242467,0.0006241931,0.005390994,7.036957e-05,7.036706e-05,0.047290806,1.2353684e-11,1.2365304e-11,9.317496e-11,3.7441532e-06,3.7455143e-06,5.000004e-08,0.0,0.0,0.0,0.0,0.0,0.0,0.0,0.0,24
23196000,23116000,0.999942,-0.0073705753,-0.007855985,-4.8031787e-05,-0.0011583174,-0.001412132,0.016863404,-0.00052215677,-0.00013114716,-0.031240966,-1.0165186e-05,-4.333606e-05,-8.4609553e-07,-4.9642204e-05,3.0201081e-05,-0.00092097657,0.0,0.0,0.0,0.0,0.0,0.0,0.0,0.0,2.7566415e-08,0.00015418176,0.00015416388,8.560329e-05,0.0005619699,0.00056191836,0.0052333847,5.9529822e-05,5.952835e-05,0.04569294,1.18265476e-11,1.183723e-11,8.111202e-11,3.7440584e-06,3.7454263e-06,5e-08,0.0,0.0,0.0,0.0,0.0,0.0,0.0,0.0,24
24196000,24116000,0.9999441,-0.0072484217,-0.007704647,-4.9211005e-05,0.00089726644,0.0009970723,0.015908979,0.00036544295,0.00022921085,-0.03200384,-1.01912265e-05,-4.3328713e-05,-8.205506e-07,-5.1012994e-05,3.1301173e-05,-0.0009011724,0.0,0.0,0.0,0.0,0.0,0.0,0.0,0.0,2.6811128e-08,0.00015434,0.00015432066,8.1150436e-05,0.00081858854,0.0008183479,0.005141925,0.0001190912,0.0001190762,0.04638252,1.1563035e-11,1.1573974e-11,7.134338e-11,3.74401e-06,3.7453844e-06,5e-08,0.0,0.0,0.0,0.0,0.0,0.0,0.0,0.0,24
25188000,25108000,0.9999454,-0.0071344767,-0.007643172,1.30411445e-05,-0.004963317,-0.0019625742,0.0151246935,-0.0011025321,-0.00052037725,-0.03236848,-1.0223553e-05,-4.3256765e-05,-7.9978537e-07,-5.1139497e-05,3.2721782e-05,-0.0008838457,0.0,0.0,0.0,0.0,0.0,0.0,0.0,0.0,2.6151527e-08,0.0001542504,0.00015422978,7.710913e-05,0.00073721725,0.0007370211,0.0050157113,9.744184e-05,9.7428725e-05,0.046955906,1.1176006e-11,1.1186688e-11,6.33432e-11,3.7438936e-06,3.7452603e-06,5e-08,0.0,0.0,0.0,0.0,0.0,0.0,0.0,0.0,24
26196000,26116000,0.9999437,-0.0070452755,-0.007943862,0.00012177102,-0.003903057,0.004542737,0.015696645,-0.0009330077,0.0006951141,-0.032704905,-1.0217893e-05,-4.3060245e-05,-7.5947275e-07,-5.0546216e-05,3.4151548e-05,-0.00086452713,0.0,0.0,0.0,0.0,0.0,0.0,0.0,0.0,2.625247e-08,0.00015421979,0.00015419854,7.360635e-05,0.0006847821,0.0006846548,0.0049007307,8.514046e-05,8.513323e-05,0.04586729,1.08574235e-11,1.08676046e-11,5.6739686e-11,3.743857e-06,3.7452016e-06,5.000015e-08,0.0,0.0,0.0,0.0,0.0,0.0,0.0,0.0,24
27188000,27108000,0.9999425,-0.0072200885,-0.007935593,9.83403e-05,-0.0053345077,0.004877714,0.02305618,-0.00096357276,0.0009637843,-0.030292807,-1.000579e-05,-4.2866868e-05,-7.3101774e-07,-4.9439404e-05,3.563281e-05,-0.000845293,0.0,0.0,0.0,0.0,0.0,0.0,0.0,0.0,2.5527678e-08,0.00015423777,0.00015421878,7.237337e-05,0.0006194626,0.00061937055,0.0054312185,7.014452e-05,7.0141e-05,0.047870424,1.0585468e-11,1.0595639e-11,5.235534e-11,3.74383e-06,3.7451705e-06,5.0000075e-08,0.0,0.0,0.0,0.0,0.0,0.0,0.0,0.0,24
28196000,28116000,0.99993944,-0.007406285,-0.0081515955,0.00012754236,-0.0040900446,0.0053371345,0.030685142,-0.0008055803,0.0012008891,-0.028628973,-9.700262e-06,-4.263938e-05,-6.999138e-07,-4.914291e-05,3.7339058e-05,-0.0008147849,0.0,0.0,0.0,0.0,0.0,0.0,0.0,0.0,2.5236927e-08,0.00015431916,0.00015430171,6.935359e-05,0.00057060143,0.00057050644,0.005302717,6.1384446e-05,6.138088e-05,0.046567004,1.0355089e-11,1.0365256e-11,4.757309e-11,3.7437776e-06,3.74512e-06,5.0000075e-08,0.0,0.0,0.0,0.0,0.0,0.0,0.0,0.0,24
29188000,29108000,0.99993676,-0.0075461036,-0.008343131,0.00013129797,-0.006474426,0.0020835816,0.03318275,-0.0018584797,0.000833774,-0.0295575,-9.528429e-06,-4.247432e-05,-6.6617247e-07,-4.759615e-05,3.7091577e-05,-0.00077753037,0.0,0.0,0.0,0.0,0.0,0.0,0.0,0.0,2.5202922e-08,0.00015450855,0.00015449189,6.65126e-05,0.00081286964,0.0008127084,0.005118957,0.00011865524,0.000118643315,0.04507962,1.0283552e-11,1.0293509e-11,4.3528816e-11,3.743715e-06,3.7450632e-06,5e-08,0.0,0.0,0.0,0.0,0.0,0.0,0.0,0.0,24
30196000,30116000,0.99993426,-0.007681045,-0.008523207,0.00018226157,-0.006661844,-0.0019701712,0.027909137,-0.0013378647,-0.0005196254,-0.028055808,-9.491985e-06,-4.2271746e-05,-6.366573e-07,-4.4115666e-05,3.636329e-05,-0.0007402608,0.0,0.0,0.0,0.0,0.0,0.0,0.0,0.0,2.5241155e-08,0.00015450925,0.00015449159,6.401923e-05,0.0007595987,0.0007594906,0.005050274,0.00010390052,0.000103892955,0.0459955,1.0107029e-11,1.0116116e-11,4.0100503e-11,3.7436291e-06,3.745021e-06,5.0000185e-08,0.0,0.0,0.0,0.0,0.0,0.0,0.0,0.0,24
31196000,31116000,0.99993235,-0.0076497374,-0.00876197,0.00027906575,-0.0026335376,-0.004378173,0.023305416,-0.0008599614,-0.0011872099,-0.029770985,-9.659018e-06,-4.206736e-05,-5.987618e-07,-3.849871e-05,3.9472503e-05,-0.0007087176,0.0,0.0,0.0,0.0,0.0,0.0,0.0,0.0,2.5546024e-08,0.00015438983,0.00015436765,6.169416e-05,0.0006946878,0.0006946228,0.0048973835,8.787794e-05,8.787351e-05,0.044677828,9.949237e-12,9.9570205e-12,3.7167623e-11,3.7433624e-06,3.7448535e-06,5.0000036e-08,0.0,0.0,0.0,0.0,0.0,0.0,0.0,0.0,24
32188000,32108000,0.9999326,-0.0074767247,-0.0088858325,0.00018437051,-0.0032288106,-0.004525835,0.022612523,-0.00071552227,-0.001004041,-0.02461678,-9.853608e-06,-4.192235e-05,-5.710785e-07,-3.5110425e-05,4.3252156e-05,-0.00068631535,0.0,0.0,0.0,0.0,0.0,0.0,0.0,0.0,2.5450614e-08,0.00015428649,0.00015425972,6.0977265e-05,0.00062991487,0.00062983006,0.0054284334,7.244964e-05,7.244627e-05,0.046704605,9.812658e-12,9.819315e-12,3.5221583e-11,3.743144e-06,3.7447198e-06,5.000011e-08,0.0,0.0,0.0,0.0,0.0,0.0,0.0,0.0,24
33188000,33108000,0.99993193,-0.0075088493,-0.008929304,0.00024501872,-0.010087712,-0.019221514,0.032201875,-0.007549876,-0.011898114,-0.008840831,-9.855511e-06,-4.1921758e-05,-5.6514443e-07,-3.4583034e-05,4.347811e-05,-0.0006798296,0.0,0.0,0.0,0.0,0.0,0.0,0.0,0.0,2.5701041e-08,0.00015497611,0.00015494949,6.4789805e-05,0.05729899,0.057322085,0.008261809,0.014198425,0.014203137,0.053359386,1.0319517e-11,1.0326249e-11,3.515726e-11,3.74312e-06,3.744714e-06,5e-08,0.0,0.0,0.0,0.0,0.0,0.0,0.0,0.0,24
34196000,34116000,0.9999314,-0.0076408563,-0.008881486,0.00032237184,-0.022336435,-0.034053463,0.03684677,-0.024080675,-0.038298976,0.015983406,-9.855821e-06,-4.192195e-05,-5.6518303e-07,-3.4583034e-05,4.347811e-05,-0.00067642116,0.0,0.0,0.0,0.0,0.0,0.0,0.0,0.0,2.5887207e-08,0.00015528711,0.00015526508,7.0376795e-05,0.23411988,0.23421262,0.012543322,0.22970237,0.22978869,0.07338039,1.0835386e-11,1.0842119e-11,3.5673353e-11,3.74312e-06,3.744714e-06,5.0000036e-08,0.0,0.0,0.0,0.0,0.0,0.0,0.0,0.0,24
35188000,35108000,0.99956995,0.028572947,-0.0062099006,0.0022661963,-0.03735017,0.02330138,-0.06399479,-0.055619597,-0.06897616,0.009858485,-9.856911e-06,-4.1922198e-05,-5.6531496e-07,-3.4583034e-05,4.347811e-05,-0.0006677871,0.0,0.0,0.0,0.0,0.0,0.0,0.0,0.0,1.3028887e-07,0.00015193268,0.00015185769,7.634073e-05,0.5162528,0.5164689,0.015494652,1.1283994,1.12872,0.09271423,1.1341664e-11,1.13484075e-11,3.6181187e-11,3.74312e-06,3.744714e-06,5e-08,0.0,0.0,0.0,0.0,0.0,0.0,0.0,0.0,24
36196000,36116000,0.99975514,-0.019056413,-0.010851888,0.0029479947,-0.081319794,0.11063687,-0.80415434,-0.13378203,0.106292404,-0.46945637,-9.856912e-06,-4.1921045e-05,-5.650965e-07,-3.4583034e-05,4.347811e-05,-0.00066015293,0.0,0.0,0.0,0.0,0.0,0.0,0.0,0.0,7.282473e-08,0.00013834411,0.00013839397,8.2282444e-05,0.8670296,0.867492,0.01792357,3.3122625,3.313738,0.121345796,1.1851913e-11,1.1858686e-11,3.669695e-11,3.74312e-06,3.744714e-06,5.000022e-08,0.0,0.0,0.0,0.0,0.0,0.0,0.0,0.0,24
37196000,37116000,0.9997822,-0.017759675,-0.010713969,0.0023030809,-0.0458158,-0.15713084,-1.0681556,-0.16643085,0.05402474,-1.4366162,-9.854677e-06,-4.1917403e-05,-5.6426825e-07,-3.4583034e-05,4.347811e-05,-0.0006505629,0.0,0.0,0.0,0.0,0.0,0.0,0.0,0.0,5.1018024e-08,0.00010966642,0.00010969399,8.867298e-05,1.067132,1.0674932,0.017538013,6.425824,6.428945,0.12802391,1.2350952e-11,1.23578e-11,3.7208223e-11,3.74312e-06,3.744714e-06,5.0000036e-08,0.0,0.0,0.0,0.0,0.0,0.0,0.0,0.0,24
38196000,38116000,0.99990773,-0.009421368,-0.009540027,0.0021911755,-0.021745395,-0.21823603,-1.2462496,-0.14098454,-0.12418825,-2.620809,-9.856348e-06,-4.1912695e-05,-5.6356157e-07,-3.4583034e-05,4.347811e-05,-0.000644704,0.0,0.0,0.0,0.0,0.0,0.0,0.0,0.0,1.5500584e-08,7.483742e-05,7.484616e-05,9.537071e-05,1.0290822,1.029131,0.0179823,8.970996,8.972763,0.14471734,1.2844854e-11,1.2851782e-11,3.771953e-11,3.74312e-06,3.744714e-06,5.0000146e-08,0.0,0.0,0.0,0.0,0.0,0.0,0.0,0.0,24
39196000,39116000,0.99992263,-0.00949513,-0.0075248824,0.0028235281,-0.06385418,-0.18244398,-1.3504876,-0.1379369,-0.23457775,-3.9583662,-9.8609535e-06,-4.1909152e-05,-5.634394e-07,-3.4583034e-05,4.347811e-05,-0.00063482166,0.0,0.0,0.0,0.0,0.0,0.0,0.0,0.0,9.338469e-09,5.185457e-05,5.187914e-05,0.00010234933,0.94041896,0.94018376,0.016550599,11.180732,11.179233,0.13581888,1.33421035e-11,1.3349061e-11,3.8231182e-11,3.74312e-06,3.744714e-06,5e-08,0.0,0.0,0.0,0.0,0.0,0.0,0.0,0.0,24
40196000,40116000,0.99993914,-0.0073274453,-0.007804773,0.0026708918,-0.07169493,-0.11853271,-1.4091337,-0.14018522,-0.24855223,-5.3775897,-9.8676865e-06,-4.190464e-05,-5.633444e-07,-3.4583034e-05,4.347811e-05,-0.00062529434,0.0,0.0,0.0,0.0,0.0,0.0,0.0,0.0,4.9797624e-09,3.2523403e-05,3.2535638e-05,0.00010962846,0.7228512,0.7226302,0.017134732,11.175607,11.172984,0.14546353,1.3837242e-11,1.3844184e-11,3.874295e-11,3.74312e-06,3.744714e-06,5.0000075e-08,0.0,0.0,0.0,0.0,0.0,0.0,0.0,0.0,24
41188000,41108000,0.9999155,-0.0072476813,-0.01039109,0.0029299979,-0.06604546,-0.06495191,-1.4385157,-0.14140995,-0.20605926,-6.8366623,-9.873542e-06,-4.1899595e-05,-5.632269e-07,-3.4583034e-05,4.347811e-05,-0.00061368017,0.0,0.0,0.0,0.0,0.0,0.0,0.0,0.0,4.6913815e-09,2.158002e-05,2.157915e-05,0.00011714032,0.5444574,0.544317,0.017902302,10.502153,10.499829,0.15419541,1.4329148e-11,1.4336043e-11,3.9250738e-11,3.74312e-06,3.744714e-06,5.0000075e-08,0.0,0.0,0.0,0.0,0.0,0.0,0.0,0.0,24
42196000,42116000,0.999917,-0.008289671,-0.009333432,0.0031997894,-0.059188914,-0.032625068,-1.124573,-0.13861775,-0.1519488,-8.272433,-9.877096e-06,-4.1892818e-05,-5.6314013e-07,-3.4583034e-05,4.347811e-05,-0.0005903018,0.0,0.0,0.0,0.0,0.0,0.0,0.0,0.0,3.7559897e-09,1.5740974e-05,1.5740805e-05,0.00012508871,0.41469303,0.41461098,0.017401496,9.723254,9.721552,0.14359714,1.4827839e-11,1.4834666e-11,3.9766763e-11,3.74312e-06,3.744714e-06,5.0000075e-08,0.0,0.0,0.0,0.0,0.0,0.0,0.0,0.0,24
43188000,43108000,0.9998739,-0.011562746,-0.010830872,0.0011039255,-0.068433896,-0.021604624,-0.6308407,-0.14230314,-0.10819618,-9.268446,-9.878753e-06,-4.1884672e-05,-5.630276e-07,-3.4583034e-05,4.347811e-05,-0.0005607175,0.0,0.0,0.0,0.0,0.0,0.0,0.0,0.0,3.4550545e-09,1.275336e-05,1.2754313e-05,0.00013320899,0.3239037,0.32385558,0.01681787,8.890422,8.889342,0.13267171,1.531413e-11,1.5320904e-11,4.0274603e-11,3.74312e-06,3.744714e-06,5e-08,0.0,0.0,0.0,0.0,0.0,0.0,0.0,0.0,24
44196000,44116000,0.8873138,-0.14907154,-0.12244362,-0.41887906,0.5405148,-1.6952027,0.05357908,0.084008746,-0.58818245,-9.630427,-9.888932e-06,-4.188039e-05,-5.631235e-07,-3.4583034e-05,4.347811e-05,-0.00054686336,0.0,0.0,0.0,0.0,0.0,0.0,0.0,0.0,2.54098e-05,1.2870028e-05,1.3806138e-05,0.000112350164,0.26514515,0.2637801,0.015707236,8.192671,8.19175,0.14265957,1.580087e-11,1.5807581e-11,4.0790666e-11,3.74312e-06,3.744714e-06,5.0000075e-08,0.0,0.0,0.0,0.0,0.0,0.0,0.0,0.0,24
45188000,45108000,0.77967674,-0.06167101,-0.15618196,-0.603248,1.4944543,-3.9120417,0.17643914,0.8928799,-2.944448,-9.662231,-9.959592e-06,-4.1898453e-05,-5.6412904e-07,-3.4583034e-05,4.347811e-05,-0.00054686336,0.0,0.0,0.0,0.0,0.0,0.0,0.0,0.0,5.5378132e-05,1.3403487e-05,1.0760195e-05,9.191946e-05,0.2507883,0.2438792,0.013017216,8.189183,8.183397,0.14593035,1.6275514e-11,1.6282848e-11,4.1297146e-11,3.74312e-06,3.744714e-06,5.0000075e-08,0.0,0.0,0.0,0.0,0.0,0.0,0.0,0.0,24
46196000,46116000,0.8228903,-0.029158788,-0.09045359,-0.5601959,2.2174141,-3.5778475,0.13516495,2.2660034,-5.2434616,-9.623175,-1.0214413e-05,-4.1998497e-05,-5.679878e-07,-3.4583034e-05,4.347811e-05,-0.0005466627,0.0,0.0,0.0,0.0,0.0,0.0,0.0,0.0,5.035342e-05,1.088916e-05,1.0147932e-05,0.00010814052,0.22350763,0.21986064,0.010224093,7.6280103,7.610911,0.12794629,1.6726705e-11,1.6739627e-11,4.180033e-11,3.74312e-06,3.744714e-06,5.0002466e-08,0.0,0.0,0.0,0.0,0.0,0.0,0.0,0.0,24
47188000,47108000,0.8229707,-0.040715184,-0.08770558,-0.55979395,2.451214,-3.0560052,0.07835676,3.5196967,-6.3323607,-9.652671,-1.062989e-05,-4.22331e-05,-5.7985136e-07,-3.4583034e-05,4.347811e-05,-0.0005431833,0.0,0.0,0.0,0.0,0.0,0.0,0.0,0.0,5.317338e-05,1.0728258e-05,1.0173658e-05,0.000114494454,0.2061421,0.20506355,0.009872736,7.134917,7.1128507,0.114435844,1.7139786e-11,1.7158795e-11,4.227958e-11,3.74312e-06,3.744714e-06,5e-08,0.0,0.0,0.0,0.0,0.0,0.0,0.0,0.0,24
48196000,48116000,0.8213274,-0.05220066,-0.081967406,-0.5621191,2.3943524,-2.657864,0.06654112,4.5263247,-6.84391,-9.670308,-1.1140265e-05,-4.2613934e-05,-6.0275903e-07,-3.4583034e-05,4.347811e-05,-0.0005381323,0.0,0.0,0.0,0.0,0.0,0.0,0.0,0.0,5.6635003e-05,1.0816951e-05,1.0540634e-05,0.000120621095,0.19843112,0.19839227,0.011769943,6.7671967,6.747278,0.11805814,1.7531468e-11,1.7551712e-11,4.2757634e-11,3.74312e-06,3.744714e-06,5.0000185e-08,0.0,0.0,0.0,0.0,0.0,0.0,0.0,0.0,24
49196000,49116000,0.82077396,-0.052440066,-0.081950225,-0.5629071,2.2385736,-2.2788384,0.06828472,5.1460476,-6.933179,-9.709309,-1.17323e-05,-4.3172608e-05,-6.436703e-07,-3.4583034e-05,4.347811e-05,-0.00052691245,0.0,0.0,0.0,0.0,0.0,0.0,0.0,0.0,5.994971e-05,1.1211669e-05,1.0959956e-05,0.00012709732,0.19698317,0.197374,0.013702777,6.4614425,6.4461656,0.111798614,1.7877335e-11,1.7895713e-11,4.323035e-11,3.74312e-06,3.744714e-06,5.0000036e-08,0.0,0.0,0.0,0.0,0.0,0.0,0.0,0.0,24
50188000,50108000,0.82138777,-0.04759106,-0.080332585,-0.5626758,2.1611588,-1.8260009,0.064296335,5.860863,-7.114531,-9.715365,-1.2223935e-05,-4.373679e-05,-6.902969e-07,-3.4583034e-05,4.347811e-05,-0.0005176778,0.0,0.0,0.0,0.0,0.0,0.0,0.0,0.0,6.314956e-05,1.1881561e-05,1.1623667e-05,0.00013405892,0.20945525,0.21015562,0.016514936,6.63005,6.620174,0.12345733,1.8218845e-11,1.8234214e-11,4.3710962e-11,3.74312e-06,3.744714e-06,5.0000114e-08,0.0,0.0,0.0,0.0,0.0,0.0,0.0,0.0,24
51188000,51108000,0.82182544,-0.045088127,-0.08150408,-0.562074,2.0707142,-1.2678967,0.08963519,6.0663714,-6.47262,-9.716048,-1.2811893e-05,-4.4581593e-05,-7.727686e-07,-3.4583034e-05,4.347811e-05,-0.0005095421,0.0,0.0,0.0,0.0,0.0,0.0,0.0,0.0,6.6421046e-05,1.2518989e-05,1.2238071e-05,0.00014127104,0.2176401,0.21804157,0.019028781,6.442144,6.4400845,0.13974479,1.847243e-11,1.8484287e-11,4.41979e-11,3.74312e-06,3.744714e-06,5.0000075e-08,0.0,0.0,0.0,0.0,0.0,0.0,0.0,0.0,24
52188000,52108000,0.8224618,-0.04394803,-0.07939961,-0.56153435,1.9677867,-0.701384,0.08375141,6.1389565,-5.541377,-9.738474,-1.3309478e-05,-4.557246e-05,-8.9873555e-07,-3.4583034e-05,4.347811e-05,-0.00049090135,0.0,0.0,0.0,0.0,0.0,0.0,0.0,0.0,6.9791844e-05,1.3138088e-05,1.2906371e-05,0.00014879431,0.2297993,0.22896278,0.019268068,6.318952,6.32253,0.13835233,1.8659846e-11,1.8667687e-11,4.4693818e-11,3.74312e-06,3.744714e-06,5.000004e-08,0.0,0.0,0.0,0.0,0.0,0.0,0.0,0.0,24
53196000,53116000,0.82293344,-0.04391644,-0.078178994,-0.5610169,1.8145965,-0.14365388,0.09453118,6.088433,-4.3944955,-9.757064,-1.3638804e-05,-4.665439e-05,-1.0790524e-06,-3.4583034e-05,4.347811e-05,-0.00046849818,0.0,0.0,0.0,0.0,0.0,0.0,0.0,0.0,7.3328636e-05,1.3776414e-05,1.3586347e-05,0.00015658642,0.24507733,0.24192248,0.018514413,6.267988,6.271627,0.13388892,1.8777329e-11,1.8781731e-11,4.5196437e-11,3.74312e-06,3.744714e-06,5.0000036e-08,0.0,0.0,0.0,0.0,0.0,0.0,0.0,0.0,24
54196000,54116000,0.823554,-0.042826936,-0.07656567,-0.5604127,1.6340932,0.39912343,0.10154836,5.8800597,-3.0933437,-9.743646,-1.374868e-05,-4.775845e-05,-1.3198685e-06,-3.4583034e-05,4.347811e-05,-0.000452419,0.0,0.0,0.0,0.0,0.0,0.0,0.0,0.0,7.692491e-05,1.4349306e-05,1.4193731e-05,0.00016455703,0.26145047,0.25514585,0.01907268,6.2485375,6.2451177,0.14670421,1.8812911e-11,1.8813114e-11,4.568616e-11,3.74312e-06,3.744714e-06,5.0000075e-08,0.0,0.0,0.0,0.0,0.0,0.0,0.0,0.0,24
55188000,55108000,0.8240259,-0.042354707,-0.07345495,-0.5601713,1.4762375,0.9000165,0.1251523,5.897736,-1.8235941,-9.726226,-1.3648112e-05,-4.8601796e-05,-1.5639661e-06,-3.4583034e-05,4.347811e-05,-0.00043176886,0.0,0.0,0.0,0.0,0.0,0.0,0.0,0.0,8.065351e-05,1.5084739e-05,1.4989134e-05,0.00017261217,0.28903982,0.27870628,0.019432675,6.6688876,6.64894,0.15762252,1.888374e-11,1.8880057e-11,4.6159243e-11,3.74312e-06,3.744714e-06,5.000004e-08,0.0,0.0,0.0,0.0,0.0,0.0,0.0,0.0,24
56188000,56108000,0.8245054,-0.04219482,-0.073355496,-0.5594904,1.2205399,1.379892,0.13257852,5.3960824,-0.32875565,-9.735391,-1.3276908e-05,-4.952513e-05,-1.9318732e-06,-3.4583034e-05,4.347811e-05,-0.00039964696,0.0,0.0,0.0,0.0,0.0,0.0,0.0,0.0,8.44021e-05,1.552191e-05,1.5444588e-05,0.00018079742,0.30557767,0.29111674,0.01831764,6.718464,6.674467,0.14791828,1.8784706e-11,1.8775169e-11,4.659228e-11,3.74312e-06,3.744714e-06,5.000022e-08,0.0,0.0,0.0,0.0,0.0,0.0,0.0,0.0,24
57188000,57108000,0.8253618,-0.04226153,-0.070625626,-0.5585731,0.95518804,1.788546,0.121648155,4.781773,1.1024624,-9.752043,-1.2654295e-05,-5.02229e-05,-2.360595e-06,-3.4583034e-05,4.347811e-05,-0.0003638617,0.0,0.0,0.0,0.0,0.0,0.0,0.0,0.0,8.805627e-05,1.5810445e-05,1.5796226e-05,0.0001891087,0.32001144,0.30185318,0.017193014,6.779876,6.707529,0.13616519,1.8623816e-11,1.8607168e-11,4.6971354e-11,3.74312e-06,3.744714e-06,5e-08,0.0,0.0,0.0,0.0,0.0,0.0,0.0,0.0,24
58196000,58116000,0.8264485,-0.04121083,-0.069371924,-0.5572002,0.68179584,2.163198,0.1305848,4.0851636,2.4527316,-9.733303,-1.1836317e-05,-5.0638206e-05,-2.8307154e-06,-3.4583034e-05,4.347811e-05,-0.0003377817,0.0,0.0,0.0,0.0,0.0,0.0,0.0,0.0,9.1599024e-05,1.602131e-05,1.6034217e-05,0.00019753602,0.33227086,0.31106347,0.017994964,6.8591413,6.758688,0.14632323,1.842075e-11,1.8394657e-11,4.728952e-11,3.74312e-06,3.744714e-06,5.0000256e-08,0.0,0.0,0.0,0.0,0.0,0.0,0.0,0.0,24
59188000,59108000,0.82688546,-0.044516318,-0.06984012,-0.5562383,0.40867996,2.4058912,0.118241176,3.3327537,3.599425,-9.766464,-1.08692375e-05,-5.0719405e-05,-3.3355793e-06,-3.4583034e-05,4.347811e-05,-0.00029941858,0.0,0.0,0.0,0.0,0.0,0.0,0.0,0.0,9.513542e-05,1.6110756e-05,1.6209984e-05,0.00020547253,0.33917737,0.31653103,0.01712817,6.8862333,6.761238,0.13486415,1.8179071e-11,1.8139535e-11,4.7528363e-11,3.74312e-06,3.744714e-06,5e-08,0.0,0.0,0.0,0.0,0.0,0.0,0.0,0.0,24
60196000,60116000,0.82769907,-0.043975625,-0.06784556,-0.5553175,0.17559081,2.6099362,0.115078636,2.7579072,4.9050636,-9.755923,-1.0047628e-05,-5.0549235e-05,-3.745465e-06,-3.4583034e-05,4.347811e-05,-0.00027408317,0.0,0.0,0.0,0.0,0.0,0.0,0.0,0.0,9.877372e-05,1.6510196e-05,1.6668093e-05,0.00021387203,0.36071572,0.33677012,0.018052256,7.4504113,7.2857237,0.14553116,1.8086447e-11,1.8030584e-11,4.778026e-11,3.74312e-06,3.744714e-06,5.000022e-08,0.0,0.0,0.0,0.0,0.0,0.0,0.0,0.0,24
61196000,61116000,0.82856107,-0.045618523,-0.06776948,-0.5539069,-0.0846567,2.7055156,0.10442672,1.9399459,5.687881,-9.787155,-9.018501e-06,-5.0056977e-05,-4.252331e-06,-3.4583034e-05,4.347811e-05,-0.00024153684,0.0,0.0,0.0,0.0,0.0,0.0,0.0,0.0,0.000102059385,1.6469054e-05,1.6717095e-05,0.00022183095,0.3614914,0.33880752,0.01724837,7.4571257,7.2813125,0.13498877,1.7840162e-11,1.7753044e-11,4.7909225e-11,3.74312e-06,3.744714e-06,5e-08,0.0,0.0,0.0,0.0,0.0,0.0,0.0,0.0,24
62196000,62116000,0.82996535,-0.035241675,-0.04929987,-0.5545133,-0.35197365,2.7252476,0.1064145,1.1463805,6.2404714,-9.781125,-8.048904e-06,-4.930289e-05,-4.7338963e-06,-3.4583034e-05,4.347811e-05,-0.00022366254,0.0,0.0,0.0,0.0,0.0,0.0,0.0,0.0,0.00010596127,1.6155593e-05,1.6457938e-05,0.00022951218,0.3589451,0.33908176,0.018086579,7.432998,7.257921,0.14506672,1.7609865e-11,1.747624e-11,4.7992506e-11,3.74312e-06,3.744714e-06,5.000004e-08,0.0,0.0,0.0,0.0,0.0,0.0,0.0,0.0,24
63188000,63108000,0.8297241,0.005296732,0.018202566,-0.55785173,-1.0614895,3.9144487,0.14403325,0.20426539,7.078054,-9.74715,-7.172154e-06,-4.8292128e-05,-5.1890474e-06,-3.4583034e-05,4.347811e-05,-0.00020961478,0.0,0.0,0.0,0.0,0.0,0.0,0.0,0.0,0.000110951914,1.6707867e-05,1.59089e-05,0.00023508536,0.36793408,0.3397348,0.01926595,7.3734865,7.1960835,0.15681078,1.7402567e-11,1.7201688e-11,4.8029185e-11,3.74312e-06,3.744714e-06,5.0000256e-08,0.0,0.0,0.0,0.0,0.0,0.0,0.0,0.0,24
64188000,64108000,0.82016885,0.0038258075,0.032486685,-0.5711856,-1.8706781,4.9172378,0.17079003,-1.0908091,8.576134,-9.742993,-6.385754e-06,-4.685849e-05,-5.6465933e-06,-3.4583034e-05,4.347811e-05,-0.0001813763,0.0,0.0,0.0,0.0,0.0,0.0,0.0,0.0,0.000120019715,1.6730675e-05,1.568082e-05,0.00023604046,0.37577558,0.34156495,0.018622648,7.337044,7.1405067,0.14435832,1.7241137e-11,1.6936503e-11,4.7973334e-11,3.74312e-06,3.744714e-06,5e-08,0.0,0.0,0.0,0.0,0.0,0.0,0.0,0.0,24
65196000,65116000,0.93291,0.13042144,-0.033726428,-0.33396366,-1.6857895,6.2141957,0.1678999,-2.5298004,11.103501,-9.771991,-5.844563e-06,-4.5319735e-05,-6.027385e-06,-3.4583034e-05,4.347811e-05,-0.00016256225,0.0,0.0,0.0,0.0,0.0,0.0,0.0,0.0,4.4692628e-05,1.5645066e-05,2.0738535e-05,0.0003183857,0.4080793,0.35198674,0.017154872,7.8953724,7.6337543,0.13513555,1.7256717e-11,1.682589e-11,4.7935406e-11,3.74312e-06,3.744714e-06,5e-08,0.0,0.0,0.0,0.0,0.0,0.0,0.0,0.0,24
66196000,66116000,0.9925636,0.053836543,-0.07382865,0.08042712,-1.3203789,6.4621124,0.16792339,-2.9590056,13.194877,-9.725375,-5.1719094e-06,-4.3025208e-05,-6.5456206e-06,-3.4583034e-05,4.347811e-05,-0.00016192893,0.0,0.0,0.0,0.0,0.0,0.0,0.0,0.0,1.8833202e-06,1.6118272e-05,1.5609043e-05,0.000372859,0.40053615,0.3417101,0.014429309,7.853535,7.5291543,0.14246543,1.719522e-11,1.6577607e-11,4.7624914e-11,3.74312e-06,3.744714e-06,5.0000637e-08,0.0,0.0,0.0,0.0,0.0,0.0,0.0,0.0,24
67196000,67116000,0.96233916,0.015082487,-0.16348375,0.21667697,0.39613304,6.215772,0.07494074,-2.5294309,14.474819,-9.824549,-4.4191506e-06,-4.0378884e-05,-7.141032e-06,-3.4583034e-05,4.347811e-05,-0.00016084341,0.0,0.0,0.0,0.0,0.0,0.0,0.0,0.0,1.6680477e-05,2.1190606e-05,1.3375466e-05,0.00035978004,0.38102725,0.3243402,0.0114150075,7.765781,7.3906293,0.12605783,1.7186053e-11,1.6342195e-11,4.723068e-11,3.74312e-06,3.744714e-06,5.0000185e-08,0.0,0.0,0.0,0.0,0.0,0.0,0.0,0.0,24
68188000,68108000,0.97933984,-0.0014366374,-0.06626063,0.19105232,0.6149426,5.394451,0.035823103,-1.2234602,14.914799,-9.868642,-3.4830837e-06,-3.77521e-05,-7.7713985e-06,-3.4583034e-05,4.347811e-05,-0.0001607541,0.0,0.0,0.0,0.0,0.0,0.0,0.0,0.0,1.237516e-05,1.3457303e-05,1.2901389e-05,0.00037749752,0.3505495,0.3122984,0.009978485,7.601044,7.214865,0.12637982,1.7209083e-11,1.6158535e-11,4.6877408e-11,3.74312e-06,3.744714e-06,5.000261e-08,0.0,0.0,0.0,0.0,0.0,0.0,0.0,0.0,24
69188000,69108000,0.9782983,0.0005658497,-0.07656232,0.19253655,0.33805668,4.1426144,0.016547974,-0.5226379,14.290832,-9.930716,-2.4275048e-06,-3.5273162e-05,-8.391231e-06,-3.4583034e-05,4.347811e-05,-0.0001602794,0.0,0.0,0.0,0.0,0.0,0.0,0.0,0.0,1.2760026e-05,1.3234453e-05,1.2172749e-05,0.00038504714,0.31931782,0.30001655,0.009722195,7.3983517,7.060038,0.11249863,1.7260577e-11,1.602082e-11,4.6659156e-11,3.74312e-06,3.744714e-06,5e-08,0.0,0.0,0.0,0.0,0.0,0.0,0.0,0.0,24
70188000,70108000,0.9776494,-0.003964306,-0.079735406,0.19449484,0.13212205,3.061617,0.025083642,-0.22276394,13.826277,-9.936861,-1.6133191e-06,-3.3505814e-05,-8.842444e-06,-3.4583034e-05,4.347811e-05,-0.00016278616,0.0,0.0,0.0,0.0,0.0,0.0,0.0,0.0,1.3324661e-05,1.330846e-05,1.2114072e-05,0.00039521686,0.31149215,0.30288807,0.01169951,7.7190733,7.426909,0.116085,1.742227e-11,1.6048626e-11,4.67172e-11,3.74312e-06,3.744714e-06,5.0000224e-08,0.0,0.0,0.0,0.0,0.0,0.0,0.0,0.0,24
71188000,71108000,0.979066,-0.013263387,-0.045304507,0.19799364,-0.08380063,1.814891,0.050658755,-0.1407692,11.705322,-9.911177,-6.831699e-07,-3.1622454e-05,-9.333535e-06,-3.4583034e-05,4.347811e-05,-0.00017041236,0.0,0.0,0.0,0.0,0.0,0.0,0.0,0.0,1.3891983e-05,1.1722496e-05,1.2200852e-05,0.00040755526,0.29409844,0.29095784,0.014582656,7.4517465,7.2635927,0.1244017,1.751322e-11,1.5996584e-11,4.683357e-11,3.74312e-06,3.744714e-06,5.0000224e-08,0.0,0.0,0.0,0.0,0.0,0.0,0.0,0.0,24
72196000,72116000,0.9790837,-0.027912674,0.0086134095,0.20135038,-1.4738026,0.22179583,0.11205951,-0.81387705,9.037467,-9.839874,7.4410224e-08,-3.0135663e-05,-9.733448e-06,-3.4583034e-05,4.347811e-05,-0.0001786407,0.0,0.0,0.0,0.0,0.0,0.0,0.0,0.0,1.4447925e-05,1.1185999e-05,1.2741133e-05,0.00042049238,0.28665352,0.28662372,0.016872596,7.219261,7.125437,0.12261394,1.7617068e-11,1.5985102e-11,4.712176e-11,3.74312e-06,3.744714e-06,5e-08,0.0,0.0,0.0,0.0,0.0,0.0,0.0,0.0,24
73188000,73108000,0.9777066,-0.0405376,0.0189798,0.20514925,-2.608848,-1.3016894,0.18755895,-2.3270214,5.8604155,-9.729377,4.6378867e-07,-2.9005103e-05,-1.006292e-05,-3.4583034e-05,4.347811e-05,-0.00017246653,0.0,0.0,0.0,0.0,0.0,0.0,0.0,0.0,1.5392163e-05,1.12500875e-05,1.3426188e-05,0.00043348348,0.2886932,0.28575465,0.018311083,6.983076,6.9650836,0.12248452,1.7717008e-11,1.5992159e-11,4.7506676e-11,3.74312e-06,3.744714e-06,5e-08,0.0,0.0,0.0,0.0,0.0,0.0,0.0,0.0,24
74196000,74116000,0.91774243,0.06400136,0.067943096,0.38605237,-3.4690728,-2.021406,0.1712541,-4.1599503,2.5876195,-9.611526,3.572225e-07,-2.8162394e-05,-1.0361487e-05,-3.4583034e-05,4.347811e-05,-0.00015471628,0.0,0.0,0.0,0.0,0.0,0.0,0.0,0.0,6.260764e-05,1.3062481e-05,1.1709855e-05,0.0004019213,0.29023892,0.28727993,0.020148672,6.8336964,6.8576717,0.14032689,1.7824625e-11,1.6026977e-11,4.7902404e-11,3.74312e-06,3.744714e-06,5.000022e-08,0.0,0.0,0.0,0.0,0.0,0.0,0.0,0.0,24
75188000,75108000,0.6753469,0.027798612,0.02117274,0.7366719,-4.826542,-2.2221396,0.17045672,-6.527221,0.16114329,-9.584748,-2.6683307e-07,-2.740401e-05,-1.0704401e-05,-3.4583034e-05,4.347811e-05,-0.00011522795,0.0,0.0,0.0,0.0,0.0,0.0,0.0,0.0,0.00025031876,1.1159364e-05,1.084914e-05,0.00023019254,0.284369,0.29886943,0.019298809,6.682493,6.744085,0.1354812,1.7933457e-11,1.606605e-11,4.8174e-11,3.74312e-06,3.744714e-06,5e-08,0.0,0.0,0.0,0.0,0.0,0.0,0.0,0.0,24
76188000,76108000,0.49442726,0.11462471,-0.100148186,0.85578805,-5.047421,-1.3966591,0.012336567,-9.248296,-1.6478604,-9.616233,-1.064898e-06,-2.6740961e-05,-1.1036888e-05,-3.4583034e-05,4.347811e-05,-0.00010212021,0.0,0.0,0.0,0.0,0.0,0.0,0.0,0.0,0.00035571805,1.4749975e-05,1.365165e-05,0.00013069269,0.27894962,0.30467975,0.017775174,7.0325384,7.1412187,0.14838435,1.8150868e-11,1.6215132e-11,4.8360982e-11,3.74312e-06,3.744714e-06,5.000015e-08,0.0,0.0,0.0,0.0,0.0,0.0,0.0,0.0,24
77196000,77116000,0.536629,0.026634825,-0.023328686,0.84307516,-4.8238673,-1.1535863,-0.041915826,-10.877008,-2.1087036,-9.729984,-2.2097995e-06,-2.5763602e-05,-1.1514123e-05,-3.4583034e-05,4.347811e-05,-0.0001019465,0.0,0.0,0.0,0.0,0.0,0.0,0.0,0.0,0.00034791304,1.0086893e-05,9.736776e-06,0.0001565318,0.26788968,0.29031628,0.0127928145,6.899524,7.055134,0.13214922,1.8346583e-11,1.6306316e-11,4.8345248e-11,3.74312e-06,3.744714e-06,5.0001006e-08,0.0,0.0,0.0,0.0,0.0,0.0,0.0,0.0,24
78196000,78116000,0.5341807,0.05023645,-0.029774562,0.84335095,-4.0086203,-1.7575154,-0.053959824,-11.4774885,-2.8430715,-9.803532,-3.36443e-06,-2.4640936e-05,-1.2030879e-05,-3.4583034e-05,4.347811e-05,-0.00010244333,0.0,0.0,0.0,0.0,0.0,0.0,0.0,0.0,0.00035414787,1.0172812e-05,9.795995e-06,0.0001589159,0.2664152,0.26867318,0.012072899,6.76747,6.9137087,0.13353822,1.858766e-11,1.6437364e-11,4.8263747e-11,3.74312e-06,3.744714e-06,5.000011e-08,0.0,0.0,0.0,0.0,0.0,0.0,0.0,0.0,24
79188000,79108000,0.53093815,0.051557478,-0.035260364,0.84510547,-3.2165112,-2.1556876,-0.040964216,-11.2214775,-3.7526817,-9.856613,-4.4704366e-06,-2.346804e-05,-1.2561133e-05,-3.4583034e-05,4.347811e-05,-0.00010514714,0.0,0.0,0.0,0.0,0.0,0.0,0.0,0.0,0.00036094905,1.05526e-05,9.856609e-06,0.00016062305,0.26296356,0.25159663,0.013239334,6.631836,6.727072,0.13514777,1.8857936e-11,1.6603273e-11,4.8179877e-11,3.74312e-06,3.744714e-06,5.000015e-08,0.0,0.0,0.0,0.0,0.0,0.0,0.0,0.0,24
80188000,80108000,0.52764547,0.052752435,-0.039031975,0.8469262,-2.3999302,-2.433567,-0.024640962,-10.390636,-4.6835895,-9.890304,-5.483677e-06,-2.232139e-05,-1.3084974e-05,-3.4583034e-05,4.347811e-05,-0.00011073859,0.0,0.0,0.0,0.0,0.0,0.0,0.0,0.0,0.0003682041,1.1113922e-05,1.0137978e-05,0.00016247087,0.25942886,0.23947597,0.014716112,6.5215592,6.547073,0.12511408,1.9157457e-11,1.6807656e-11,4.8143142e-11,3.74312e-06,3.744714e-06,5.000004e-08,0.0,0.0,0.0,0.0,0.0,0.0,0.0,0.0,24
81188000,81108000,0.52453655,0.05529334,-0.042088162,0.84854746,-1.7032938,-2.6787355,0.01160939,-9.757389,-5.8952107,-9.901596,-6.213648e-06,-2.1453445e-05,-1.3493284e-05,-3.4583034e-05,4.347811e-05,-0.00011628648,0.0,0.0,0.0,0.0,0.0,0.0,0.0,0.0,0.00037714443,1.1949431e-05,1.0802765e-05,0.00016482783,0.2676666,0.24258628,0.017443342,6.8646107,6.80979,0.13614458,1.9513518e-11,1.7096878e-11,4.8260004e-11,3.74312e-06,3.744714e-06,5.0000075e-08,0.0,0.0,0.0,0.0,0.0,0.0,0.0,0.0,24
82188000,82108000,0.5210991,0.056897327,-0.045985483,0.8503551,-0.93990743,-2.7646794,0.039077822,-8.115668,-6.6424513,-9.891754,-7.0278124e-06,-2.044533e-05,-1.3988971e-05,-3.4583034e-05,4.347811e-05,-0.00011964088,0.0,0.0,0.0,0.0,0.0,0.0,0.0,0.0,0.00038553,1.2882766e-05,1.1482451e-05,0.0001669039,0.26443842,0.23954596,0.018596336,6.759215,6.632767,0.13338825,1.9843413e-11,1.7353861e-11,4.833196e-11,3.74312e-06,3.744714e-06,5.0000036e-08,0.0,0.0,0.0,0.0,0.0,0.0,0.0,0.0,24
83188000,83108000,0.5180101,0.05774569,-0.048967022,0.8520171,-0.23420158,-2.7665315,0.057001323,-6.314627,-7.193865,-9.869804,-7.744222e-06,-1.9526675e-05,-1.4463431e-05,-3.4583034e-05,4.347811e-05,-0.0001203178,0.0,0.0,0.0,0.0,0.0,0.0,0.0,0.0,0.00039438505,1.3876614e-05,1.2291457e-05,0.0001693524,0.26216355,0.24092406,0.02031248,6.659553,6.484102,0.14925945,2.0183383e-11,1.7630808e-11,4.845321e-11,3.74312e-06,3.744714e-06,5.0000075e-08,0.0,0.0,0.0,0.0,0.0,0.0,0.0,0.0,24
84196000,84116000,0.51564145,-0.012179172,-0.00010467145,0.856718,0.6103132,-3.2353463,0.104265146,-4.4156213,-7.658625,-9.848494,-8.394116e-06,-1.8677727e-05,-1.4918356e-05,-3.4583034e-05,4.347811e-05,-0.00011160057,0.0,0.0,0.0,0.0,0.0,0.0,0.0,0.0,0.00040632926,1.2017252e-05,1.1901082e-05,0.00017356203,0.2691352,0.24744849,0.019857181,6.5866895,6.382878,0.14515418,2.0529885e-11,1.7920113e-11,4.8607497e-11,3.74312e-06,3.744714e-06,5.0000185e-08,0.0,0.0,0.0,0.0,0.0,0.0,0.0,0.0,24
85188000,85108000,0.51421607,-0.029567622,-0.0014779655,0.85714966,1.7731992,-4.306299,0.18557891,-2.1611438,-8.731434,-9.770505,-9.073528e-06,-1.7860519e-05,-1.535906e-05,-3.4583034e-05,4.347811e-05,-0.00010127045,0.0,0.0,0.0,0.0,0.0,0.0,0.0,0.0,0.00041383517,1.2782692e-05,1.28700485e-05,0.00017708207,0.28874674,0.26097623,0.020706763,6.523985,6.2858872,0.15841378,2.0863594e-11,1.819891e-11,4.8724042e-11,3.74312e-06,3.744714e-06,5.0000075e-08,0.0,0.0,0.0,0.0,0.0,0.0,0.0,0.0,24
86196000,86116000,0.5078974,-0.006694772,-0.0026886421,0.8613873,2.746224,-5.151123,0.20919326,0.41989282,-10.964219,-9.70809,-9.763433e-06,-1.7137636e-05,-1.5730997e-05,-3.4583034e-05,4.347811e-05,-7.20365e-05,0.0,0.0,0.0,0.0,0.0,0.0,0.0,0.0,0.00042590417,1.3846545e-05,1.3374972e-05,0.00017672726,0.31960824,0.289484,0.019605804,6.9922066,6.6804523,0.14932083,2.122808e-11,1.8514737e-11,4.8833243e-11,3.74312e-06,3.744714e-06,5.0000146e-08,0.0,0.0,0.0,0.0,0.0,0.0,0.0,0.0,24
87188000,87108000,0.11866008,0.04923127,0.093013614,0.9873422,2.387548,-6.444052,0.20975788,2.5762799,-12.745248,-9.727135,-1.08407985e-05,-1.6046839e-05,-1.619607e-05,-3.4583034e-05,4.347811e-05,-5.0212955e-05,0.0,0.0,0.0,0.0,0.0,0.0,0.0,0.0,0.00059178274,1.5793747e-05,1.5597174e-05,1.5329148e-05,0.35195202,0.28628772,0.016855596,7.0009804,6.6491885,0.13747731,2.1538053e-11,1.874336e-11,4.8659403e-11,3.74312e-06,3.744714e-06,5.000129e-08,0.0,0.0,0.0,0.0,0.0,0.0,0.0,0.0,24
88188000,88108000,-0.27217284,0.1237062,0.026096331,0.95390666,2.0245302,-6.49993,0.124811105,3.8802552,-14.730063,-9.704036,-1.2081198e-05,-1.4576493e-05,-1.6645216e-05,-3.4583034e-05,4.347811e-05,-4.8824008e-05,0.0,0.0,0.0,0.0,0.0,0.0,0.0,0.0,0.0005722601,1.3398956e-05,2.2066799e-05,3.4391214e-05,0.35200456,0.28567317,0.014349548,7.0528946,6.633468,0.14244558,2.1862364e-11,1.8937234e-11,4.8266214e-11,3.74312e-06,3.744714e-06,5.000011e-08,0.0,0.0,0.0,0.0,0.0,0.0,0.0,0.0,24
89196000,89116000,-0.23812877,0.11516111,0.033303175,0.96380687,0.23145041,-6.2511263,0.08304779,3.6676185,-16.00632,-9.809088,-1.3288878e-05,-1.2606653e-05,-1.704916e-05,-3.4583034e-05,4.347811e-05,-4.881852e-05,0.0,0.0,0.0,0.0,0.0,0.0,0.0,0.0,0.00058432313,1.263512e-05,2.0583988e-05,2.4819277e-05,0.3418243,0.2772388,0.010909987,7.0794983,6.5961285,0.12576896,2.2204948e-11,1.9073085e-11,4.7755414e-11,3.74312e-06,3.744714e-06,5.0000665e-08,0.0,0.0,0.0,0.0,0.0,0.0,0.0,0.0,24
90196000,90116000,-0.23545267,0.076429576,0.011317143,0.96880984,0.265213,-5.258364,0.06328281,2.8714063,-16.347057,-9.844992,-1.41665405e-05,-1.0286278e-05,-1.7352633e-05,-3.4583034e-05,4.347811e-05,-4.8408365e-05,0.0,0.0,0.0,0.0,0.0,0.0,0.0,0.0,0.00059131876,1.2751608e-05,1.5953716e-05,2.3505716e-05,0.31794733,0.27822968,0.010023323,7.023301,6.537021,0.12604922,2.2550692e-11,1.9165768e-11,4.7283597e-11,3.74312e-06,3.744714e-06,5.0000217e-08,0.0,0.0,0.0,0.0,0.0,0.0,0.0,0.0,24
91196000,91116000,-0.23806323,0.0829459,0.010269125,0.96764684,0.28511858,-4.296829,0.049292654,2.477208,-16.666183,-9.887646,-1.4576244e-05,-8.279399e-06,-1.75188e-05,-3.4583034e-05,4.347811e-05,-4.59606e-05,0.0,0.0,0.0,0.0,0.0,0.0,0.0,0.0,0.0005965279,1.27050525e-05,1.6862494e-05,2.4437972e-05,0.31190115,0.28901175,0.010358443,7.41226,6.9331512,0.11261852,2.2913265e-11,1.929635e-11,4.7111887e-11,3.74312e-06,3.744714e-06,5e-08,0.0,0.0,0.0,0.0,0.0,0.0,0.0,0.0,24
92196000,92116000,-0.23931995,0.087590665,0.006027921,0.9669631,0.16930994,-3.1420553,0.058410253,1.9786761,-15.0578985,-9.898103,-1.4765758e-05,-5.837628e-06,-1.765765e-05,-3.4583034e-05,4.347811e-05,-4.564073e-05,0.0,0.0,0.0,0.0,0.0,0.0,0.0,0.0,0.0006024654,1.2720326e-05,1.7630346e-05,2.5074156e-05,0.29635823,0.28641567,0.012617105,7.2379026,6.8773994,0.11642198,2.3215636e-11,1.9316524e-11,4.695465e-11,3.74312e-06,3.744714e-06,5e-08,0.0,0.0,0.0,0.0,0.0,0.0,0.0,0.0,24
93188000,93108000,-0.24089628,0.033261787,-0.006429571,0.96995944,0.14820816,-1.9503143,0.09415982,1.5040628,-12.865511,-9.891422,-1.4616233e-05,-3.6175684e-06,-1.772764e-05,-3.4583034e-05,4.347811e-05,-4.32045e-05,0.0,0.0,0.0,0.0,0.0,0.0,0.0,0.0,0.0006175867,1.3226827e-05,1.3184255e-05,2.5431245e-05,0.2864451,0.28238386,0.0146883745,7.036071,6.7957406,0.11281803,2.3465086e-11,1.9306811e-11,4.701143e-11,3.74312e-06,3.744714e-06,5e-08,0.0,0.0,0.0,0.0,0.0,0.0,0.0,0.0,24
94188000,94108000,-0.23907053,0.0044732187,-0.021071719,0.97076327,1.1749305,-0.32147104,0.11973984,1.6767436,-10.088115,-9.819068,-1.4280705e-05,-1.7872902e-06,-1.7766894e-05,-3.4583034e-05,4.347811e-05,-4.4349854e-05,0.0,0.0,0.0,0.0,0.0,0.0,0.0,0.0,0.00063258037,1.407737e-05,1.2385015e-05,2.5385772e-05,0.2859052,0.27916136,0.01757138,6.8586345,6.7287397,0.1254444,2.3656889e-11,1.9295156e-11,4.7272197e-11,3.74312e-06,3.744714e-06,5e-08,0.0,0.0,0.0,0.0,0.0,0.0,0.0,0.0,24
95188000,95108000,-0.23480678,-0.004846788,-0.0315942,0.9715164,1.9395211,1.1833919,0.16480985,2.528694,-6.7927723,-9.733463,-1.40462835e-05,-4.0873968e-07,-1.7838387e-05,-3.4583034e-05,4.347811e-05,-3.4863588e-05,0.0,0.0,0.0,0.0,0.0,0.0,0.0,0.0,0.00064999703,1.4876101e-05,1.2567148e-05,2.4928766e-05,0.29604623,0.27893052,0.020092376,6.70914,6.6569963,0.14271384,2.3771454e-11,1.9290448e-11,4.7685408e-11,3.74312e-06,3.744714e-06,5e-08,0.0,0.0,0.0,0.0,0.0,0.0,0.0,0.0,24
96188000,96108000,-0.24152382,-0.010220802,-0.026828399,0.96997017,2.4786546,2.254516,-0.17892352,3.874937,-3.6276016,-9.7029705,-1.4113174e-05,3.926469e-07,-1.7962644e-05,-3.4583034e-05,4.347811e-05,-8.230514e-06,0.0,0.0,0.0,0.0,0.0,0.0,0.0,0.0,0.0006666579,1.4853953e-05,1.3152881e-05,2.7480311e-05,0.32467693,0.2943727,0.020237576,7.0764856,7.0494657,0.14266185,2.3900262e-11,1.9399544e-11,4.816511e-11,3.74312e-06,3.744714e-06,5.000018e-08,0.0,0.0,0.0,0.0,0.0,0.0,0.0,0.0,24
97188000,97108000,-0.24283601,-0.019125998,-0.027741268,0.96948195,2.8056908,3.2343128,-2.5170429,5.018664,-0.14938648,-11.278998,-1.4596596e-05,1.089536e-06,-1.8209648e-05,-3.4583034e-05,4.347811e-05,2.3255225e-05,0.0,0.0,0.0,0.0,0.0,0.0,0.0,0.0,0.00068374735,1.50010355e-05,1.35088685e-05,2.834265e-05,0.35631722,0.30916616,0.019182293,7.048264,6.9986033,0.13674998,2.3859007e-11,1.942651e-11,4.8599798e-11,3.74312e-06,3.744714e-06,5e-08,0.0,0.0,0.0,0.0,0.0,0.0,0.0,0.0,24
98196000,98116000,-0.2470886,0.017126242,-0.019382844,0.96864766,2.4661362,3.595096,-2.4187376,5.8732824,2.9164178,-13.919781,-1.5536321e-05,1.5706408e-06,-1.8538873e-05,-3.4583034e-05,4.347811e-05,4.3910895e-05,0.0,0.0,0.0,0.0,0.0,0.0,0.0,0.0,0.00069653825,1.4806105e-05,1.5611964e-05,2.9970917e-05,0.35949063,0.30414528,0.019499557,7.087787,6.9724803,0.14989805,2.3765252e-11,1.9475765e-11,4.891528e-11,3.74312e-06,3.744714e-06,5.000015e-08,0.0,0.0,0.0,0.0,0.0,0.0,0.0,0.0,24
99196000,99116000,-0.2508397,0.022287793,-0.01658525,0.96762997,1.7910019,3.5692961,-2.421722,5.8817554,5.1011076,-16.494072,-1.6877415e-05,1.9606057e-06,-1.8932293e-05,-3.4583034e-05,4.347811e-05,7.429276e-05,0.0,0.0,0.0,0.0,0.0,0.0,0.0,0.0,0.0007073834,1.4908221e-05,1.6730477e-05,3.1043604e-05,0.35325435,0.2999566,0.017881295,7.09324,6.9020205,0.13861501,2.3625175e-11,1.953596e-11,4.9088095e-11,3.74312e-06,3.744714e-06,5.0000036e-08,0.0,0.0,0.0,0.0,0.0,0.0,0.0,0.0,24
100188000,100108000,-0.25482225,0.02545358,-0.012301444,0.9665746,1.0968028,3.3324656,-2.4218428,5.2926493,6.4790287,-19.010525,-1.8411069e-05,2.2883962e-06,-1.9318775e-05,-3.4583034e-05,4.347811e-05,8.884625e-05,0.0,0.0,0.0,0.0,0.0,0.0,0.0,0.0,0.0007163016,1.5051932e-05,1.7728988e-05,3.2084743e-05,0.34270132,0.300298,0.018307703,7.052595,6.805809,0.14759491,2.3467879e-11,1.960178e-11,4.918201e-11,3.74312e-06,3.744714e-06,5.000011e-08,0.0,0.0,0.0,0.0,0.0,0.0,0.0,0.0,24
101196000,101116000,-0.2590695,0.029261734,-0.0081201,0.9653812,0.39488837,2.9352367,-2.4527733,4.3030434,7.1873655,-21.620987,-2.0054935e-05,2.5777385e-06,-1.9700406e-05,-3.4583034e-05,4.347811e-05,0.00011227197,0.0,0.0,0.0,0.0,0.0,0.0,0.0,0.0,0.0007247938,1.5346313e-05,1.8808332e-05,3.3191416e-05,0.33227366,0.3069082,0.017331582,7.018108,6.75176,0.13648488,2.3293194e-11,1.9670293e-11,4.9277204e-11,3.74312e-06,3.744714e-06,5.0000036e-08,0.0,0.0,0.0,0.0,0.0,0.0,0.0,0.0,24
102196000,102116000,-0.26255727,0.034094386,-0.005337486,0.9642992,-0.23183277,2.5290465,-2.0852783,3.2704802,7.8008795,-24.112333,-2.1362323e-05,2.7688093e-06,-1.998697e-05,-3.4583034e-05,4.347811e-05,0.00012588096,0.0,0.0,0.0,0.0,0.0,0.0,0.0,0.0,0.00073554093,1.6035645e-05,2.0303874e-05,3.4372595e-05,0.33592448,0.32882693,0.018208554,7.456012,7.181846,0.14635599,2.3229363e-11,1.9809087e-11,4.9486e-11,3.74312e-06,3.744714e-06,5.000022e-08,0.0,0.0,0.0,0.0,0.0,0.0,0.0,0.0,24
103196000,103116000,-0.2667615,0.037920263,0.00049408764,0.9630162,-0.8465679,1.9231623,-1.4397285,1.7918193,7.356074,-26.007988,-2.2934895e-05,2.915881e-06,-2.033314e-05,-3.4583034e-05,4.347811e-05,0.00015184522,0.0,0.0,0.0,0.0,0.0,0.0,0.0,0.0,0.0007453596,1.6505352e-05,2.1299807e-05,3.5674046e-05,0.32355163,0.33721665,0.01746345,7.3309646,7.136311,0.13570036,2.2977493e-11,1.9824014e-11,4.9682727e-11,3.74312e-06,3.744714e-06,5.0000036e-08,0.0,0.0,0.0,0.0,0.0,0.0,0.0,0.0,24
104188000,104108000,-0.2704821,0.04137729,0.0030708304,0.96183056,-1.4082927,1.2773442,-0.90870917,0.28371996,6.4783726,-27.263592,-2.4367806e-05,2.940884e-06,-2.0659008e-05,-3.4583034e-05,4.347811e-05,0.00016855497,0.0,0.0,0.0,0.0,0.0,0.0,0.0,0.0,0.0007565297,1.695167e-05,2.209129e-05,3.693426e-05,0.31616887,0.34797093,0.018257225,7.1719666,7.0878286,0.14396244,2.2658191e-11,1.9796062e-11,4.994534e-11,3.74312e-06,3.744714e-06,5.0000075e-08,0.0,0.0,0.0,0.0,0.0,0.0,0.0,0.0,24
105188000,105108000,-0.27410287,0.04284265,0.007154214,0.96071905,-1.8978561,0.63092,-0.561665,-1.1840167,5.322291,-28.142256,-2.5628662e-05,2.7558576e-06,-2.0982745e-05,-3.4583034e-05,4.347811e-05,0.00020274831,0.0,0.0,0.0,0.0,0.0,0.0,0.0,0.0,0.0007686888,1.7475455e-05,2.2501663e-05,3.834097e-05,0.31575936,0.36132997,0.017549872,7.0381103,7.077353,0.13438019,2.2262994e-11,1.9719974e-11,5.0254977e-11,3.74312e-06,3.744714e-06,5e-08,0.0,0.0,0.0,0.0,0.0,0.0,0.0,0.0,24
106196000,106116000,-0.2773288,0.043786895,0.010144339,0.95972323,-2.2913597,-0.0070792683,-0.29664722,-2.5746143,3.972056,-28.664984,-2.6687754e-05,2.36663e-06,-2.1294372e-05,-3.4583034e-05,4.347811e-05,0.00022399053,0.0,0.0,0.0,0.0,0.0,0.0,0.0,0.0,0.00078086945,1.7964585e-05,2.2655517e-05,3.9724782e-05,0.32172966,0.37451738,0.01851831,6.9451537,7.101623,0.1458144,2.1780813e-11,1.9597525e-11,5.0566638e-11,3.74312e-06,3.744714e-06,5.000007e-08,0.0,0.0,0.0,0.0,0.0,0.0,0.0,0.0,24
107188000,107108000,-0.01407129,0.11691835,-0.08812758,0.98912364,-3.277414,-0.046865158,-0.21186137,-4.1873913,2.8126118,-29.055763,-2.7386024e-05,1.8316256e-06,-2.155193e-05,-3.4583034e-05,4.347811e-05,0.00024689682,0.0,0.0,0.0,0.0,0.0,0.0,0.0,0.0,0.000821561,1.9579853e-05,3.30108e-05,2.8131615e-06,0.34156433,0.42294484,0.017061582,7.3509207,7.6460595,0.13497274,2.1422723e-11,1.954279e-11,5.087182e-11,3.74312e-06,3.744714e-06,5.000022e-08,0.0,0.0,0.0,0.0,0.0,0.0,0.0,0.0,24
108188000,108108000,0.38399243,0.19396606,-0.065515906,0.9003526,-5.1234655,1.5356925,-0.0730399,-6.5202603,2.6257634,-29.295324,-2.8238206e-05,8.751486e-07,-2.1916729e-05,-3.4583034e-05,4.347811e-05,0.00024689682,0.0,0.0,0.0,0.0,0.0,0.0,0.0,0.0,0.00064918544,1.6871572e-05,4.7681162e-05,0.00017090062,0.3368216,0.48939833,0.014318697,7.2900395,7.743389,0.14261873,2.0758404e-11,1.932115e-11,5.0995434e-11,3.74312e-06,3.744714e-06,5.000022e-08,0.0,0.0,0.0,0.0,0.0,0.0,0.0,0.0,24
109196000,109116000,0.4376529,0.091435626,0.0150628295,0.8943561,-6.277759,1.1901615,0.046178143,-9.543032,3.1038027,-29.379387,-2.9448114e-05,-6.278023e-07,-2.2469563e-05,-3.4583034e-05,4.347811e-05,0.00024693905,0.0,0.0,0.0,0.0,0.0,0.0,0.0,0.0,0.00063252193,1.7724497e-05,2.2157357e-05,0.00020954937,0.33480346,0.5357052,0.011383813,7.237052,7.9337873,0.12654468,1.9979112e-11,1.9076662e-11,5.0831502e-11,3.74312e-06,3.744714e-06,5.0001532e-08,0.0,0.0,0.0,0.0,0.0,0.0,0.0,0.0,24
110188000,110108000,0.41687465,0.105216116,0.00042013047,0.9028538,-6.235666,0.23899455,0.007923117,-11.809311,2.5944593,-29.433619,-3.0908555e-05,-2.6531109e-06,-2.3176957e-05,-3.4583034e-05,4.347811e-05,0.00024711902,0.0,0.0,0.0,0.0,0.0,0.0,0.0,0.0,0.0006377624,1.5164398e-05,2.2626626e-05,0.00019305812,0.3354737,0.5172509,0.010764744,7.132974,8.015981,0.1257474,1.9140687e-11,1.8823143e-11,5.0330084e-11,3.74312e-06,3.744714e-06,5e-08,0.0,0.0,0.0,0.0,0.0,0.0,0.0,0.0,24
111196000,111116000,0.41103172,0.10214363,0.00014249275,0.9058805,-6.022257,-0.58910197,-0.033641376,-13.305589,1.5113841,-29.529902,-3.2361226e-05,-5.0922513e-06,-2.39813e-05,-3.4583034e-05,4.347811e-05,0.00024608782,0.0,0.0,0.0,0.0,0.0,0.0,0.0,0.0,0.0006275464,1.40649e-05,2.0567379e-05,0.00018671635,0.33857435,0.48749197,0.011335327,7.0557237,8.042447,0.113514245,1.8350755e-11,1.8544506e-11,4.9626053e-11,3.74312e-06,3.744714e-06,5.0000036e-08,0.0,0.0,0.0,0.0,0.0,0.0,0.0,0.0,24
112188000,112108000,0.4056553,0.10414857,0.0025250153,0.90806973,-5.919775,-1.3583513,-0.06678677,-15.101694,0.15489793,-29.619001,-3.3363827e-05,-7.2098574e-06,-2.4643421e-05,-3.4583034e-05,4.347811e-05,0.00023826912,0.0,0.0,0.0,0.0,0.0,0.0,0.0,0.0,0.0006200814,1.3690315e-05,2.0004176e-05,0.000181507,0.36032093,0.47965902,0.013739933,7.476979,8.608273,0.11903015,1.7900818e-11,1.8411536e-11,4.9098958e-11,3.74312e-06,3.744714e-06,5.000004e-08,0.0,0.0,0.0,0.0,0.0,0.0,0.0,0.0,24
113188000,113108000,0.3997728,0.10420039,0.0019348576,0.91067016,-5.6087513,-2.0899045,-0.07906569,-15.410354,-1.545285,-29.735548,-3.4334647e-05,-1.00148045e-05,-2.5502975e-05,-3.4583034e-05,4.347811e-05,0.00021819538,0.0,0.0,0.0,0.0,0.0,0.0,0.0,0.0,0.000605815,1.3033136e-05,1.8732771e-05,0.00017445852,0.36668208,0.44326583,0.016658735,7.401977,8.4236965,0.13001494,1.7349651e-11,1.8134981e-11,4.832027e-11,3.74312e-06,3.744714e-06,5.0000075e-08,0.0,0.0,0.0,0.0,0.0,0.0,0.0,0.0,24
114196000,114116000,0.39394972,0.102932334,0.0011285648,0.9133495,-5.2545414,-2.7223613,-0.061167248,-15.361742,-3.3047087,-29.819822,-3.4912282e-05,-1.2901224e-05,-2.6391463e-05,-3.4583034e-05,4.347811e-05,0.00018280192,0.0,0.0,0.0,0.0,0.0,0.0,0.0,0.0,0.0005915547,1.25984e-05,1.7538545e-05,0.00016744138,0.3728487,0.40835586,0.018253,7.356188,8.210187,0.12975094,1.6951099e-11,1.7851021e-11,4.7571058e-11,3.74312e-06,3.744714e-06,5.0000185e-08,0.0,0.0,0.0,0.0,0.0,0.0,0.0,0.0,24
115196000,115116000,0.38808072,0.10090337,0.00028798624,0.916085,-4.829383,-3.2579782,-0.029418245,-14.935689,-4.987558,-29.87042,-3.5054247e-05,-1.5802874e-05,-2.733256e-05,-3.4583034e-05,4.347811e-05,0.00013836153,0.0,0.0,0.0,0.0,0.0,0.0,0.0,0.0,0.0005776053,1.2366925e-05,1.6509059e-05,0.00016057875,0.37818116,0.3746747,0.018633341,7.305889,7.939221,0.12818709,1.668646e-11,1.7580258e-11,4.6865168e-11,3.74312e-06,3.744714e-06,5.0000036e-08,0.0,0.0,0.0,0.0,0.0,0.0,0.0,0.0,24
116188000,116108000,0.38070804,0.015614778,0.033959743,0.9239396,-3.7126532,-4.3661704,0.03745671,-14.0039015,-6.7079797,-29.893417,-3.4720128e-05,-1.8630997e-05,-2.8349561e-05,-3.4583034e-05,4.347811e-05,9.600272e-05,0.0,0.0,0.0,0.0,0.0,0.0,0.0,0.0,0.00056742935,1.4227105e-05,1.2759762e-05,0.00015214302,0.40645164,0.33131936,0.019855252,7.259379,7.620602,0.14305314,1.6536352e-11,1.733227e-11,4.6215524e-11,3.74312e-06,3.744714e-06,5.0000075e-08,0.0,0.0,0.0,0.0,0.0,0.0,0.0,0.0,24
117188000,117108000,0.37554124,-0.006103947,0.036296986,0.9260746,-2.4069428,-5.674459,0.13128583,-13.114339,-9.577735,-29.848068,-3.4034092e-05,-2.0716305e-05,-2.9212268e-05,-3.4583034e-05,4.347811e-05,6.798361e-05,0.0,0.0,0.0,0.0,0.0,0.0,0.0,0.0,0.00055944483,1.4648366e-05,1.3830466e-05,0.0001473523,0.46771812,0.31324574,0.020798419,7.8684306,7.866922,0.15752843,1.6587367e-11,1.7249292e-11,4.5819716e-11,3.74312e-06,3.744714e-06,5.0000036e-08,0.0,0.0,0.0,0.0,0.0,0.0,0.0,0.0,24
118188000,118108000,0.37104684,-0.0065085175,0.03735647,0.9278396,-1.235586,-6.5422688,0.18884449,-10.593006,-12.085508,-29.789354,-3.2587937e-05,-2.2918315e-05,-3.034995e-05,-3.4583034e-05,4.347811e-05,5.035114e-05,0.0,0.0,0.0,0.0,0.0,0.0,0.0,0.0,0.0005453854,1.4511765e-05,1.3948949e-05,0.00014217716,0.49340382,0.29439762,0.019615617,7.9465537,7.5029526,0.148129,1.6578723e-11,1.7035793e-11,4.5177927e-11,3.74312e-06,3.744714e-06,5e-08,0.0,0.0,0.0,0.0,0.0,0.0,0.0,0.0,24
119188000,119108000,0.70848525,-0.072179854,0.035805073,0.7011112,-0.2648569,-7.1547275,1.8234808,-7.9735327,-14.351718,-28.986303,-3.0570893e-05,-2.4535006e-05,-3.150247e-05,-3.4583034e-05,4.347811e-05,3.90279e-05,0.0,0.0,0.0,0.0,0.0,0.0,0.0,0.0,0.00026615575,1.3799369e-05,1.9404839e-05,0.00039685852,0.49289694,0.27659592,0.020285042,7.9999137,7.190487,0.16138542,1.6611509e-11,1.6853217e-11,4.4463405e-11,3.74312e-06,3.744714e-06,5.000022e-08,0.0,0.0,0.0,0.0,0.0,0.0,0.0,0.0,24
120196000,120116000,0.9279557,-0.01120417,0.022846766,0.37182084,-0.046461403,-7.0377655,1.7304814,-5.6194086,-16.225359,-27.464762,-2.8082457e-05,-2.5483343e-05,-3.269312e-05,-3.4583034e-05,4.347811e-05,4.981417e-05,0.0,0.0,0.0,0.0,0.0,0.0,0.0,0.0,5.215025e-05,1.25274755e-05,1.2851429e-05,0.0005953588,0.4658694,0.27373323,0.018683322,8.021149,6.9563007,0.14811017,1.665689e-11,1.67262e-11,4.3634478e-11,3.74312e-06,3.744714e-06,5.000007e-08,0.0,0.0,0.0,0.0,0.0,0.0,0.0,0.0,24
121188000,121108000,0.9845756,-0.006893405,0.024604756,0.17308359,-0.33810607,-6.268567,1.7805281,-4.092589,-16.99138,-25.915333,-2.5387675e-05,-2.5878922e-05,-3.3828277e-05,-3.4583034e-05,4.347811e-05,4.4236916e-05,0.0,0.0,0.0,0.0,0.0,0.0,0.0,0.0,4.2909337e-06,1.1383122e-05,1.139689e-05,0.00062058977,0.40873364,0.26786762,0.018979201,7.8702154,6.758065,0.15724954,1.6703012e-11,1.6665636e-11,4.278102e-11,3.74312e-06,3.744714e-06,5.0000036e-08,0.0,0.0,0.0,0.0,0.0,0.0,0.0,0.0,24
122188000,122108000,0.97313344,0.0010404057,0.022102077,0.22917654,-0.72896636,-5.594552,1.762309,-3.5480373,-18.0544,-24.385897,-2.3166187e-05,-2.585003e-05,-3.4761266e-05,-3.4583034e-05,4.347811e-05,6.210039e-05,0.0,0.0,0.0,0.0,0.0,0.0,0.0,0.0,1.1672565e-05,1.0809691e-05,1.0718563e-05,0.00059962604,0.3781763,0.2738073,0.017970532,8.272788,7.0814238,0.1452876,1.6841124e-11,1.6775444e-11,4.227516e-11,3.74312e-06,3.744714e-06,5.0000075e-08,0.0,0.0,0.0,0.0,0.0,0.0,0.0,0.0,24
123196000,123116000,0.9718386,0.006533454,0.015273292,0.23506135,-1.0214325,-4.6510034,1.7420839,-3.2220626,-17.209747,-22.86277,-2.052749e-05,-2.5560976e-05,-3.5840512e-05,-3.4583034e-05,4.347811e-05,7.2327835e-05,0.0,0.0,0.0,0.0,0.0,0.0,0.0,0.0,1.22778965e-05,1.0457304e-05,1.0258457e-05,0.00058276113,0.3320741,0.2670635,0.017208273,7.9649916,6.958448,0.13487536,1.6905947e-11,1.6855978e-11,4.171163e-11,3.74312e-06,3.744714e-06,5.000004e-08,0.0,0.0,0.0,0.0,0.0,0.0,0.0,0.0,24
124188000,124108000,0.97067577,0.008797081,0.011383319,0.23996195,-1.2476051,-3.7019856,1.7528024,-3.190965,-15.753699,-21.29992,-1.8144388e-05,-2.5075708e-05,-3.6828267e-05,-3.4583034e-05,4.347811e-05,6.864602e-05,0.0,0.0,0.0,0.0,0.0,0.0,0.0,0.0,1.28142e-05,1.0336577e-05,1.0059663e-05,0.0005719659,0.29540867,0.25931084,0.018109929,7.589585,6.807833,0.1444035,1.6984341e-11,1.6982119e-11,4.1375736e-11,3.74312e-06,3.744714e-06,5.0000146e-08,0.0,0.0,0.0,0.0,0.0,0.0,0.0,0.0,24
