timestamp,timestamp_sample,device_id,bias,bias_var,innov,innov_var,innov_test_ratio
8836000,8751999,6620172,487.33786,0.00081135606,-0.086883545,13.250825,6.329795e-05
11452000,11368000,6620172,487.3368,0.04258913,-0.06997681,12.392188,4.390538e-05
13452000,13372000,6620172,487.33545,0.06751143,-0.08880615,12.384121,7.075846e-05
13932000,13852000,6620172,487.33698,0.07239032,0.13470459,12.385401,0.00016278418
14412000,14332000,6620172,487.3353,0.07682747,-0.171875,12.384554,0.00026503459
14532000,14452000,6620172,487.3343,0.07786955,-0.056732178,12.385563,2.8873583e-05
14884000,14800000,6620172,487.33426,0.080709845,0.029327393,12.387259,7.71488e-06
15364000,15280000,6620172,487.3358,0.08433919,0.09667969,12.388951,8.382883e-05
15652000,15568000,6620172,487.33728,0.08621278,0.07946777,12.389554,5.6634868e-05
16876000,16792000,6620172,487.3386,0.092977144,0.08706665,12.393601,6.7961606e-05
16996000,16911000,6620172,487.33972,0.09357609,0.03930664,12.395575,1.3849136e-05
17412000,17332000,6620172,487.33887,0.0954659,0.074401855,12.396957,4.961465e-05
17892000,17812000,6620172,487.339,0.097455084,-0.07925415,12.397887,5.6292927e-05
18012000,17928000,6620172,487.33798,0.09791418,-0.09609985,12.397289,8.277062e-05
18948000,18868000,6620172,487.3371,0.10075731,0.09967041,12.399419,8.902021e-05
19252000,19166000,6620172,487.33603,0.10168658,-0.0211792,12.400225,4.0192685e-06
19900000,19816000,6620172,487.33707,0.103179134,0.029937744,12.402949,8.02917e-06
20428000,20341000,6620172,487.33536,0.10417416,-0.088012695,12.401479,6.940243e-05
20668000,20582000,6620172,487.33453,0.10465165,0.03253174,12.403432,9.480476e-06
21436000,21352000,6620172,487.3308,0.10581913,0.0703125,12.403735,4.428637e-05
21900000,21820000,6620172,487.32782,0.10628445,-0.13449097,12.404713,0.00016201567
22020000,21936000,6620172,487.32892,0.10645349,0.090911865,12.402784,7.404222e-05
22836000,22756000,6620172,487.32993,0.107130446,0.02532959,12.40459,5.7468706e-06
23316000,23234666,6620172,487.33267,0.10766209,0.05758667,12.404557,2.9704357e-05
23844000,23764000,6620172,487.33554,0.10799849,0.12200928,12.406264,0.0001333221
24436000,24350000,6620172,487.3336,0.10840287,0.17156982,12.405251,0.00026365364
25068000,24988000,6620172,487.3353,0.10846943,0.112854004,12.406536,0.00011406197
25252000,25168000,6620172,487.33347,0.10867555,-0.1177063,12.405412,0.00012409255
25908000,25828000,6620172,487.33368,0.1090596,0.15405273,12.407385,0.00021252794
26028000,25948000,6620172,487.33475,0.109132476,0.11746216,12.405365,0.00012357878
26868000,26788000,6620172,487.33698,0.109576166,0.081848145,12.406064,5.99986e-05
26988000,26908000,6620172,487.33826,0.109631,0.11114502,12.407582,0.00011062425
27940000,27856000,6620172,487.33865,0.10987739,0.120025635,12.408001,0.00012900415
28452000,28372000,6620172,487.3374,0.1096158,-0.08886719,12.406765,7.072644e-05
28620000,28538666,6620172,487.33878,0.10949654,0.08468628,12.407254,6.422556e-05
28972000,28888000,6620172,487.34018,0.10954426,0.110198975,12.406603,0.000108757624
29796000,29716000,6620172,487.33875,0.10967819,-0.10107422,12.406809,9.149096e-05
30036000,29956000,6620172,487.33975,0.10977879,0.14105225,12.406266,0.00017818717
30924000,30842666,6620172,487.342,0.10991262,0.045654297,12.407264,1.8665722e-05
31044000,30964000,6620172,487.34314,0.109955505,0.023223877,12.407359,4.8300053e-06
31884000,31802666,6620172,487.34198,0.110216364,-0.05529785,12.407915,2.7382634e-05
32332000,32248000,6620172,487.34232,0.10984166,0.09713745,12.407933,8.4495085e-05
32988000,32908000,6620172,487.3444,0.11001998,0.19396973,12.413467,0.00033676915
33292000,33205000,6620172,487.34714,0.110185586,0.09341431,12.416976,7.808515e-05
33948000,33868000,6620172,487.34982,0.11031338,0.11413574,12.431413,0.000116434145
34188000,34104000,6620172,487.3535,0.11037743,0.24276733,12.434844,0.00052662037
34860000,34780000,6620172,487.3559,0.10983973,0.09237671,12.447695,7.617168e-05
35332000,35246000,6620172,487.35855,0.1099141,0.101867676,12.460977,9.252907e-05
35916000,35834666,6620172,487.36328,0.10993454,0.040100098,12.480594,1.4315718e-05
36388000,36302000,6620172,487.36725,0.1100276,0.04586792,12.493899,1.8710163e-05
36844000,36760000,6620172,487.36978,0.109869085,0.0770874,12.486962,5.2877087e-05
37140000,37060000,6620172,487.37286,0.10995062,0.17956543,12.5043545,0.00028651123
37740000,37660000,6620172,487.37573,0.11021203,0.072509766,12.501078,4.6730784e-05
38284000,38198000,6620172,487.37897,0.11048249,0.11074829,12.512056,0.00010891881
38940000,38860000,6620172,487.38327,0.110623226,0.15563965,12.506033,0.00021521791
39348000,39268000,6620172,487.38596,0.11053843,0.08276367,12.506196,6.085717e-05
39820000,39736000,6620172,487.39188,0.11054606,0.2508545,12.50981,0.00055892114
40420000,40334000,6620172,487.3995,0.11072823,0.1777649,12.498986,0.00028091483
40876000,40792000,6620172,487.40164,0.11048096,0.11953735,12.500812,0.00012700669
41356000,41272000,6620172,487.40942,0.1106361,0.21469116,12.504887,0.0004095492
41940000,41860000,6620172,487.42023,0.110535875,0.18640137,12.513907,0.00030850538
42300000,42220000,6620172,487.4296,0.11064073,0.14553833,12.5119505,0.00018809932
42844000,42759000,6620172,487.4392,0.110847026,0.17098999,12.499037,0.00025990958
43428000,43348000,6620172,487.44916,0.110725805,0.2107544,12.508315,0.000394559
43900000,43816000,6620172,487.4599,0.11072007,0.12734985,12.512163,0.00014401972
44412000,44332000,6620172,487.4715,0.11040724,0.19085693,12.49507,0.0003239177
44940000,44856000,6620172,487.47983,0.11038859,0.13317871,12.498386,0.00015767875
45388000,45304000,6620172,487.48904,0.11004284,0.15023804,12.496584,0.0002006901
45916000,45830000,6620172,487.4991,0.11008108,0.19104004,12.498108,0.00032446065
46428000,46348000,6620172,487.5056,0.10987995,0.12496948,12.48162,0.0001390255
46908000,46826666,6620172,487.51486,0.11009463,0.13562012,12.481808,0.00016372999
47332000,47248000,6620172,487.51935,0.110323906,0.088378906,12.480653,6.953724e-05
47868000,47785333,6620172,487.52484,0.11043694,0.13552856,12.483404,0.00016348809
48444000,48364000,6620172,487.52875,0.110240534,0.065979004,12.474013,3.877598e-05
48924000,48844000,6620172,487.53183,0.11040202,0.058654785,12.477363,3.063667e-05
49156000,49070000,6620172,487.53323,0.110347725,0.06845093,12.486002,4.1695846e-05
49740000,49658666,6620172,487.53625,0.11030354,0.027801514,12.480667,6.8810796e-06
50220000,50140000,6620172,487.5393,0.11046058,0.10977173,12.487043,0.00010722076
50508000,50428000,6620172,487.5407,0.11035763,0.0491333,12.4845,2.1485142e-05
50988000,50908000,6620172,487.54208,0.11051011,0.12399292,12.491838,0.00013674924
51948000,51868000,6620172,487.54492,0.11076591,0.09057617,12.507586,7.28806e-05
52420000,52334000,6620172,487.54437,0.11075553,-0.13342285,12.4946995,0.00015830409
52660000,52576000,6620172,487.54706,0.110815614,0.09249878,12.508219,7.600358e-05
53412000,53330666,6620172,487.5498,0.110538654,0.090667725,12.50839,7.302331e-05
53940000,53858666,6620172,487.55466,0.110499814,0.07925415,12.516754,5.5758333e-05
54364000,54278000,6620172,487.55872,0.11069485,0.15704346,12.519473,0.00021888255
54892000,54806000,6620172,487.56393,0.11066385,0.112335205,12.50475,0.00011212804
55300000,55216000,6620172,487.56744,0.110593185,0.067352295,12.505024,4.030675e-05
55900000,55816000,6620172,487.56876,0.11076762,0.054473877,12.516382,2.6342395e-05
56380000,56296000,6620172,487.57404,0.11088732,0.1529541,12.520791,0.00020760986
56500000,56416000,6620172,487.57513,0.1109133,0.032806396,12.505203,9.562772e-06
57396000,57312000,6620172,487.58282,0.11102147,0.22970581,12.509864,0.00046865025
57796000,57712000,6620172,487.58737,0.11078357,0.112701416,12.508812,0.000112823654
58380000,58298666,6620172,487.59503,0.11067965,0.2104187,12.518061,0.00039299688
58676000,58596000,6620172,487.59796,0.11069041,0.11141968,12.512313,0.00011024114
59316000,59236000,6620172,487.60202,0.11056759,0.07791138,12.503266,5.3943084e-05
59860000,59774000,6620172,487.60812,0.11078521,0.11325073,12.511322,0.000113903305
60324000,60244000,6620172,487.61243,0.11065539,0.15194702,12.514305,0.00020499116
61228000,61144000,6620172,487.61377,0.110939905,0.06768799,12.499373,4.072794e-05
61404000,61324000,6620172,487.61493,0.11090926,0.110961914,12.508532,0.00010937021
61948000,61864000,6620172,487.6161,0.111077726,0.07293701,12.516834,4.7223584e-05
62188000,62103000,6620172,487.61707,0.11111546,-0.057647705,12.5082445,2.95206e-05
62892000,62812000,6620172,487.61316,0.11096017,-0.12896729,12.502817,0.00014781168
63196000,63112000,6620172,487.61478,0.11108199,0.085876465,12.519605,6.545083e-05
63900000,63820000,6620172,487.61588,0.110934526,0.045410156,12.514167,1.830887e-05
64372000,64288000,6620172,487.62067,0.11090268,0.1387024,12.518315,0.00017075738
64900000,64816000,6620172,487.6251,0.11081608,0.15307617,12.503805,0.00020822385
65436000,65356000,6620172,487.6316,0.11087263,0.13461304,12.510816,0.00016093336
65676000,65596000,6620172,487.63306,0.110921405,0.09335327,12.501547,7.7455596e-05
66276000,66192000,6620172,487.63675,0.11102822,0.1338501,12.508554,0.00015914308
66732000,66650666,6620172,487.6398,0.110739216,0.06695557,12.507088,3.9826733e-05
66964000,66880000,6620172,487.64117,0.110670865,0.06442261,12.497078,3.6899935e-05
67908000,67828000,6620172,487.63687,0.110642634,-0.032318115,12.49566,9.287319e-06
68436000,68356000,6620172,487.62863,0.11059318,-0.13552856,12.480506,0.00016352606
68908000,68824000,6620172,487.62262,0.110584356,-0.17404175,12.480136,0.0002696777
69444000,69364000,6620172,487.6081,0.11065779,-0.34521484,12.48225,0.0010608245
69916000,69832000,6620172,487.59427,0.110649556,-0.22280884,12.483041,0.00044187752
70428000,70348000,6620172,487.57803,0.11034265,-0.19949341,12.472009,0.00035455058
70956000,70876000,6620172,487.55972,0.11030862,-0.18045044,12.476932,0.00028997834
71380000,71294000,6620172,487.54666,0.110511094,-0.21514893,12.479763,0.00041212552
71908000,71824000,6620172,487.53082,0.11047506,-0.15197754,12.487494,0.0002055138
72412000,72328000,6620172,487.51794,0.11006593,-0.14376831,12.479166,0.00018403408
72868000,72782000,6620172,487.51395,0.10988951,-0.08929443,12.484593,7.096298e-05
73260000,73180000,6620172,487.51038,0.10965627,-0.100097656,12.487074,8.9154775e-05
73908000,73828000,6620172,487.511,0.10979354,0.14071655,12.504323,0.00017594935
74436000,74356000,6620172,487.5164,0.109862156,0.09768677,12.49514,8.4857034e-05
74860000,74774000,6620172,487.52072,0.1101295,0.10986328,12.499413,0.0001072934
75436000,75351000,6620172,487.528,0.11002573,0.17068481,12.511049,0.000258734
75900000,75818666,6620172,487.53485,0.10997825,0.073150635,12.515828,4.750443e-05
76372000,76286000,6620172,487.54077,0.11006873,0.13000488,12.5194435,0.0001500002
76884000,76802666,6620172,487.53793,0.10987339,-0.057403564,12.500426,2.9289395e-05
77356000,77272000,6620172,487.5325,0.10998049,-0.114715576,12.500794,0.000116967356
77940000,77860000,6620172,487.5186,0.109993555,-0.25256348,12.504393,0.000566808
78396000,78314666,6620172,487.50964,0.109829396,-0.14685059,12.50235,0.0001916537
78916000,78832000,6620172,487.49826,0.10976543,-0.1454773,12.486514,0.00018832445
79452000,79370666,6620172,487.4866,0.109966025,-0.14370728,12.49015,0.00018371614
79924000,79840000,6620172,487.4767,0.11003755,-0.1668396,12.492202,0.0002475807
80452000,80368000,6620172,487.46625,0.11007388,-0.1265564,12.481797,0.0001425767
80932000,80848000,6620172,487.45847,0.11027189,-0.034729004,12.486674,1.0732363e-05
81348000,81268000,6620172,487.4519,0.11035793,-0.10229492,12.489236,9.309573e-05
81708000,81626666,6620172,487.44656,0.110476196,-0.13607788,12.489701,0.00016473296
82420000,82336000,6620172,487.44183,0.11056707,-0.06625366,12.490103,3.904912e-05
82948000,82862000,6620172,487.4393,0.11054464,-0.054626465,12.499069,2.652687e-05
83356000,83270000,6620172,487.439,0.11048824,0.12295532,12.50157,0.00013436544
83916000,83836000,6620172,487.43863,0.110073,0.04031372,12.511603,1.443279e-05
84340000,84254000,6620172,487.4382,0.11031785,-0.16497803,12.515559,0.00024163479
84876000,84796000,6620172,487.44064,0.110449545,0.030517578,12.503301,8.276237e-06
85404000,85324000,6620172,487.45093,0.11043479,0.18270874,12.511247,0.00029646643
85876000,85792000,6620172,487.45865,0.11046945,0.14196777,12.516067,0.00017892424
86404000,86318000,6620172,487.46896,0.11047258,0.1628418,12.501272,0.00023568669
86940000,86860000,6620172,487.48352,0.11058236,0.20828247,12.509021,0.00038533602
87396000,87316000,6620172,487.4956,0.110346764,0.24325562,12.510192,0.00052555633
87924000,87844000,6620172,487.5085,0.11035567,0.21774292,12.513854,0.00042097323
88396000,88312000,6620172,487.5196,0.11039179,0.15917969,12.4936495,0.00022534268
88924000,88840000,6620172,487.53015,0.11039336,0.15393066,12.495559,0.00021069396
89404000,89320000,6620172,487.53583,0.11055408,0.16882324,12.495419,0.00025343767
89812000,89726000,6620172,487.53714,0.110489264,0.16555786,12.491951,0.00024379614
90204000,90124000,6620172,487.53543,0.11018467,-0.10397339,12.487654,9.618803e-05
90852000,90770666,6620172,487.53494,0.110225745,-0.12527466,12.477593,0.00013975041
91332000,91250666,6620172,487.53043,0.110390596,-0.09161377,12.478516,7.473363e-05
91852000,91768000,6620172,487.52637,0.110242955,-0.17883301,12.480994,0.0002847106
92308000,92224000,6620172,487.52277,0.11004003,-0.12133789,12.482407,0.00013105453
92668000,92584000,6620172,487.5192,0.11019066,-0.12319946,12.482007,0.000135111
93372000,93292000,6620172,487.51257,0.1102098,-0.2131958,12.481709,0.00040461388
93900000,93818666,6620172,487.50348,0.11022025,-0.11773682,12.490236,0.00012331373
94020000,93938666,6620172,487.5019,0.11026486,-0.14892578,12.480262,0.00019745747
94900000,94816000,6620172,487.502,0.11026662,0.11627197,12.490212,0.00012026458
95244000,95164000,6620172,487.5052,0.11015087,0.10620117,12.490108,0.00010033442
95908000,95823000,6620172,487.5075,0.11046762,0.089538574,12.508719,7.121394e-05
96388000,96304000,6620172,487.51135,0.11062453,0.13565063,12.516689,0.00016334718
96924000,96840000,6620172,487.51712,0.11070854,0.20935059,12.505584,0.00038940532
97380000,97298666,6620172,487.5236,0.11046106,0.07098389,12.509517,4.475448e-05
97924000,97840000,6620172,487.53308,0.11069787,0.16229248,12.519381,0.00023376067
98452000,98368000,6620172,487.5419,0.11064162,0.18261719,12.50424,0.00029633538
98868000,98788000,6620172,487.5509,0.11069485,0.15490723,12.505121,0.00021321264
99396000,99316000,6620172,487.56113,0.11063976,0.18206787,12.511696,0.00029437974
99876000,99796000,6620172,487.57053,0.110768236,0.17294312,12.51594,0.00026552205
100404000,100322666,6620172,487.579,0.110707596,0.11489868,12.5001745,0.00011734687
100876000,100792000,6620172,487.58713,0.11070563,0.09265137,12.503552,7.6282995e-05
101452000,101366000,6620172,487.597,0.11049198,0.064819336,12.51197,3.731135e-05
101908000,101824000,6620172,487.60706,0.11027352,0.18814087,12.514008,0.00031428767
102388000,102304000,6620172,487.6136,0.11045823,0.1385498,12.518642,0.00017037743
102916000,102832000,6620172,487.62067,0.11044942,0.1532898,12.503748,0.00020880638
103380000,103300000,6620172,487.6287,0.110352546,0.16769409,12.506862,0.00024983005
103884000,103804000,6620172,487.63428,0.109967746,0.097229004,12.511316,8.3954925e-05
104356000,104270000,6620172,487.63577,0.11006164,0.12054443,12.515564,0.00012900347
104820000,104740000,6620172,487.64105,0.110028714,0.15570068,12.497858,0.00021552763
105220000,105136000,6620172,487.645,0.109907106,0.06933594,12.497727,4.2740856e-05
105756000,105672000,6620172,487.64816,0.110098734,0.08657837,12.50556,6.659983e-05
106348000,106264000,6620172,487.64935,0.110222705,0.05557251,12.516366,2.7415696e-05
106708000,106624000,6620172,487.6508,0.11036734,0.077056885,12.514701,5.271812e-05
107188000,107104000,6620172,487.65314,0.110539965,0.11541748,12.519561,0.00011822561
107772000,107692000,6620172,487.65192,0.11046377,-0.041931152,12.505631,1.5621597e-05
108492000,108412000,6620172,487.65018,0.11067715,-0.11538696,12.497665,0.00011837012
108916000,108832000,6620172,487.64578,0.110846065,-0.14590454,12.49619,0.00018928555
109444000,109358000,6620172,487.63696,0.11077192,-0.23294067,12.49768,0.00048241272
109956000,109874666,6620172,487.6316,0.11046984,-0.1770935,12.497423,0.00027883178
110428000,110344000,6620172,487.62335,0.110493645,-0.16070557,12.480759,0.00022992084
110956000,110872000,6620172,487.6105,0.110470794,-0.12234497,12.48279,0.00013323492
111412000,111328000,6620172,487.59738,0.11023361,-0.22402954,12.482585,0.00044674895
111940000,111856000,6620172,487.58313,0.110239565,-0.15911865,12.486536,0.0002252982
112420000,112336000,6620172,487.5694,0.110412285,-0.21356201,12.475872,0.000406195
112940000,112860000,6620172,487.5515,0.11027113,-0.17034912,12.481595,0.00025832545
113412000,113330666,6620172,487.53375,0.11031551,-0.24346924,12.486985,0.00052745827
113940000,113856000,6620172,487.51367,0.110313766,-0.26239014,12.495918,0.00061218726
114396000,114314666,6620172,487.49615,0.11011529,-0.28707886,12.484456,0.00073348335
114940000,114856000,6620172,487.47876,0.1103917,-0.17422485,12.49532,0.00026991704
115404000,115320000,6620172,487.46768,0.11029171,-0.20947266,12.501444,0.00038998868
115876000,115792000,6620172,487.45865,0.11035315,-0.14093018,12.508348,0.00017642719
116172000,116092000,6620172,487.4553,0.11039492,-0.07318115,12.504737,4.7586243e-05
116764000,116680000,6620172,487.45108,0.11048177,-0.11672974,12.517867,0.000120945624
117364000,117280000,6620172,487.4527,0.11067358,0.07623291,12.50907,5.1619936e-05
117892000,117808000,6620172,487.4564,0.11064258,0.1234436,12.517024,0.00013526755
118356000,118276000,6620172,487.46185,0.11052091,0.17977905,12.520846,0.00028681508
118836000,118756000,6620172,487.47012,0.11066442,0.21133423,12.503307,0.0003968919
119436000,119352000,6620172,487.48175,0.11081839,0.26931763,12.514699,0.0006439715
119892000,119812000,6620172,487.49457,0.110562086,0.11505127,12.516811,0.000117502364
120420000,120340000,6620172,487.50613,0.11053081,0.18572998,12.501284,0.0003065963
120876000,120796000,6620172,487.51617,0.110296294,0.11279297,12.503161,0.00011305811
121412000,121332000,6620172,487.5283,0.1104231,0.14569092,12.510183,0.00018852059
121932000,121852000,6620172,487.542,0.110284135,0.17062378,12.515789,0.00025845107
122412000,122332000,6620172,487.55487,0.11045793,0.14904785,12.498663,0.00019749012
122892000,122812000,6620172,487.56665,0.110607825,0.20672607,12.502839,0.00037978636
123412000,123328000,6620172,487.57736,0.11044886,0.18096924,12.508547,0.000290911
123940000,123854000,6620172,487.5907,0.11044909,0.22174072,12.515263,0.00043652434
124452000,124370666,6620172,487.60098,0.11020511,0.11102295,12.49935,0.00010957099
124932000,124849333,6620172,487.6092,0.11038783,0.07763672,12.504099,5.3559863e-05
125452000,125366000,6620172,487.61957,0.11027176,0.17370605,12.510319,0.00026799028
125844000,125762666,6620172,487.62848,0.10998629,0.14328003,12.509251,0.00018234653
126364000,126279000,6620172,487.63623,0.10991972,0.10235596,12.515672,9.3009985e-05
126780000,126700000,6620172,487.64218,0.11005634,0.17666626,12.517073,0.0002770524
127348000,127264000,6620172,487.6499,0.1097908,0.16903687,12.504126,0.00025390252
127932000,127852000,6620172,487.65457,0.10984421,0.043670654,12.514241,1.693294e-05
128340000,128260000,6620172,487.657,0.10986296,0.10232544,12.514886,9.296037e-05
128940000,128858666,6620172,487.65866,0.11014315,-0.061340332,12.504958,3.3432396e-05
129364000,129280000,6620172,487.66122,0.1103803,0.09329224,12.506906,7.732121e-05
129780000,129700000,6620172,487.66263,0.11046251,0.06478882,12.507968,3.728815e-05
130020000,129938666,6620172,487.66162,0.11054079,-0.028778076,12.49957,7.3618326e-06
130956000,130876000,6620172,487.65955,0.1104806,-0.047576904,12.506383,2.011028e-05
131308000,131224000,6620172,487.65656,0.1104725,-0.10290527,12.503725,9.4100804e-05
131844000,131762666,6620172,487.6539,0.11058052,-0.059265137,12.511293,3.1192765e-05
132444000,132364000,6620172,487.64908,0.110746115,-0.070129395,12.501018,4.371317e-05
132868000,132784000,6620172,487.6418,0.11091134,-0.17364502,12.502577,0.00026796781
133404000,133324000,6620172,487.63123,0.110954344,-0.22592163,12.509817,0.00045333803
133932000,133850666,6620172,487.61948,0.11086247,-0.16775513,12.516486,0.00024981968
134404000,134320000,6620172,487.6073,0.11084476,-0.21264648,12.498803,0.00040198097
134932000,134848000,6620172,487.5908,0.1107797,-0.28240967,12.505386,0.0007086299
135348000,135268000,6620172,487.58038,0.11081539,-0.14706421,12.506356,0.00019215012
135916000,135832000,6620172,487.56354,0.11046195,-0.12149048,12.514394,0.00013104852
136428000,136348000,6620172,487.54535,0.110194184,-0.3609314,12.498448,0.0011581124
136836000,136756000,6620172,487.53403,0.11016621,-0.22384644,12.498816,0.00044543977
137436000,137356000,6620172,487.5168,0.1103987,-0.19378662,12.51003,0.00033353906
137892000,137812000,6620172,487.5047,0.11018082,-0.19171143,12.512441,0.0003263709
138436000,138352000,6620172,487.4908,0.11045635,-0.17382812,12.499756,0.00026859384
138900000,138820000,6620172,487.47916,0.110350996,-0.1383667,12.502873,0.00017014172
139436000,139356000,6620172,487.46783,0.11046804,-0.17773438,12.510479,0.00028056043
139836000,139756000,6620172,487.45837,0.1102902,-0.17486572,12.5100155,0.00027158702
140428000,140344000,6620172,487.44434,0.110389754,-0.13781738,12.499182,0.00016884333
140836000,140751000,6620172,487.43658,0.1103434,-0.17752075,12.499512,0.00028013196
141436000,141352000,6620172,487.42874,0.11055641,-0.0987854,12.510725,8.666835e-05
141676000,141591000,6620172,487.42474,0.110631876,-0.08114624,12.502387,5.85196e-05
142452000,142372000,6620172,487.41803,0.110776156,-0.14874268,12.501367,0.0001966397
142572000,142492000,6620172,487.41568,0.11080418,-0.2206726,12.507803,0.00043258682
143292000,143212000,6620172,487.41672,0.11095521,0.12332153,12.503775,0.0001351432
143772000,143688000,6620172,487.4174,0.111039825,0.002960205,12.508125,7.784108e-08
144356000,144276000,6620172,487.42072,0.110894844,0.099731445,12.5176115,8.8287714e-05
144892000,144808000,6620172,487.42526,0.110948026,0.14239502,12.503385,0.00018018535
145356000,145276000,6620172,487.43137,0.11078558,0.06448364,12.506297,3.6942638e-05
145940000,145860000,6620172,487.4374,0.11066794,0.10699463,12.51434,0.000101642065
146356000,146272000,6620172,487.44308,0.11072285,0.10821533,12.512671,0.00010398844
146820000,146740000,6620172,487.4465,0.110589765,0.14694214,12.473545,0.00019233588
147412000,147326000,6620172,487.4438,0.11060694,-0.10195923,12.451255,9.276784e-05
147940000,147854000,6620172,487.43817,0.11054563,-0.12298584,12.440774,0.0001350891
148396000,148312000,6620172,487.4329,0.110287555,-0.12835693,12.43531,0.00014721075
148812000,148732000,6620172,487.42896,0.11033976,-0.06793213,12.426498,4.1262847e-05
149340000,149258666,6620172,487.4229,0.1102935,-0.1472168,12.423138,0.00019383889
