timestamp,timestamp_sample,q[0],q[1],q[2],q[3],delta_q_reset[0],delta_q_reset[1],delta_q_reset[2],delta_q_reset[3],quat_reset_counter
3448000,0,0.70711,7.054509e-05,7.0970105e-05,0.70711,0.0,0.0,0.0,0.0,0
3452000,0,0.70711,7.065266e-05,7.107768e-05,0.70711,0.0,0.0,0.0,0.0,0
3460000,0,0.70711,7.086782e-05,7.129284e-05,0.70711,0.0,0.0,0.0,0.0,0
3468000,0,0.70711,7.1082985e-05,7.1508e-05,0.70711,0.0,0.0,0.0,0.0,0
3480000,0,0.70711,7.140572e-05,7.1830735e-05,0.70711,0.0,0.0,0.0,0.0,0
3488000,0,0.70711,7.1620874e-05,7.204589e-05,0.70711,0.0,0.0,0.0,0.0,0
3500000,0,0.70711,7.1943614e-05,7.236863e-05,0.70711,0.0,0.0,0.0,0.0,0
3508000,0,0.70711,7.215877e-05,7.258379e-05,0.70711,0.0,0.0,0.0,0.0,0
3520000,0,0.70711,7.248151e-05,7.290653e-05,0.70711,0.0,0.0,0.0,0.0,0
3528000,0,0.70711,7.269667e-05,7.3121686e-05,0.70711,0.0,0.0,0.0,0.0,0
3540000,0,0.70711,7.301941e-05,7.3444426e-05,0.70711,0.0,0.0,0.0,0.0,0
3548000,0,0.70711,7.3234565e-05,7.365958e-05,0.70711,0.0,0.0,0.0,0.0,0
3560000,0,0.70711,7.3557305e-05,7.398232e-05,0.70711,0.0,0.0,0.0,0.0,0
3568000,0,0.70711,7.377246e-05,7.419748e-05,0.70711,0.0,0.0,0.0,0.0,0
3580000,0,0.70711,7.40952e-05,7.452022e-05,0.70711,0.0,0.0,0.0,0.0,0
3588000,0,0.70711,7.431036e-05,7.473538e-05,0.70711,0.0,0.0,0.0,0.0,0
3600000,0,0.70711,7.46331e-05,7.505812e-05,0.70711,0.0,0.0,0.0,0.0,0
3608000,0,0.70711,7.4848256e-05,7.5273274e-05,0.70711,0.0,0.0,0.0,0.0,0
3620000,0,0.70711,7.5170996e-05,7.559601e-05,0.70711,0.0,0.0,0.0,0.0,0
3628000,0,0.70711,7.538616e-05,7.581117e-05,0.70711,0.0,0.0,0.0,0.0,0
3640000,0,0.70711,7.570889e-05,7.613391e-05,0.70711,0.0,0.0,0.0,0.0,0
3648000,0,0.70711,7.592406e-05,7.6349075e-05,0.70711,0.0,0.0,0.0,0.0,0
3660000,0,0.70711,7.62468e-05,7.667181e-05,0.70711,0.0,0.0,0.0,0.0,0
3668000,0,0.70711,7.6461954e-05,7.688697e-05,0.70711,0.0,0.0,0.0,0.0,0
3680000,0,0.70711,7.6784694e-05,7.720971e-05,0.70711,0.0,0.0,0.0,0.0,0
3688000,0,0.70711,7.699985e-05,7.742487e-05,0.70711,0.0,0.0,0.0,0.0,0
3700000,0,0.70711,7.732259e-05,7.774761e-05,0.70711,0.0,0.0,0.0,0.0,0
3708000,0,0.70711,7.753775e-05,7.7962766e-05,0.70711,0.0,0.0,0.0,0.0,0
3720000,0,0.70711,7.786049e-05,7.8285506e-05,0.70711,0.0,0.0,0.0,0.0,0
3728000,0,0.70711,7.807565e-05,7.850066e-05,0.70711,0.0,0.0,0.0,0.0,0
3740000,0,0.70711,7.839839e-05,7.88234e-05,0.70711,0.0,0.0,0.0,0.0,0
3748000,0,0.70711,7.861355e-05,7.903857e-05,0.70711,0.0,0.0,0.0,0.0,0
3760000,0,0.70711,7.893629e-05,7.936131e-05,0.70711,0.0,0.0,0.0,0.0,0
3768000,0,0.70711,7.9151454e-05,7.9576464e-05,0.70711,0.0,0.0,0.0,0.0,0
3780000,0,0.70711,7.947419e-05,7.9899204e-05,0.70711,0.0,0.0,0.0,0.0,0
3788000,0,0.70711,7.968935e-05,8.011437e-05,0.70711,0.0,0.0,0.0,0.0,0
3800000,0,0.70711,8.001209e-05,8.043711e-05,0.70711,0.0,0.0,0.0,0.0,0
3808000,0,0.70711,8.022725e-05,8.0652266e-05,0.70711,0.0,0.0,0.0,0.0,0
3820000,0,0.70711,8.054999e-05,8.0975005e-05,0.70711,0.0,0.0,0.0,0.0,0
3828000,0,0.70711,8.076515e-05,8.119016e-05,0.70711,0.0,0.0,0.0,0.0,0
3840000,0,0.70711,8.108789e-05,8.15129e-05,0.70711,0.0,0.0,0.0,0.0,0
3848000,0,0.70711,8.130305e-05,8.172807e-05,0.70711,0.0,0.0,0.0,0.0,0
3860000,0,0.70711,8.1625796e-05,8.205081e-05,0.70711,0.0,0.0,0.0,0.0,0
3868000,0,0.70711,8.184095e-05,8.2265964e-05,0.70711,0.0,0.0,0.0,0.0,0
3880000,0,0.70711,8.216369e-05,8.258871e-05,0.70711,0.0,0.0,0.0,0.0,0
3888000,0,0.70711,8.237886e-05,8.280387e-05,0.70711,0.0,0.0,0.0,0.0,0
3900000,0,0.70711,8.27016e-05,8.312661e-05,0.70711,0.0,0.0,0.0,0.0,0
3908000,0,0.70711,8.2916755e-05,8.334177e-05,0.70711,0.0,0.0,0.0,0.0,0
3920000,0,0.70711,8.3239494e-05,8.366451e-05,0.70711,0.0,0.0,0.0,0.0,0
3928000,0,0.70711,8.345466e-05,8.387967e-05,0.70711,0.0,0.0,0.0,0.0,0
3940000,0,0.70711,8.37774e-05,8.420241e-05,0.70711,0.0,0.0,0.0,0.0,0
3948000,0,0.70711,8.399256e-05,8.4417574e-05,0.70711,0.0,0.0,0.0,0.0,0
3960000,0,0.70711,8.43153e-05,8.474031e-05,0.70711,0.0,0.0,0.0,0.0,0
3968000,0,0.70711,8.453046e-05,8.495548e-05,0.70711,0.0,0.0,0.0,0.0,0
3980000,0,0.70711,8.48532e-05,8.527822e-05,0.70711,0.0,0.0,0.0,0.0,0
3988000,0,0.70711,8.5068365e-05,8.5493375e-05,0.70711,0.0,0.0,0.0,0.0,0
4000000,0,0.70711,8.5391104e-05,8.581612e-05,0.70711,0.0,0.0,0.0,0.0,0
4008000,0,0.70711,8.560627e-05,8.603128e-05,0.70711,0.0,0.0,0.0,0.0,0
4020000,0,0.70711,8.592901e-05,8.635402e-05,0.70711,0.0,0.0,0.0,0.0,0
4028000,0,0.70711,8.614417e-05,8.656918e-05,0.70711,0.0,0.0,0.0,0.0,0
4040000,0,0.70711,8.646691e-05,8.689192e-05,0.70711,0.0,0.0,0.0,0.0,0
4048000,0,0.70711,8.668207e-05,8.710709e-05,0.70711,0.0,0.0,0.0,0.0,0
4060000,0,0.70711,8.700482e-05,8.742983e-05,0.70711,0.0,0.0,0.0,0.0,0
4068000,0,0.70711,8.7219974e-05,8.764499e-05,0.70711,0.0,0.0,0.0,0.0,0
4080000,0,0.70711,8.754272e-05,8.796773e-05,0.70711,0.0,0.0,0.0,0.0,0
4088000,0,0.70711,8.775788e-05,8.818289e-05,0.70711,0.0,0.0,0.0,0.0,0
4100000,0,0.70711,8.8080626e-05,8.8505636e-05,0.70711,0.0,0.0,0.0,0.0,0
4108000,0,0.70711,8.829578e-05,8.872079e-05,0.70711,0.0,0.0,0.0,0.0,0
4120000,0,0.70711,8.861853e-05,8.904354e-05,0.70711,0.0,0.0,0.0,0.0,0
4128000,0,0.70711,8.883369e-05,8.92587e-05,0.70711,0.0,0.0,0.0,0.0,0
4140000,0,0.70711,8.9156434e-05,8.9581445e-05,0.70711,0.0,0.0,0.0,0.0,0
4148000,0,0.70711,8.937159e-05,8.97966e-05,0.70711,0.0,0.0,0.0,0.0,0
4160000,0,0.70711,8.969434e-05,9.011935e-05,0.70711,0.0,0.0,0.0,0.0,0
4168000,0,0.70711,8.9909496e-05,9.0334506e-05,0.70711,0.0,0.0,0.0,0.0,0
4180000,0,0.70711,9.023224e-05,9.065725e-05,0.70711,0.0,0.0,0.0,0.0,0
4188000,0,0.70711,9.044741e-05,9.087242e-05,0.70711,0.0,0.0,0.0,0.0,0
4200000,0,0.70711,9.077015e-05,9.119516e-05,0.70711,0.0,0.0,0.0,0.0,0
4208000,0,0.70711,9.098531e-05,9.141032e-05,0.70711,0.0,0.0,0.0,0.0,0
4220000,0,0.70711,9.130805e-05,9.173306e-05,0.70711,0.0,0.0,0.0,0.0,0
4228000,0,0.70711,9.1523216e-05,9.1948226e-05,0.70711,0.0,0.0,0.0,0.0,0
4240000,0,0.70711,9.1845955e-05,9.2270966e-05,0.70711,0.0,0.0,0.0,0.0,0
4248000,0,0.70711,9.206112e-05,9.248613e-05,0.70711,0.0,0.0,0.0,0.0,0
4260000,0,0.70711,9.238387e-05,9.280887e-05,0.70711,0.0,0.0,0.0,0.0,0
4268000,0,0.70711,9.2599024e-05,9.3024035e-05,0.70711,0.0,0.0,0.0,0.0,0
4280000,0,0.70711,9.292177e-05,9.334678e-05,0.70711,0.0,0.0,0.0,0.0,0
4288000,0,0.70711,9.3136936e-05,9.356194e-05,0.70711,0.0,0.0,0.0,0.0,0
4300000,0,0.70711,9.3459676e-05,9.3884686e-05,0.70711,0.0,0.0,0.0,0.0,0
4308000,0,0.70711,9.367484e-05,9.409985e-05,0.70711,0.0,0.0,0.0,0.0,0
4320000,0,0.70711,9.399759e-05,9.442259e-05,0.70711,0.0,0.0,0.0,0.0,0
4328000,0,0.70711,9.4212744e-05,9.4637755e-05,0.70711,0.0,0.0,0.0,0.0,0
4340000,0,0.70711,9.453549e-05,9.49605e-05,0.70711,0.0,0.0,0.0,0.0,0
4348000,0,0.70711,9.4750656e-05,9.517566e-05,0.70711,0.0,0.0,0.0,0.0,0
4360000,0,0.70711,9.5073396e-05,9.5498406e-05,0.70711,0.0,0.0,0.0,0.0,0
4368000,0,0.70711,9.528856e-05,9.571357e-05,0.70711,0.0,0.0,0.0,0.0,0
4380000,0,0.70711,9.561131e-05,9.603631e-05,0.70711,0.0,0.0,0.0,0.0,0
4388000,0,0.70711,9.582647e-05,9.6251475e-05,0.70711,0.0,0.0,0.0,0.0,0
4400000,0,0.70711,9.614921e-05,9.657422e-05,0.70711,0.0,0.0,0.0,0.0,0
4408000,0,0.70711,9.6364376e-05,9.678939e-05,0.70711,0.0,0.0,0.0,0.0,0
4420000,0,0.70711,9.668712e-05,9.7112126e-05,0.70711,0.0,0.0,0.0,0.0,0
4428000,0,0.70711,9.690229e-05,9.732729e-05,0.70711,0.0,0.0,0.0,0.0,0
4440000,0,0.70711,9.722503e-05,9.765004e-05,0.70711,0.0,0.0,0.0,0.0,0
4448000,0,0.70711,9.744019e-05,9.78652e-05,0.70711,0.0,0.0,0.0,0.0,0
4460000,0,0.70711,9.776294e-05,9.818795e-05,0.70711,0.0,0.0,0.0,0.0,0
4468000,0,0.70711,9.79781e-05,9.840311e-05,0.70711,0.0,0.0,0.0,0.0,0
4480000,0,0.70711,9.830085e-05,9.872585e-05,0.70711,0.0,0.0,0.0,0.0,0
4488000,0,0.70711,9.851601e-05,9.894102e-05,0.70711,0.0,0.0,0.0,0.0,0
4500000,0,0.70711,9.8838755e-05,9.9263765e-05,0.70711,0.0,0.0,0.0,0.0,0
4508000,0,0.70711,9.905392e-05,9.947893e-05,0.70711,0.0,0.0,0.0,0.0,0
4520000,0,0.70711,9.9376666e-05,9.980167e-05,0.70711,0.0,0.0,0.0,0.0,0
4528000,0,0.70711,9.959183e-05,0.000100016834,0.70711,0.0,0.0,0.0,0.0,0
4540000,0,0.70711,9.991458e-05,0.00010033958,0.70711,0.0,0.0,0.0,0.0,0
4548000,0,0.70711,0.00010012974,0.000100554746,0.70711,0.0,0.0,0.0,0.0,0
4560000,0,0.70711,0.00010045248,0.00010087749,0.70711,0.0,0.0,0.0,0.0,0
4568000,0,0.70711,0.00010066765,0.00010109266,0.70711,0.0,0.0,0.0,0.0,0
4580000,0,0.70711,0.00010099039,0.000101415404,0.70711,0.0,0.0,0.0,0.0,0
4588000,0,0.70711,0.00010120556,0.00010163057,0.70711,0.0,0.0,0.0,0.0,0
4600000,0,0.70711,0.000101528305,0.00010195331,0.70711,0.0,0.0,0.0,0.0,0
4608000,0,0.70711,0.00010174347,0.00010216847,0.70711,0.0,0.0,0.0,0.0,0
4620000,0,0.70711,0.00010206622,0.00010249122,0.70711,0.0,0.0,0.0,0.0,0
4628000,0,0.70711,0.00010228138,0.000102706384,0.70711,0.0,0.0,0.0,0.0,0
4640000,0,0.70711,0.00010260413,0.00010302913,0.70711,0.0,0.0,0.0,0.0,0
4648000,0,0.70711,0.00010281929,0.000103244296,0.70711,0.0,0.0,0.0,0.0,0
4660000,0,0.70711,0.00010314204,0.00010356704,0.70711,0.0,0.0,0.0,0.0,0
4668000,0,0.70711,0.000103357204,0.00010378221,0.70711,0.0,0.0,0.0,0.0,0
4680000,0,0.70711,0.00010367995,0.000104104955,0.70711,0.0,0.0,0.0,0.0,0
4688000,0,0.70711,0.000103895116,0.00010432012,0.70711,0.0,0.0,0.0,0.0,0
4700000,0,0.70711,0.00010421786,0.000104642866,0.70711,0.0,0.0,0.0,0.0,0
4708000,0,0.70711,0.00010443303,0.00010485803,0.70711,0.0,0.0,0.0,0.0,0
4720000,0,0.70711,0.000104755774,0.00010518078,0.70711,0.0,0.0,0.0,0.0,0
4728000,0,0.70711,0.00010497094,0.00010539594,0.70711,0.0,0.0,0.0,0.0,0
4740000,0,0.70711,0.000105293686,0.00010571869,0.70711,0.0,0.0,0.0,0.0,0
4748000,0,0.70711,0.00010550885,0.000105933854,0.70711,0.0,0.0,0.0,0.0,0
4760000,0,0.70711,0.0001058316,0.0001062566,0.70711,0.0,0.0,0.0,0.0,0
4768000,0,0.70711,0.00010604676,0.000106471765,0.70711,0.0,0.0,0.0,0.0,0
4780000,0,0.70711,0.00010636951,0.00010679451,0.70711,0.0,0.0,0.0,0.0,0
4788000,0,0.70711,0.00010658467,0.00010700968,0.70711,0.0,0.0,0.0,0.0,0
4800000,0,0.70711,0.00010690742,0.000107332424,0.70711,0.0,0.0,0.0,0.0,0
4808000,0,0.70711,0.000107122585,0.00010754759,0.70711,0.0,0.0,0.0,0.0,0
4820000,0,0.70711,0.00010744534,0.00010787034,0.70711,0.0,0.0,0.0,0.0,0
4828000,0,0.70711,0.000107660504,0.00010808551,0.70711,0.0,0.0,0.0,0.0,0
4840000,0,0.70711,0.00010798325,0.000108408254,0.70711,0.0,0.0,0.0,0.0,0
4848000,0,0.70711,0.000108198416,0.00010862342,0.70711,0.0,0.0,0.0,0.0,0
4860000,0,0.70711,0.00010852116,0.000108946166,0.70711,0.0,0.0,0.0,0.0,0
4868000,0,0.70711,0.00010873633,0.00010916133,0.70711,0.0,0.0,0.0,0.0,0
4880000,0,0.70711,0.000109059074,0.00010948408,0.70711,0.0,0.0,0.0,0.0,0
4888000,0,0.70711,0.000109274246,0.00010969924,0.70711,0.0,0.0,0.0,0.0,0
4900000,0,0.70711,0.00010959699,0.000110021996,0.70711,0.0,0.0,0.0,0.0,0
4908000,0,0.70711,0.00010981216,0.00011023716,0.70711,0.0,0.0,0.0,0.0,0
4920000,0,0.70711,0.000110134904,0.00011055991,0.70711,0.0,0.0,0.0,0.0,0
4928000,0,0.70711,0.00011035007,0.00011077507,0.70711,0.0,0.0,0.0,0.0,0
4940000,0,0.70711,0.00011067282,0.00011109782,0.70711,0.0,0.0,0.0,0.0,0
4948000,0,0.70711,0.00011088799,0.00011131299,0.70711,0.0,0.0,0.0,0.0,0
4960000,0,0.70711,0.000111210735,0.00011163574,0.70711,0.0,0.0,0.0,0.0,0
4968000,0,0.70711,0.0001114259,0.0001118509,0.70711,0.0,0.0,0.0,0.0,0
4980000,0,0.70711,0.00011174865,0.00011217365,0.70711,0.0,0.0,0.0,0.0,0
4988000,0,0.70711,0.00011196382,0.000112388814,0.70711,0.0,0.0,0.0,0.0,0
5000000,0,0.70711,0.000112286565,0.00011271157,0.70711,0.0,0.0,0.0,0.0,0
5008000,0,0.70711,0.00011250173,0.00011292673,0.70711,0.0,0.0,0.0,0.0,0
5020000,0,0.70711,0.000112824484,0.00011324948,0.70711,0.0,0.0,0.0,0.0,0
5028000,0,0.70711,0.00011303965,0.00011346465,0.70711,0.0,0.0,0.0,0.0,0
5040000,0,0.70711,0.000113362395,0.0001137874,0.70711,0.0,0.0,0.0,0.0,0
5048000,0,0.70711,0.00011357757,0.00011400256,0.70711,0.0,0.0,0.0,0.0,0
5060000,0,0.70711,0.000113900314,0.00011432532,0.70711,0.0,0.0,0.0,0.0,0
5068000,0,0.70711,0.00011411548,0.00011454048,0.70711,0.0,0.0,0.0,0.0,0
5080000,0,0.70711,0.00011443823,0.00011486323,0.70711,0.0,0.0,0.0,0.0,0
5088000,0,0.70711,0.0001146534,0.000115078394,0.70711,0.0,0.0,0.0,0.0,0
5100000,0,0.70711,0.000114976145,0.00011540115,0.70711,0.0,0.0,0.0,0.0,0
5108000,0,0.70711,0.00011519132,0.00011561631,0.70711,0.0,0.0,0.0,0.0,0
5120000,0,0.70711,0.00011551406,0.00011593907,0.70711,0.0,0.0,0.0,0.0,0
5128000,0,0.70711,0.00011572923,0.00011615423,0.70711,0.0,0.0,0.0,0.0,0
5140000,0,0.70711,0.00011605198,0.00011647698,0.70711,0.0,0.0,0.0,0.0,0
5148000,0,0.70711,0.00011626715,0.00011669215,0.70711,0.0,0.0,0.0,0.0,0
5160000,0,0.70711,0.0001165899,0.0001170149,0.70711,0.0,0.0,0.0,0.0,0
5168000,0,0.70711,0.000116805066,0.00011723006,0.70711,0.0,0.0,0.0,0.0,0
5180000,0,0.70711,0.00011712781,0.000117552816,0.70711,0.0,0.0,0.0,0.0,0
5188000,0,0.70711,0.000117342985,0.00011776798,0.70711,0.0,0.0,0.0,0.0,0
5200000,0,0.70711,0.00011766573,0.000118090735,0.70711,0.0,0.0,0.0,0.0,0
5208000,0,0.70711,0.0001178809,0.0001183059,0.70711,0.0,0.0,0.0,0.0,0
5220000,0,0.70711,0.00011820365,0.00011862865,0.70711,0.0,0.0,0.0,0.0,0
5228000,0,0.70711,0.00011841882,0.00011884382,0.70711,0.0,0.0,0.0,0.0,0
5240000,0,0.70711,0.00011874157,0.00011916657,0.70711,0.0,0.0,0.0,0.0,0
5248000,0,0.70711,0.00011895674,0.00011938174,0.70711,0.0,0.0,0.0,0.0,0
5260000,0,0.70711,0.00011927949,0.000119704484,0.70711,0.0,0.0,0.0,0.0,0
5268000,0,0.70711,0.00011949466,0.000119919656,0.70711,0.0,0.0,0.0,0.0,0
5280000,0,0.70711,0.00011981741,0.0001202424,0.70711,0.0,0.0,0.0,0.0,0
5288000,0,0.70711,0.00012003258,0.000120457575,0.70711,0.0,0.0,0.0,0.0,0
5300000,0,0.70711,0.000120355326,0.00012078033,0.70711,0.0,0.0,0.0,0.0,0
5308000,0,0.70711,0.0001205705,0.00012099549,0.70711,0.0,0.0,0.0,0.0,0
5320000,0,0.70711,0.000120893244,0.00012131825,0.70711,0.0,0.0,0.0,0.0,0
5328000,0,0.70711,0.000121108416,0.00012153341,0.70711,0.0,0.0,0.0,0.0,0
5340000,0,0.70711,0.00012143116,0.00012185617,0.70711,0.0,0.0,0.0,0.0,0
5348000,0,0.70711,0.000121646335,0.00012207133,0.70711,0.0,0.0,0.0,0.0,0
5360000,0,0.70711,0.00012196909,0.00012239408,0.70711,0.0,0.0,0.0,0.0,0
5368000,0,0.70711,0.00012218425,0.00012260926,0.70711,0.0,0.0,0.0,0.0,0
5380000,0,0.70711,0.000122507,0.000122932,0.70711,0.0,0.0,0.0,0.0,0
5388000,0,0.70711,0.00012272218,0.00012314717,0.70711,0.0,0.0,0.0,0.0,0
5400000,0,0.70711,0.00012304493,0.00012346993,0.70711,0.0,0.0,0.0,0.0,0
5408000,0,0.70711,0.00012326009,0.0001236851,0.70711,0.0,0.0,0.0,0.0,0
5420000,0,0.70711,0.00012358285,0.00012400784,0.70711,0.0,0.0,0.0,0.0,0
5428000,0,0.70711,0.00012379802,0.000124223,0.70711,0.0,0.0,0.0,0.0,0
5440000,0,0.70711,0.00012412076,0.00012454577,0.70711,0.0,0.0,0.0,0.0,0
5448000,0,0.70711,0.00012433594,0.00012476093,0.70711,0.0,0.0,0.0,0.0,0
5460000,0,0.70711,0.00012465869,0.00012508368,0.70711,0.0,0.0,0.0,0.0,0
5468000,0,0.70711,0.00012487386,0.00012529886,0.70711,0.0,0.0,0.0,0.0,0
5480000,0,0.70711,0.00012519662,0.0001256216,0.70711,0.0,0.0,0.0,0.0,0
5488000,0,0.70711,0.00012541178,0.00012583677,0.70711,0.0,0.0,0.0,0.0,0
5500000,0,0.70711,0.00012573453,0.00012615953,0.70711,0.0,0.0,0.0,0.0,0
5508000,0,0.70711,0.00012594971,0.0001263747,0.70711,0.0,0.0,0.0,0.0,0
5520000,0,0.70711,0.00012627245,0.00012669746,0.70711,0.0,0.0,0.0,0.0,0
5528000,0,0.70711,0.00012648762,0.00012691262,0.70711,0.0,0.0,0.0,0.0,0
5540000,0,0.70711,0.00012681038,0.00012723537,0.70711,0.0,0.0,0.0,0.0,0
5548000,0,0.70711,0.00012702555,0.00012745055,0.70711,0.0,0.0,0.0,0.0,0
5560000,0,0.70711,0.0001273483,0.0001277733,0.70711,0.0,0.0,0.0,0.0,0
5568000,0,0.70711,0.00012756347,0.00012798846,0.70711,0.0,0.0,0.0,0.0,0
5580000,0,0.70711,0.00012788622,0.00012831122,0.70711,0.0,0.0,0.0,0.0,0
5588000,0,0.70711,0.0001281014,0.00012852639,0.70711,0.0,0.0,0.0,0.0,0
5600000,0,0.70711,0.00012842414,0.00012884915,0.70711,0.0,0.0,0.0,0.0,0
5608000,0,0.70711,0.00012863931,0.00012906431,0.70711,0.0,0.0,0.0,0.0,0
5620000,0,0.70711,0.00012896207,0.00012938706,0.70711,0.0,0.0,0.0,0.0,0
5628000,0,0.70711,0.00012917724,0.00012960224,0.70711,0.0,0.0,0.0,0.0,0
5640000,0,0.70711,0.0001295,0.00012992499,0.70711,0.0,0.0,0.0,0.0,0
5648000,0,0.70711,0.00012971516,0.00013014015,0.70711,0.0,0.0,0.0,0.0,0
5660000,0,0.70711,0.00013003792,0.00013046291,0.70711,0.0,0.0,0.0,0.0,0
5668000,0,0.70711,0.00013025309,0.00013067808,0.70711,0.0,0.0,0.0,0.0,0
5680000,0,0.70711,0.00013057583,0.00013100084,0.70711,0.0,0.0,0.0,0.0,0
5688000,0,0.70711,0.00013079101,0.000131216,0.70711,0.0,0.0,0.0,0.0,0
5700000,0,0.70711,0.00013111376,0.00013153876,0.70711,0.0,0.0,0.0,0.0,0
5708000,0,0.70711,0.00013132894,0.00013175393,0.70711,0.0,0.0,0.0,0.0,0
5720000,0,0.70711,0.00013165169,0.00013207669,0.70711,0.0,0.0,0.0,0.0,0
5728000,0,0.70711,0.00013186687,0.00013229185,0.70711,0.0,0.0,0.0,0.0,0
5740000,0,0.70711,0.00013218961,0.0001326146,0.70711,0.0,0.0,0.0,0.0,0
5748000,0,0.70711,0.00013240478,0.00013282978,0.70711,0.0,0.0,0.0,0.0,0
5760000,0,0.70711,0.00013272754,0.00013315253,0.70711,0.0,0.0,0.0,0.0,0
5768000,0,0.70711,0.0001329427,0.0001333677,0.70711,0.0,0.0,0.0,0.0,0
5780000,0,0.70711,0.00013326546,0.00013369045,0.70711,0.0,0.0,0.0,0.0,0
5788000,0,0.70711,0.00013348063,0.00013390563,0.70711,0.0,0.0,0.0,0.0,0
5800000,0,0.70711,0.00013380339,0.00013422838,0.70711,0.0,0.0,0.0,0.0,0
5808000,0,0.70711,0.00013401856,0.00013444356,0.70711,0.0,0.0,0.0,0.0,0
5820000,0,0.70711,0.00013434132,0.0001347663,0.70711,0.0,0.0,0.0,0.0,0
5828000,0,0.70711,0.00013455648,0.00013498148,0.70711,0.0,0.0,0.0,0.0,0
5840000,0,0.70711,0.00013487924,0.00013530423,0.70711,0.0,0.0,0.0,0.0,0
5848000,0,0.70711,0.00013509441,0.00013551941,0.70711,0.0,0.0,0.0,0.0,0
5860000,0,0.70711,0.00013541717,0.00013584216,0.70711,0.0,0.0,0.0,0.0,0
5868000,0,0.70711,0.00013563233,0.00013605734,0.70711,0.0,0.0,0.0,0.0,0
5880000,0,0.70711,0.0001359551,0.00013638008,0.70711,0.0,0.0,0.0,0.0,0
5888000,0,0.70711,0.00013617026,0.00013659526,0.70711,0.0,0.0,0.0,0.0,0
5900000,0,0.70711,0.00013649302,0.00013691801,0.70711,0.0,0.0,0.0,0.0,0
5908000,0,0.70711,0.00013670819,0.00013713319,0.70711,0.0,0.0,0.0,0.0,0
5920000,0,0.70711,0.00013703095,0.00013745594,0.70711,0.0,0.0,0.0,0.0,0
5928000,0,0.70711,0.00013724613,0.00013767112,0.70711,0.0,0.0,0.0,0.0,0
5940000,0,0.70711,0.00013756887,0.00013799386,0.70711,0.0,0.0,0.0,0.0,0
5948000,0,0.70711,0.00013778405,0.00013820904,0.70711,0.0,0.0,0.0,0.0,0
5960000,0,0.70711,0.0001381068,0.00013853179,0.70711,0.0,0.0,0.0,0.0,0
5968000,0,0.70711,0.00013832198,0.00013874697,0.70711,0.0,0.0,0.0,0.0,0
5980000,0,0.70711,0.00013864473,0.00013906973,0.70711,0.0,0.0,0.0,0.0,0
5988000,0,0.70711,0.0001388599,0.0001392849,0.70711,0.0,0.0,0.0,0.0,0
6000000,0,0.70711,0.00013918267,0.00013960766,0.70711,0.0,0.0,0.0,0.0,0
6008000,0,0.70711,0.00013939783,0.00013982282,0.70711,0.0,0.0,0.0,0.0,0
6020000,0,0.70711,0.00013972059,0.00014014558,0.70711,0.0,0.0,0.0,0.0,0
6028000,0,0.70711,0.00013993576,0.00014036075,0.70711,0.0,0.0,0.0,0.0,0
6040000,0,0.70711,0.00014025852,0.0001406835,0.70711,0.0,0.0,0.0,0.0,0
6048000,0,0.70711,0.00014047368,0.00014089867,0.70711,0.0,0.0,0.0,0.0,0
6060000,0,0.7071099,0.00014079644,0.00014122143,0.70711,0.0,0.0,0.0,0.0,0
6068000,0,0.7071099,0.00014101161,0.00014143661,0.70711,0.0,0.0,0.0,0.0,0
6080000,0,0.7071099,0.00014133437,0.00014175936,0.70711,0.0,0.0,0.0,0.0,0
6088000,0,0.7071099,0.00014154955,0.00014197454,0.70711,0.0,0.0,0.0,0.0,0
6100000,0,0.7071099,0.0001418723,0.0001422973,0.70711,0.0,0.0,0.0,0.0,0
6108000,0,0.7071099,0.00014208748,0.00014251246,0.70711,0.0,0.0,0.0,0.0,0
6120000,0,0.7071099,0.00014241024,0.00014283523,0.70711,0.0,0.0,0.0,0.0,0
6128000,0,0.7071099,0.0001426254,0.00014305039,0.70711,0.0,0.0,0.0,0.0,0
6140000,0,0.7071099,0.00014294816,0.00014337315,0.70711,0.0,0.0,0.0,0.0,0
6148000,0,0.7071099,0.00014316333,0.00014358832,0.70711,0.0,0.0,0.0,0.0,0
6160000,0,0.7071099,0.00014348609,0.00014391108,0.70711,0.0,0.0,0.0,0.0,0
6168000,0,0.7071099,0.00014370127,0.00014412626,0.70711,0.0,0.0,0.0,0.0,0
6180000,0,0.7071099,0.00014402403,0.00014444902,0.70711,0.0,0.0,0.0,0.0,0
6188000,0,0.7071099,0.0001442392,0.00014466418,0.70711,0.0,0.0,0.0,0.0,0
6200000,0,0.7071099,0.00014456196,0.00014498695,0.70711,0.0,0.0,0.0,0.0,0
6208000,0,0.7071099,0.00014477712,0.00014520211,0.70711,0.0,0.0,0.0,0.0,0
6220000,0,0.7071099,0.00014509988,0.00014552487,0.70711,0.0,0.0,0.0,0.0,0
6228000,0,0.7071099,0.00014531506,0.00014574005,0.70711,0.0,0.0,0.0,0.0,0
6240000,0,0.7071099,0.00014563781,0.0001460628,0.70711,0.0,0.0,0.0,0.0,0
6248000,0,0.7071099,0.00014585299,0.00014627798,0.70711,0.0,0.0,0.0,0.0,0
6260000,0,0.7071099,0.00014617575,0.00014660074,0.70711,0.0,0.0,0.0,0.0,0
6268000,0,0.7071099,0.00014639091,0.0001468159,0.70711,0.0,0.0,0.0,0.0,0
6280000,0,0.7071099,0.00014671368,0.00014713866,0.70711,0.0,0.0,0.0,0.0,0
6288000,0,0.7071099,0.00014692885,0.00014735384,0.70711,0.0,0.0,0.0,0.0,0
6300000,0,0.7071099,0.00014725162,0.0001476766,0.70711,0.0,0.0,0.0,0.0,0
6308000,0,0.7071099,0.00014746678,0.00014789177,0.70711,0.0,0.0,0.0,0.0,0
6320000,0,0.7071099,0.00014778954,0.00014821453,0.70711,0.0,0.0,0.0,0.0,0
6328000,0,0.7071099,0.00014800472,0.0001484297,0.70711,0.0,0.0,0.0,0.0,0
6340000,0,0.7071099,0.00014832747,0.00014875246,0.70711,0.0,0.0,0.0,0.0,0
6348000,0,0.7071099,0.00014854265,0.00014896764,0.70711,0.0,0.0,0.0,0.0,0
6360000,0,0.7071099,0.00014886541,0.0001492904,0.70711,0.0,0.0,0.0,0.0,0
6368000,0,0.7071099,0.00014908057,0.00014950556,0.70711,0.0,0.0,0.0,0.0,0
6380000,0,0.7071099,0.00014940333,0.00014982832,0.70711,0.0,0.0,0.0,0.0,0
6388000,0,0.7071099,0.00014961851,0.0001500435,0.70711,0.0,0.0,0.0,0.0,0
6400000,0,0.7071099,0.00014994128,0.00015036626,0.70711,0.0,0.0,0.0,0.0,0
6408000,0,0.7071099,0.00015015644,0.00015058143,0.70711,0.0,0.0,0.0,0.0,0
6420000,0,0.7071099,0.0001504792,0.00015090419,0.70711,0.0,0.0,0.0,0.0,0
6428000,0,0.7071099,0.00015069438,0.00015111937,0.70711,0.0,0.0,0.0,0.0,0
6440000,0,0.7071099,0.00015101714,0.00015144213,0.70711,0.0,0.0,0.0,0.0,0
6448000,0,0.7071099,0.0001512323,0.0001516573,0.70711,0.0,0.0,0.0,0.0,0
6460000,0,0.7071099,0.00015155507,0.00015198006,0.70711,0.0,0.0,0.0,0.0,0
6468000,0,0.7071099,0.00015177025,0.00015219524,0.70711,0.0,0.0,0.0,0.0,0
6480000,0,0.7071099,0.00015209301,0.000152518,0.70711,0.0,0.0,0.0,0.0,0
6488000,0,0.7071099,0.00015230819,0.00015273316,0.70711,0.0,0.0,0.0,0.0,0
6500000,0,0.7071099,0.00015263095,0.00015305592,0.70711,0.0,0.0,0.0,0.0,0
6508000,0,0.7071099,0.00015284611,0.0001532711,0.70711,0.0,0.0,0.0,0.0,0
6520000,0,0.7071099,0.00015316888,0.00015359386,0.70711,0.0,0.0,0.0,0.0,0
6528000,0,0.7071099,0.00015338406,0.00015380904,0.70711,0.0,0.0,0.0,0.0,0
6540000,0,0.7071099,0.00015370682,0.00015413179,0.70711,0.0,0.0,0.0,0.0,0
6548000,0,0.7071099,0.00015392198,0.00015434697,0.70711,0.0,0.0,0.0,0.0,0
6560000,0,0.7071099,0.00015424474,0.00015466973,0.70711,0.0,0.0,0.0,0.0,0
6568000,0,0.7071099,0.00015445992,0.00015488491,0.70711,0.0,0.0,0.0,0.0,0
6580000,0,0.7071099,0.00015478268,0.00015520767,0.70711,0.0,0.0,0.0,0.0,0
6588000,0,0.7071099,0.00015499786,0.00015542284,0.70711,0.0,0.0,0.0,0.0,0
6600000,0,0.7071099,0.00015532062,0.0001557456,0.70711,0.0,0.0,0.0,0.0,0
6608000,0,0.7071099,0.00015553579,0.00015596078,0.70711,0.0,0.0,0.0,0.0,0
6620000,0,0.7071099,0.00015585855,0.00015628354,0.70711,0.0,0.0,0.0,0.0,0
6628000,0,0.7071099,0.00015607373,0.00015649872,0.70711,0.0,0.0,0.0,0.0,0
6640000,0,0.7071099,0.00015639649,0.00015682148,0.70711,0.0,0.0,0.0,0.0,0
6648000,0,0.7071099,0.00015661167,0.00015703664,0.70711,0.0,0.0,0.0,0.0,0
6660000,0,0.7071099,0.00015693443,0.0001573594,0.70711,0.0,0.0,0.0,0.0,0
6668000,0,0.7071099,0.0001571496,0.00015757458,0.70711,0.0,0.0,0.0,0.0,0
6680000,0,0.7071099,0.00015747236,0.00015789735,0.70711,0.0,0.0,0.0,0.0,0
6688000,0,0.7071099,0.00015768754,0.00015811253,0.70711,0.0,0.0,0.0,0.0,0
6700000,0,0.7071099,0.0001580103,0.00015843529,0.70711,0.0,0.0,0.0,0.0,0
6708000,0,0.7071099,0.00015822548,0.00015865045,0.70711,0.0,0.0,0.0,0.0,0
6720000,0,0.7071099,0.00015854824,0.00015897323,0.70711,0.0,0.0,0.0,0.0,0
6728000,0,0.7071099,0.00015876342,0.00015918839,0.70711,0.0,0.0,0.0,0.0,0
6740000,0,0.7071099,0.00015908618,0.00015951115,0.70711,0.0,0.0,0.0,0.0,0
6748000,0,0.7071099,0.00015930134,0.00015972633,0.70711,0.0,0.0,0.0,0.0,0
6760000,0,0.7071099,0.0001596241,0.0001600491,0.70711,0.0,0.0,0.0,0.0,0
6768000,0,0.7071099,0.00015983928,0.00016026427,0.70711,0.0,0.0,0.0,0.0,0
6780000,0,0.7071099,0.00016016205,0.00016058703,0.70711,0.0,0.0,0.0,0.0,0
6788000,0,0.7071099,0.00016037723,0.00016080221,0.70711,0.0,0.0,0.0,0.0,0
6800000,0,0.7071099,0.00016069999,0.00016112498,0.70711,0.0,0.0,0.0,0.0,0
6808000,0,0.7071099,0.00016091517,0.00016134014,0.70711,0.0,0.0,0.0,0.0,0
6820000,0,0.7071099,0.00016123793,0.00016166292,0.70711,0.0,0.0,0.0,0.0,0
6828000,0,0.7071099,0.0001614531,0.00016187808,0.70711,0.0,0.0,0.0,0.0,0
6840000,0,0.7071099,0.00016177587,0.00016220084,0.70711,0.0,0.0,0.0,0.0,0
6848000,0,0.7071099,0.00016199105,0.00016241602,0.70711,0.0,0.0,0.0,0.0,0
6860000,0,0.7071099,0.00016231381,0.00016273878,0.70711,0.0,0.0,0.0,0.0,0
6868000,0,0.7071099,0.00016252897,0.00016295396,0.70711,0.0,0.0,0.0,0.0,0
6880000,0,0.7071099,0.00016285175,0.00016327672,0.70711,0.0,0.0,0.0,0.0,0
6888000,0,0.7071099,0.00016306691,0.0001634919,0.70711,0.0,0.0,0.0,0.0,0
6900000,0,0.7071099,0.00016338969,0.00016381466,0.70711,0.0,0.0,0.0,0.0,0
6908000,0,0.7071099,0.00016360485,0.00016402984,0.70711,0.0,0.0,0.0,0.0,0
6920000,0,0.7071099,0.00016392762,0.0001643526,0.70711,0.0,0.0,0.0,0.0,0
6928000,0,0.7071099,0.0001641428,0.00016456778,0.70711,0.0,0.0,0.0,0.0,0
6940000,0,0.7071099,0.00016446556,0.00016489055,0.70711,0.0,0.0,0.0,0.0,0
6948000,0,0.7071099,0.00016468074,0.00016510572,0.70711,0.0,0.0,0.0,0.0,0
6960000,0,0.7071099,0.0001650035,0.00016542849,0.70711,0.0,0.0,0.0,0.0,0
6968000,0,0.7071099,0.00016521868,0.00016564367,0.70711,0.0,0.0,0.0,0.0,0
6980000,0,0.7071099,0.00016554144,0.00016596643,0.70711,0.0,0.0,0.0,0.0,0
6988000,0,0.7071099,0.00016575662,0.0001661816,0.70711,0.0,0.0,0.0,0.0,0
7000000,0,0.7071099,0.00016607938,0.00016650437,0.70711,0.0,0.0,0.0,0.0,0
7008000,0,0.7071099,0.00016629456,0.00016671955,0.70711,0.0,0.0,0.0,0.0,0
7020000,0,0.7071099,0.00016661732,0.00016704231,0.70711,0.0,0.0,0.0,0.0,0
7028000,0,0.7071099,0.0001668325,0.00016725749,0.70711,0.0,0.0,0.0,0.0,0
7040000,0,0.7071099,0.00016715526,0.00016758025,0.70711,0.0,0.0,0.0,0.0,0
7048000,0,0.7071099,0.00016737044,0.00016779543,0.70711,0.0,0.0,0.0,0.0,0
7060000,0,0.7071099,0.0001676932,0.00016811819,0.70711,0.0,0.0,0.0,0.0,0
7068000,0,0.7071099,0.00016790838,0.00016833337,0.70711,0.0,0.0,0.0,0.0,0
7080000,0,0.7071099,0.00016823116,0.00016865613,0.70711,0.0,0.0,0.0,0.0,0
7088000,0,0.7071099,0.00016844632,0.00016887131,0.70711,0.0,0.0,0.0,0.0,0
7100000,0,0.7071099,0.0001687691,0.00016919407,0.70711,0.0,0.0,0.0,0.0,0
7108000,0,0.7071099,0.00016898426,0.00016940925,0.70711,0.0,0.0,0.0,0.0,0
7120000,0,0.7071099,0.00016930704,0.00016973201,0.70711,0.0,0.0,0.0,0.0,0
7128000,0,0.7071099,0.00016952222,0.00016994719,0.70711,0.0,0.0,0.0,0.0,0
7140000,0,0.7071099,0.00016984498,0.00017026995,0.70711,0.0,0.0,0.0,0.0,0
7148000,0,0.7071099,0.00017006016,0.00017048513,0.70711,0.0,0.0,0.0,0.0,0
7160000,0,0.7071099,0.00017038292,0.00017080789,0.70711,0.0,0.0,0.0,0.0,0
7168000,0,0.7071099,0.0001705981,0.00017102307,0.70711,0.0,0.0,0.0,0.0,0
7180000,0,0.7071099,0.00017092086,0.00017134583,0.70711,0.0,0.0,0.0,0.0,0
7188000,0,0.7071099,0.00017113604,0.00017156101,0.70711,0.0,0.0,0.0,0.0,0
7200000,0,0.7071099,0.0001714588,0.00017188379,0.70711,0.0,0.0,0.0,0.0,0
7208000,0,0.7071099,0.00017167398,0.00017209895,0.70711,0.0,0.0,0.0,0.0,0
7220000,0,0.7071099,0.00017199675,0.00017242173,0.70711,0.0,0.0,0.0,0.0,0
7228000,0,0.7071099,0.00017221192,0.00017263691,0.70711,0.0,0.0,0.0,0.0,0
7240000,0,0.7071099,0.0001725347,0.00017295967,0.70711,0.0,0.0,0.0,0.0,0
7248000,0,0.7071099,0.00017274987,0.00017317485,0.70711,0.0,0.0,0.0,0.0,0
7260000,0,0.7071099,0.00017307264,0.00017349761,0.70711,0.0,0.0,0.0,0.0,0
7268000,0,0.7071099,0.00017328782,0.00017371279,0.70711,0.0,0.0,0.0,0.0,0
7280000,0,0.7071099,0.00017361058,0.00017403555,0.70711,0.0,0.0,0.0,0.0,0
7288000,0,0.7071099,0.00017382576,0.00017425073,0.70711,0.0,0.0,0.0,0.0,0
7300000,0,0.7071099,0.00017414852,0.0001745735,0.70711,0.0,0.0,0.0,0.0,0
7308000,0,0.7071099,0.0001743637,0.00017478869,0.70711,0.0,0.0,0.0,0.0,0
7320000,0,0.7071099,0.00017468647,0.00017511145,0.70711,0.0,0.0,0.0,0.0,0
7328000,0,0.7071099,0.00017490165,0.00017532663,0.70711,0.0,0.0,0.0,0.0,0
7340000,0,0.7071099,0.00017522441,0.00017564939,0.70711,0.0,0.0,0.0,0.0,0
7348000,0,0.7071099,0.00017543959,0.00017586457,0.70711,0.0,0.0,0.0,0.0,0
7360000,0,0.7071099,0.00017576235,0.00017618734,0.70711,0.0,0.0,0.0,0.0,0
7368000,0,0.7071099,0.00017597753,0.00017640251,0.70711,0.0,0.0,0.0,0.0,0
7380000,0,0.7071099,0.00017630031,0.00017672528,0.70711,0.0,0.0,0.0,0.0,0
7388000,0,0.7071099,0.00017651549,0.00017694046,0.70711,0.0,0.0,0.0,0.0,0
7400000,0,0.7071099,0.00017683825,0.00017726322,0.70711,0.0,0.0,0.0,0.0,0
7408000,0,0.7071099,0.00017705343,0.0001774784,0.70711,0.0,0.0,0.0,0.0,0
7420000,0,0.7071099,0.00017737619,0.00017780118,0.70711,0.0,0.0,0.0,0.0,0
7428000,0,0.7071099,0.00017759137,0.00017801634,0.70711,0.0,0.0,0.0,0.0,0
7440000,0,0.7071099,0.00017791415,0.00017833912,0.70711,0.0,0.0,0.0,0.0,0
7448000,0,0.7071099,0.00017812932,0.0001785543,0.70711,0.0,0.0,0.0,0.0,0
7460000,0,0.7071099,0.00017845209,0.00017887706,0.70711,0.0,0.0,0.0,0.0,0
7468000,0,0.7071099,0.00017866727,0.00017909224,0.70711,0.0,0.0,0.0,0.0,0
7480000,0,0.7071099,0.00017899004,0.00017941502,0.70711,0.0,0.0,0.0,0.0,0
7488000,0,0.7071099,0.00017920522,0.0001796302,0.70711,0.0,0.0,0.0,0.0,0
7500000,0,0.7071099,0.00017952798,0.00017995296,0.70711,0.0,0.0,0.0,0.0,0
7508000,0,0.7071099,0.00017974316,0.00018016814,0.70711,0.0,0.0,0.0,0.0,0
7520000,0,0.7071099,0.00018006592,0.00018049091,0.70711,0.0,0.0,0.0,0.0,0
7528000,0,0.7071099,0.0001802811,0.00018070609,0.70711,0.0,0.0,0.0,0.0,0
7540000,0,0.7071099,0.00018060388,0.00018102885,0.70711,0.0,0.0,0.0,0.0,0
7548000,0,0.7071099,0.00018081906,0.00018124403,0.70711,0.0,0.0,0.0,0.0,0
7560000,0,0.7071099,0.00018114182,0.0001815668,0.70711,0.0,0.0,0.0,0.0,0
7568000,0,0.7071099,0.000181357,0.00018178197,0.70711,0.0,0.0,0.0,0.0,0
7580000,0,0.7071099,0.00018167977,0.00018210475,0.70711,0.0,0.0,0.0,0.0,0
7588000,0,0.7071099,0.00018189495,0.00018231993,0.70711,0.0,0.0,0.0,0.0,0
7600000,0,0.7071099,0.00018221771,0.00018264269,0.70711,0.0,0.0,0.0,0.0,0
7608000,0,0.7071099,0.0001824329,0.00018285787,0.70711,0.0,0.0,0.0,0.0,0
7620000,0,0.7071099,0.00018275567,0.00018318064,0.70711,0.0,0.0,0.0,0.0,0
7628000,0,0.7071099,0.00018297085,0.00018339582,0.70711,0.0,0.0,0.0,0.0,0
7640000,0,0.7071099,0.00018329361,0.0001837186,0.70711,0.0,0.0,0.0,0.0,0
7648000,0,0.7071099,0.0001835088,0.00018393378,0.70711,0.0,0.0,0.0,0.0,0
7660000,0,0.7071099,0.00018383157,0.00018425654,0.70711,0.0,0.0,0.0,0.0,0
7668000,0,0.7071099,0.00018404674,0.00018447172,0.70711,0.0,0.0,0.0,0.0,0
7680000,0,0.7071099,0.00018436952,0.0001847945,0.70711,0.0,0.0,0.0,0.0,0
7688000,0,0.7071099,0.0001845847,0.00018500967,0.70711,0.0,0.0,0.0,0.0,0
7700000,0,0.7071099,0.00018490746,0.00018533244,0.70711,0.0,0.0,0.0,0.0,0
7708000,0,0.7071099,0.00018512264,0.00018554761,0.70711,0.0,0.0,0.0,0.0,0
7720000,0,0.7071099,0.00018544542,0.00018587039,0.70711,0.0,0.0,0.0,0.0,0
7728000,0,0.7071099,0.0001856606,0.00018608557,0.70711,0.0,0.0,0.0,0.0,0
7740000,0,0.7071099,0.00018598337,0.00018640833,0.70711,0.0,0.0,0.0,0.0,0
7748000,0,0.7071099,0.00018619855,0.00018662353,0.70711,0.0,0.0,0.0,0.0,0
7760000,0,0.7071099,0.00018652131,0.00018694629,0.70711,0.0,0.0,0.0,0.0,0
7768000,0,0.7071099,0.00018673649,0.00018716147,0.70711,0.0,0.0,0.0,0.0,0
7780000,0,0.7071099,0.00018705927,0.00018748424,0.70711,0.0,0.0,0.0,0.0,0
7788000,0,0.7071099,0.00018727445,0.00018769942,0.70711,0.0,0.0,0.0,0.0,0
7800000,0,0.7071099,0.00018759722,0.00018802218,0.70711,0.0,0.0,0.0,0.0,0
7808000,0,0.7071099,0.0001878124,0.00018823738,0.70711,0.0,0.0,0.0,0.0,0
7820000,0,0.7071099,0.00018813516,0.00018856014,0.70711,0.0,0.0,0.0,0.0,0
7828000,0,0.7071099,0.00018835034,0.00018877532,0.70711,0.0,0.0,0.0,0.0,0
7840000,0,0.7071099,0.00018867312,0.0001890981,0.70711,0.0,0.0,0.0,0.0,0
7848000,0,0.7071099,0.0001888883,0.00018931327,0.70711,0.0,0.0,0.0,0.0,0
7860000,0,0.7071099,0.00018921107,0.00018963605,0.70711,0.0,0.0,0.0,0.0,0
7868000,0,0.7071099,0.00018942625,0.00018985123,0.70711,0.0,0.0,0.0,0.0,0
7880000,0,0.7071099,0.00018974901,0.00019017399,0.70711,0.0,0.0,0.0,0.0,0
7888000,0,0.7071099,0.00018996421,0.00019038917,0.70711,0.0,0.0,0.0,0.0,0
7900000,0,0.7071099,0.00019028697,0.00019071194,0.70711,0.0,0.0,0.0,0.0,0
7908000,0,0.7071099,0.00019050215,0.00019092712,0.70711,0.0,0.0,0.0,0.0,0
7920000,0,0.7071099,0.00019082493,0.0001912499,0.70711,0.0,0.0,0.0,0.0,0
7928000,0,0.7071099,0.0001910401,0.00019146508,0.70711,0.0,0.0,0.0,0.0,0
7940000,0,0.7071099,0.00019136288,0.00019178785,0.70711,0.0,0.0,0.0,0.0,0
7948000,0,0.7071099,0.00019157806,0.00019200303,0.70711,0.0,0.0,0.0,0.0,0
7960000,0,0.7071099,0.00019190084,0.00019232581,0.70711,0.0,0.0,0.0,0.0,0
7968000,0,0.7071099,0.00019211601,0.00019254099,0.70711,0.0,0.0,0.0,0.0,0
7980000,0,0.7071099,0.00019243879,0.00019286375,0.70711,0.0,0.0,0.0,0.0,0
7988000,0,0.7071099,0.00019265397,0.00019307893,0.70711,0.0,0.0,0.0,0.0,0
8000000,0,0.7071099,0.00019297673,0.0001934017,0.70711,0.0,0.0,0.0,0.0,0
8008000,0,0.7071099,0.00019319193,0.00019361688,0.70711,0.0,0.0,0.0,0.0,0
8020000,0,0.7071099,0.00019351469,0.00019393966,0.70711,0.0,0.0,0.0,0.0,0
8028000,0,0.7071099,0.00019372987,0.00019415484,0.70711,0.0,0.0,0.0,0.0,0
8040000,0,0.7071099,0.00019405264,0.00019447762,0.70711,0.0,0.0,0.0,0.0,0
8048000,0,0.7071099,0.00019426782,0.0001946928,0.70711,0.0,0.0,0.0,0.0,0
8060000,0,0.7071099,0.0001945906,0.00019501557,0.70711,0.0,0.0,0.0,0.0,0
8068000,0,0.7071099,0.00019480578,0.00019523075,0.70711,0.0,0.0,0.0,0.0,0
8080000,0,0.7071099,0.00019512855,0.00019555353,0.70711,0.0,0.0,0.0,0.0,0
8088000,0,0.7071099,0.00019534373,0.0001957687,0.70711,0.0,0.0,0.0,0.0,0
8100000,0,0.7071099,0.00019566651,0.00019609148,0.70711,0.0,0.0,0.0,0.0,0
8108000,0,0.7071099,0.00019588169,0.00019630666,0.70711,0.0,0.0,0.0,0.0,0
8120000,0,0.7071099,0.00019620446,0.00019662944,0.70711,0.0,0.0,0.0,0.0,0
8128000,0,0.7071099,0.00019641964,0.00019684462,0.70711,0.0,0.0,0.0,0.0,0
8140000,0,0.7071099,0.00019674242,0.00019716739,0.70711,0.0,0.0,0.0,0.0,0
8148000,0,0.7071099,0.0001969576,0.00019738257,0.70711,0.0,0.0,0.0,0.0,0
8160000,0,0.7071099,0.00019728037,0.00019770535,0.70711,0.0,0.0,0.0,0.0,0
8168000,0,0.7071099,0.00019749555,0.00019792053,0.70711,0.0,0.0,0.0,0.0,0
8180000,0,0.7071099,0.00019781833,0.0001982433,0.70711,0.0,0.0,0.0,0.0,0
8188000,0,0.7071099,0.00019803351,0.00019845848,0.70711,0.0,0.0,0.0,0.0,0
8200000,0,0.7071099,0.00019835628,0.00019878126,0.70711,0.0,0.0,0.0,0.0,0
8208000,0,0.7071099,0.00019857146,0.00019899644,0.70711,0.0,0.0,0.0,0.0,0
8220000,0,0.7071099,0.00019889424,0.00019931921,0.70711,0.0,0.0,0.0,0.0,0
8228000,0,0.7071099,0.00019910942,0.00019953439,0.70711,0.0,0.0,0.0,0.0,0
8240000,0,0.7071099,0.0001994322,0.00019985717,0.70711,0.0,0.0,0.0,0.0,0
8248000,0,0.7071099,0.00019964737,0.00020007235,0.70711,0.0,0.0,0.0,0.0,0
8260000,0,0.7071099,0.00019997015,0.00020039512,0.70711,0.0,0.0,0.0,0.0,0
8268000,0,0.7071099,0.00020018533,0.0002006103,0.70711,0.0,0.0,0.0,0.0,0
8280000,0,0.7071099,0.0002005081,0.00020093308,0.70711,0.0,0.0,0.0,0.0,0
8288000,0,0.7071099,0.0002007233,0.00020114826,0.70711,0.0,0.0,0.0,0.0,0
8300000,0,0.7071099,0.00020104606,0.00020147103,0.70711,0.0,0.0,0.0,0.0,0
8308000,0,0.7071099,0.00020126125,0.00020168621,0.70711,0.0,0.0,0.0,0.0,0
8320000,0,0.7071099,0.00020158403,0.00020200899,0.70711,0.0,0.0,0.0,0.0,0
8328000,0,0.7071099,0.00020179921,0.00020222417,0.70711,0.0,0.0,0.0,0.0,0
8340000,0,0.7071099,0.00020212198,0.00020254694,0.70711,0.0,0.0,0.0,0.0,0
8348000,0,0.7071099,0.00020233716,0.00020276214,0.70711,0.0,0.0,0.0,0.0,0
8360000,0,0.7071099,0.00020265994,0.0002030849,0.70711,0.0,0.0,0.0,0.0,0
8368000,0,0.7071099,0.00020287512,0.0002033001,0.70711,0.0,0.0,0.0,0.0,0
8380000,0,0.7071099,0.0002031979,0.00020362287,0.70711,0.0,0.0,0.0,0.0,0
8388000,0,0.7071099,0.00020341307,0.00020383805,0.70711,0.0,0.0,0.0,0.0,0
8400000,0,0.7071099,0.00020373585,0.00020416082,0.70711,0.0,0.0,0.0,0.0,0
8408000,0,0.7071099,0.00020395104,0.000204376,0.70711,0.0,0.0,0.0,0.0,0
8420000,0,0.7071099,0.00020427382,0.00020469878,0.70711,0.0,0.0,0.0,0.0,0
8428000,0,0.7071099,0.000204489,0.00020491396,0.70711,0.0,0.0,0.0,0.0,0
8440000,0,0.7071099,0.00020481177,0.00020523673,0.70711,0.0,0.0,0.0,0.0,0
8448000,0,0.7071099,0.00020502695,0.00020545193,0.70711,0.0,0.0,0.0,0.0,0
8460000,0,0.7071099,0.00020534973,0.00020577469,0.70711,0.0,0.0,0.0,0.0,0
8468000,0,0.7071099,0.00020556491,0.00020598988,0.70711,0.0,0.0,0.0,0.0,0
8480000,0,0.7071099,0.00020588769,0.00020631266,0.70711,0.0,0.0,0.0,0.0,0
8488000,0,0.7071099,0.00020610288,0.00020652784,0.70711,0.0,0.0,0.0,0.0,0
8500000,0,0.7071099,0.00020642566,0.00020685061,0.70711,0.0,0.0,0.0,0.0,0
8508000,0,0.7071099,0.00020664083,0.0002070658,0.70711,0.0,0.0,0.0,0.0,0
8520000,0,0.7071099,0.00020696361,0.00020738857,0.70711,0.0,0.0,0.0,0.0,0
8528000,0,0.7071099,0.00020717879,0.00020760376,0.70711,0.0,0.0,0.0,0.0,0
8540000,0,0.7071099,0.00020750157,0.00020792654,0.70711,0.0,0.0,0.0,0.0,0
8548000,0,0.7071099,0.00020771676,0.00020814172,0.70711,0.0,0.0,0.0,0.0,0
8560000,0,0.7071099,0.00020803954,0.0002084645,0.70711,0.0,0.0,0.0,0.0,0
8568000,0,0.7071099,0.00020825471,0.00020867967,0.70711,0.0,0.0,0.0,0.0,0
8580000,0,0.7071099,0.00020857749,0.00020900245,0.70711,0.0,0.0,0.0,0.0,0
8588000,0,0.7071099,0.00020879267,0.00020921764,0.70711,0.0,0.0,0.0,0.0,0
8600000,0,0.7071099,0.00020911545,0.00020954042,0.70711,0.0,0.0,0.0,0.0,0
8608000,0,0.7071099,0.00020933064,0.0002097556,0.70711,0.0,0.0,0.0,0.0,0
8620000,0,0.7071099,0.00020965342,0.00021007837,0.70711,0.0,0.0,0.0,0.0,0
8628000,0,0.7071099,0.0002098686,0.00021029355,0.70711,0.0,0.0,0.0,0.0,0
8640000,0,0.7071099,0.00021019137,0.00021061633,0.70711,0.0,0.0,0.0,0.0,0
8648000,0,0.7071099,0.00021040655,0.00021083152,0.70711,0.0,0.0,0.0,0.0,0
8660000,0,0.7071099,0.00021072934,0.0002111543,0.70711,0.0,0.0,0.0,0.0,0
8668000,0,0.7071099,0.00021094452,0.00021136948,0.70711,0.0,0.0,0.0,0.0,0
8680000,0,0.7071099,0.0002112673,0.00021169226,0.70711,0.0,0.0,0.0,0.0,0
8688000,0,0.7071099,0.00021148247,0.00021190745,0.70711,0.0,0.0,0.0,0.0,0
8700000,0,0.7071099,0.00021180525,0.00021223022,0.70711,0.0,0.0,0.0,0.0,0
8708000,0,0.7071099,0.00021202044,0.0002124454,0.70711,0.0,0.0,0.0,0.0,0
8720000,0,0.7071099,0.00021234322,0.00021276818,0.70711,0.0,0.0,0.0,0.0,0
8728000,0,0.7071099,0.0002125584,0.00021298337,0.70711,0.0,0.0,0.0,0.0,0
8740000,0,0.7071099,0.00021288118,0.00021330615,0.70711,0.0,0.0,0.0,0.0,0
8748000,0,0.7071099,0.00021309637,0.00021352133,0.70711,0.0,0.0,0.0,0.0,0
8760000,0,0.7071099,0.00021341915,0.0002138441,0.70711,0.0,0.0,0.0,0.0,0
8768000,0,0.7071099,0.00021363432,0.0002140593,0.70711,0.0,0.0,0.0,0.0,0
8780000,0,0.7071099,0.0002139571,0.00021438207,0.70711,0.0,0.0,0.0,0.0,0
8788000,0,0.7071099,0.0002141723,0.00021459725,0.70711,0.0,0.0,0.0,0.0,0
8800000,0,0.7071099,0.00021449507,0.00021492003,0.70711,0.0,0.0,0.0,0.0,0
8808000,0,0.7071099,0.00021471025,0.00021513522,0.70711,0.0,0.0,0.0,0.0,0
8820000,0,0.7071099,0.00021503304,0.000215458,0.70711,0.0,0.0,0.0,0.0,0
8828000,0,0.7071099,0.00021524822,0.00021567318,0.70711,0.0,0.0,0.0,0.0,0
8840000,0,0.7071099,0.000215571,0.00021599595,0.70711,0.0,0.0,0.0,0.0,0
8848000,0,0.7071099,0.00021578619,0.00021621115,0.70711,0.0,0.0,0.0,0.0,0
8860000,0,0.7071099,0.00021610897,0.00021653392,0.70711,0.0,0.0,0.0,0.0,0
8868000,0,0.7071099,0.00021632414,0.0002167491,0.70711,0.0,0.0,0.0,0.0,0
8880000,0,0.7071099,0.00021664692,0.0002170719,0.70711,0.0,0.0,0.0,0.0,0
8888000,0,0.7071099,0.00021686211,0.00021728707,0.70711,0.0,0.0,0.0,0.0,0
8900000,0,0.7071099,0.00021718489,0.00021760985,0.70711,0.0,0.0,0.0,0.0,0
8908000,0,0.7071099,0.00021740007,0.00021782504,0.70711,0.0,0.0,0.0,0.0,0
8920000,0,0.7071099,0.00021772286,0.00021814782,0.70711,0.0,0.0,0.0,0.0,0
8928000,0,0.7071099,0.00021793804,0.000218363,0.70711,0.0,0.0,0.0,0.0,0
8940000,0,0.7071099,0.00021826082,0.00021868579,0.70711,0.0,0.0,0.0,0.0,0
8948000,0,0.7071099,0.00021847601,0.00021890097,0.70711,0.0,0.0,0.0,0.0,0
8960000,0,0.7071099,0.00021879878,0.00021922374,0.70711,0.0,0.0,0.0,0.0,0
8968000,0,0.7071099,0.00021901398,0.00021943894,0.70711,0.0,0.0,0.0,0.0,0
8980000,0,0.7071099,0.00021933675,0.00021976171,0.70711,0.0,0.0,0.0,0.0,0
8988000,0,0.7071099,0.00021955193,0.0002199769,0.70711,0.0,0.0,0.0,0.0,0
9000000,0,0.7071099,0.00021987471,0.00022029968,0.70711,0.0,0.0,0.0,0.0,0
9008000,0,0.7071099,0.0002200899,0.00022051486,0.70711,0.0,0.0,0.0,0.0,0
9020000,0,0.7071099,0.00022041268,0.00022083764,0.70711,0.0,0.0,0.0,0.0,0
9028000,0,0.7071099,0.00022062787,0.00022105283,0.70711,0.0,0.0,0.0,0.0,0
9040000,0,0.7071099,0.00022095065,0.00022137561,0.70711,0.0,0.0,0.0,0.0,0
9048000,0,0.7071099,0.00022116583,0.0002215908,0.70711,0.0,0.0,0.0,0.0,0
9060000,0,0.7071099,0.00022148862,0.00022191358,0.70711,0.0,0.0,0.0,0.0,0
9068000,0,0.7071099,0.0002217038,0.00022212876,0.70711,0.0,0.0,0.0,0.0,0
9080000,0,0.7071099,0.00022202659,0.00022245155,0.70711,0.0,0.0,0.0,0.0,0
9088000,0,0.7071099,0.00022224177,0.00022266673,0.70711,0.0,0.0,0.0,0.0,0
9100000,0,0.7071099,0.00022256454,0.0002229895,0.70711,0.0,0.0,0.0,0.0,0
9108000,0,0.7071099,0.00022277974,0.0002232047,0.70711,0.0,0.0,0.0,0.0,0
9120000,0,0.7071099,0.00022310251,0.00022352747,0.70711,0.0,0.0,0.0,0.0,0
9128000,0,0.7071099,0.00022331771,0.00022374267,0.70711,0.0,0.0,0.0,0.0,0
9140000,0,0.7071099,0.00022364048,0.00022406544,0.70711,0.0,0.0,0.0,0.0,0
9148000,0,0.7071099,0.00022385568,0.00022428064,0.70711,0.0,0.0,0.0,0.0,0
9160000,0,0.7071099,0.00022417845,0.00022460341,0.70711,0.0,0.0,0.0,0.0,0
9168000,0,0.7071099,0.00022439363,0.00022481859,0.70711,0.0,0.0,0.0,0.0,0
9180000,0,0.7071099,0.00022471642,0.00022514138,0.70711,0.0,0.0,0.0,0.0,0
9188000,0,0.7071099,0.0002249316,0.00022535656,0.70711,0.0,0.0,0.0,0.0,0
9200000,0,0.7071099,0.00022525439,0.00022567935,0.70711,0.0,0.0,0.0,0.0,0
9208000,0,0.7071099,0.00022546957,0.00022589453,0.70711,0.0,0.0,0.0,0.0,0
9220000,0,0.7071099,0.00022579236,0.00022621732,0.70711,0.0,0.0,0.0,0.0,0
9228000,0,0.7071099,0.00022600754,0.0002264325,0.70711,0.0,0.0,0.0,0.0,0
9240000,0,0.7071099,0.00022633032,0.00022675528,0.70711,0.0,0.0,0.0,0.0,0
9248000,0,0.7071099,0.00022654551,0.00022697047,0.70711,0.0,0.0,0.0,0.0,0
9260000,0,0.7071099,0.00022686829,0.00022729325,0.70711,0.0,0.0,0.0,0.0,0
9268000,0,0.7071099,0.00022708348,0.00022750844,0.70711,0.0,0.0,0.0,0.0,0
9280000,0,0.7071099,0.00022740626,0.00022783122,0.70711,0.0,0.0,0.0,0.0,0
9288000,0,0.7071099,0.00022762145,0.00022804641,0.70711,0.0,0.0,0.0,0.0,0
9300000,0,0.7071099,0.00022794423,0.00022836919,0.70711,0.0,0.0,0.0,0.0,0
9308000,0,0.7071099,0.00022815942,0.00022858438,0.70711,0.0,0.0,0.0,0.0,0
9320000,0,0.7071099,0.0002284822,0.00022890716,0.70711,0.0,0.0,0.0,0.0,0
9328000,0,0.7071099,0.00022869739,0.00022912235,0.70711,0.0,0.0,0.0,0.0,0
9340000,0,0.7071099,0.00022902017,0.00022944513,0.70711,0.0,0.0,0.0,0.0,0
9348000,0,0.7071099,0.00022923536,0.00022966032,0.70711,0.0,0.0,0.0,0.0,0
9360000,0,0.7071099,0.00022955814,0.0002299831,0.70711,0.0,0.0,0.0,0.0,0
9368000,0,0.7071099,0.00022977333,0.00023019829,0.70711,0.0,0.0,0.0,0.0,0
9380000,0,0.7071099,0.0002300961,0.00023052107,0.70711,0.0,0.0,0.0,0.0,0
9388000,0,0.7071099,0.0002303113,0.00023073626,0.70711,0.0,0.0,0.0,0.0,0
9400000,0,0.7071099,0.00023063409,0.00023105904,0.70711,0.0,0.0,0.0,0.0,0
9408000,0,0.7071099,0.00023084927,0.00023127423,0.70711,0.0,0.0,0.0,0.0,0
9420000,0,0.7071099,0.00023117206,0.000231597,0.70711,0.0,0.0,0.0,0.0,0
9428000,0,0.7071099,0.00023138724,0.0002318122,0.70711,0.0,0.0,0.0,0.0,0
9440000,0,0.7071099,0.00023171003,0.00023213499,0.70711,0.0,0.0,0.0,0.0,0
9448000,0,0.7071099,0.00023192521,0.00023235017,0.70711,0.0,0.0,0.0,0.0,0
9460000,0,0.7071099,0.000232248,0.00023267296,0.70711,0.0,0.0,0.0,0.0,0
9468000,0,0.7071099,0.00023246318,0.00023288814,0.70711,0.0,0.0,0.0,0.0,0
9480000,0,0.7071099,0.00023278597,0.00023321093,0.70711,0.0,0.0,0.0,0.0,0
9488000,0,0.7071099,0.00023300116,0.00023342611,0.70711,0.0,0.0,0.0,0.0,0
9500000,0,0.7071099,0.00023332394,0.0002337489,0.70711,0.0,0.0,0.0,0.0,0
9508000,0,0.7071099,0.00023353913,0.00023396409,0.70711,0.0,0.0,0.0,0.0,0
9520000,0,0.7071099,0.00023386191,0.00023428687,0.70711,0.0,0.0,0.0,0.0,0
9528000,0,0.7071099,0.0002340771,0.00023450206,0.70711,0.0,0.0,0.0,0.0,0
9540000,0,0.7071099,0.00023439988,0.00023482484,0.70711,0.0,0.0,0.0,0.0,0
9548000,0,0.7071099,0.00023461507,0.00023504003,0.70711,0.0,0.0,0.0,0.0,0
9560000,0,0.7071099,0.00023493786,0.00023536281,0.70711,0.0,0.0,0.0,0.0,0
9568000,0,0.7071099,0.00023515304,0.000235578,0.70711,0.0,0.0,0.0,0.0,0
9580000,0,0.7071099,0.00023547583,0.00023590079,0.70711,0.0,0.0,0.0,0.0,0
9588000,0,0.7071099,0.00023569103,0.00023611597,0.70711,0.0,0.0,0.0,0.0,0
9600000,0,0.7071099,0.0002360138,0.00023643876,0.70711,0.0,0.0,0.0,0.0,0
9608000,0,0.7071099,0.000236229,0.00023665396,0.70711,0.0,0.0,0.0,0.0,0
9620000,0,0.7071099,0.00023655177,0.00023697673,0.70711,0.0,0.0,0.0,0.0,0
9628000,0,0.7071099,0.00023676697,0.00023719193,0.70711,0.0,0.0,0.0,0.0,0
9640000,0,0.7071099,0.00023708976,0.0002375147,0.70711,0.0,0.0,0.0,0.0,0
9648000,0,0.7071099,0.00023730494,0.0002377299,0.70711,0.0,0.0,0.0,0.0,0
9660000,0,0.7071099,0.00023762773,0.00023805269,0.70711,0.0,0.0,0.0,0.0,0
9668000,0,0.7071099,0.00023784292,0.00023826786,0.70711,0.0,0.0,0.0,0.0,0
9680000,0,0.7071099,0.0002381657,0.00023859066,0.70711,0.0,0.0,0.0,0.0,0
9688000,0,0.7071099,0.00023838089,0.00023880585,0.70711,0.0,0.0,0.0,0.0,0
9700000,0,0.7071099,0.00023870368,0.00023912863,0.70711,0.0,0.0,0.0,0.0,0
9708000,0,0.7071099,0.00023891886,0.00023934382,0.70711,0.0,0.0,0.0,0.0,0
9720000,0,0.7071099,0.00023924165,0.00023966661,0.70711,0.0,0.0,0.0,0.0,0
9728000,0,0.7071099,0.00023945684,0.00023988179,0.70711,0.0,0.0,0.0,0.0,0
9740000,0,0.7071099,0.00023977962,0.00024020458,0.70711,0.0,0.0,0.0,0.0,0
9748000,0,0.7071099,0.00023999481,0.00024041977,0.70711,0.0,0.0,0.0,0.0,0
9760000,0,0.7071099,0.0002403176,0.00024074255,0.70711,0.0,0.0,0.0,0.0,0
9768000,0,0.7071099,0.00024053278,0.00024095774,0.70711,0.0,0.0,0.0,0.0,0
9780000,0,0.7071099,0.00024085557,0.00024128053,0.70711,0.0,0.0,0.0,0.0,0
9788000,0,0.7071099,0.00024107077,0.00024149571,0.70711,0.0,0.0,0.0,0.0,0
9800000,0,0.7071099,0.00024139354,0.0002418185,0.70711,0.0,0.0,0.0,0.0,0
9808000,0,0.7071099,0.00024160874,0.0002420337,0.70711,0.0,0.0,0.0,0.0,0
9820000,0,0.7071099,0.00024193153,0.00024235647,0.70711,0.0,0.0,0.0,0.0,0
9828000,0,0.7071099,0.00024214672,0.00024257167,0.70711,0.0,0.0,0.0,0.0,0
9840000,0,0.7071099,0.0002424695,0.00024289446,0.70711,0.0,0.0,0.0,0.0,0
9848000,0,0.7071099,0.00024268469,0.00024310965,0.70711,0.0,0.0,0.0,0.0,0
9860000,0,0.7071099,0.00024300748,0.00024343243,0.70711,0.0,0.0,0.0,0.0,0
9868000,0,0.7071099,0.00024322268,0.00024364762,0.70711,0.0,0.0,0.0,0.0,0
9880000,0,0.7071099,0.00024354545,0.00024397041,0.70711,0.0,0.0,0.0,0.0,0
9888000,0,0.7071099,0.00024376065,0.0002441856,0.70711,0.0,0.0,0.0,0.0,0
9900000,0,0.7071099,0.00024408344,0.00024450838,0.70711,0.0,0.0,0.0,0.0,0
9908000,0,0.7071099,0.00024429863,0.00024472357,0.70711,0.0,0.0,0.0,0.0,0
9920000,0,0.7071099,0.00024462142,0.00024504637,0.70711,0.0,0.0,0.0,0.0,0
9928000,0,0.7071099,0.0002448366,0.00024526156,0.70711,0.0,0.0,0.0,0.0,0
9940000,0,0.7071099,0.00024515938,0.00024558435,0.70711,0.0,0.0,0.0,0.0,0
9948000,0,0.7071099,0.00024537457,0.00024579954,0.70711,0.0,0.0,0.0,0.0,0
9960000,0,0.7071099,0.00024569736,0.0002461223,0.70711,0.0,0.0,0.0,0.0,0
9968000,0,0.7071099,0.00024591255,0.0002463375,0.70711,0.0,0.0,0.0,0.0,0
9980000,0,0.7071099,0.00024623534,0.0002466603,0.70711,0.0,0.0,0.0,0.0,0
9988000,0,0.7071099,0.00024645054,0.00024687548,0.70711,0.0,0.0,0.0,0.0,0
10000000,0,0.7071099,0.00024677333,0.00024719827,0.70711,0.0,0.0,0.0,0.0,0
10008000,0,0.7071099,0.00024698852,0.00024741347,0.70711,0.0,0.0,0.0,0.0,0
10020000,0,0.7071099,0.0002473113,0.00024773626,0.70711,0.0,0.0,0.0,0.0,0
10028000,0,0.7071099,0.00024752648,0.00024795145,0.70711,0.0,0.0,0.0,0.0,0
10040000,0,0.7071099,0.00024784927,0.00024827424,0.70711,0.0,0.0,0.0,0.0,0
10048000,0,0.7071099,0.00024806446,0.0002484894,0.70711,0.0,0.0,0.0,0.0,0
10060000,0,0.7071099,0.00024838725,0.0002488122,0.70711,0.0,0.0,0.0,0.0,0
10068000,0,0.7071099,0.00024860245,0.0002490274,0.70711,0.0,0.0,0.0,0.0,0
10080000,0,0.7071099,0.00024892524,0.00024935018,0.70711,0.0,0.0,0.0,0.0,0
10088000,0,0.7071099,0.00024914043,0.00024956538,0.70711,0.0,0.0,0.0,0.0,0
10100000,0,0.7071099,0.00024946322,0.00024988817,0.70711,0.0,0.0,0.0,0.0,0
10108000,0,0.7071099,0.0002496784,0.00025010336,0.70711,0.0,0.0,0.0,0.0,0
10120000,0,0.7071099,0.0002500012,0.00025042615,0.70711,0.0,0.0,0.0,0.0,0
10128000,0,0.7071099,0.0002502164,0.00025064134,0.70711,0.0,0.0,0.0,0.0,0
10140000,0,0.7071099,0.00025053916,0.00025096413,0.70711,0.0,0.0,0.0,0.0,0
10148000,0,0.7071099,0.00025075435,0.00025117933,0.70711,0.0,0.0,0.0,0.0,0
10160000,0,0.7071099,0.00025107714,0.00025150212,0.70711,0.0,0.0,0.0,0.0,0
10168000,0,0.7071099,0.00025129234,0.00025171728,0.70711,0.0,0.0,0.0,0.0,0
10180000,0,0.7071099,0.00025161513,0.00025204007,0.70711,0.0,0.0,0.0,0.0,0
10188000,0,0.7071099,0.00025183032,0.00025225527,0.70711,0.0,0.0,0.0,0.0,0
10200000,0,0.7071099,0.0002521531,0.00025257806,0.70711,0.0,0.0,0.0,0.0,0
10208000,0,0.7071099,0.0002523683,0.00025279325,0.70711,0.0,0.0,0.0,0.0,0
10220000,0,0.7071099,0.0002526911,0.00025311604,0.70711,0.0,0.0,0.0,0.0,0
10228000,0,0.7071099,0.0002529063,0.00025333124,0.70711,0.0,0.0,0.0,0.0,0
10240000,0,0.7071099,0.00025322908,0.00025365403,0.70711,0.0,0.0,0.0,0.0,0
10248000,0,0.7071099,0.00025344428,0.00025386922,0.70711,0.0,0.0,0.0,0.0,0
10260000,0,0.7071099,0.00025376707,0.000254192,0.70711,0.0,0.0,0.0,0.0,0
10268000,0,0.7071099,0.00025398226,0.0002544072,0.70711,0.0,0.0,0.0,0.0,0
10276000,0,0.7071099,0.00025419745,0.0002546224,0.70711,0.0,0.0,0.0,0.0,0
10288000,0,0.7071099,0.00025452024,0.0002549452,0.70711,0.0,0.0,0.0,0.0,0
10300000,0,0.7071099,0.00025484303,0.00025526798,0.70711,0.0,0.0,0.0,0.0,0
10308000,0,0.7071099,0.00025505823,0.00025548317,0.70711,0.0,0.0,0.0,0.0,0
10320000,0,0.7071099,0.000255381,0.00025580596,0.70711,0.0,0.0,0.0,0.0,0
10328000,0,0.7071099,0.00025559618,0.00025602116,0.70711,0.0,0.0,0.0,0.0,0
10340000,0,0.7071099,0.00025591897,0.00025634395,0.70711,0.0,0.0,0.0,0.0,0
10348000,0,0.7071099,0.00025613417,0.00025655914,0.70711,0.0,0.0,0.0,0.0,0
10360000,0,0.7071099,0.00025645696,0.00025688193,0.70711,0.0,0.0,0.0,0.0,0
10368000,0,0.7071099,0.00025667215,0.0002570971,0.70711,0.0,0.0,0.0,0.0,0
10380000,0,0.7071099,0.00025699494,0.0002574199,0.70711,0.0,0.0,0.0,0.0,0
10388000,0,0.7071099,0.00025721014,0.00025763508,0.70711,0.0,0.0,0.0,0.0,0
10400000,0,0.7071099,0.00025753293,0.00025795787,0.70711,0.0,0.0,0.0,0.0,0
10408000,0,0.7071099,0.00025774812,0.00025817307,0.70711,0.0,0.0,0.0,0.0,0
10420000,0,0.7071099,0.0002580709,0.00025849586,0.70711,0.0,0.0,0.0,0.0,0
10428000,0,0.7071099,0.0002582861,0.00025871105,0.70711,0.0,0.0,0.0,0.0,0
10440000,0,0.7071099,0.0002586089,0.00025903384,0.70711,0.0,0.0,0.0,0.0,0
10448000,0,0.7071099,0.0002588241,0.00025924903,0.70711,0.0,0.0,0.0,0.0,0
10460000,0,0.7071099,0.00025914688,0.00025957183,0.70711,0.0,0.0,0.0,0.0,0
10468000,0,0.7071099,0.00025936207,0.00025978702,0.70711,0.0,0.0,0.0,0.0,0
10480000,0,0.7071099,0.00025968486,0.0002601098,0.70711,0.0,0.0,0.0,0.0,0
10488000,0,0.7071099,0.00025990006,0.000260325,0.70711,0.0,0.0,0.0,0.0,0
10500000,0,0.7071099,0.00026022285,0.0002606478,0.70711,0.0,0.0,0.0,0.0,0
10508000,0,0.7071099,0.00026043804,0.000260863,0.70711,0.0,0.0,0.0,0.0,0
10520000,0,0.7071099,0.00026076083,0.00026118578,0.70711,0.0,0.0,0.0,0.0,0
10528000,0,0.7071099,0.00026097603,0.00026140097,0.70711,0.0,0.0,0.0,0.0,0
10540000,0,0.7071099,0.00026129882,0.00026172376,0.70711,0.0,0.0,0.0,0.0,0
10548000,0,0.7071099,0.000261514,0.00026193896,0.70711,0.0,0.0,0.0,0.0,0
10560000,0,0.7071099,0.0002618368,0.00026226175,0.70711,0.0,0.0,0.0,0.0,0
10568000,0,0.7071099,0.000262052,0.00026247694,0.70711,0.0,0.0,0.0,0.0,0
10580000,0,0.7071099,0.0002623748,0.00026279973,0.70711,0.0,0.0,0.0,0.0,0
10588000,0,0.7071099,0.00026258998,0.00026301492,0.70711,0.0,0.0,0.0,0.0,0
10600000,0,0.7071099,0.00026291277,0.00026333772,0.70711,0.0,0.0,0.0,0.0,0
10608000,0,0.7071099,0.00026312796,0.0002635529,0.70711,0.0,0.0,0.0,0.0,0
10620000,0,0.7071099,0.00026345075,0.0002638757,0.70711,0.0,0.0,0.0,0.0,0
10628000,0,0.7071099,0.00026366595,0.0002640909,0.70711,0.0,0.0,0.0,0.0,0
10640000,0,0.7071099,0.00026398874,0.0002644137,0.70711,0.0,0.0,0.0,0.0,0
10648000,0,0.7071099,0.00026420393,0.0002646289,0.70711,0.0,0.0,0.0,0.0,0
10660000,0,0.7071099,0.00026452675,0.0002649517,0.70711,0.0,0.0,0.0,0.0,0
10668000,0,0.7071099,0.00026474195,0.0002651669,0.70711,0.0,0.0,0.0,0.0,0
10680000,0,0.7071099,0.00026506474,0.00026548968,0.70711,0.0,0.0,0.0,0.0,0
10688000,0,0.7071099,0.00026527993,0.00026570488,0.70711,0.0,0.0,0.0,0.0,0
10700000,0,0.7071099,0.00026560272,0.00026602767,0.70711,0.0,0.0,0.0,0.0,0
10708000,0,0.7071099,0.00026581791,0.00026624286,0.70711,0.0,0.0,0.0,0.0,0
10720000,0,0.7071099,0.0002661407,0.00026656565,0.70711,0.0,0.0,0.0,0.0,0
10728000,0,0.7071099,0.0002663559,0.00026678084,0.70711,0.0,0.0,0.0,0.0,0
10740000,0,0.7071099,0.0002666787,0.00026710363,0.70711,0.0,0.0,0.0,0.0,0
10748000,0,0.7071099,0.00026689388,0.00026731883,0.70711,0.0,0.0,0.0,0.0,0
10760000,0,0.7071099,0.00026721667,0.00026764162,0.70711,0.0,0.0,0.0,0.0,0
10768000,0,0.7071099,0.00026743187,0.0002678568,0.70711,0.0,0.0,0.0,0.0,0
10780000,0,0.7071099,0.00026775466,0.0002681796,0.70711,0.0,0.0,0.0,0.0,0
10788000,0,0.7071099,0.00026796985,0.0002683948,0.70711,0.0,0.0,0.0,0.0,0
10800000,0,0.7071099,0.00026829264,0.0002687176,0.70711,0.0,0.0,0.0,0.0,0
10808000,0,0.7071099,0.00026850784,0.00026893278,0.70711,0.0,0.0,0.0,0.0,0
10820000,0,0.7071099,0.00026883063,0.00026925557,0.70711,0.0,0.0,0.0,0.0,0
10828000,0,0.7071099,0.00026904582,0.00026947077,0.70711,0.0,0.0,0.0,0.0,0
10840000,0,0.7071099,0.00026936864,0.00026979359,0.70711,0.0,0.0,0.0,0.0,0
10848000,0,0.7071099,0.00026958383,0.00027000878,0.70711,0.0,0.0,0.0,0.0,0
10860000,0,0.7071099,0.00026990662,0.00027033157,0.70711,0.0,0.0,0.0,0.0,0
10868000,0,0.7071099,0.00027012182,0.00027054676,0.70711,0.0,0.0,0.0,0.0,0
10880000,0,0.7071099,0.0002704446,0.00027086955,0.70711,0.0,0.0,0.0,0.0,0
10888000,0,0.7071099,0.0002706598,0.00027108475,0.70711,0.0,0.0,0.0,0.0,0
10900000,0,0.7071099,0.0002709826,0.00027140754,0.70711,0.0,0.0,0.0,0.0,0
10908000,0,0.7071099,0.0002711978,0.00027162273,0.70711,0.0,0.0,0.0,0.0,0
10920000,0,0.7071099,0.00027152058,0.00027194552,0.70711,0.0,0.0,0.0,0.0,0
10928000,0,0.7071099,0.00027173577,0.00027216072,0.70711,0.0,0.0,0.0,0.0,0
10940000,0,0.7071099,0.00027205856,0.0002724835,0.70711,0.0,0.0,0.0,0.0,0
10948000,0,0.7071099,0.00027227376,0.0002726987,0.70711,0.0,0.0,0.0,0.0,0
10960000,0,0.7071099,0.00027259658,0.00027302152,0.70711,0.0,0.0,0.0,0.0,0
10968000,0,0.7071099,0.00027281177,0.0002732367,0.70711,0.0,0.0,0.0,0.0,0
10980000,0,0.7071099,0.00027313456,0.0002735595,0.70711,0.0,0.0,0.0,0.0,0
10988000,0,0.7071099,0.00027334975,0.0002737747,0.70711,0.0,0.0,0.0,0.0,0
11000000,0,0.7071099,0.00027367254,0.0002740975,0.70711,0.0,0.0,0.0,0.0,0
11008000,0,0.7071099,0.00027388774,0.00027431268,0.70711,0.0,0.0,0.0,0.0,0
11020000,0,0.7071099,0.00027421053,0.00027463547,0.70711,0.0,0.0,0.0,0.0,0
11028000,0,0.7071099,0.00027442572,0.00027485067,0.70711,0.0,0.0,0.0,0.0,0
11040000,0,0.7071099,0.0002747485,0.00027517346,0.70711,0.0,0.0,0.0,0.0,0
11048000,0,0.7071099,0.00027496374,0.00027538868,0.70711,0.0,0.0,0.0,0.0,0
11060000,0,0.7071099,0.00027528653,0.00027571147,0.70711,0.0,0.0,0.0,0.0,0
11068000,0,0.7071099,0.00027550172,0.00027592666,0.70711,0.0,0.0,0.0,0.0,0
11080000,0,0.7071099,0.0002758245,0.00027624946,0.70711,0.0,0.0,0.0,0.0,0
11088000,0,0.7071099,0.0002760397,0.00027646465,0.70711,0.0,0.0,0.0,0.0,0
11100000,0,0.7071099,0.0002763625,0.00027678744,0.70711,0.0,0.0,0.0,0.0,0
11108000,0,0.7071099,0.0002765777,0.00027700263,0.70711,0.0,0.0,0.0,0.0,0
11120000,0,0.7071099,0.00027690048,0.00027732542,0.70711,0.0,0.0,0.0,0.0,0
11128000,0,0.7071099,0.0002771157,0.00027754065,0.70711,0.0,0.0,0.0,0.0,0
11140000,0,0.7071099,0.0002774385,0.00027786344,0.70711,0.0,0.0,0.0,0.0,0
11148000,0,0.7071099,0.0002776537,0.00027807863,0.70711,0.0,0.0,0.0,0.0,0
11160000,0,0.7071099,0.00027797648,0.00027840142,0.70711,0.0,0.0,0.0,0.0,0
11168000,0,0.7071099,0.00027819167,0.00027861662,0.70711,0.0,0.0,0.0,0.0,0
11180000,0,0.7071099,0.00027851446,0.0002789394,0.70711,0.0,0.0,0.0,0.0,0
11188000,0,0.7071099,0.00027872965,0.0002791546,0.70711,0.0,0.0,0.0,0.0,0
11200000,0,0.7071099,0.00027905247,0.00027947742,0.70711,0.0,0.0,0.0,0.0,0
11208000,0,0.7071099,0.00027926767,0.0002796926,0.70711,0.0,0.0,0.0,0.0,0
11220000,0,0.7071099,0.00027959046,0.0002800154,0.70711,0.0,0.0,0.0,0.0,0
11228000,0,0.7071099,0.00027980565,0.0002802306,0.70711,0.0,0.0,0.0,0.0,0
11240000,0,0.7071099,0.00028012844,0.0002805534,0.70711,0.0,0.0,0.0,0.0,0
11248000,0,0.7071099,0.00028034364,0.00028076858,0.70711,0.0,0.0,0.0,0.0,0
11260000,0,0.7071099,0.00028066646,0.00028109137,0.70711,0.0,0.0,0.0,0.0,0
11268000,0,0.7071099,0.00028088165,0.0002813066,0.70711,0.0,0.0,0.0,0.0,0
11280000,0,0.7071099,0.00028120444,0.00028162939,0.70711,0.0,0.0,0.0,0.0,0
11288000,0,0.70710987,0.00028141963,0.00028184458,0.70711,0.0,0.0,0.0,0.0,0
11300000,0,0.70710987,0.00028174242,0.00028216737,0.70711,0.0,0.0,0.0,0.0,0
11308000,0,0.70710987,0.00028195762,0.00028238256,0.70711,0.0,0.0,0.0,0.0,0
11320000,0,0.70710987,0.00028228044,0.00028270535,0.70711,0.0,0.0,0.0,0.0,0
11328000,0,0.70710987,0.00028249563,0.00028292058,0.70711,0.0,0.0,0.0,0.0,0
11340000,0,0.70710987,0.00028281842,0.00028324337,0.70711,0.0,0.0,0.0,0.0,0
11348000,0,0.70710987,0.00028303362,0.00028345856,0.70711,0.0,0.0,0.0,0.0,0
11360000,0,0.70710987,0.0002833564,0.00028378135,0.70711,0.0,0.0,0.0,0.0,0
11368000,0,0.70710987,0.0002835716,0.00028399655,0.70711,0.0,0.0,0.0,0.0,0
11380000,0,0.70710987,0.00028389442,0.00028431937,0.70711,0.0,0.0,0.0,0.0,0
11388000,0,0.70710987,0.0002841096,0.00028453456,0.70711,0.0,0.0,0.0,0.0,0
11400000,0,0.70710987,0.0002844324,0.00028485735,0.70711,0.0,0.0,0.0,0.0,0
11408000,0,0.70710987,0.0002846476,0.00028507254,0.70711,0.0,0.0,0.0,0.0,0
11420000,0,0.70710987,0.0002849704,0.00028539533,0.70711,0.0,0.0,0.0,0.0,0
11428000,0,0.70710987,0.0002851856,0.00028561053,0.70711,0.0,0.0,0.0,0.0,0
11440000,0,0.70710987,0.0002855084,0.00028593335,0.70711,0.0,0.0,0.0,0.0,0
11448000,0,0.70710987,0.0002857236,0.00028614854,0.70711,0.0,0.0,0.0,0.0,0
11460000,0,0.70710987,0.0002860464,0.00028647133,0.70711,0.0,0.0,0.0,0.0,0
11468000,0,0.70710987,0.00028626158,0.00028668653,0.70711,0.0,0.0,0.0,0.0,0
11480000,0,0.70710987,0.0002865844,0.00028700934,0.70711,0.0,0.0,0.0,0.0,0
11488000,0,0.70710987,0.0002867996,0.00028722454,0.70711,0.0,0.0,0.0,0.0,0
11500000,0,0.70710987,0.00028712238,0.00028754733,0.70711,0.0,0.0,0.0,0.0,0
11508000,0,0.70710987,0.00028733758,0.00028776252,0.70711,0.0,0.0,0.0,0.0,0
11520000,0,0.70710987,0.0002876604,0.0002880853,0.70711,0.0,0.0,0.0,0.0,0
11528000,0,0.70710987,0.0002878756,0.00028830054,0.70711,0.0,0.0,0.0,0.0,0
11540000,0,0.70710987,0.00028819838,0.00028862333,0.70711,0.0,0.0,0.0,0.0,0
11548000,0,0.70710987,0.00028841358,0.00028883852,0.70711,0.0,0.0,0.0,0.0,0
11560000,0,0.70710987,0.00028873637,0.0002891613,0.70711,0.0,0.0,0.0,0.0,0
11568000,0,0.70710987,0.0002889516,0.0002893765,0.70711,0.0,0.0,0.0,0.0,0
11580000,0,0.70710987,0.00028927438,0.00028969932,0.70711,0.0,0.0,0.0,0.0,0
11588000,0,0.70710987,0.00028948957,0.00028991452,0.70711,0.0,0.0,0.0,0.0,0
11600000,0,0.70710987,0.00028981236,0.0002902373,0.70711,0.0,0.0,0.0,0.0,0
11608000,0,0.70710987,0.0002900276,0.0002904525,0.70711,0.0,0.0,0.0,0.0,0
