timestamp,timestamp_sample,q[0],q[1],q[2],q[3],delta_q_reset[0],delta_q_reset[1],delta_q_reset[2],delta_q_reset[3],quat_reset_counter
4128000,4128000,0.99986255,-0.010703209,-0.012668666,-0.00010643117,1.0,0.0,0.0,0.0,0
4420000,4420000,0.9998867,-0.009739201,-0.011486539,-0.00013574176,1.0,0.0,0.0,0.0,0
4920000,4920000,0.9998849,-0.010093165,-0.011328705,-2.384871e-05,1.0,0.0,0.0,0.0,0
5420000,5420000,0.9998977,-0.009257872,-0.010902794,-0.00019578962,1.0,0.0,0.0,0.0,0
5920000,5920000,0.99990237,-0.009131048,-0.010575161,-0.00014348648,1.0,0.0,0.0,0.0,0
6420000,6420000,0.99990374,-0.009165567,-0.010422723,-0.00017755388,1.0,0.0,0.0,0.0,0
6920000,6920000,0.9999063,-0.008851426,-0.010452032,-0.00013578543,1.0,0.0,0.0,0.0,0
7420000,7420000,0.99990565,-0.008826976,-0.010523575,-0.0002630502,1.0,0.0,0.0,0.0,0
7920000,7920000,0.9999039,-0.009036331,-0.010508616,-0.0003634058,1.0,0.0,0.0,0.0,0
8420000,8420000,0.99990577,-0.009033355,-0.010339042,-0.0004398146,1.0,0.0,0.0,0.0,0
8920000,8920000,0.9999075,-0.008890069,-0.010284608,-0.00045089773,1.0,0.0,0.0,0.0,0
9420000,9420000,0.9999085,-0.008901968,-0.010173565,-0.00050081586,1.0,0.0,0.0,0.0,0
9920000,9920000,0.9999111,-0.008902379,-0.009922189,-0.00037409915,1.0,0.0,0.0,0.0,0
10420000,10420000,0.9999119,-0.008922315,-0.009817738,-0.0004419742,1.0,0.0,0.0,0.0,0
10920000,10920000,0.99991375,-0.008855032,-0.00968708,-0.0005036054,1.0,0.0,0.0,0.0,0
11420000,11420000,0.99991554,-0.008710078,-0.009636679,-0.00049536926,1.0,0.0,0.0,0.0,0
11920000,11920000,0.9999169,-0.008574627,-0.00962038,-0.00042669868,1.0,0.0,0.0,0.0,0
12420000,12420000,0.99991935,-0.00833929,-0.0095644025,-0.00046836297,1.0,0.0,0.0,0.0,0
12920000,12920000,0.99991864,-0.008295782,-0.009683879,-0.00043565754,1.0,0.0,0.0,0.0,0
13420000,13420000,0.9999196,-0.008271523,-0.009603303,-0.00040572442,1.0,0.0,0.0,0.0,0
13920000,13920000,0.9999195,-0.008350247,-0.00954954,-0.0003713527,1.0,0.0,0.0,0.0,0
14420000,14420000,0.9999207,-0.00837312,-0.009400727,-0.00035253906,1.0,0.0,0.0,0.0,0
14920000,14920000,0.9999236,-0.008296319,-0.00916515,-0.00038697105,1.0,0.0,0.0,0.0,0
15420000,15420000,0.9999256,-0.008196873,-0.009034341,-0.00035628764,1.0,0.0,0.0,0.0,0
15920000,15920000,0.9999287,-0.008121108,-0.00874562,-0.0002631789,1.0,0.0,0.0,0.0,0
16420000,16420000,0.9999303,-0.008167673,-0.008519974,-0.00027373084,1.0,0.0,0.0,0.0,0
16920000,16920000,0.9999311,-0.008123472,-0.008472493,-0.00022604337,1.0,0.0,0.0,0.0,0
17420000,17420000,0.99993193,-0.008087315,-0.008419917,-0.00011444529,1.0,0.0,0.0,0.0,0
17920000,17920000,0.99993414,-0.007896528,-0.008327751,-0.00017136589,1.0,0.0,0.0,0.0,0
18420000,18420000,0.9999355,-0.007834214,-0.008231811,-8.275181e-05,1.0,0.0,0.0,0.0,0
18920000,18920000,0.9999371,-0.007791168,-0.00807014,-2.1675181e-05,1.0,0.0,0.0,0.0,0
19420000,19420000,0.99993944,-0.0076901065,-0.007871805,-0.00012893757,1.0,0.0,0.0,0.0,0
19920000,19920000,0.9999408,-0.007596208,-0.0077908253,-0.00014423077,1.0,0.0,0.0,0.0,0
20420000,20420000,0.99994373,-0.0073870425,-0.007622006,6.0489756e-06,1.0,0.0,0.0,0.0,0
20916000,20916000,0.9999445,-0.0073125334,-0.007590254,5.7891222e-05,1.0,0.0,0.0,0.0,0
21420000,21420000,0.999945,-0.007325512,-0.0075153494,0.000104148465,1.0,0.0,0.0,0.0,0
21920000,21920000,0.9999426,-0.0074104955,-0.007741021,3.771806e-05,1.0,0.0,0.0,0.0,0
22420000,22420000,0.9999423,-0.0073698233,-0.007825091,-4.87632e-05,1.0,0.0,0.0,0.0,0
22920000,22920000,0.9999423,-0.0073585566,-0.007827388,-1.3758268e-05,1.0,0.0,0.0,0.0,0
23420000,23420000,0.9999421,-0.0073427334,-0.007861761,-4.383535e-05,1.0,0.0,0.0,0.0,0
23920000,23920000,0.99994344,-0.0072827367,-0.0077583576,-3.150897e-05,1.0,0.0,0.0,0.0,0
24420000,24420000,0.9999451,-0.0072374586,-0.007582973,-5.6081208e-05,1.0,0.0,0.0,0.0,0
24920000,24920000,0.9999455,-0.007160722,-0.007598394,-3.984797e-05,1.0,0.0,0.0,0.0,0
25420000,25420000,0.9999448,-0.007095326,-0.0077506215,6.901939e-05,1.0,0.0,0.0,0.0,0
25920000,25920000,0.99994403,-0.007023713,-0.007916662,0.00018130318,1.0,0.0,0.0,0.0,0
26420000,26420000,0.99994385,-0.0070442264,-0.007921695,0.00014235477,1.0,0.0,0.0,0.0,0
26920000,26920000,0.9999435,-0.007114985,-0.007911717,6.2874286e-05,1.0,0.0,0.0,0.0,0
27420000,27420000,0.9999427,-0.007168528,-0.007961221,7.397014e-05,1.0,0.0,0.0,0.0,0
27920000,27920000,0.99994105,-0.0072555006,-0.008085918,0.00011267037,1.0,0.0,0.0,0.0,0
28420000,28420000,0.99993944,-0.007394928,-0.008158285,0.0001686026,1.0,0.0,0.0,0.0,0
28920000,28920000,0.9999379,-0.0074870465,-0.008257473,0.0001854309,1.0,0.0,0.0,0.0,0
29420000,29420000,0.99993587,-0.0076103066,-0.008387292,0.00012926226,1.0,0.0,0.0,0.0,0
29920000,29920000,0.99993426,-0.0076716556,-0.008527884,0.000121882134,1.0,0.0,0.0,0.0,0
30420000,30420000,0.99993324,-0.0077245063,-0.008592811,0.00024961986,1.0,0.0,0.0,0.0,0
30920000,30920000,0.99993306,-0.007648848,-0.008679388,0.00024577786,1.0,0.0,0.0,0.0,0
31420000,31420000,0.99993247,-0.0076118414,-0.008790492,0.00026210948,1.0,0.0,0.0,0.0,0
31920000,31920000,0.999933,-0.0075266534,-0.008802464,0.00011157961,1.0,0.0,0.0,0.0,0
32420000,32420000,0.9999324,-0.0074342815,-0.008947029,0.00016894023,1.0,0.0,0.0,0.0,0
32920000,32920000,0.99993217,-0.00748721,-0.008926014,0.00024240772,1.0,0.0,0.0,0.0,0
33420000,33420000,0.9999317,-0.0075554866,-0.00891472,0.0002665761,1.0,0.0,0.0,0.0,0
33920000,33920000,0.9999311,-0.007609686,-0.008935019,0.00032518368,1.0,0.0,0.0,0.0,0
34420000,34420000,0.9999324,-0.007659883,-0.008746493,0.00033683947,1.0,0.0,0.0,0.0,0
34920000,34920000,0.99996126,0.001311629,-0.008690548,0.0004797352,1.0,0.0,0.0,0.0,0
35420000,35420000,0.9999581,0.00801734,-0.0026584622,0.003553258,1.0,0.0,0.0,0.0,0
35920000,35920000,0.99981564,-0.016099785,-0.009968757,0.0031834084,1.0,0.0,0.0,0.0,0
36420000,36420000,0.99973494,-0.020393215,-0.010356992,0.002656478,1.0,0.0,0.0,0.0,0
36920000,36920000,0.99975884,-0.01906477,-0.010641912,0.0023565595,1.0,0.0,0.0,0.0,0
37420000,37420000,0.9998298,-0.015032194,-0.010467685,0.002222332,1.0,0.0,0.0,0.0,0
37920000,37920000,0.9998901,-0.011001184,-0.009695854,0.002223036,1.0,0.0,0.0,0.0,0
38420000,38420000,0.99994075,-0.008568439,-0.0063659884,0.0021267803,1.0,0.0,0.0,0.0,0
38920000,38920000,0.99992144,-0.009972851,-0.0071930145,0.0024543712,1.0,0.0,0.0,0.0,0
39420000,39420000,0.9999303,-0.008023714,-0.008096244,0.0030867285,1.0,0.0,0.0,0.0,0
39920000,39920000,0.9999378,-0.0072294935,-0.008041006,0.0027492784,1.0,0.0,0.0,0.0,0
40420000,40420000,0.99993515,-0.0064437166,-0.008997983,0.0026950233,1.0,0.0,0.0,0.0,0
40920000,40920000,0.9999224,-0.007345819,-0.0096721845,0.0028047396,1.0,0.0,0.0,0.0,0
41420000,41420000,0.999916,-0.0072746524,-0.010263167,0.0031234887,1.0,0.0,0.0,0.0,0
41920000,41920000,0.999916,-0.008071776,-0.0096027125,0.0032594986,1.0,0.0,0.0,0.0,0
42420000,42420000,0.9999221,-0.008264741,-0.008797407,0.0031957154,1.0,0.0,0.0,0.0,0
42920000,42920000,0.99991256,-0.008658904,-0.009470776,0.0031989105,1.0,0.0,0.0,0.0,0
43420000,43420000,0.99075854,-0.07139909,-0.060816213,-0.09798593,1.0,0.0,0.0,0.0,0
43920000,43920000,0.9215044,-0.14910892,-0.101867564,-0.3438305,1.0,0.0,0.0,0.0,0
44420000,44420000,0.83268356,-0.13057281,-0.1416368,-0.5191608,1.0,0.0,0.0,0.0,0
44920000,44920000,0.7635809,-0.08935992,-0.1712158,-0.61615276,1.0,0.0,0.0,0.0,0
45420000,45420000,0.8073917,-0.030856425,-0.12658358,-0.5754504,1.0,0.0,0.0,0.0,0
45920000,45920000,0.8225172,-0.02300747,-0.08352965,-0.5621022,1.0,0.0,0.0,0.0,0
46420000,46420000,0.82342666,-0.032215934,-0.09026503,-0.55926996,1.0,0.0,0.0,0.0,0
46920000,46920000,0.82321286,-0.0393347,-0.08812332,-0.559471,1.0,0.0,0.0,0.0,0
47420000,47420000,0.82225937,-0.046710465,-0.08675397,-0.5605188,1.0,0.0,0.0,0.0,0
47920000,47920000,0.82156193,-0.05060764,-0.082733236,-0.5618096,1.0,0.0,0.0,0.0,0
48420000,48420000,0.82071877,-0.054865792,-0.083853,-0.5624759,1.0,0.0,0.0,0.0,0
48920000,48920000,0.82063353,-0.05375454,-0.08293665,-0.5628434,1.0,0.0,0.0,0.0,0
49420000,49420000,0.82099444,-0.0501554,-0.0804275,-0.5630134,1.0,0.0,0.0,0.0,0
49920000,49920000,0.8213163,-0.047618553,-0.07987456,-0.5628427,1.0,0.0,0.0,0.0,0
50420000,50420000,0.8215303,-0.04662879,-0.08096134,-0.5624581,1.0,0.0,0.0,0.0,0
50920000,50920000,0.8216944,-0.045918696,-0.08117806,-0.56224555,1.0,0.0,0.0,0.0,0
51420000,51420000,0.82196754,-0.04483137,-0.08133536,-0.56191105,1.0,0.0,0.0,0.0,0
51920000,51920000,0.8222583,-0.044094358,-0.08016342,-0.56171244,1.0,0.0,0.0,0.0,0
52420000,52420000,0.8225255,-0.04457117,-0.07967501,-0.56135297,1.0,0.0,0.0,0.0,0
52920000,52920000,0.8226856,-0.04435592,-0.07877828,-0.56126195,1.0,0.0,0.0,0.0,0
53420000,53420000,0.82307863,-0.04367875,-0.07790671,-0.5608604,1.0,0.0,0.0,0.0,0
53920000,53920000,0.8233492,-0.042918622,-0.077197194,-0.5606199,1.0,0.0,0.0,0.0,0
54420000,54420000,0.8236814,-0.042090937,-0.07595555,-0.5603643,1.0,0.0,0.0,0.0,0
54920000,54920000,0.82385087,-0.042605586,-0.07433716,-0.56029326,1.0,0.0,0.0,0.0,0
55420000,55420000,0.82409114,-0.042690624,-0.07313762,-0.5600914,1.0,0.0,0.0,0.0,0
55920000,55920000,0.8243257,-0.042229276,-0.07358575,-0.55972236,1.0,0.0,0.0,0.0,0
56420000,56420000,0.82464904,-0.04281498,-0.07344961,-0.559219,1.0,0.0,0.0,0.0,0
56920000,56920000,0.8250536,-0.042897087,-0.07192772,-0.5588138,1.0,0.0,0.0,0.0,0
57420000,57420000,0.825534,-0.041379225,-0.07025304,-0.5584316,1.0,0.0,0.0,0.0,0
57920000,57920000,0.82613486,-0.04056758,-0.06940116,-0.5577087,1.0,0.0,0.0,0.0,0
58420000,58420000,0.8265369,-0.042234883,-0.0688465,-0.5570576,1.0,0.0,0.0,0.0,0
58920000,58920000,0.8266902,-0.043735035,-0.06954798,-0.55662715,1.0,0.0,0.0,0.0,0
59420000,59420000,0.8269986,-0.04481316,-0.06973759,-0.5560592,1.0,0.0,0.0,0.0,0
59920000,59920000,0.8274369,-0.044242557,-0.06828718,-0.55563265,1.0,0.0,0.0,0.0,0
60420000,60420000,0.82804257,-0.043289475,-0.067728005,-0.5548736,1.0,0.0,0.0,0.0,0
60920000,60920000,0.8283735,-0.044800147,-0.06783799,-0.55424577,1.0,0.0,0.0,0.0,0
61420000,61420000,0.8285519,-0.046648424,-0.06785787,-0.5538242,1.0,0.0,0.0,0.0,0
61920000,61920000,0.8284956,-0.047332685,-0.06794343,-0.55383974,1.0,0.0,0.0,0.0,0
62420000,62420000,0.831431,0.007907997,-0.00026721705,-0.55557173,1.0,0.0,0.0,0.0,0
62920000,62920000,0.83058715,0.0048934123,0.013129164,-0.5567123,1.0,0.0,0.0,0.0,0
63420000,63420000,0.82746506,0.0058538485,0.024241319,-0.5609632,1.0,0.0,0.0,0.0,0
63920000,63920000,0.8223791,0.0034054406,0.03343614,-0.56794643,1.0,0.0,0.0,0.0,0
64416000,64416000,0.81656635,0.007329305,0.023528218,-0.5767254,1.0,0.0,0.0,0.0,0
64920000,64920000,0.8952911,0.13200453,-0.00972859,-0.42536354,1.0,0.0,0.0,0.0,0
65420000,65420000,0.9752102,0.07438,-0.054393765,-0.20118147,1.0,0.0,0.0,0.0,0
65920000,65920000,0.9991383,0.026463209,-0.031937707,0.0015881269,1.0,0.0,0.0,0.0,0
66420000,66420000,0.97245103,0.03325992,-0.12140663,0.19619742,1.0,0.0,0.0,0.0,0
66920000,66920000,0.95528257,0.0043809917,-0.17658624,0.23713574,1.0,0.0,0.0,0.0,0
67420000,67420000,0.97166663,0.030545354,-0.12331102,0.19931212,1.0,0.0,0.0,0.0,0
67920000,67920000,0.97969025,-0.005797518,-0.05610664,0.19242033,1.0,0.0,0.0,0.0,0
68420000,68420000,0.97893876,0.0045365486,-0.072578825,0.19076365,1.0,0.0,0.0,0.0,0
68920000,68920000,0.97856236,0.0028985955,-0.07542761,0.19161941,1.0,0.0,0.0,0.0,0
69420000,69420000,0.9781808,-0.00028787053,-0.07731849,0.19283171,1.0,0.0,0.0,0.0,0
69920000,69920000,0.9778065,-0.0033835955,-0.07943651,0.19383746,1.0,0.0,0.0,0.0,0
70420000,70420000,0.97744894,-0.005428813,-0.08007703,0.19532496,1.0,0.0,0.0,0.0,0
70920000,70920000,0.9771657,-0.0080143055,-0.07847323,0.19729377,1.0,0.0,0.0,0.0,0
71420000,71420000,0.979845,-0.016737575,0.0036754445,0.199023,1.0,0.0,0.0,0.0,0
71920000,71920000,0.9792286,-0.026439335,0.005639543,0.20094913,1.0,0.0,0.0,0.0,0
72420000,72420000,0.97882193,-0.030252358,0.011755322,0.20212448,1.0,0.0,0.0,0.0,0
72920000,72920000,0.9780877,-0.03708014,0.018358225,0.20404029,1.0,0.0,0.0,0.0,0
73420000,73420000,0.9774594,-0.0302631,0.018112298,0.20815703,1.0,0.0,0.0,0.0,0
73920000,73920000,0.9553434,0.039807603,0.022581808,0.2919322,1.0,0.0,0.0,0.0,0
74420000,74420000,0.8504825,0.08922393,0.08281855,0.5117222,1.0,0.0,0.0,0.0,0
74920000,74920000,0.72907096,0.03125903,0.026020505,0.6832287,1.0,0.0,0.0,0.0,0
75420000,75420000,0.5777852,0.07426226,-0.019404333,0.81257176,1.0,0.0,0.0,0.0,0
75920000,75920000,0.47796854,0.11005796,-0.10392313,0.865236,1.0,0.0,0.0,0.0,0
76420000,76420000,0.52212644,0.10539506,-0.065820426,0.84376746,1.0,0.0,0.0,0.0,0
76920000,76920000,0.53480196,0.057610296,-0.019094175,0.842795,1.0,0.0,0.0,0.0,0
77420000,77420000,0.5368857,0.04692315,-0.026306862,0.84193826,1.0,0.0,0.0,0.0,0
77920000,77920000,0.5352978,0.049774364,-0.028840182,0.84270227,1.0,0.0,0.0,0.0,0
78420000,78420000,0.5335664,0.051223263,-0.031474568,0.8436187,1.0,0.0,0.0,0.0,0
78920000,78920000,0.532028,0.05168476,-0.033747032,0.8444739,1.0,0.0,0.0,0.0,0
79420000,79420000,0.53050905,0.052066837,-0.036382586,0.845296,1.0,0.0,0.0,0.0,0
79920000,79920000,0.5288615,0.05273191,-0.03796929,0.84621704,1.0,0.0,0.0,0.0,0
80420000,80420000,0.5271089,0.054096777,-0.039049283,0.84717464,1.0,0.0,0.0,0.0,0
80920000,80920000,0.525344,0.054854047,-0.041014154,0.8481289,1.0,0.0,0.0,0.0,0
81420000,81420000,0.5238019,0.05587194,-0.043020323,0.84891653,1.0,0.0,0.0,0.0,0
81920000,81920000,0.52186495,0.057071622,-0.0450578,0.8499233,1.0,0.0,0.0,0.0,0
82420000,82420000,0.5205167,0.056713957,-0.0465837,0.8506914,1.0,0.0,0.0,0.0,0
82920000,82920000,0.51895535,0.057560213,-0.048538134,0.85147893,1.0,0.0,0.0,0.0,0
83420000,83420000,0.5170375,0.05865445,-0.049761496,0.8524996,1.0,0.0,0.0,0.0,0
83920000,83920000,0.51718986,-0.0043164403,-0.0011280391,0.85585904,1.0,0.0,0.0,0.0,0
84420000,84420000,0.51479954,-0.016698224,-0.003487726,0.85714096,1.0,0.0,0.0,0.0,0
84920000,84920000,0.51455605,-0.026458852,-0.0013582996,0.8570474,1.0,0.0,0.0,0.0,0
85420000,85420000,0.5144199,-0.034335114,-0.001779427,0.85684896,1.0,0.0,0.0,0.0,0
85920000,85920000,0.51174706,-0.02860592,0.0042039314,0.8586495,1.0,0.0,0.0,0.0,0
86420000,86420000,0.43221658,0.018142315,0.061648417,0.89947724,1.0,0.0,0.0,0.0,0
86920000,86920000,0.19798078,0.022583917,0.12379512,0.97209483,1.0,0.0,0.0,0.0,0
87420000,87420000,-0.010177199,0.012709582,0.035948496,0.9992211,1.0,0.0,0.0,0.0,0
87920000,87920000,-0.20598188,0.09076018,0.03792628,0.9735994,1.0,0.0,0.0,0.0,0
88420000,88420000,-0.2884334,0.17015103,0.007087488,0.9422338,1.0,0.0,0.0,0.0,0
88916000,88916000,-0.24302176,0.1399538,0.028429514,0.9594505,1.0,0.0,0.0,0.0,0
89420000,89420000,-0.23667516,0.075252,0.027684033,0.9682746,1.0,0.0,0.0,0.0,0
89920000,89920000,-0.23460178,0.07587566,0.01156478,0.9690569,1.0,0.0,0.0,0.0,0
90420000,90420000,-0.23586793,0.07800502,0.011650937,0.96857935,1.0,0.0,0.0,0.0,0
90920000,90920000,-0.23753199,0.08151268,0.011564504,0.9678846,1.0,0.0,0.0,0.0,0
91420000,91420000,-0.23862734,0.08431326,0.009405388,0.96739846,1.0,0.0,0.0,0.0,0
91920000,91920000,-0.23907927,0.08668981,0.0066099176,0.9670999,1.0,0.0,0.0,0.0,0
92420000,92420000,-0.23963556,0.08824644,0.005488768,0.9668285,1.0,0.0,0.0,0.0,0
92920000,92920000,-0.24055022,0.07473676,0.00031777326,0.96775514,1.0,0.0,0.0,0.0,0
93420000,93420000,-0.24132732,0.009772328,-0.012250533,0.97031724,1.0,0.0,0.0,0.0,0
93920000,93920000,-0.23980498,0.005937941,-0.019973557,0.97059745,1.0,0.0,0.0,0.0,0
94420000,94420000,-0.23756966,0.00074926985,-0.024659092,0.9710572,1.0,0.0,0.0,0.0,0
94920000,94920000,-0.23504634,-0.0037400837,-0.03022569,0.9715069,1.0,0.0,0.0,0.0,0
95420000,95420000,-0.23678972,-0.0048845243,-0.022720568,0.97128296,1.0,0.0,0.0,0.0,0
95920000,95920000,-0.2415383,-0.007159012,-0.025514,0.9700295,1.0,0.0,0.0,0.0,0
96420000,96420000,-0.24133219,-0.010921677,-0.025729883,0.97004,1.0,0.0,0.0,0.0,0
96920000,96920000,-0.24233541,-0.015062478,-0.027174842,0.9696949,1.0,0.0,0.0,0.0,0
97420000,97420000,-0.24335845,-0.018219104,-0.029561669,0.9693147,1.0,0.0,0.0,0.0,0
97920000,97920000,-0.2463851,0.023427127,-0.016820973,0.9687428,1.0,0.0,0.0,0.0,0
98420000,98420000,-0.24790257,0.020803943,-0.018806525,0.968379,1.0,0.0,0.0,0.0,0
98920000,98920000,-0.24964571,0.021047343,-0.01803185,0.96794057,1.0,0.0,0.0,0.0,0
99420000,99420000,-0.25161225,0.0227255,-0.015353881,0.96743953,1.0,0.0,0.0,0.0,0
99920000,99920000,-0.2534798,0.024507886,-0.013197101,0.9669401,1.0,0.0,0.0,0.0,0
100420000,100420000,-0.2555218,0.026127378,-0.011208524,0.96638525,1.0,0.0,0.0,0.0,0
100920000,100920000,-0.25759274,0.028612876,-0.009970894,0.9657784,1.0,0.0,0.0,0.0,0
101420000,101420000,-0.25960633,0.030517224,-0.008414484,0.9651956,1.0,0.0,0.0,0.0,0
101920000,101920000,-0.26162162,0.032640345,-0.006313323,0.9645979,1.0,0.0,0.0,0.0,0
102420000,102420000,-0.26357955,0.035095982,-0.002905574,0.9639947,1.0,0.0,0.0,0.0,0
102920000,102920000,-0.26566574,0.037571102,-0.0011497253,0.9633322,1.0,0.0,0.0,0.0,0
103420000,103420000,-0.26767683,0.039505914,0.00142973,0.9626975,1.0,0.0,0.0,0.0,0
103920000,103920000,-0.26952398,0.040836904,0.002842865,0.9621233,1.0,0.0,0.0,0.0,0
104420000,104420000,-0.27126047,0.041898217,0.004591828,0.9615827,1.0,0.0,0.0,0.0,0
104920000,104920000,-0.2729917,0.04343787,0.005771126,0.96101797,1.0,0.0,0.0,0.0,0
105420000,105420000,-0.27463594,0.043093152,0.0076243742,0.9605519,1.0,0.0,0.0,0.0,0
105920000,105920000,-0.27631852,0.043205384,0.009269839,0.96004975,1.0,0.0,0.0,0.0,0
106420000,106420000,-0.27784988,0.044713005,0.010883183,0.95952165,1.0,0.0,0.0,0.0,0
106920000,106920000,-0.11356442,0.10915236,-0.061468273,0.98560166,1.0,0.0,0.0,0.0,0
107420000,107420000,0.13091986,0.15237017,-0.1081518,0.9736254,1.0,0.0,0.0,0.0,0
107920000,107920000,0.32021278,0.18446317,-0.079150595,0.925836,1.0,0.0,0.0,0.0,0
108420000,108420000,0.47164237,0.18354736,-0.004162158,0.8624654,1.0,0.0,0.0,0.0,0
108920000,108920000,0.45311394,0.10332503,0.020444475,0.8852083,1.0,0.0,0.0,0.0,0
109420000,109420000,0.42465207,0.10606865,0.008480945,0.8990819,1.0,0.0,0.0,0.0,0
109920000,109920000,0.41872913,0.10547044,0.0014539574,0.9019645,1.0,0.0,0.0,0.0,0
110420000,110420000,0.41593874,0.10451249,-9.3909424e-05,0.9033671,1.0,0.0,0.0,0.0,0
110920000,110920000,0.41304037,0.10424483,0.00037109986,0.90472674,1.0,0.0,0.0,0.0,0
111420000,111420000,0.41021323,0.103245445,0.0008372515,0.9061263,1.0,0.0,0.0,0.0,0
111920000,111920000,0.40706718,0.10401582,0.0023860175,0.9074533,1.0,0.0,0.0,0.0,0
112420000,112420000,0.40424523,0.10447178,0.00290455,0.90866005,1.0,0.0,0.0,0.0,0
112916000,112916000,0.4012834,0.10522861,0.0015825888,0.909888,1.0,0.0,0.0,0.0,0
113420000,113420000,0.39843974,0.105180696,0.0019515253,0.9111416,1.0,0.0,0.0,0.0,0
113920000,113920000,0.39564252,0.10386994,0.0017830259,0.9125103,1.0,0.0,0.0,0.0,0
114420000,114420000,0.3927552,0.10289999,0.0018787987,0.91386616,1.0,0.0,0.0,0.0,0
114920000,114920000,0.39009002,0.10182608,0.0011701917,0.91512835,1.0,0.0,0.0,0.0,0
115420000,115420000,0.38703242,0.07598821,0.010745659,0.91886693,1.0,0.0,0.0,0.0,0
115920000,115920000,0.3825978,0.020805279,0.0356918,0.92299086,1.0,0.0,0.0,0.0,0
116420000,116420000,0.3799332,0.007844011,0.037102856,0.9242362,1.0,0.0,0.0,0.0,0
116920000,116920000,0.3767897,-0.00277248,0.03665754,0.92556906,1.0,0.0,0.0,0.0,0
117420000,117420000,0.3742422,-0.006123948,0.03876425,0.92650026,1.0,0.0,0.0,0.0,0
117920000,117920000,0.3715385,-0.0045908224,0.040531684,0.92752105,1.0,0.0,0.0,0.0,0
118420000,118420000,0.44813085,-0.03262031,0.04445616,0.8922658,1.0,0.0,0.0,0.0,0
118920000,118920000,0.6512851,-0.061025016,0.042918183,0.75515676,1.0,0.0,0.0,0.0,0
119420000,119420000,0.7928155,-0.028963491,0.017287465,0.60852766,1.0,0.0,0.0,0.0,0
119920000,119920000,0.89701504,-0.01603695,0.023732001,0.4410711,1.0,0.0,0.0,0.0,0
120420000,120420000,0.9654877,-0.009802278,0.024504727,0.25910798,1.0,0.0,0.0,0.0,0
120920000,120920000,0.98827153,-0.003751876,0.025717655,0.1504793,1.0,0.0,0.0,0.0,0
121420000,121420000,0.97789,-0.0049606017,0.024080075,0.2076697,1.0,0.0,0.0,0.0,0
121920000,121920000,0.97364736,8.998637e-05,0.022739157,0.22692269,1.0,0.0,0.0,0.0,0
122420000,122420000,0.97274613,0.0025216772,0.019643385,0.23102538,1.0,0.0,0.0,0.0,0
122920000,122920000,0.9721219,0.005143943,0.017318767,0.2337792,1.0,0.0,0.0,0.0,0
123420000,123420000,0.9715657,0.0073098405,0.014013518,0.23624201,1.0,0.0,0.0,0.0,0
123920000,123920000,0.9710008,0.008156805,0.011861311,0.23864257,1.0,0.0,0.0,0.0,0
124420000,124420000,0.97038573,0.008985923,0.01084398,0.24114963,1.0,0.0,0.0,0.0,0
124920000,124920000,0.96978843,0.0100690415,0.009752894,0.24354441,1.0,0.0,0.0,0.0,0
125420000,125420000,0.96913254,0.011802854,0.008710913,0.24610369,1.0,0.0,0.0,0.0,0
125920000,125920000,0.96858215,0.01235757,0.007783846,0.24826467,1.0,0.0,0.0,0.0,0
126420000,126420000,0.9679572,0.013395571,0.007093786,0.25065744,1.0,0.0,0.0,0.0,0
126920000,126920000,0.9673786,0.014607804,0.006118614,0.25283954,1.0,0.0,0.0,0.0,0
127420000,127420000,0.966804,0.016332906,0.0056374646,0.25493407,1.0,0.0,0.0,0.0,0
127920000,127920000,0.9662145,0.018465139,0.004368805,0.25704005,1.0,0.0,0.0,0.0,0
128420000,128420000,0.9656685,0.019082233,0.0036918207,0.25904956,1.0,0.0,0.0,0.0,0
128920000,128920000,0.96516687,0.020661615,0.0024512364,0.26080665,1.0,0.0,0.0,0.0,0
129420000,129420000,0.96469635,0.02014374,0.0009867982,0.26259136,1.0,0.0,0.0,0.0,0
129920000,129920000,0.9642811,0.020094797,-0.0012962968,0.26411468,1.0,0.0,0.0,0.0,0
130420000,130420000,0.9638576,0.021130621,-0.0032066084,0.2655594,1.0,0.0,0.0,0.0,0
130920000,130920000,0.9635658,0.019251894,-0.0058619557,0.26671308,1.0,0.0,0.0,0.0,0
131420000,131420000,0.9632564,0.019287637,-0.0072400304,0.26779246,1.0,0.0,0.0,0.0,0
131920000,131920000,0.96297145,0.021541307,-0.006902231,0.26865286,1.0,0.0,0.0,0.0,0
132420000,132420000,0.962752,0.019996075,-0.008533433,0.26951045,1.0,0.0,0.0,0.0,0
132920000,132920000,0.96263283,0.019118164,-0.009335264,0.26997325,1.0,0.0,0.0,0.0,0
133420000,133420000,0.96252185,0.0188397,-0.011352278,0.2703108,1.0,0.0,0.0,0.0,0
133920000,133920000,0.9624665,0.02013587,-0.010076783,0.27046522,1.0,0.0,0.0,0.0,0
134420000,134420000,0.96242785,0.019190073,-0.011009302,0.27063516,1.0,0.0,0.0,0.0,0
134920000,134920000,0.962438,0.018513938,-0.012010172,0.2706032,1.0,0.0,0.0,0.0,0
135420000,135420000,0.9625106,0.018486416,-0.012813535,0.27030993,1.0,0.0,0.0,0.0,0
135920000,135920000,0.96256644,0.017322743,-0.0128784925,0.270185,1.0,0.0,0.0,0.0,0
136420000,136420000,0.96271205,0.014687284,-0.013344764,0.26979932,1.0,0.0,0.0,0.0,0
136920000,136920000,0.96277446,0.014173203,-0.014929372,0.26952094,1.0,0.0,0.0,0.0,0
137420000,137420000,0.96289533,0.012686284,-0.0143922595,0.2691926,1.0,0.0,0.0,0.0,0
137920000,137920000,0.96300524,0.012543819,-0.014742523,0.26878676,1.0,0.0,0.0,0.0,0
138420000,138420000,0.96310437,0.011743696,-0.015776968,0.26840863,1.0,0.0,0.0,0.0,0
138920000,138920000,0.9632017,0.010385624,-0.017825352,0.26798666,1.0,0.0,0.0,0.0,0
139420000,139420000,0.9632647,0.009960233,-0.018663026,0.26771948,1.0,0.0,0.0,0.0,0
139920000,139920000,0.9633403,0.009143075,-0.017751135,0.26753825,1.0,0.0,0.0,0.0,0
140420000,140420000,0.963398,0.007273887,-0.018088842,0.2673652,1.0,0.0,0.0,0.0,0
140920000,140920000,0.96338105,0.0075923456,-0.017901322,0.26743016,1.0,0.0,0.0,0.0,0
141420000,141420000,0.9633984,0.0054711592,-0.01829497,0.26739296,1.0,0.0,0.0,0.0,0
141920000,141920000,0.96336937,0.0035612332,-0.018683402,0.26750296,1.0,0.0,0.0,0.0,0
142420000,142420000,0.9633094,0.002790469,-0.018733356,0.26772445,1.0,0.0,0.0,0.0,0
142920000,142920000,0.96321106,0.0022505976,-0.01922757,0.26804802,1.0,0.0,0.0,0.0,0
143420000,143420000,0.9630983,0.0012638888,-0.018354427,0.2685205,1.0,0.0,0.0,0.0,0
143920000,143920000,0.962988,-8.106769e-05,-0.0175728,0.26897082,1.0,0.0,0.0,0.0,0
144420000,144420000,0.96281976,-0.0010263441,-0.018218441,0.2695278,1.0,0.0,0.0,0.0,0
144920000,144920000,0.9626687,-0.0033194455,-0.01898738,0.269995,1.0,0.0,0.0,0.0,0
145420000,145420000,0.96251774,-0.0020829416,-0.01816424,0.27060217,1.0,0.0,0.0,0.0,0
145920000,145920000,0.96232533,-0.0030281986,-0.018138537,0.271278,1.0,0.0,0.0,0.0,0
146420000,146420000,0.9621422,-0.003845916,-0.01811523,0.27191794,1.0,0.0,0.0,0.0,0
146920000,146920000,0.9635699,-0.0067444434,-0.01228289,0.26708966,1.0,0.0,0.0,0.0,0
147420000,147420000,0.96302646,-0.006509034,-0.011937197,0.26906332,1.0,0.0,0.0,0.0,0
147920000,147920000,0.9625663,-0.006753935,-0.012139524,0.27069035,1.0,0.0,0.0,0.0,0
148420000,148420000,0.9621834,-0.0069641406,-0.012236611,0.27203837,1.0,0.0,0.0,0.0,0
148920000,148920000,0.9619088,-0.0071386183,-0.012365875,0.2729973,1.0,0.0,0.0,0.0,0
149420000,149420000,0.961749,-0.0071683116,-0.012176611,0.27356738,1.0,0.0,0.0,0.0,0
