timestamp,timestamp_sample,gyro_device_id,gyro_bias[0],gyro_bias[1],gyro_bias[2],gyro_bias_limit,gyro_bias_variance[0],gyro_bias_variance[1],gyro_bias_variance[2],accel_device_id,accel_bias[0],accel_bias[1],accel_bias[2],accel_bias_limit,accel_bias_variance[0],accel_bias_variance[1],accel_bias_variance[2],mag_device_id,mag_bias[0],mag_bias[1],mag_bias[2],mag_bias_limit,mag_bias_variance[0],mag_bias_variance[1],mag_bias_variance[2],gyro_bias_valid,gyro_bias_stable,accel_bias_valid,accel_bias_stable,mag_bias_valid,mag_bias_stable
3348000,3348000,1310988,0.0,0.0,0.0,0.15,0.010040122,0.010040122,0.010040039,1310988,0.0,0.0,0.0,0.4,0.04016049,0.04016049,0.04016049,0,0.0,0.0,0.0,0.0,0.0,0.0,0.0,1,0,1,0,0,0
4116000,4036000,1310988,-0.0010820951,-0.0017525465,2.3945835e-05,0.15,0.0078837555,0.007887538,0.002602219,1310988,-0.0010407155,0.0012712767,-0.09928818,0.4,0.05025846,0.05026228,0.0045096194,0,0.0,0.0,0.0,0.0,0.0,0.0,0.0,1,0,1,0,0,0
4220000,4140000,1310988,-0.0010936465,-0.0017712468,2.4127325e-05,0.15,0.00805286,0.008056729,0.0026432641,1310988,-0.0010518027,0.0012848245,-0.100347415,0.4,0.05133653,0.051340427,0.004606363,0,0.0,0.0,0.0,0.0,0.0,0.0,0.0,1,0,1,0,0,0
4324000,4244000,1310988,-0.001051174,-0.0018150822,2.2970757e-05,0.15,0.007797312,0.0078011476,0.0026932214,1310988,-0.0010759828,0.0012826134,-0.101448864,0.4,0.05226325,0.05226718,0.0046667834,0,0.0,0.0,0.0,0.0,0.0,0.0,0.0,1,0,1,0,0,0
4452000,4372000,1310988,-0.0010618012,-0.0018335384,2.5906003e-05,0.15,0.007956512,0.007960458,0.0026527152,1310988,-0.0010869532,0.0012956925,-0.102480344,0.4,0.053330567,0.05333456,0.0047620954,0,0.0,0.0,0.0,0.0,0.0,0.0,0.0,1,0,1,0,0,0
4532000,4452000,1310988,-0.00055652304,-0.0026896866,9.825993e-06,0.15,0.0038061307,0.003808364,0.002680099,1310988,-0.001413672,0.0011348386,-0.1036013,0.4,0.053391535,0.053395115,0.0047088237,0,0.0,0.0,0.0,0.0,0.0,0.0,0.0,1,0,1,0,0,0
4676000,4596000,1310988,-0.000461597,-0.0037263944,5.4747507e-06,0.15,0.0012834462,0.0012841441,0.002502054,1310988,-0.0018083052,0.0011072259,-0.10451102,0.4,0.053971052,0.053974595,0.004792163,0,0.0,0.0,0.0,0.0,0.0,0.0,0.0,1,0,1,0,0,0
4740000,4660000,1310988,-0.00053717586,-0.0038545695,6.726034e-06,0.15,0.0011882837,0.001188914,0.0025193307,1310988,-0.0018986502,0.0011708114,-0.10603558,0.4,0.054321904,0.054325532,0.004601651,0,0.0,0.0,0.0,0.0,0.0,0.0,0.0,1,0,1,0,0,0
4940000,4860000,1310988,-0.0009122551,-0.0044259797,1.2789418e-05,0.15,0.0005812777,0.0005815052,0.0022203217,1310988,-0.0021563086,0.0013475821,-0.10701416,0.4,0.055206,0.055209804,0.004686907,0,0.0,0.0,0.0,0.0,0.0,0.0,0.0,1,0,1,0,0,0
4948000,4868000,1310988,-0.0010018823,-0.0044626785,1.48493245e-05,0.15,0.00054939743,0.00054959627,0.002221745,1310988,-0.0022256272,0.001434648,-0.10879657,0.4,0.055229284,0.05523325,0.0043421104,0,0.0,0.0,0.0,0.0,0.0,0.0,0.0,1,0,1,0,0,0
5156000,5076000,1310988,-0.0015719505,-0.0047609755,6.607563e-05,0.15,0.00030482523,0.00030485683,0.0018513536,1310988,-0.002456946,0.0018145348,-0.111781575,0.4,0.055965498,0.055969927,0.003962939,0,0.0,0.0,0.0,0.0,0.0,0.0,0.0,1,0,1,0,0,0
5364000,5284000,1310988,-0.0018707832,-0.0049791234,0.00010539456,0.15,0.00017588984,0.00017586008,0.0014823914,1310988,-0.002674917,0.0020741203,-0.11488517,0.4,0.05654067,0.056545522,0.0035183872,0,0.0,0.0,0.0,0.0,0.0,0.0,0.0,1,0,1,0,0,0
5572000,5492000,1310988,-0.0019621907,-0.0052064667,0.0001104511,0.15,0.00010343736,0.00010339635,0.0011614334,1310988,-0.002923611,0.0021912828,-0.11785226,0.4,0.056989994,0.056995176,0.003063283,0,0.0,0.0,0.0,0.0,0.0,0.0,0.0,1,0,1,0,0,0
5780000,5700000,1310988,-0.0018170879,-0.005331938,9.820593e-05,0.15,6.310718e-05,6.307453e-05,0.0009032827,1310988,-0.0030941677,0.0020870038,-0.120646425,0.4,0.05734343,0.05734883,0.002636105,0,0.0,0.0,0.0,0.0,0.0,0.0,0.0,1,0,1,0,0,0
5988000,5908000,1310988,-0.0016811126,-0.005429468,0.00011110546,0.15,4.0494408e-05,4.0470062e-05,0.0007039833,1310988,-0.0032394344,0.0019684965,-0.12309892,0.4,0.05762112,0.0576267,0.002258055,0,0.0,0.0,0.0,0.0,0.0,0.0,0.0,1,0,1,0,0,0
6196000,6116000,1310988,-0.0016308179,-0.0054919906,0.00011568852,0.15,2.738858e-05,2.736756e-05,0.0005528031,1310988,-0.0033443233,0.0019313031,-0.12525423,0.4,0.057838615,0.05784432,0.0019346211,0,0.0,0.0,0.0,0.0,0.0,0.0,0.0,1,0,1,0,0,0
6404000,6324000,1310988,-0.0016200647,-0.0055387137,0.000112683294,0.15,1.9426107e-05,1.9407398e-05,0.00043856117,1310988,-0.0034273358,0.0019334306,-0.12706329,0.4,0.05800822,0.058014028,0.0016642787,0,0.0,0.0,0.0,0.0,0.0,0.0,0.0,1,0,1,0,0,0
6612000,6532000,1310988,-0.0016239542,-0.005536674,0.00011620824,0.15,1.434549e-05,1.4327649e-05,0.0003518888,1310988,-0.0034482065,0.001949563,-0.12853232,0.4,0.05814023,0.058146175,0.0014400987,0,0.0,0.0,0.0,0.0,0.0,0.0,0.0,1,0,1,0,0,0
6820000,6740000,1310988,-0.0016189065,-0.0054727555,0.00012245668,0.15,1.0953052e-05,1.0935261e-05,0.00028559862,1310988,-0.0033779924,0.0019472601,-0.12968639,0.4,0.058242977,0.058249038,0.001255499,0,0.0,0.0,0.0,0.0,0.0,0.0,0.0,1,0,1,0,0,0
7188000,7108000,1310988,-0.0015508399,-0.0053689647,0.00012931472,0.15,6.9606044e-06,6.9467465e-06,0.00019434243,1310988,-0.0032451795,0.0018559991,-0.1306766,0.4,0.058371123,0.058377262,0.0011025984,0,0.0,0.0,0.0,0.0,0.0,0.0,0.0,1,0,1,0,0,0
7444000,7364000,1310988,-0.0014582835,-0.005354861,0.00013076457,0.15,5.6430204e-06,5.6327563e-06,0.00016280408,1310988,-0.0032426924,0.0017360243,-0.13186972,0.4,0.058432184,0.058438364,0.0008714267,0,0.0,0.0,0.0,0.0,0.0,0.0,0.0,1,0,1,0,0,0
8068000,7988000,1310988,-0.0012444088,-0.00539945,0.000101808175,0.15,3.3783429e-06,3.3751962e-06,0.00010072423,1310988,-0.0033317846,0.0014051979,-0.13283053,0.4,0.05851792,0.058524087,0.00078022736,0,0.0,0.0,0.0,0.0,0.0,0.0,0.0,1,0,1,0,0,0
9068000,8988000,1310988,-0.0011926276,-0.005386229,2.8890052e-05,0.15,1.7788973e-06,1.7770138e-06,5.1847903e-05,1310988,-0.003304759,0.0012579242,-0.13370827,0.4,0.058561005,0.058567237,0.000780963,0,0.0,0.0,0.0,0.0,0.0,0.0,0.0,1,0,1,0,0,0
10068000,9988000,1310988,-0.0011306098,-0.0054680584,-1.8292847e-05,0.15,1.1982958e-06,1.1979212e-06,3.016364e-05,1310988,-0.0036051723,0.0010824226,-0.13418,0.4,0.058569614,0.058576126,0.00078117213,0,0.0,0.0,0.0,0.0,0.0,0.0,0.0,1,0,1,0,0,0
11068000,10988000,1310988,-0.0011216289,-0.005502808,-5.3640313e-05,0.15,8.185178e-07,8.182259e-07,1.9134935e-05,1310988,-0.003752505,0.0010789408,-0.13387607,0.4,0.058568668,0.05857579,0.0007812316,0,0.0,0.0,0.0,0.0,0.0,0.0,0.0,1,0,1,0,0,0
11812000,11732000,1310988,-0.001179582,-0.005482619,-7.0085225e-05,0.15,6.420806e-07,6.414424e-07,1.5034199e-05,1310988,-0.0037821573,0.0013334285,-0.13276812,0.4,0.0585674,0.058574494,0.00078124576,0,0.0,0.0,0.0,0.0,0.0,0.0,0.0,1,0,1,0,0,0
12436000,12356000,1310988,-0.0012115241,-0.0054496145,-8.5027e-05,0.15,5.5020365e-07,5.4947895e-07,1.2044592e-05,1310988,-0.0037485927,0.0015340233,-0.13168383,0.4,0.05856581,0.05857243,0.00078124576,0,0.0,0.0,0.0,0.0,0.0,0.0,0.0,1,0,1,0,0,0
13060000,12980000,1310988,-0.0012114629,-0.0054312013,-9.595799e-05,0.15,4.8050504e-07,4.798717e-07,9.8134005e-06,1310988,-0.0037093025,0.0016314213,-0.1306303,0.4,0.05856171,0.05856808,0.00078124576,0,0.0,0.0,0.0,0.0,0.0,0.0,0.0,1,0,1,0,0,0
13684000,13604000,1310988,-0.0011801618,-0.00543591,-0.00010589453,0.15,4.264539e-07,4.2603241e-07,8.113548e-06,1310988,-0.0038164658,0.001467877,-0.12959495,0.4,0.058557358,0.058563802,0.00078124576,0,0.0,0.0,0.0,0.0,0.0,0.0,0.0,1,0,1,0,0,0
14516000,14436000,1310988,-0.0011650132,-0.005457754,-0.00011557234,0.15,3.7142905e-07,3.7118815e-07,6.421885e-06,1310988,-0.0041296,0.0014069321,-0.12838773,0.4,0.05855055,0.058557436,0.00078124576,0,0.0,0.0,0.0,0.0,0.0,0.0,0.0,1,0,1,0,0,0
15516000,15436000,1310988,-0.0011754072,-0.005479975,-0.00012497013,0.15,3.213618e-07,3.2122847e-07,4.9263303e-06,1310988,-0.004491769,0.0015594927,-0.1274724,0.4,0.058541924,0.058549743,0.0007812477,0,0.0,0.0,0.0,0.0,0.0,0.0,0.0,1,0,1,0,0,0
16388000,16308000,1310988,-0.0011805942,-0.0054893172,-0.00012815745,0.15,2.9134154e-07,2.9127995e-07,4.060332e-06,1310988,-0.004742265,0.0016846947,-0.12628739,0.4,0.058536097,0.05854569,0.00078124576,0,0.0,0.0,0.0,0.0,0.0,0.0,0.0,1,0,1,0,0,0
17012000,16932000,1310988,-0.0011970596,-0.0054909238,-0.00012923402,0.15,2.73098e-07,2.730668e-07,3.545714e-06,1310988,-0.004950421,0.0018712602,-0.12532094,0.4,0.05853274,0.058543555,0.00078124576,0,0.0,0.0,0.0,0.0,0.0,0.0,0.0,1,0,1,0,0,0
17636000,17556000,1310988,-0.0012170533,-0.005487276,-0.00012849615,0.15,2.5765715e-07,2.5765206e-07,3.119232e-06,1310988,-0.005182825,0.002079052,-0.12419602,0.4,0.058529772,0.058541786,0.00078124576,0,0.0,0.0,0.0,0.0,0.0,0.0,0.0,1,0,1,0,0,0
18468000,18388000,1310988,-0.00122913,-0.005480585,-0.0001265901,0.15,2.4046363e-07,2.4051485e-07,2.6569023e-06,1310988,-0.005362538,0.0023427,-0.12295831,0.4,0.058523614,0.058537483,0.00078124576,0,0.0,0.0,0.0,0.0,0.0,0.0,0.0,1,0,1,0,0,0
19092000,19012000,1310988,-0.0012477138,-0.0054938477,-0.00012443884,0.15,2.2962692e-07,2.2972729e-07,2.3726145e-06,1310988,-0.0057345596,0.002548424,-0.12185789,0.4,0.05851927,0.058534715,0.00078124576,0,0.0,0.0,0.0,0.0,0.0,0.0,0.0,1,0,1,0,0,0
19716000,19636000,1310988,-0.0012712699,-0.005496451,-0.00012208964,0.15,2.2023904e-07,2.2036524e-07,2.1307387e-06,1310988,-0.006048974,0.0028249123,-0.120765224,0.4,0.0585154,0.05853205,0.00078124576,0,0.0,0.0,0.0,0.0,0.0,0.0,0.0,1,0,1,0,0,0
20340000,20260000,1310988,-0.0012853338,-0.0054993075,-0.00012095131,0.15,2.1204356e-07,2.1219762e-07,1.9236168e-06,1310988,-0.006296446,0.003074904,-0.11980686,0.4,0.05851063,0.058528937,0.00078124576,0,0.0,0.0,0.0,0.0,0.0,0.0,0.0,1,0,1,0,0,0
21172000,21092000,1310988,-0.0012890496,-0.0054934826,-0.00011639142,0.15,2.0268344e-07,2.0286285e-07,1.6912115e-06,1310988,-0.006464101,0.0032854204,-0.118520334,0.4,0.058505405,0.058525592,0.00078124576,0,0.0,0.0,0.0,0.0,0.0,0.0,0.0,1,0,1,0,0,0
21796000,21716000,1310988,-0.0012782027,-0.005469486,-0.0001121494,0.15,1.9665524e-07,1.9683799e-07,1.5436616e-06,1310988,-0.006390909,0.0034572547,-0.11744448,0.4,0.058503132,0.058524184,0.00078124576,0,0.0,0.0,0.0,0.0,0.0,0.0,0.0,1,0,1,0,0,0
22420000,22340000,1310988,-0.0012711474,-0.0054453136,-0.00010881122,0.15,1.9131504e-07,1.9149408e-07,1.4149937e-06,1310988,-0.0062409933,0.0036080882,-0.116434105,0.4,0.058501296,0.058522727,0.00078124576,0,0.0,0.0,0.0,0.0,0.0,0.0,0.0,1,0,1,0,0,0
23044000,22964000,1310988,-0.0012696454,-0.005421292,-0.00010646758,0.15,1.8657948e-07,1.8674838e-07,1.3022719e-06,1310988,-0.0061978074,0.0037642724,-0.115145914,0.4,0.058500614,0.05852199,0.00078124576,0,0.0,0.0,0.0,0.0,0.0,0.0,0.0,1,0,1,0,0,0
23460000,23380000,1310988,-0.0012726125,-0.005415135,-0.00010513016,0.15,1.8371192e-07,1.8387753e-07,1.2347847e-06,1310988,-0.006271174,0.0038379608,-0.11414509,0.4,0.058500327,0.05852167,0.00078124576,0,0.0,0.0,0.0,0.0,0.0,0.0,0.0,1,0,1,0,0,0
23876000,23796000,1310988,-0.001274316,-0.0054150354,-0.00010384723,0.15,1.810478e-07,1.8121423e-07,1.172705e-06,1310988,-0.00634006,0.0038911405,-0.11313317,0.4,0.058500037,0.058521442,0.00078124576,0,0.0,0.0,0.0,0.0,0.0,0.0,0.0,1,0,1,0,0,0
24500000,24420000,1310988,-0.0012727437,-0.005417841,-0.000102060556,0.15,1.7739374e-07,1.7756487e-07,1.0885801e-06,1310988,-0.0064389217,0.0039470904,-0.11179477,0.4,0.05849922,0.05852078,0.00078124576,0,0.0,0.0,0.0,0.0,0.0,0.0,0.0,1,0,1,0,0,0
25124000,25044000,1310988,-0.0012779543,-0.00540707,-0.0001006887,0.15,1.7412069e-07,1.7428526e-07,1.0139039e-06,1310988,-0.0063932375,0.004091082,-0.11047518,0.4,0.058498017,0.058519382,0.00078124576,0,0.0,0.0,0.0,0.0,0.0,0.0,0.0,1,0,1,0,0,0
25748000,25668000,1310988,-0.0012815726,-0.00539205,-9.825249e-05,0.15,1.7118903e-07,1.7134687e-07,9.473896e-07,1310988,-0.0063731675,0.0042123515,-0.10905125,0.4,0.058497686,0.05851883,0.00078124576,0,0.0,0.0,0.0,0.0,0.0,0.0,0.0,1,0,1,0,0,0
26308000,26228000,1310988,-0.001272984,-0.0053778547,-9.489266e-05,0.15,1.6813121e-07,1.6828872e-07,8.874454e-07,1310988,-0.006276396,0.0042791204,-0.10805727,0.4,0.05849734,0.058518343,0.00078124576,0,0.0,0.0,0.0,0.0,0.0,0.0,0.0,1,0,1,0,0,0
26580000,26500000,1310988,-0.001266835,-0.00537311,-9.386306e-05,0.15,1.6772826e-07,1.6788675e-07,8.695572e-07,1310988,-0.0062372847,0.00432479,-0.10695513,0.4,0.058497254,0.058518216,0.00078124576,0,0.0,0.0,0.0,0.0,0.0,0.0,0.0,1,0,1,0,0,0
26996000,26916000,1310988,-0.0012561147,-0.005363663,-9.2135546e-05,0.15,1.6617219e-07,1.6633135e-07,8.346948e-07,1310988,-0.0061812387,0.0044093737,-0.10567723,0.4,0.0584971,0.05851805,0.00078124576,0,0.0,0.0,0.0,0.0,0.0,0.0,0.0,1,0,1,0,0,0
27412000,27332000,1310988,-0.0012440336,-0.005351869,-9.052687e-05,0.15,1.647205e-07,1.6487871e-07,8.022287e-07,1310988,-0.0061486857,0.0044935076,-0.10429461,0.4,0.0584969,0.058517884,0.00078124576,0,0.0,0.0,0.0,0.0,0.0,0.0,0.0,1,0,1,0,0,0
27828000,27748000,1310988,-0.0012290385,-0.005340571,-8.903661e-05,0.15,1.6336227e-07,1.6352045e-07,7.719599e-07,1310988,-0.006106746,0.0045331363,-0.10277218,0.4,0.058496706,0.058517687,0.00078124576,0,0.0,0.0,0.0,0.0,0.0,0.0,0.0,1,0,1,0,0,0
28244000,28164000,1310988,-0.001212334,-0.0053297454,-8.748681e-05,0.15,1.6209458e-07,1.622533e-07,7.437094e-07,1310988,-0.0061024507,0.0046275277,-0.100960135,0.4,0.05849612,0.0585171,0.00078124576,0,0.0,0.0,0.0,0.0,0.0,0.0,0.0,1,0,1,0,0,0
28660000,28580000,1310988,-0.001199182,-0.005320065,-8.572373e-05,0.15,1.6090574e-07,1.6106374e-07,7.1731944e-07,1310988,-0.006072578,0.004676103,-0.09910649,0.4,0.058495596,0.058516562,0.00078124576,0,0.0,0.0,0.0,0.0,0.0,0.0,0.0,1,0,1,0,0,0
29076000,28996000,1310988,-0.0011910645,-0.005309261,-8.407469e-05,0.15,1.5978853e-07,1.5994301e-07,6.9264075e-07,1310988,-0.0059496895,0.0046368376,-0.097206116,0.4,0.058495235,0.0585163,0.00078124576,0,0.0,0.0,0.0,0.0,0.0,0.0,0.0,1,0,1,0,0,0
29428000,29348000,1310988,-0.0011858328,-0.005297569,-8.24674e-05,0.15,1.583128e-07,1.5846238e-07,6.690258e-07,1310988,-0.0058734403,0.004631517,-0.09620455,0.4,0.058495015,0.05851615,0.00078124576,0,0.0,0.0,0.0,0.0,0.0,0.0,0.0,1,0,1,0,0,0
29700000,29620000,1310988,-0.0011848683,-0.005292499,-8.1745624e-05,0.15,1.5824183e-07,1.5838859e-07,6.585396e-07,1310988,-0.0057200072,0.004562147,-0.09431283,0.4,0.05849462,0.05851597,0.00078124576,0,0.0,0.0,0.0,0.0,0.0,0.0,0.0,1,0,1,0,0,0
30116000,30036000,1310988,-0.0011865098,-0.0052839415,-8.034805e-05,0.15,1.572858e-07,1.5742665e-07,6.375788e-07,1310988,-0.0055154026,0.0045463983,-0.09252929,0.4,0.058493894,0.058515646,0.00078124576,0,0.0,0.0,0.0,0.0,0.0,0.0,0.0,1,0,1,0,0,0
30532000,30452000,1310988,-0.001191573,-0.005272816,-7.8721576e-05,0.15,1.5638676e-07,1.5651977e-07,6.1791036e-07,1310988,-0.005220169,0.0046134987,-0.090910986,0.4,0.058492463,0.058514792,0.00078124576,0,0.0,0.0,0.0,0.0,0.0,0.0,0.0,1,0,1,0,0,0
30948000,30868000,1310988,-0.0012015663,-0.0052627446,-7.674374e-05,0.15,1.5554187e-07,1.556663e-07,5.9944017e-07,1310988,-0.004924423,0.0048239506,-0.08935221,0.4,0.058490533,0.058513522,0.00078124576,0,0.0,0.0,0.0,0.0,0.0,0.0,0.0,1,0,1,0,0,0
31364000,31284000,1310988,-0.0012123288,-0.0052550174,-7.481138e-05,0.15,1.547501e-07,1.5486707e-07,5.820837e-07,1310988,-0.0047192606,0.005029737,-0.08785997,0.4,0.058488972,0.05851257,0.00078124576,0,0.0,0.0,0.0,0.0,0.0,0.0,0.0,1,0,1,0,0,0
31780000,31700000,1310988,-0.0012215744,-0.0052480763,-7.288244e-05,0.15,1.540075e-07,1.5411808e-07,5.657611e-07,1310988,-0.0045298687,0.0052173594,-0.08645008,0.4,0.058487494,0.05851178,0.00078124576,0,0.0,0.0,0.0,0.0,0.0,0.0,0.0,1,0,1,0,0,0
32196000,32116000,1310988,-0.0012319366,-0.005240182,-7.1379436e-05,0.15,1.5330933e-07,1.5341315e-07,5.503982e-07,1310988,-0.004323826,0.005435807,-0.08515439,0.4,0.058485944,0.05851085,0.00078124576,0,0.0,0.0,0.0,0.0,0.0,0.0,0.0,1,0,1,0,0,0
33196000,33116000,1310988,-0.0012319355,-0.005240205,-7.064286e-05,0.15,1.6130556e-07,1.6141077e-07,5.493932e-07,1310988,-0.0043228674,0.0054347487,-0.08497847,0.4,0.058485933,0.058510836,0.00078124634,0,0.0,0.0,0.0,0.0,0.0,0.0,0.0,1,0,1,0,0,0
34196000,34116000,1310988,-0.0012319742,-0.0052402294,-7.0647686e-05,0.15,1.69302e-07,1.6940719e-07,5.573931e-07,1310988,-0.0043228674,0.0054347487,-0.084552415,0.4,0.058485933,0.058510836,0.00078124634,0,0.0,0.0,0.0,0.0,0.0,0.0,0.0,1,0,1,0,0,0
35188000,35108000,1310988,-0.0012321104,-0.00524026,-7.066417e-05,0.15,1.7721253e-07,1.773179e-07,5.65328e-07,1310988,-0.0043228674,0.0054347487,-0.08347316,0.4,0.058485933,0.058510836,0.00078124576,0,0.0,0.0,0.0,0.0,0.0,0.0,0.0,1,0,1,0,0,0
36188000,36108000,1310988,-0.0012321105,-0.0052401163,-7.0636874e-05,0.15,1.8512112e-07,1.8522695e-07,5.733227e-07,1310988,-0.0043228674,0.0054347487,-0.08251889,0.4,0.058485933,0.058510836,0.0007812487,0,0.0,0.0,0.0,0.0,0.0,0.0,0.0,1,0,1,0,0,0
37188000,37108000,1310988,-0.0012318313,-0.005239661,-7.053334e-05,0.15,1.9291858e-07,1.9302557e-07,5.8131127e-07,1310988,-0.0043228674,0.0054347487,-0.081320144,0.4,0.058485933,0.058510836,0.00078124576,0,0.0,0.0,0.0,0.0,0.0,0.0,0.0,1,0,1,0,0,0
38188000,38108000,1310988,-0.0012320401,-0.0052390727,-7.0445e-05,0.15,2.0063575e-07,2.0074401e-07,5.8930044e-07,1310988,-0.0043228674,0.0054347487,-0.080587775,0.4,0.058485933,0.058510836,0.0007812475,0,0.0,0.0,0.0,0.0,0.0,0.0,0.0,1,0,1,0,0,0
39188000,39108000,1310988,-0.0012326157,-0.0052386434,-7.0425594e-05,0.15,2.0840523e-07,2.0851398e-07,5.9729496e-07,1310988,-0.0043228674,0.0054347487,-0.079637095,0.4,0.058485933,0.058510836,0.00078124634,0,0.0,0.0,0.0,0.0,0.0,0.0,0.0,1,0,1,0,0,0
39876000,39796000,1310988,-0.0012332962,-0.0052381987,-7.0417795e-05,0.15,2.1369645e-07,2.1380512e-07,6.0279586e-07,1310988,-0.0043228674,0.0054347487,-0.07861865,0.4,0.058485933,0.058510836,0.00078124576,0,0.0,0.0,0.0,0.0,0.0,0.0,0.0,1,0,1,0,0,0
40420000,40340000,1310988,-0.0012336049,-0.0052379146,-7.041884e-05,0.15,2.1794759e-07,2.1805582e-07,6.0714683e-07,1310988,-0.0043228674,0.0054347487,-0.07755804,0.4,0.058485933,0.058510836,0.00078124576,0,0.0,0.0,0.0,0.0,0.0,0.0,0.0,1,0,1,0,0,0
41196000,41116000,1310988,-0.001234158,-0.0052373805,-7.040733e-05,0.15,2.2395562e-07,2.2406317e-07,6.1335345e-07,1310988,-0.0043228674,0.0054347487,-0.07620712,0.4,0.058485933,0.058510836,0.00078124576,0,0.0,0.0,0.0,0.0,0.0,0.0,0.0,1,0,1,0,0,0
41596000,41516000,1310988,-0.001234366,-0.005237062,-7.040245e-05,0.15,2.270517e-07,2.2715889e-07,6.1655294e-07,1310988,-0.0043228674,0.0054347487,-0.07517743,0.4,0.058485933,0.058510836,0.00078124576,0,0.0,0.0,0.0,0.0,0.0,0.0,0.0,1,0,1,0,0,0
41988000,41908000,1310988,-0.0012345371,-0.0052367277,-7.039712e-05,0.15,2.3007776e-07,2.3018457e-07,6.1968854e-07,1310988,-0.0043228674,0.0054347487,-0.074073255,0.4,0.058485933,0.058510836,0.00078124576,0,0.0,0.0,0.0,0.0,0.0,0.0,0.0,1,0,1,0,0,0
42388000,42308000,1310988,-0.0012346607,-0.0052363575,-7.039218e-05,0.15,2.3315893e-07,2.3326537e-07,6.228881e-07,1310988,-0.0043228674,0.0054347487,-0.0727468,0.4,0.058485933,0.058510836,0.00078124576,0,0.0,0.0,0.0,0.0,0.0,0.0,0.0,1,0,1,0,0,0
42796000,42716000,1310988,-0.0012347662,-0.005235981,-7.038552e-05,0.15,2.3629218e-07,2.363983e-07,6.261517e-07,1310988,-0.0043228674,0.0054347487,-0.07148925,0.4,0.058485933,0.058510836,0.00078124576,0,0.0,0.0,0.0,0.0,0.0,0.0,0.0,1,0,1,0,0,0
43188000,43108000,1310988,-0.0012348407,-0.0052355696,-7.037826e-05,0.15,2.3928197e-07,2.3938782e-07,6.2928723e-07,1310988,-0.0043228674,0.0054347487,-0.07008949,0.4,0.058485933,0.058510836,0.00078124576,0,0.0,0.0,0.0,0.0,0.0,0.0,0.0,1,0,1,0,0,0
43588000,43508000,1310988,-0.0012349336,-0.005235149,-7.037241e-05,0.15,2.4231662e-07,2.4242223e-07,6.3248694e-07,1310988,-0.0043228674,0.0054347487,-0.06851643,0.4,0.058485933,0.058510836,0.00078124576,0,0.0,0.0,0.0,0.0,0.0,0.0,0.0,1,0,1,0,0,0
44588000,44508000,1310988,-0.0012374483,-0.0052352566,-7.04124e-05,0.15,2.499093e-07,2.500151e-07,6.4048567e-07,1310988,-0.0043228674,0.0054347487,-0.068357736,0.4,0.058485933,0.058510836,0.0007812469,0,0.0,0.0,0.0,0.0,0.0,0.0,0.0,1,0,1,0,0,0
45588000,45508000,1310988,-0.0012545247,-0.005240468,-7.0635564e-05,0.15,2.5715974e-07,2.5729452e-07,6.484157e-07,1310988,-0.0043228674,0.0054347487,-0.06835772,0.4,0.058485933,0.058510836,0.0007812533,0,0.0,0.0,0.0,0.0,0.0,0.0,0.0,1,0,1,0,0,0
46588000,46508000,1310988,-0.0012951826,-0.0052590496,-7.14076e-05,0.15,2.6396444e-07,2.6420344e-07,6.561088e-07,1310988,-0.0043228674,0.0054347487,-0.06825756,0.4,0.058485933,0.058510836,0.0007812487,0,0.0,0.0,0.0,0.0,0.0,0.0,0.0,1,0,1,0,0,0
47588000,47508000,1310988,-0.0013532158,-0.0052960026,-7.346425e-05,0.15,2.702871e-07,2.7060048e-07,6.635874e-07,1310988,-0.0043228674,0.0054347487,-0.06759932,0.4,0.058485933,0.058510836,0.00078124576,0,0.0,0.0,0.0,0.0,0.0,0.0,0.0,1,0,1,0,0,0
48588000,48508000,1310988,-0.0014210413,-0.005351794,-7.705382e-05,0.15,2.761111e-07,2.7642258e-07,6.709703e-07,1310988,-0.0043228674,0.0054347487,-0.066898584,0.4,0.058485933,0.058510836,0.0007812475,0,0.0,0.0,0.0,0.0,0.0,0.0,0.0,1,0,1,0,0,0
49188000,49108000,1310988,-0.0014665334,-0.005396561,-8.045857e-05,0.15,2.7926785e-07,2.79555e-07,6.7540657e-07,1310988,-0.0043228674,0.0054347487,-0.06586388,0.4,0.058485933,0.058510836,0.00078124576,0,0.0,0.0,0.0,0.0,0.0,0.0,0.0,1,0,1,0,0,0
49988000,49908000,1310988,-0.0015130794,-0.0054488466,-8.481556e-05,0.15,2.8375777e-07,2.840027e-07,6.814773e-07,1310988,-0.0043228674,0.0054347487,-0.06455345,0.4,0.058485933,0.058510836,0.00078124576,0,0.0,0.0,0.0,0.0,0.0,0.0,0.0,1,0,1,0,0,0
50788000,50708000,1310988,-0.0015733914,-0.005528949,-9.22393e-05,0.15,2.8715675e-07,2.8735369e-07,6.875236e-07,1310988,-0.0043228674,0.0054347487,-0.06327307,0.4,0.058485933,0.058510836,0.00078124576,0,0.0,0.0,0.0,0.0,0.0,0.0,0.0,1,0,1,0,0,0
51588000,51508000,1310988,-0.0016284803,-0.005620983,-0.00010245282,0.15,2.8993196e-07,2.9008282e-07,6.936725e-07,1310988,-0.0043228674,0.0054347487,-0.06197474,0.4,0.058485933,0.058510836,0.00078124576,0,0.0,0.0,0.0,0.0,0.0,0.0,0.0,1,0,1,0,0,0
52396000,52316000,1310988,-0.0016737949,-0.0057230988,-0.00011640773,0.15,2.9207257e-07,2.9218245e-07,6.999593e-07,1310988,-0.0043228674,0.0054347487,-0.0603838,0.4,0.058485933,0.058510836,0.00078124576,0,0.0,0.0,0.0,0.0,0.0,0.0,0.0,1,0,1,0,0,0
53188000,53108000,1310988,-0.0017048458,-0.0058317827,-0.00013488118,0.15,2.9333017e-07,2.9339895e-07,7.0612646e-07,1310988,-0.0043228674,0.0054347487,-0.05856211,0.4,0.058485933,0.058510836,0.00078124576,0,0.0,0.0,0.0,0.0,0.0,0.0,0.0,1,0,1,0,0,0
53596000,53516000,1310988,-0.0017138537,-0.005887182,-0.00014601157,0.15,2.9376204e-07,2.9380826e-07,7.092799e-07,1310988,-0.0043228674,0.0054347487,-0.057542194,0.4,0.058485933,0.058510836,0.00078124576,0,0.0,0.0,0.0,0.0,0.0,0.0,0.0,1,0,1,0,0,0
53996000,53916000,1310988,-0.001718016,-0.0059424224,-0.00015848737,0.15,2.9393382e-07,2.9395457e-07,7.1233296e-07,1310988,-0.0043228674,0.0054347487,-0.0564298,0.4,0.058485933,0.058510836,0.00078124576,0,0.0,0.0,0.0,0.0,0.0,0.0,0.0,1,0,1,0,0,0
54396000,54316000,1310988,-0.0017170451,-0.005996788,-0.00017234552,0.15,2.9391032e-07,2.9390293e-07,7.153332e-07,1310988,-0.0043228674,0.0054347487,-0.05523107,0.4,0.058485933,0.058510836,0.00078124576,0,0.0,0.0,0.0,0.0,0.0,0.0,0.0,1,0,1,0,0,0
54796000,54716000,1310988,-0.0017140545,-0.006023284,-0.00018010022,0.15,2.9541837e-07,2.9540354e-07,7.1840543e-07,1310988,-0.0043228674,0.0054347487,-0.053806834,0.4,0.058485933,0.058510836,0.00078124576,0,0.0,0.0,0.0,0.0,0.0,0.0,0.0,1,0,1,0,0,0
55196000,55116000,1310988,-0.0017050306,-0.0060748938,-0.00019605583,0.15,2.9510934e-07,2.9506208e-07,7.212945e-07,1310988,-0.0043228674,0.0054347487,-0.052527685,0.4,0.058485933,0.058510836,0.00078124576,0,0.0,0.0,0.0,0.0,0.0,0.0,0.0,1,0,1,0,0,0
55588000,55508000,1310988,-0.0016906422,-0.0061237793,-0.00021335704,0.15,2.945562e-07,2.9447236e-07,7.240242e-07,1310988,-0.0043228674,0.0054347487,-0.05126467,0.4,0.058485933,0.058510836,0.00078124576,0,0.0,0.0,0.0,0.0,0.0,0.0,0.0,1,0,1,0,0,0
55996000,55916000,1310988,-0.0016708869,-0.006169162,-0.00023199346,0.15,2.9395807e-07,2.9383514e-07,7.2676886e-07,1310988,-0.0043228674,0.0054347487,-0.04991787,0.4,0.058485933,0.058510836,0.00078124576,0,0.0,0.0,0.0,0.0,0.0,0.0,0.0,1,0,1,0,0,0
56396000,56316000,1310988,-0.0016458767,-0.0062103188,-0.000251936,0.15,2.9313503e-07,2.9296984e-07,7.2932136e-07,1310988,-0.0043228674,0.0054347487,-0.048383802,0.4,0.058485933,0.058510836,0.00078124576,0,0.0,0.0,0.0,0.0,0.0,0.0,0.0,1,0,1,0,0,0
56796000,56716000,1310988,-0.0016161441,-0.0062467805,-0.00027294937,0.15,2.9216375e-07,2.9195314e-07,7.3173146e-07,1310988,-0.0043228674,0.0054347487,-0.047024034,0.4,0.058485933,0.058510836,0.00078124576,0,0.0,0.0,0.0,0.0,0.0,0.0,0.0,1,0,1,0,0,0
57188000,57108000,1310988,-0.0015817825,-0.0062778452,-0.00029507358,0.15,2.9099553e-07,2.9073541e-07,7.339234e-07,1310988,-0.0043228674,0.0054347487,-0.045482587,0.4,0.058485933,0.058510836,0.00078124576,0,0.0,0.0,0.0,0.0,0.0,0.0,0.0,1,0,1,0,0,0
57596000,57516000,1310988,-0.001543286,-0.0063030757,-0.00031815344,0.15,2.8983607e-07,2.895224e-07,7.36079e-07,1310988,-0.0043228674,0.0054347487,-0.043835662,0.4,0.058485933,0.058510836,0.00078124576,0,0.0,0.0,0.0,0.0,0.0,0.0,0.0,1,0,1,0,0,0
57996000,57916000,1310988,-0.0015011916,-0.00632212,-0.00034202237,0.15,2.8851147e-07,2.8813784e-07,7.379988e-07,1310988,-0.0043228674,0.0054347487,-0.04218067,0.4,0.058485933,0.058510836,0.00078124576,0,0.0,0.0,0.0,0.0,0.0,0.0,0.0,1,0,1,0,0,0
58388000,58308000,1310988,-0.0014560013,-0.0063346922,-0.00036654834,0.15,2.8703948e-07,2.865973e-07,7.39677e-07,1310988,-0.0043228674,0.0054347487,-0.0405415,0.4,0.058485933,0.058510836,0.00078124576,0,0.0,0.0,0.0,0.0,0.0,0.0,0.0,1,0,1,0,0,0
58796000,58716000,1310988,-0.0014082892,-0.0063406406,-0.00039157423,0.15,2.8563008e-07,2.8510766e-07,7.413039e-07,1310988,-0.0043228674,0.0054347487,-0.03896045,0.4,0.058485933,0.058510836,0.00078124576,0,0.0,0.0,0.0,0.0,0.0,0.0,0.0,1,0,1,0,0,0
59188000,59108000,1310988,-0.001358651,-0.006339908,-0.00041694628,0.15,2.8404645e-07,2.834287e-07,7.4262664e-07,1310988,-0.0043228674,0.0054347487,-0.03742722,0.4,0.058485933,0.058510836,0.00078124576,0,0.0,0.0,0.0,0.0,0.0,0.0,0.0,1,0,1,0,0,0
59596000,59516000,1310988,-0.0013076626,-0.0063325204,-0.00044253556,0.15,2.825612e-07,2.8182845e-07,7.43907e-07,1310988,-0.0043228674,0.0054347487,-0.035866015,0.4,0.058485933,0.058510836,0.00078124576,0,0.0,0.0,0.0,0.0,0.0,0.0,0.0,1,0,1,0,0,0
59996000,59916000,1310988,-0.0012814016,-0.006325735,-0.00045572058,0.15,2.8337632e-07,2.8257287e-07,7.4605146e-07,1310988,-0.0043228674,0.0054347487,-0.03418638,0.4,0.058485933,0.058510836,0.00078124576,0,0.0,0.0,0.0,0.0,0.0,0.0,0.0,1,0,1,0,0,0
60396000,60316000,1310988,-0.0012296723,-0.006308788,-0.00048126315,0.15,2.81817e-07,2.808599e-07,7.470322e-07,1310988,-0.0043228674,0.0054347487,-0.032713495,0.4,0.058485933,0.058510836,0.00078124576,0,0.0,0.0,0.0,0.0,0.0,0.0,0.0,1,0,1,0,0,0
60788000,60708000,1310988,-0.001178153,-0.006285824,-0.0005065697,0.15,2.8020662e-07,2.790656e-07,7.4780627e-07,1310988,-0.0043228674,0.0054347487,-0.03139297,0.4,0.058485933,0.058510836,0.00078124576,0,0.0,0.0,0.0,0.0,0.0,0.0,0.0,1,0,1,0,0,0
61196000,61116000,1310988,-0.0011273095,-0.0062571047,-0.0005315399,0.15,2.78751e-07,2.773898e-07,7.485776e-07,1310988,-0.0043228674,0.0054347487,-0.030192021,0.4,0.058485933,0.058510836,0.00078124576,0,0.0,0.0,0.0,0.0,0.0,0.0,0.0,1,0,1,0,0,0
61588000,61508000,1310988,-0.0010775446,-0.006222901,-0.0005561212,0.15,2.7720765e-07,2.755866e-07,7.4910565e-07,1310988,-0.0043228674,0.0054347487,-0.028967801,0.4,0.058485933,0.058510836,0.00078124576,0,0.0,0.0,0.0,0.0,0.0,0.0,0.0,1,0,1,0,0,0
61996000,61916000,1310988,-0.0010293514,-0.0061837253,-0.0005801516,0.15,2.7584375e-07,2.739198e-07,7.496629e-07,1310988,-0.0043228674,0.0054347487,-0.027863622,0.4,0.058485933,0.058510836,0.00078124576,0,0.0,0.0,0.0,0.0,0.0,0.0,0.0,1,0,1,0,0,0
62388000,62308000,1310988,-0.000983097,-0.006139939,-0.00060356373,0.15,2.7441274e-07,2.7213824e-07,7.5000906e-07,1310988,-0.0043228674,0.0054347487,-0.02680485,0.4,0.058485933,0.058510836,0.00078124576,0,0.0,0.0,0.0,0.0,0.0,0.0,0.0,1,1,1,0,0,0
63196000,63116000,1310988,-0.00089632184,-0.0060351505,-0.0006491106,0.15,2.7197714e-07,2.6881483e-07,7.5051287e-07,1310988,-0.0043228674,0.0054347487,-0.024808517,0.4,0.058485933,0.058510836,0.00078124576,0,0.0,0.0,0.0,0.0,0.0,0.0,0.0,1,1,1,0,0,0
63596000,63516000,1310988,-0.000855537,-0.0059707747,-0.0006718208,0.15,2.7087722e-07,2.6714585e-07,7.503979e-07,1310988,-0.0043228674,0.0054347487,-0.023689328,0.4,0.058485933,0.058510836,0.00078124576,0,0.0,0.0,0.0,0.0,0.0,0.0,0.0,1,1,1,0,0,0
63996000,63916000,1310988,-0.0008167484,-0.005896803,-0.000694673,0.15,2.6989687e-07,2.654878e-07,7.499784e-07,1310988,-0.0043228674,0.0054347487,-0.022517938,0.4,0.058485933,0.058510836,0.00078124576,0,0.0,0.0,0.0,0.0,0.0,0.0,0.0,1,1,1,0,0,0
64388000,64308000,1310988,-0.0007803539,-0.0058125267,-0.00071773404,0.15,2.689837e-07,2.637779e-07,7.4914965e-07,1310988,-0.0043228674,0.0054347487,-0.021237735,0.4,0.058485933,0.058510836,0.00078124576,0,0.0,0.0,0.0,0.0,0.0,0.0,0.0,1,1,1,0,0,0
64788000,64708000,1310988,-0.0007466305,-0.005718313,-0.00074094906,0.15,2.6827303e-07,2.6214425e-07,7.4802466e-07,1310988,-0.0043228674,0.0054347487,-0.020090727,0.4,0.058485933,0.058510836,0.00078124576,0,0.0,0.0,0.0,0.0,0.0,0.0,0.0,1,1,1,0,0,0
65788000,65708000,1310988,-0.0006812932,-0.00550019,-0.0007907458,0.15,2.6888554e-07,2.6051518e-07,7.462651e-07,1310988,-0.0043228674,0.0054347487,-0.020305177,0.4,0.058485933,0.058510836,0.00078128226,0,0.0,0.0,0.0,0.0,0.0,0.0,0.0,1,1,1,0,0,0
66788000,66708000,1310988,-0.0005918375,-0.005181049,-0.0008622894,0.15,2.6844043e-07,2.566374e-07,7.404045e-07,1310988,-0.0043228674,0.0054347487,-0.020105371,0.4,0.058485933,0.058510836,0.0007812487,0,0.0,0.0,0.0,0.0,0.0,0.0,0.0,1,1,1,0,0,0
67788000,67708000,1310988,-0.0004855904,-0.004849543,-0.0009394224,0.15,2.6867164e-07,2.5352668e-07,7.344586e-07,1310988,-0.0043228674,0.0054347487,-0.02010487,0.4,0.058485933,0.058510836,0.00078127097,0,0.0,0.0,0.0,0.0,0.0,0.0,0.0,1,1,1,0,0,0
68788000,68708000,1310988,-0.0003559703,-0.004528871,-0.001018718,0.15,2.6931426e-07,2.5107263e-07,7.3009534e-07,1310988,-0.0043228674,0.0054347487,-0.020019412,0.4,0.058485933,0.058510836,0.00078124576,0,0.0,0.0,0.0,0.0,0.0,0.0,0.0,1,1,1,0,0,0
69788000,69708000,1310988,-0.0002265402,-0.0042409366,-0.0010917543,0.15,2.7039724e-07,2.494462e-07,7.2834456e-07,1310988,-0.0043228674,0.0054347487,-0.02022972,0.4,0.058485933,0.058510836,0.00078124757,0,0.0,0.0,0.0,0.0,0.0,0.0,0.0,1,1,1,0,0,0
70788000,70708000,1310988,-0.00013022407,-0.0040412685,-0.0011434737,0.15,2.7305492e-07,2.5019884e-07,7.306963e-07,1310988,-0.0043228674,0.0054347487,-0.020934226,0.4,0.058485933,0.058510836,0.00078124576,0,0.0,0.0,0.0,0.0,0.0,0.0,0.0,1,1,1,0,0,0
71788000,71708000,1310988,-2.4500796e-05,-0.0038354178,-0.0011979919,0.15,2.7456116e-07,2.497341e-07,7.3416686e-07,1310988,-0.0043228674,0.0054347487,-0.02194261,0.4,0.058485933,0.058510836,0.00078124576,0,0.0,0.0,0.0,0.0,0.0,0.0,0.0,1,1,1,0,0,0
72788000,72708000,1310988,4.567606e-05,-0.003677728,-0.0012420367,0.15,2.761808e-07,2.4978155e-07,7.3975235e-07,1310988,-0.0043228674,0.0054347487,-0.02257464,0.4,0.058485933,0.058510836,0.0007812487,0,0.0,0.0,0.0,0.0,0.0,0.0,0.0,1,1,1,0,0,0
73188000,73108000,1310988,5.7973422e-05,-0.0036256278,-0.0012578616,0.15,2.7682674e-07,2.4987614e-07,7.422878e-07,1310988,-0.0043228674,0.0054347487,-0.021558257,0.4,0.058485933,0.058510836,0.00078124576,0,0.0,0.0,0.0,0.0,0.0,0.0,0.0,1,1,1,0,0,0
73996000,73916000,1310988,5.1669642e-05,-0.0035386037,-0.0012880805,0.15,2.781659e-07,2.502908e-07,7.473246e-07,1310988,-0.0043228674,0.0054347487,-0.019360697,0.4,0.058485933,0.058510836,0.00078124576,0,0.0,0.0,0.0,0.0,0.0,0.0,0.0,1,1,1,0,0,0
74388000,74308000,1310988,3.3260516e-05,-0.0035009286,-0.0013033537,0.15,2.787462e-07,2.5046248e-07,7.494719e-07,1310988,-0.0043228674,0.0054347487,-0.017779795,0.4,0.058485933,0.058510836,0.00078124576,0,0.0,0.0,0.0,0.0,0.0,0.0,0.0,1,1,1,0,0,0
74788000,74708000,1310988,4.8351135e-06,-0.003463939,-0.001319782,0.15,2.7944083e-07,2.5073192e-07,7.5132516e-07,1310988,-0.0043228674,0.0054347487,-0.016133854,0.4,0.058485933,0.058510836,0.00078124576,0,0.0,0.0,0.0,0.0,0.0,0.0,0.0,1,1,1,0,0,0
75188000,75108000,1310988,-3.335404e-05,-0.003425492,-0.0013380464,0.15,2.8020875e-07,2.5103066e-07,7.5271464e-07,1310988,-0.0043228674,0.0054347487,-0.014403454,0.4,0.058485933,0.058510836,0.00078124576,0,0.0,0.0,0.0,0.0,0.0,0.0,0.0,1,1,1,0,0,0
75588000,75508000,1310988,-5.695956e-05,-0.0034042026,-0.0013486994,0.15,2.8218778e-07,2.5274835e-07,7.548069e-07,1310988,-0.0043228674,0.0054347487,-0.012619488,0.4,0.058485933,0.058510836,0.00078124576,0,0.0,0.0,0.0,0.0,0.0,0.0,0.0,1,1,1,0,0,0
76588000,76508000,1310988,-0.00018948693,-0.0032968265,-0.0014024758,0.15,2.846954e-07,2.5384344e-07,7.5570165e-07,1310988,-0.0043228674,0.0054347487,-0.012764992,0.4,0.058485933,0.058510836,0.00078125787,0,0.0,0.0,0.0,0.0,0.0,0.0,0.0,1,1,1,0,0,0
77588000,77508000,1310988,-0.00033411174,-0.003166235,-0.0014644642,0.15,2.8803566e-07,2.5550634e-07,7.5488373e-07,1310988,-0.0043228674,0.0054347487,-0.01276578,0.4,0.058485933,0.058510836,0.0007812498,0,0.0,0.0,0.0,0.0,0.0,0.0,0.0,1,1,1,0,0,0
78588000,78508000,1310988,-0.00047695334,-0.0030216184,-0.0015303256,0.15,2.9202698e-07,2.5775222e-07,7.535036e-07,1310988,-0.0043228674,0.0054347487,-0.0129049,0.4,0.058485933,0.058510836,0.00078124634,0,0.0,0.0,0.0,0.0,0.0,0.0,0.0,1,1,1,0,0,0
79588000,79508000,1310988,-0.00061107124,-0.002875344,-0.001596531,0.15,2.964843e-07,2.606418e-07,7.5247306e-07,1310988,-0.0043228674,0.0054347487,-0.013369126,0.4,0.058485933,0.058510836,0.0007812469,0,0.0,0.0,0.0,0.0,0.0,0.0,0.0,1,1,1,0,0,0
80588000,80508000,1310988,-0.0007091016,-0.0027625053,-0.0016484625,0.15,3.0190563e-07,2.6490324e-07,7.538234e-07,1310988,-0.0043228674,0.0054347487,-0.014056513,0.4,0.058485933,0.058510836,0.0007812469,0,0.0,0.0,0.0,0.0,0.0,0.0,0.0,1,1,1,0,0,0
81588000,81508000,1310988,-0.00081902754,-0.002629868,-0.0017117463,0.15,3.0692937e-07,2.6868324e-07,7.5439334e-07,1310988,-0.0043228674,0.0054347487,-0.014723895,0.4,0.058485933,0.058510836,0.00078124576,0,0.0,0.0,0.0,0.0,0.0,0.0,0.0,1,1,1,0,0,0
82588000,82508000,1310988,-0.00091561646,-0.0025084526,-0.0017726774,0.15,3.1216092e-07,2.7285273e-07,7.5586104e-07,1310988,-0.0043228674,0.0054347487,-0.015035737,0.4,0.058485933,0.058510836,0.00078124576,0,0.0,0.0,0.0,0.0,0.0,0.0,0.0,1,1,1,0,0,0
83588000,83508000,1310988,-0.0010015871,-0.002397148,-0.0018313237,0.15,3.174917e-07,2.7724292e-07,7.5797016e-07,1310988,-0.0043228674,0.0054347487,-0.0142833665,0.4,0.058485933,0.058510836,0.00078124576,0,0.0,0.0,0.0,0.0,0.0,0.0,0.0,1,1,1,0,0,0
84588000,84508000,1310988,-0.0010816247,-0.0022938952,-0.0018868884,0.15,3.2283947e-07,2.817187e-07,7.603242e-07,1310988,-0.0043228674,0.0054347487,-0.013415764,0.4,0.058485933,0.058510836,0.00078124634,0,0.0,0.0,0.0,0.0,0.0,0.0,0.0,1,1,1,0,0,0
85196000,85116000,1310988,-0.0011351533,-0.0022315031,-0.0019206968,0.15,3.2603162e-07,2.843914e-07,7.613555e-07,1310988,-0.0043228674,0.0054347487,-0.011655174,0.4,0.058485933,0.058510836,0.00078124576,0,0.0,0.0,0.0,0.0,0.0,0.0,0.0,1,1,1,0,0,0
85588000,85508000,1310988,-0.0011753449,-0.002188265,-0.0019433805,0.15,3.2801816e-07,2.8601576e-07,7.615387e-07,1310988,-0.0043228674,0.0054347487,-0.010445393,0.4,0.058485933,0.058510836,0.00078124576,0,0.0,0.0,0.0,0.0,0.0,0.0,0.0,1,1,1,0,0,0
85996000,85916000,1310988,-0.0011981957,-0.0021644172,-0.0019555474,0.15,3.3066596e-07,2.8845625e-07,7.631549e-07,1310988,-0.0043228674,0.0054347487,-0.00893812,0.4,0.058485933,0.058510836,0.00078124576,0,0.0,0.0,0.0,0.0,0.0,0.0,0.0,1,1,1,0,0,0
86388000,86308000,1310988,-0.0012457643,-0.0021166347,-0.0019785068,0.15,3.3259641e-07,2.8997465e-07,7.626679e-07,1310988,-0.0043228674,0.0054347487,-0.007578923,0.4,0.058485933,0.058510836,0.00078124576,0,0.0,0.0,0.0,0.0,0.0,0.0,0.0,1,1,1,0,0,0
86788000,86708000,1310988,-0.0012984632,-0.0020642004,-0.0020016285,0.15,3.3456186e-07,2.9147154e-07,7.6174973e-07,1310988,-0.0043228674,0.0054347487,-0.0059871017,0.4,0.058485933,0.058510836,0.00078124576,0,0.0,0.0,0.0,0.0,0.0,0.0,0.0,1,1,1,0,0,0
87788000,87708000,1310988,-0.0014462062,-0.0019033032,-0.0020583416,0.15,3.3955118e-07,2.94807e-07,7.569979e-07,1310988,-0.0043228674,0.0054347487,-0.0062231915,0.4,0.058485933,0.058510836,0.00078127685,0,0.0,0.0,0.0,0.0,0.0,0.0,0.0,1,1,1,0,0,0
88788000,88708000,1310988,-0.0016044843,-0.0016800178,-0.0021123923,0.15,3.4474056e-07,2.9718615e-07,7.493581e-07,1310988,-0.0043228674,0.0054347487,-0.0061029843,0.4,0.058485933,0.058510836,0.0007812492,0,0.0,0.0,0.0,0.0,0.0,0.0,0.0,1,1,1,0,0,0
89788000,89708000,1310988,-0.0017329061,-0.001406651,-0.002155499,0.15,3.501439e-07,2.9894957e-07,7.4149204e-07,1310988,-0.0043228674,0.0054347487,-0.0060873292,0.4,0.058485933,0.058510836,0.0007812872,0,0.0,0.0,0.0,0.0,0.0,0.0,0.0,1,1,1,0,0,0
90788000,90708000,1310988,-0.001813332,-0.001099764,-0.002185813,0.15,3.5543465e-07,2.9993032e-07,7.3535995e-07,1310988,-0.0043228674,0.0054347487,-0.006001702,0.4,0.058485933,0.058510836,0.00078124925,0,0.0,0.0,0.0,0.0,0.0,0.0,0.0,1,1,1,0,0,0
91788000,91708000,1310988,-0.0018417982,-0.00084982463,-0.0022014226,0.15,3.608715e-07,3.017018e-07,7.341718e-07,1310988,-0.0043228674,0.0054347487,-0.0057268734,0.4,0.058485933,0.058510836,0.00078124576,0,0.0,0.0,0.0,0.0,0.0,0.0,0.0,1,1,1,0,0,0
92788000,92708000,1310988,-0.0018394005,-0.000558986,-0.002213572,0.15,3.6518023e-07,3.017602e-07,7.3377686e-07,1310988,-0.0043228674,0.0054347487,-0.0058183214,0.4,0.058485933,0.058510836,0.00078124576,0,0.0,0.0,0.0,0.0,0.0,0.0,0.0,1,1,1,0,0,0
93788000,93708000,1310988,-0.0018025378,-0.0003084978,-0.0022189468,0.15,3.685733e-07,3.015624e-07,7.3665234e-07,1310988,-0.0043228674,0.0054347487,-0.0056743314,0.4,0.058485933,0.058510836,0.00078124634,0,0.0,0.0,0.0,0.0,0.0,0.0,0.0,1,1,1,0,0,0
94788000,94708000,1310988,-0.0017636511,-0.000113332884,-0.002225204,0.15,3.7086647e-07,3.0141825e-07,7.422911e-07,1310988,-0.0043228674,0.0054347487,-0.0052121575,0.4,0.058485933,0.058510836,0.00078124576,0,0.0,0.0,0.0,0.0,0.0,0.0,0.0,1,1,1,0,0,0
95196000,95116000,1310988,-0.0017565866,-5.0261937e-05,-0.0022300784,0.15,3.7147424e-07,3.0145787e-07,7.4514236e-07,1310988,-0.0043228674,0.0054347487,-0.0034005772,0.4,0.058485933,0.058510836,0.00078124576,0,0.0,0.0,0.0,0.0,0.0,0.0,0.0,1,1,1,0,0,0
95588000,95508000,1310988,-0.0017562018,3.2975668e-06,-0.0022366778,0.15,3.7174e-07,3.0143303e-07,7.4801414e-07,1310988,-0.0043228674,0.0054347487,-0.0023292191,0.4,0.058485933,0.058510836,0.00078124576,0,0.0,0.0,0.0,0.0,0.0,0.0,0.0,1,1,1,0,0,0
95996000,95916000,1310988,-0.0017640858,4.904837e-05,-0.0022452988,0.15,3.7191748e-07,3.0158515e-07,7.510426e-07,1310988,-0.0043228674,0.0054347487,-0.0010643824,0.4,0.058485933,0.058510836,0.00078124576,0,0.0,0.0,0.0,0.0,0.0,0.0,0.0,1,1,1,0,0,0
96388000,96308000,1310988,-0.0017725369,6.9939895e-05,-0.0022509417,0.15,3.7337153e-07,3.0316667e-07,7.5402227e-07,1310988,-0.0043228674,0.0054347487,0.0003070215,0.4,0.058485933,0.058510836,0.00078124576,0,0.0,0.0,0.0,0.0,0.0,0.0,0.0,1,1,1,0,0,0
96788000,96708000,1310988,-0.00179381,0.00010570072,-0.0022625898,0.15,3.7317844e-07,3.0333146e-07,7.568158e-07,1310988,-0.0043228674,0.0054347487,0.001598273,0.4,0.058485933,0.058510836,0.00078124576,0,0.0,0.0,0.0,0.0,0.0,0.0,0.0,1,1,1,0,0,0
97188000,97108000,1310988,-0.0018245695,0.00013619162,-0.0022761999,0.15,3.7279494e-07,3.0353758e-07,7.593677e-07,1310988,-0.0043228674,0.0054347487,0.002906895,0.4,0.058485933,0.058510836,0.00078124576,0,0.0,0.0,0.0,0.0,0.0,0.0,0.0,1,1,1,0,0,0
97596000,97516000,1310988,-0.0018648935,0.00016252845,-0.0022916181,0.15,3.7231118e-07,3.03846e-07,7.6165765e-07,1310988,-0.0043228674,0.0054347487,0.004122267,0.4,0.058485933,0.058510836,0.00078124576,0,0.0,0.0,0.0,0.0,0.0,0.0,0.0,1,1,1,0,0,0
97996000,97916000,1310988,-0.0019152599,0.00018613355,-0.002308993,0.15,3.7163483e-07,3.041328e-07,7.634998e-07,1310988,-0.0043228674,0.0054347487,0.005520924,0.4,0.058485933,0.058510836,0.00078124576,0,0.0,0.0,0.0,0.0,0.0,0.0,0.0,1,1,1,0,0,0
98388000,98308000,1310988,-0.001973717,0.00020737937,-0.002327528,0.15,3.708099e-07,3.0440265e-07,7.649078e-07,1310988,-0.0043228674,0.0054347487,0.006816449,0.4,0.058485933,0.058510836,0.00078124576,0,0.0,0.0,0.0,0.0,0.0,0.0,0.0,1,1,1,0,0,0
98796000,98716000,1310988,-0.002039026,0.00022692468,-0.0023468721,0.15,3.7003397e-07,3.0484009e-07,7.661162e-07,1310988,-0.0043228674,0.0054347487,0.008111072,0.4,0.058485933,0.058510836,0.00078124576,0,0.0,0.0,0.0,0.0,0.0,0.0,0.0,1,1,1,0,0,0
99188000,99108000,1310988,-0.002109671,0.00024507503,-0.00236653,0.15,3.6907736e-07,3.051837e-07,7.6693334e-07,1310988,-0.0043228674,0.0054347487,0.009286569,0.4,0.058485933,0.058510836,0.00078124576,0,0.0,0.0,0.0,0.0,0.0,0.0,0.0,1,1,1,0,0,0
99596000,99516000,1310988,-0.0021844096,0.00026211634,-0.0023861674,0.15,3.6820305e-07,3.0567895e-07,7.676852e-07,1310988,-0.0043228674,0.0054347487,0.0102892555,0.4,0.058485933,0.058510836,0.00078124576,0,0.0,0.0,0.0,0.0,0.0,0.0,0.0,1,1,1,0,0,0
99996000,99916000,1310988,-0.0022625371,0.00027833992,-0.002405764,0.15,3.6722162e-07,3.061202e-07,7.682547e-07,1310988,-0.0043228674,0.0054347487,0.011310358,0.4,0.058485933,0.058510836,0.00078124576,0,0.0,0.0,0.0,0.0,0.0,0.0,0.0,1,1,1,0,0,0
100788000,100708000,1310988,-0.0024245565,0.0003084464,-0.0024439932,0.15,3.6504636e-07,3.069066e-07,7.6926233e-07,1310988,-0.0043228674,0.0054347487,0.013141675,0.4,0.058485933,0.058510836,0.00078124576,0,0.0,0.0,0.0,0.0,0.0,0.0,0.0,1,1,1,0,0,0
101284000,101204000,1310988,-0.0025069956,0.00032217722,-0.0024626264,0.15,3.646532e-07,3.0805026e-07,7.706543e-07,1310988,-0.0043228674,0.0054347487,0.014145843,0.4,0.058485933,0.058510836,0.00078124576,0,0.0,0.0,0.0,0.0,0.0,0.0,0.0,1,1,1,0,0,0
101596000,101516000,1310988,-0.0025487128,0.0003283155,-0.0024721157,0.15,3.649232e-07,3.0910974e-07,7.719016e-07,1310988,-0.0043228674,0.0054347487,0.015146101,0.4,0.058485933,0.058510836,0.00078124576,0,0.0,0.0,0.0,0.0,0.0,0.0,0.0,1,1,1,0,0,0
102388000,102308000,1310988,-0.0027110963,0.0003503164,-0.0025075548,0.15,3.6216602e-07,3.0953484e-07,7.736686e-07,1310988,-0.0043228674,0.0054347487,0.016980499,0.4,0.058485933,0.058510836,0.00078124576,0,0.0,0.0,0.0,0.0,0.0,0.0,0.0,1,1,1,0,0,0
103188000,103108000,1310988,-0.002866854,0.00036448412,-0.0025416357,0.15,3.5895738e-07,3.0968454e-07,7.7622434e-07,1310988,-0.0043228674,0.0054347487,0.0189806,0.4,0.058485933,0.058510836,0.00078124576,0,0.0,0.0,0.0,0.0,0.0,0.0,0.0,1,1,1,0,0,0
103596000,103516000,1310988,-0.002940961,0.0003676482,-0.0025582614,0.15,3.5718517e-07,3.096726e-07,7.7783807e-07,1310988,-0.0043228674,0.0054347487,0.02009256,0.4,0.058485933,0.058510836,0.00078124576,0,0.0,0.0,0.0,0.0,0.0,0.0,0.0,1,1,1,0,0,0
103996000,103916000,1310988,-0.0030119773,0.00036764028,-0.0025746527,0.15,3.5517277e-07,3.0948596e-07,7.795473e-07,1310988,-0.0043228674,0.0054347487,0.021283327,0.4,0.058485933,0.058510836,0.00078124576,0,0.0,0.0,0.0,0.0,0.0,0.0,0.0,1,1,1,0,0,0
104396000,104316000,1310988,-0.003079549,0.0003641234,-0.0025908195,0.15,3.5296767e-07,3.0918054e-07,7.8138675e-07,1310988,-0.0043228674,0.0054347487,0.022495823,0.4,0.058485933,0.058510836,0.00078124576,0,0.0,0.0,0.0,0.0,0.0,0.0,0.0,1,1,1,0,0,0
104788000,104708000,1310988,-0.0031434898,0.00035648234,-0.002606881,0.15,3.504908e-07,3.08686e-07,7.832534e-07,1310988,-0.0043228674,0.0054347487,0.023877807,0.4,0.058485933,0.058510836,0.00078124576,0,0.0,0.0,0.0,0.0,0.0,0.0,0.0,1,1,1,0,0,0
105188000,105108000,1310988,-0.0032035739,0.00034448126,-0.0026228358,0.15,3.478574e-07,3.081229e-07,7.8522976e-07,1310988,-0.0043228674,0.0054347487,0.02534347,0.4,0.058485933,0.058510836,0.00078124576,0,0.0,0.0,0.0,0.0,0.0,0.0,0.0,1,1,1,0,0,0
105588000,105508000,1310988,-0.0032596304,0.00032799153,-0.0026386564,0.15,3.4499408e-07,3.0742152e-07,7.8720115e-07,1310988,-0.0043228674,0.0054347487,0.026769608,0.4,0.058485933,0.058510836,0.00078124576,0,0.0,0.0,0.0,0.0,0.0,0.0,0.0,1,1,1,0,0,0
105996000,105916000,1310988,-0.0033115617,0.00030667978,-0.002654386,0.15,3.419604e-07,3.066404e-07,7.8917844e-07,1310988,-0.0043228674,0.0054347487,0.028194103,0.4,0.058485933,0.058510836,0.00078124576,0,0.0,0.0,0.0,0.0,0.0,0.0,0.0,1,1,1,0,0,0
106388000,106308000,1310988,-0.003359291,0.00028040758,-0.0026700208,0.15,3.3856398e-07,3.0559266e-07,7.9091586e-07,1310988,-0.0043228674,0.0054347487,0.029563926,0.4,0.058485933,0.058510836,0.00078124576,0,0.0,0.0,0.0,0.0,0.0,0.0,0.0,1,1,1,0,0,0
106796000,106716000,1310988,-0.003381493,0.00026365192,-0.0026782197,0.15,3.384749e-07,3.0663622e-07,7.9341703e-07,1310988,-0.0043228674,0.0054347487,0.03110192,0.4,0.058485933,0.058510836,0.00078124576,0,0.0,0.0,0.0,0.0,0.0,0.0,0.0,1,1,1,0,0,0
107796000,107716000,1310988,-0.0034840882,0.000164784,-0.0027191783,0.15,3.2877642e-07,3.0341263e-07,7.96508e-07,1310988,-0.0043228674,0.0054347487,0.030862017,0.4,0.058485933,0.058510836,0.0007812492,0,0.0,0.0,0.0,0.0,0.0,0.0,0.0,1,1,1,0,0,0
108796000,108716000,1310988,-0.0036147889,4.6190326e-06,-0.0027783478,0.15,3.1725486e-07,2.9960412e-07,7.959555e-07,1310988,-0.0043228674,0.0054347487,0.030862017,0.4,0.058485933,0.058510836,0.0007812492,0,0.0,0.0,0.0,0.0,0.0,0.0,0.0,1,1,1,0,0,0
109796000,109716000,1310988,-0.0037885942,-0.00022261872,-0.0028596143,0.15,3.0437437e-07,2.958119e-07,7.901029e-07,1310988,-0.0043228674,0.0054347487,0.030877883,0.4,0.058485933,0.058510836,0.0007812696,0,0.0,0.0,0.0,0.0,0.0,0.0,0.0,1,1,1,0,0,0
110796000,110716000,1310988,-0.003975113,-0.00051062176,-0.002956994,0.15,2.914828e-07,2.9149248e-07,7.8005377e-07,1310988,-0.0043228674,0.0054347487,0.030910904,0.4,0.058485933,0.058510836,0.00078124634,0,0.0,0.0,0.0,0.0,0.0,0.0,0.0,1,1,1,0,0,0
111796000,111716000,1310988,-0.004141454,-0.00083407096,-0.003059814,0.15,2.8022507e-07,2.8727922e-07,7.6818156e-07,1310988,-0.0043228674,0.0054347487,0.030180097,0.4,0.058485933,0.058510836,0.00078124576,0,0.0,0.0,0.0,0.0,0.0,0.0,0.0,1,1,1,0,0,0
112420000,112340000,1310988,-0.0042247246,-0.001040456,-0.003123555,0.15,2.7463233e-07,2.846173e-07,7.6092374e-07,1310988,-0.0043228674,0.0054347487,0.029133439,0.4,0.058485933,0.058510836,0.00078124576,0,0.0,0.0,0.0,0.0,0.0,0.0,0.0,1,1,1,0,0,0
112836000,112756000,1310988,-0.0042713876,-0.0011810854,-0.0031664507,0.15,2.7140226e-07,2.829573e-07,7.561657e-07,1310988,-0.0043228674,0.0054347487,0.02802138,0.4,0.058485933,0.058510836,0.00078124576,0,0.0,0.0,0.0,0.0,0.0,0.0,0.0,1,1,1,0,0,0
113252000,113172000,1310988,-0.0043104854,-0.0013239413,-0.0032100596,0.15,2.6855227e-07,2.8130304e-07,7.5148023e-07,1310988,-0.0043228674,0.0054347487,0.026642755,0.4,0.058485933,0.058510836,0.00078124576,0,0.0,0.0,0.0,0.0,0.0,0.0,0.0,1,1,1,0,0,0
113596000,113516000,1310988,-0.004326854,-0.0013947936,-0.0032312688,0.15,2.6835355e-07,2.8139607e-07,7.5016425e-07,1310988,-0.0043228674,0.0054347487,0.025566166,0.4,0.058485933,0.058510836,0.00078124576,0,0.0,0.0,0.0,0.0,0.0,0.0,0.0,1,1,1,0,0,0
113876000,113796000,1310988,-0.0043538576,-0.0015410987,-0.0032771186,0.15,2.6497614e-07,2.7897602e-07,7.4471484e-07,1310988,-0.0043228674,0.0054347487,0.024154508,0.4,0.058485933,0.058510836,0.00078124576,0,0.0,0.0,0.0,0.0,0.0,0.0,0.0,1,1,1,0,0,0
114084000,114004000,1310988,-0.00436403,-0.0016132711,-0.0032994365,0.15,2.6396347e-07,2.7805604e-07,7.42419e-07,1310988,-0.0043228674,0.0054347487,0.023036465,0.4,0.058485933,0.058510836,0.00078124576,0,0.0,0.0,0.0,0.0,0.0,0.0,0.0,1,1,1,0,0,0
114340000,114260000,1310988,-0.004372057,-0.0016857567,-0.0033221864,0.15,2.634221e-07,2.7771776e-07,7.4066315e-07,1310988,-0.0043228674,0.0054347487,0.021926936,0.4,0.058485933,0.058510836,0.00078124576,0,0.0,0.0,0.0,0.0,0.0,0.0,0.0,1,1,1,0,0,0
114500000,114420000,1310988,-0.0043778587,-0.0017584696,-0.0033454117,0.15,2.6219718e-07,2.7648167e-07,7.380695e-07,1310988,-0.0043228674,0.0054347487,0.020849342,0.4,0.058485933,0.058510836,0.00078124576,0,0.0,0.0,0.0,0.0,0.0,0.0,0.0,1,1,1,0,0,0
114708000,114628000,1310988,-0.004381405,-0.0018311306,-0.0033689693,0.15,2.6143957e-07,2.7578125e-07,7.3600484e-07,1310988,-0.0043228674,0.0054347487,0.019752285,0.4,0.058485933,0.058510836,0.00078124576,0,0.0,0.0,0.0,0.0,0.0,0.0,0.0,1,1,1,0,0,0
114916000,114836000,1310988,-0.004382707,-0.0019034173,-0.0033926547,0.15,2.6075864e-07,2.749453e-07,7.3384376e-07,1310988,-0.0043228674,0.0054347487,0.018556286,0.4,0.058485933,0.058510836,0.00078124576,0,0.0,0.0,0.0,0.0,0.0,0.0,0.0,1,1,1,0,0,0
115124000,115044000,1310988,-0.004381642,-0.0019758036,-0.003417033,0.15,2.601596e-07,2.7425412e-07,7.318427e-07,1310988,-0.0043228674,0.0054347487,0.017486567,0.4,0.058485933,0.058510836,0.00078124576,0,0.0,0.0,0.0,0.0,0.0,0.0,0.0,1,1,1,0,0,0
115332000,115252000,1310988,-0.0043783286,-0.0020475772,-0.003441504,0.15,2.596269e-07,2.734558e-07,7.2974683e-07,1310988,-0.0043228674,0.0054347487,0.016305234,0.4,0.058485933,0.058510836,0.00078124576,0,0.0,0.0,0.0,0.0,0.0,0.0,0.0,1,1,1,0,0,0
115540000,115460000,1310988,-0.0043726056,-0.0021191211,-0.0034665938,0.15,2.59176e-07,2.7277835e-07,7.278107e-07,1310988,-0.0043228674,0.0054347487,0.015231056,0.4,0.058485933,0.058510836,0.00078124576,0,0.0,0.0,0.0,0.0,0.0,0.0,0.0,1,1,1,0,0,0
115748000,115668000,1310988,-0.0043644854,-0.0021898972,-0.0034918785,0.15,2.5877935e-07,2.7201781e-07,7.257805e-07,1310988,-0.0043228674,0.0054347487,0.014101693,0.4,0.058485933,0.058510836,0.00078124576,0,0.0,0.0,0.0,0.0,0.0,0.0,0.0,1,1,1,0,0,0
115956000,115876000,1310988,-0.0043536588,-0.002259933,-0.0035176324,0.15,2.5846467e-07,2.7135354e-07,7.239062e-07,1310988,-0.0043228674,0.0054347487,0.013044607,0.4,0.058485933,0.058510836,0.00078124576,0,0.0,0.0,0.0,0.0,0.0,0.0,0.0,1,1,1,0,0,0
116164000,116084000,1310988,-0.0043399706,-0.0023289146,-0.003543755,0.15,2.5818971e-07,2.706283e-07,7.21933e-07,1310988,-0.0043228674,0.0054347487,0.012030036,0.4,0.058485933,0.058510836,0.00078124576,0,0.0,0.0,0.0,0.0,0.0,0.0,0.0,1,1,1,0,0,0
116580000,116500000,1310988,-0.004303534,-0.002462707,-0.003596933,0.15,2.5782404e-07,2.6928197e-07,7.1815964e-07,1310988,-0.0043228674,0.0054347487,0.010109423,0.4,0.058485933,0.058510836,0.00078124576,0,0.0,0.0,0.0,0.0,0.0,0.0,0.0,1,1,1,0,0,0
116788000,116708000,1310988,-0.0042807497,-0.0025269287,-0.0036236783,0.15,2.5774273e-07,2.686436e-07,7.163681e-07,1310988,-0.0043228674,0.0054347487,0.009097202,0.4,0.058485933,0.058510836,0.00078124576,0,0.0,0.0,0.0,0.0,0.0,0.0,0.0,1,1,1,0,0,0
117204000,117124000,1310988,-0.004224264,-0.00264989,-0.003679894,0.15,2.576047e-07,2.6735222e-07,7.1249036e-07,1310988,-0.0043228674,0.0054347487,0.008077659,0.4,0.058485933,0.058510836,0.00078124576,0,0.0,0.0,0.0,0.0,0.0,0.0,0.0,1,1,1,0,0,0
117620000,117540000,1310988,-0.00415528,-0.002762821,-0.0037362585,0.15,2.5766616e-07,2.6613196e-07,7.086793e-07,1310988,-0.0043228674,0.0054347487,0.006981308,0.4,0.058485933,0.058510836,0.00078124576,0,0.0,0.0,0.0,0.0,0.0,0.0,0.0,1,1,1,0,0,0
118244000,118164000,1310988,-0.004029292,-0.0029116157,-0.0038212005,0.15,2.5801e-07,2.6441248e-07,7.0272375e-07,1310988,-0.0043228674,0.0054347487,0.005408996,0.4,0.058485933,0.058510836,0.00078124576,0,0.0,0.0,0.0,0.0,0.0,0.0,0.0,1,1,1,0,0,0
118396000,118316000,1310988,-0.0040268884,-0.0029109824,-0.0038241695,0.15,2.5911788e-07,2.6562108e-07,7.037742e-07,1310988,-0.0043228674,0.0054347487,0.006655239,0.4,0.058485933,0.058510836,0.00078124576,0,0.0,0.0,0.0,0.0,0.0,0.0,0.0,1,1,1,0,0,0
118660000,118580000,1310988,-0.0039305305,-0.0029957574,-0.0038791462,0.15,2.5831056e-07,2.6336767e-07,6.9842133e-07,1310988,-0.0043228674,0.0054347487,0.004937223,0.4,0.058485933,0.058510836,0.00078124576,0,0.0,0.0,0.0,0.0,0.0,0.0,0.0,1,1,1,0,0,0
118796000,118716000,1310988,-0.003927447,-0.002994489,-0.0038828987,0.15,2.5928622e-07,2.6443678e-07,6.9934276e-07,1310988,-0.0043228674,0.0054347487,0.0064888666,0.4,0.058485933,0.058510836,0.00078124576,0,0.0,0.0,0.0,0.0,0.0,0.0,0.0,1,1,1,0,0,0
119076000,118996000,1310988,-0.0038213565,-0.0030668702,-0.003937791,0.15,2.5866612e-07,2.624365e-07,6.9385396e-07,1310988,-0.0043228674,0.0054347487,0.004875763,0.4,0.058485933,0.058510836,0.00078124576,0,0.0,0.0,0.0,0.0,0.0,0.0,0.0,1,1,1,0,0,0
119196000,119116000,1310988,-0.0038177331,-0.0030649088,-0.0039421744,0.15,2.5951195e-07,2.6336318e-07,6.9464664e-07,1310988,-0.0043228674,0.0054347487,0.006662841,0.4,0.058485933,0.058510836,0.00078124576,0,0.0,0.0,0.0,0.0,0.0,0.0,0.0,1,1,1,0,0,0
119492000,119412000,1310988,-0.003703148,-0.0031246117,-0.003996521,0.15,2.590594e-07,2.616418e-07,6.889917e-07,1310988,-0.0043228674,0.0054347487,0.005009916,0.4,0.058485933,0.058510836,0.00078124576,0,0.0,0.0,0.0,0.0,0.0,0.0,0.0,1,1,1,0,0,0
119596000,119516000,1310988,-0.0036993646,-0.0031221237,-0.004001103,0.15,2.5978403e-07,2.6242742e-07,6.89666e-07,1310988,-0.0043228674,0.0054347487,0.006852885,0.4,0.058485933,0.058510836,0.00078124576,0,0.0,0.0,0.0,0.0,0.0,0.0,0.0,1,1,1,0,0,0
119908000,119828000,1310988,-0.0035771683,-0.003169063,-0.0040553003,0.15,2.594703e-07,2.6099733e-07,6.8386026e-07,1310988,-0.0043228674,0.0054347487,0.0052802106,0.4,0.058485933,0.058510836,0.00078124576,0,0.0,0.0,0.0,0.0,0.0,0.0,0.0,1,1,1,0,0,0
119988000,119908000,1310988,-0.0035735327,-0.0031663706,-0.0040597315,0.15,2.600067e-07,2.6158054e-07,6.843462e-07,1310988,-0.0043228674,0.0054347487,0.0070579997,0.4,0.058485933,0.058510836,0.00078124576,0,0.0,0.0,0.0,0.0,0.0,0.0,0.0,1,1,1,0,0,0
120324000,120244000,1310988,-0.0034459902,-0.0032017066,-0.0041132187,0.15,2.5988854e-07,2.6052388e-07,6.7858423e-07,1310988,-0.0043228674,0.0054347487,0.005309703,0.4,0.058485933,0.058510836,0.00078124576,0,0.0,0.0,0.0,0.0,0.0,0.0,0.0,1,1,1,0,0,0
120388000,120308000,1310988,-0.0034421731,-0.0031986902,-0.004117884,0.15,2.60302e-07,2.6097433e-07,6.7894905e-07,1310988,-0.0043228674,0.0054347487,0.007208766,0.4,0.058485933,0.058510836,0.00078124576,0,0.0,0.0,0.0,0.0,0.0,0.0,0.0,1,1,1,0,0,0
120740000,120660000,1310988,-0.003310792,-0.0032232148,-0.004171023,0.15,2.603096e-07,2.6023767e-07,6.7331155e-07,1310988,-0.0043228674,0.0054347487,0.005402744,0.4,0.058485933,0.058510836,0.00078124576,0,0.0,0.0,0.0,0.0,0.0,0.0,0.0,1,1,1,0,0,0
120796000,120716000,1310988,-0.0033070114,-0.0032201568,-0.004175613,0.15,2.606653e-07,2.6062528e-07,6.7362345e-07,1310988,-0.0043228674,0.0054347487,0.0073422007,0.4,0.058485933,0.058510836,0.00078124576,0,0.0,0.0,0.0,0.0,0.0,0.0,0.0,1,1,1,0,0,0
121156000,121076000,1310988,-0.0031735727,-0.003234954,-0.0042283772,0.15,2.607343e-07,2.6014771e-07,6.6820405e-07,1310988,-0.0043228674,0.0054347487,0.005464132,0.4,0.058485933,0.058510836,0.00078124576,0,0.0,0.0,0.0,0.0,0.0,0.0,0.0,1,1,1,0,0,0
121196000,121116000,1310988,-0.0031698558,-0.0032319843,-0.0042328094,0.15,2.6097055e-07,2.6041425e-07,6.684049e-07,1310988,-0.0043228674,0.0054347487,0.0074572205,0.4,0.058485933,0.058510836,0.00078124576,0,0.0,0.0,0.0,0.0,0.0,0.0,0.0,1,1,1,0,0,0
121572000,121492000,1310988,-0.0030359696,-0.0032381187,-0.004285164,0.15,2.611686e-07,2.6025577e-07,6.634095e-07,1310988,-0.0043228674,0.0054347487,0.005517304,0.4,0.058485933,0.058510836,0.00078124576,0,0.0,0.0,0.0,0.0,0.0,0.0,0.0,1,1,1,0,0,0
121588000,121508000,1310988,-0.0030324566,-0.0032354246,-0.004289217,0.15,2.6122243e-07,2.6034016e-07,6.6343875e-07,1310988,-0.0043228674,0.0054347487,0.0075060916,0.4,0.058485933,0.058510836,0.00078124576,0,0.0,0.0,0.0,0.0,0.0,0.0,0.0,1,1,1,0,0,0
121780000,121700000,1310988,-0.0029658503,-0.003235612,-0.0043151695,0.15,2.6135757e-07,2.6036264e-07,6.6111943e-07,1310988,-0.0043228674,0.0054347487,0.006482068,0.4,0.058485933,0.058510836,0.00078124576,0,0.0,0.0,0.0,0.0,0.0,0.0,0.0,1,1,1,0,0,0
121996000,121916000,1310988,-0.0028960365,-0.0032314337,-0.004344861,0.15,2.616188e-07,2.6058547e-07,6.5902464e-07,1310988,-0.0043228674,0.0054347487,0.0075974385,0.4,0.058485933,0.058510836,0.00078124576,0,0.0,0.0,0.0,0.0,0.0,0.0,0.0,1,1,1,0,0,0
122196000,122116000,1310988,-0.0028303221,-0.0032281284,-0.0043705893,0.15,2.6182502e-07,2.607575e-07,6.5700317e-07,1310988,-0.0043228674,0.0054347487,0.006571061,0.4,0.058485933,0.058510836,0.00078124576,0,0.0,0.0,0.0,0.0,0.0,0.0,0.0,1,1,1,0,0,0
122388000,122308000,1310988,-0.0028267596,-0.003225816,-0.004374082,0.15,2.6329187e-07,2.622642e-07,6.5847223e-07,1310988,-0.0043228674,0.0054347487,0.008841538,0.4,0.058485933,0.058510836,0.00078124576,0,0.0,0.0,0.0,0.0,0.0,0.0,0.0,1,1,1,0,0,0
122404000,122324000,1310988,-0.0027620166,-0.0032211524,-0.0043993974,0.15,2.620448e-07,2.610101e-07,6.5512035e-07,1310988,-0.0043228674,0.0054347487,0.007634646,0.4,0.058485933,0.058510836,0.00078124576,0,0.0,0.0,0.0,0.0,0.0,0.0,0.0,1,1,1,0,0,0
122796000,122716000,1310988,-0.0026943504,-0.0032129106,-0.004427778,0.15,2.6373527e-07,2.6277547e-07,6.5485085e-07,1310988,-0.0043228674,0.0054347487,0.008962856,0.4,0.058485933,0.058510836,0.00078124576,0,0.0,0.0,0.0,0.0,0.0,0.0,0.0,1,1,1,0,0,0
122820000,122740000,1310988,-0.0026312931,-0.0032054214,-0.004452797,0.15,2.6256473e-07,2.616573e-07,6.5183474e-07,1310988,-0.0043228674,0.0054347487,0.0077613518,0.4,0.058485933,0.058510836,0.00078124576,0,0.0,0.0,0.0,0.0,0.0,0.0,0.0,1,1,1,0,0,0
123188000,123108000,1310988,-0.0025659292,-0.0031951133,-0.004480052,0.15,2.6409e-07,2.6330923e-07,6.516767e-07,1310988,-0.0043228674,0.0054347487,0.0090409545,0.4,0.058485933,0.058510836,0.00078124576,0,0.0,0.0,0.0,0.0,0.0,0.0,0.0,1,1,1,0,0,0
123236000,123156000,1310988,-0.0025049997,-0.0031852268,-0.0045046937,0.15,2.6312904e-07,2.624473e-07,6.4913837e-07,1310988,-0.0043228674,0.0054347487,0.007859314,0.4,0.058485933,0.058510836,0.00078124576,0,0.0,0.0,0.0,0.0,0.0,0.0,0.0,1,1,1,0,0,0
123596000,123516000,1310988,-0.0024421043,-0.0031731655,-0.004530859,0.15,2.6462067e-07,2.6410322e-07,6.492237e-07,1310988,-0.0043228674,0.0054347487,0.009290357,0.4,0.058485933,0.058510836,0.00078124576,0,0.0,0.0,0.0,0.0,0.0,0.0,0.0,1,1,1,0,0,0
123652000,123572000,1310988,-0.0023836426,-0.0031612841,-0.0045550484,0.15,2.6374397e-07,2.6336176e-07,6.4703966e-07,1310988,-0.0043228674,0.0054347487,0.008172066,0.4,0.058485933,0.058510836,0.00078124576,0,0.0,0.0,0.0,0.0,0.0,0.0,0.0,1,1,1,0,0,0
123988000,123908000,1310988,-0.002323829,-0.0031479404,-0.004579885,0.15,2.6508013e-07,2.648838e-07,6.4723577e-07,1310988,-0.0043228674,0.0054347487,0.009529319,0.4,0.058485933,0.058510836,0.00078124576,0,0.0,0.0,0.0,0.0,0.0,0.0,0.0,1,1,1,0,0,0
124068000,123988000,1310988,-0.002268164,-0.0031344753,-0.004603491,0.15,2.644229e-07,2.6438428e-07,6.4553257e-07,1310988,-0.0043228674,0.0054347487,0.008466025,0.4,0.058485933,0.058510836,0.00078124576,0,0.0,0.0,0.0,0.0,0.0,0.0,0.0,1,1,1,0,0,0
124396000,124316000,1310988,-0.002211564,-0.0031201562,-0.004626971,0.15,2.6573156e-07,2.658909e-07,6.4595423e-07,1310988,-0.0043228674,0.0054347487,0.009851179,0.4,0.058485933,0.058510836,0.00078124576,0,0.0,0.0,0.0,0.0,0.0,0.0,0.0,1,1,1,0,0,0
124484000,124404000,1310988,-0.0021589221,-0.003105482,-0.0046498817,0.15,2.6516966e-07,2.6549878e-07,6.445946e-07,1310988,-0.0043228674,0.0054347487,0.008847122,0.4,0.058485933,0.058510836,0.00078124576,0,0.0,0.0,0.0,0.0,0.0,0.0,0.0,1,1,1,0,0,0
124788000,124708000,1310988,-0.002105713,-0.0030904787,-0.0046719788,0.15,2.6632674e-07,2.6685413e-07,6.450971e-07,1310988,-0.0043228674,0.0054347487,0.010237581,0.4,0.058485933,0.058510836,0.00078124576,0,0.0,0.0,0.0,0.0,0.0,0.0,0.0,1,1,1,0,0,0
125108000,125028000,1310988,-0.0020082488,-0.0030591325,-0.0047156895,0.15,2.6643642e-07,2.6731416e-07,6.4418884e-07,1310988,-0.0043228674,0.0054347487,0.008565755,0.4,0.058485933,0.058510836,0.00078124576,0,0.0,0.0,0.0,0.0,0.0,0.0,0.0,1,1,1,0,0,0
125188000,125108000,1310988,-0.0020063939,-0.0030595716,-0.0047146776,0.15,2.6705956e-07,2.6795323e-07,6.4482384e-07,1310988,-0.0043228674,0.0054347487,0.01084675,0.4,0.058485933,0.058510836,0.00078124576,0,0.0,0.0,0.0,0.0,0.0,0.0,0.0,1,1,1,0,0,0
125524000,125444000,1310988,-0.00191543,-0.003027343,-0.004756441,0.15,2.6737263e-07,2.6860394e-07,6.4453343e-07,1310988,-0.0043228674,0.0054347487,0.009363016,0.4,0.058485933,0.058510836,0.00078124576,0,0.0,0.0,0.0,0.0,0.0,0.0,0.0,1,1,1,0,0,0
