timestamp,timestamp_sample,lat,lon,alt,alt_ellipsoid,delta_alt,eph,epv,terrain_alt,lat_lon_reset_counter,alt_reset_counter,terrain_alt_valid,dead_reckoning
8788000,8788000,47.397750804342955,8.545607397803055,488.10025,488.10303,-0.00549623,1.7320508,1.4142135,nan,2,2,0,0
8796000,8796000,47.39775080292861,8.54560739790271,488.09982,488.1026,-0.00549623,1.7320541,1.4142181,nan,2,2,0,0
9788000,9788000,47.39775075047745,8.545607378341435,488.08246,488.08725,-0.00549623,1.3003454,1.1174281,nan,2,2,0,0
10788000,10788000,47.39775076311258,8.54560745058095,488.09003,488.09497,-0.00549623,1.1678592,1.069457,nan,2,2,0,0
11788000,11788000,47.397750848529355,8.545607394017749,488.07724,488.0836,-0.00549623,1.1442736,1.0642053,nan,2,2,0,0
12788000,12788000,47.397750859774,8.545607378479955,488.07132,488.0797,-0.00549623,1.1392157,1.0638095,nan,2,2,0,0
13788000,13788000,47.397750768948534,8.545607446311745,488.07425,488.08545,-0.00549623,1.1196893,1.0562005,nan,2,2,0,0
14788000,14788000,47.397750717584756,8.545607454201939,488.07312,488.08627,-0.00549623,1.1288769,1.0584152,nan,2,2,0,0
15788000,15788000,47.39775084342806,8.545607358714774,488.07834,488.09418,-0.00549623,1.1148012,1.0534024,nan,2,2,0,0
16788000,16788000,47.39775084081583,8.545607376176672,488.07535,488.09186,-0.00549623,1.1262783,1.0568076,nan,2,2,0,0
17788000,17788000,47.39775083656239,8.545607386173529,488.0688,488.08676,-0.00549623,1.1135178,1.0529801,nan,2,2,0,0
18788000,18788000,47.39775081281271,8.545607358528338,488.0641,488.08353,-0.00549623,1.1249714,1.0570184,nan,2,2,0,0
19788000,19788000,47.3977508291798,8.545607363688758,488.05743,488.0792,-0.00549623,1.1127619,1.0533051,nan,2,2,0,0
20788000,20788000,47.397750920350326,8.545607378498795,488.05548,488.07935,-0.00549623,1.1237231,1.0574112,nan,2,2,0,0
21788000,21788000,47.39775088435186,8.54560728883084,488.0568,488.08377,-0.00549623,1.1121172,1.0535481,nan,2,2,0,0
22788000,22788000,47.39775085513949,8.54560724861313,488.04788,488.0763,-0.00549623,1.122769,1.057568,nan,2,2,0,0
23788000,23788000,47.39775092449475,8.545607442936307,488.03766,488.06998,-0.00549623,1.1114836,1.0535598,nan,2,2,0,0
24788000,24788000,47.39775094116712,8.545607460179001,488.03772,488.07416,-0.00549623,1.1019567,1.0498303,nan,2,2,0,0
25788000,25788000,47.39775089421882,8.545607323253394,488.02716,488.06598,-0.00549623,1.110948,1.0534971,nan,2,2,0,0
26788000,26788000,47.39775090603302,8.545607221125934,488.02243,488.0643,-0.00549623,1.1212101,1.0578928,nan,2,2,0,0
27788000,27788000,47.39775085095152,8.545607326011591,488.01483,488.06128,-0.00549623,1.1106175,1.0537803,nan,2,2,0,0
28788000,28788000,47.397750764970446,8.54560729536397,487.99408,488.04465,-0.00549623,1.1208322,1.0571771,nan,2,2,0,0
29788000,29788000,47.397750737686565,8.545607245333125,487.98633,488.04425,-0.00549623,1.1104379,1.0538099,nan,2,2,0,0
30788000,30788000,47.397750698469686,8.54560721655594,487.9645,488.03076,-0.00549623,1.1013323,1.0500479,nan,2,2,0,0
31788000,31788000,47.39775071033057,8.54560719508938,487.9546,488.02722,-0.00549623,1.1102494,1.0537543,nan,2,2,0,0
32788000,32788000,47.397750856102604,8.545607153574936,487.94058,488.0201,-0.00549623,1.120328,1.0576988,nan,2,2,0,0
33788000,33788000,47.397750909230425,8.545607105653447,487.94507,488.03333,-0.00549623,1.1100249,1.0536681,nan,2,2,0,0
34788000,34788000,47.39775095782285,8.545606937044763,487.966,488.05905,-0.00549623,1.1200964,1.057584,nan,2,2,0,0
35788000,35788000,47.39774961606789,8.545606608306628,488.2253,488.3203,-0.00549623,1.1099797,1.0537014,nan,2,2,0,0
36788000,36788000,47.39774850903489,8.545606424881639,489.09433,489.18292,-0.00549623,1.1011292,1.0496535,nan,2,2,0,0
37788000,37788000,47.39774908531832,8.545606567503858,490.224,490.30634,-0.00549623,1.1099788,1.0538721,nan,2,2,0,0
38788000,38788000,47.39774993138796,8.545607049613357,491.5234,491.5981,-0.00549623,1.1236391,1.0577803,nan,2,2,0,0
39788000,39788000,47.39775056840841,8.545607049846518,492.93607,493.00018,-0.00549623,1.111956,1.0536895,nan,2,2,0,0
40788000,40788000,47.39775086900129,8.545606880861559,494.41394,494.46942,-0.00549623,1.1021897,1.0499326,nan,2,2,0,0
41788000,41788000,47.397750929107985,8.54560682114675,495.9256,495.97678,-0.00549623,1.1132123,1.0536524,nan,2,2,0,0
42788000,42788000,47.39775087521521,8.545606918122164,497.08392,497.136,-0.00549623,1.125355,1.0576102,nan,2,2,0,0
43788000,43788000,47.39775232566375,8.54560840002596,497.72278,497.78238,-0.00549623,1.1129593,1.0536164,nan,2,2,0,0
44788000,44788000,47.39777135460849,8.545617810396267,497.84253,497.9109,-0.00549623,1.1241068,1.0575871,nan,2,2,0,0
45788000,45788000,47.397808675016265,8.545636205066504,497.8025,497.88248,-0.00549623,1.1123935,1.0538987,nan,2,2,0,0
46788000,46788000,47.397846586526335,8.545660419130108,497.76312,497.85046,-0.00549623,1.125278,1.0577453,nan,2,2,0,0
47788000,47788000,47.39788434111227,8.545686974981242,497.78098,497.88,-0.00549623,1.1129345,1.0542552,nan,2,2,0,0
48788000,48788000,47.39792287997955,8.545713124175688,497.79675,497.90335,-0.00549623,1.124937,1.0584183,nan,2,2,0,0
49788000,49788000,47.39796286661523,8.545737927704904,497.81366,497.92886,-0.00549623,1.1127118,1.0543377,nan,2,2,0,0
50788000,50788000,47.39800333712089,8.545762179782335,497.83054,497.95425,-0.00549623,1.1027812,1.0504917,nan,2,2,0,0
51788000,51788000,47.39804424109959,8.54578663899598,497.84573,497.9744,-0.00549623,1.1120142,1.0542547,nan,2,2,0,0
52788000,52788000,47.398085293430164,8.545811618583382,497.8573,497.9909,-0.00549623,1.1221851,1.0581446,nan,2,2,0,0
53788000,53788000,47.39812660977737,8.545836588175899,497.8751,498.016,-0.00549623,1.1110713,1.053923,nan,2,2,0,0
54788000,54788000,47.39816812814896,8.54586181356092,497.88977,498.03497,-0.00549623,1.1209692,1.0577263,nan,2,2,0,0
55788000,55788000,47.39820970349766,8.54588715497109,497.91675,498.06787,-0.00549623,1.1103488,1.0535685,nan,2,2,0,0
56788000,56788000,47.39825120782665,8.545912454431013,497.9155,498.06992,-0.00549623,1.120416,1.0577708,nan,2,2,0,0
57788000,57788000,47.39829320379506,8.545937745216609,497.93863,498.09677,-0.00549623,1.1101469,1.0535892,nan,2,2,0,0
58788000,58788000,47.39833465027224,8.545963074176887,497.94272,498.10272,-0.00549623,1.1204879,1.0568069,nan,2,2,0,0
59788000,59788000,47.39837617904469,8.545988463590398,497.9601,498.1225,-0.00549623,1.1101763,1.0533032,nan,2,2,0,0
60788000,60788000,47.398417871453326,8.54601376987618,497.96677,498.1299,-0.00549623,1.1012094,1.049561,nan,2,2,0,0
61788000,61788000,47.39845937915002,8.546039276901018,497.97504,498.1368,-0.00549623,1.1102397,1.0530032,nan,2,2,0,0
62788000,62788000,47.39849853184966,8.54606338983618,497.9669,498.1266,-0.00549623,1.1206352,1.0566112,nan,2,2,0,0
63788000,63788000,47.398526411144246,8.546081475143218,497.97284,498.1303,-0.00549623,1.1102434,1.0526576,nan,2,2,0,0
64788000,64788000,47.398543148917234,8.546091915285185,497.995,498.15167,-0.00549623,1.1012698,1.0490972,nan,2,2,0,0
65788000,65788000,47.398545608473995,8.54610931698358,498.0126,498.1687,-0.00549623,1.1105527,1.0531442,nan,2,2,0,0
66788000,66788000,47.39853992439777,8.546136917955753,498.02637,498.1813,-0.00549623,1.121542,1.0565525,nan,2,2,0,0
67788000,67788000,47.398527928849155,8.546188353694717,498.00992,498.16302,-0.00549623,1.1109309,1.0528264,nan,2,2,0,0
68788000,68788000,47.398513772286385,8.546245439768635,497.98364,498.1339,-0.00549623,1.1017728,1.049637,nan,2,2,0,0
69788000,69788000,47.398499403407776,8.546302447708133,497.9784,498.12546,-0.00549623,1.1115489,1.0532486,nan,2,2,0,0
70788000,70788000,47.39848512979903,8.54636022593322,497.9652,498.10748,-0.00549623,1.1229364,1.0566158,nan,2,2,0,0
71788000,71788000,47.39847168880021,8.546414774938663,497.93866,498.07166,-0.00549623,1.1116178,1.0528471,nan,2,2,0,0
72788000,72788000,47.39846174686308,8.546454584749723,497.92798,498.0538,-0.00549623,1.1223544,1.0568398,nan,2,2,0,0
73788000,73788000,47.39845549975094,8.546480221807345,497.92395,498.0374,-0.00549623,1.1112251,1.0532703,nan,2,2,0,0
74788000,74788000,47.39844598095285,8.546490260828973,497.94424,498.04486,-0.00549623,1.1018608,1.0498035,nan,2,2,0,0
75788000,75788000,47.398429420285595,8.546482459792976,497.9486,498.04056,-0.00549623,1.1107037,1.0536733,nan,2,2,0,0
76788000,76788000,47.39839790414869,8.546466473289064,497.9405,498.01877,-0.00549623,1.1014893,1.0496651,nan,2,2,0,0
77788000,77788000,47.39836015209833,8.546446231354668,497.91754,497.98822,-0.00549623,1.1102045,1.0534481,nan,2,2,0,0
78788000,78788000,47.39832244221018,8.546425537773576,497.9239,497.9881,-0.00549623,1.1202385,1.0574533,nan,2,2,0,0
79788000,79788000,47.39828425313077,8.546404238719617,497.93176,497.98853,-0.00549623,1.1099094,1.0535738,nan,2,2,0,0
80788000,80788000,47.39824524755705,8.54638265966788,497.9469,498.00113,-0.00549623,1.1010213,1.0499077,nan,2,2,0,0
81788000,81788000,47.39820582028748,8.54636071026016,497.96402,498.0164,-0.00549623,1.109824,1.0536052,nan,2,2,0,0
82788000,82788000,47.39816548187369,8.546338202360673,497.9678,498.0197,-0.00549623,1.11992,1.0575485,nan,2,2,0,0
83788000,83788000,47.398124743922466,8.54631581232506,497.9745,498.02765,-0.00549623,1.1097527,1.0536016,nan,2,2,0,0
84788000,84788000,47.39809029420874,8.546296388596945,497.97147,498.0255,-0.00549623,1.1199574,1.0576278,nan,2,2,0,0
85788000,85788000,47.39806707362375,8.546283418372182,497.97653,498.03207,-0.00549623,1.109874,1.0536604,nan,2,2,0,0
86788000,86788000,47.39805358073605,8.546273433931923,498.00107,498.05905,-0.00549623,1.1010609,1.0499672,nan,2,2,0,0
87788000,87788000,47.398054271884476,8.546253333482065,498.00592,498.0663,-0.00549623,1.1099788,1.0536731,nan,2,2,0,0
88788000,88788000,47.3980617207486,8.54621845350549,498.02496,498.08755,-0.00549623,1.1200335,1.0576496,nan,2,2,0,0
89788000,89788000,47.398073301804715,8.546163259728951,498.00604,498.07367,-0.00549623,1.1098629,1.0536542,nan,2,2,0,0
90788000,90788000,47.398085661288405,8.546106317370015,497.99118,498.06116,-0.00549623,1.1200001,1.0576096,nan,2,2,0,0
91788000,91788000,47.398098605361334,8.546048816883467,497.99274,498.06732,-0.00549623,1.10979,1.0531737,nan,2,2,0,0
92788000,92788000,47.39811170914004,8.545990135108092,497.98837,498.06494,-0.00549623,1.1198602,1.0571386,nan,2,2,0,0
93788000,93788000,47.398124032954044,8.545936078706712,497.9702,498.04782,-0.00549623,1.109719,1.0532974,nan,2,2,0,0
94788000,94788000,47.3981329236983,8.54589730318064,497.95383,498.03067,-0.00549623,1.1196611,1.0572097,nan,2,2,0,0
95788000,95788000,47.39813810882701,8.54587248425789,497.95218,498.026,-0.00549623,1.1095283,1.0533345,nan,2,2,0,0
96788000,96788000,47.39814055201951,8.545859977865325,498.79105,498.8579,-0.00549623,1.1199263,1.0578002,nan,2,2,0,0
97788000,97788000,47.39814065861053,8.54585950536088,501.39447,501.42664,-0.00549623,1.1099218,1.0538235,nan,2,2,0,0
98788000,98788000,47.398140130802666,8.54586129953917,503.95206,503.96378,-0.00549623,1.1201702,1.0577849,nan,2,2,0,0
99788000,99788000,47.398139348646964,8.545863174832157,506.51306,506.49756,-0.00549623,1.1099354,1.0537891,nan,2,2,0,0
100788000,100788000,47.39813875846974,8.545865098577675,509.08304,509.04425,-0.00549623,1.1010412,1.0500339,nan,2,2,0,0
101788000,101788000,47.39813831018366,8.545867046093539,511.6779,511.62393,-0.00549623,1.1099683,1.0538331,nan,2,2,0,0
102788000,102788000,47.39813788110981,8.54586870142981,513.80554,513.7411,-0.00549623,1.1201279,1.0579184,nan,2,2,0,0
103788000,103788000,47.398137592006755,8.545870038992874,515.29596,515.22253,-0.00549623,1.1098847,1.0534662,nan,2,2,0,0
104788000,104788000,47.39813763111416,8.545870864647663,516.27515,516.20013,-0.00549623,1.1199577,1.0575434,nan,2,2,0,0
105788000,105788000,47.39813763557344,8.54587110280071,516.91895,516.84546,-0.00549623,1.1098212,1.0536828,nan,2,2,0,0
106788000,106788000,47.39813753196739,8.545871422550656,517.321,517.24945,-0.00549623,1.1199988,1.0577024,nan,2,2,0,0
107788000,107788000,47.398126828422505,8.545864102701309,517.5928,517.52545,-0.00549623,1.1098444,1.053675,nan,2,2,0,0
108788000,108788000,47.39809433900295,8.54584466110724,517.664,517.6004,-0.00549623,1.1203024,1.058001,nan,2,2,0,0
109788000,109788000,47.398056222179896,8.545817009202272,517.6717,517.61395,-0.00549623,1.1101276,1.0534487,nan,2,2,0,0
110788000,110788000,47.39801798385343,8.545789767629175,517.6993,517.64465,-0.00549623,1.1208661,1.0573909,nan,2,2,0,0
111788000,111788000,47.39797910901593,8.545763165199968,517.71796,517.6663,-0.00549623,1.1104245,1.0534971,nan,2,2,0,0
112788000,112788000,47.39793988635665,8.54573675424567,517.75336,517.7038,-0.00549623,1.1211272,1.0575123,nan,2,2,0,0
113788000,113788000,47.39790015537385,8.545709883338871,517.8036,517.75916,-0.00549623,1.1105648,1.0536028,nan,2,2,0,0
114788000,114788000,47.397860024037996,8.545682515579173,517.8544,517.81476,-0.00549623,1.1209332,1.0576458,nan,2,2,0,0
115788000,115788000,47.39782044114343,8.545655154358377,517.8969,517.8661,-0.00549623,1.1104348,1.0537151,nan,2,2,0,0
116788000,116788000,47.39778976836283,8.54563373249422,517.9399,517.91595,-0.00549623,1.1206852,1.0576801,nan,2,2,0,0
117788000,117788000,47.39776988138647,8.545620417609213,517.96716,517.95496,-0.00549623,1.110217,1.0536416,nan,2,2,0,0
118788000,118788000,47.3977589561393,8.545613056743157,517.73065,517.7269,-0.00549623,1.1203547,1.0575687,nan,2,2,0,0
119788000,119788000,47.39775683527987,8.545611226643324,516.3019,516.3238,-0.00549623,1.1098994,1.0535346,nan,2,2,0,0
120788000,120788000,47.39775745706667,8.545611682686937,514.83704,514.87317,-0.00549623,1.1196477,1.0574784,nan,2,2,0,0
121788000,121788000,47.39775762570353,8.545611677054204,513.3292,513.38074,-0.00549623,1.1095568,1.0535935,nan,2,2,0,0
122788000,122788000,47.39775736063303,8.545611101234925,511.82138,511.8807,-0.00549623,1.1198893,1.0576113,nan,2,2,0,0
123788000,123788000,47.39775680078321,8.545610286309309,510.31787,510.38583,-0.00549623,1.1098284,1.0536542,nan,2,2,0,0
124788000,124788000,47.39775593577744,8.545609933982753,508.80344,508.87335,-0.00549623,1.1010413,1.0499922,nan,2,2,0,0
125788000,125788000,47.397755158699766,8.545609756060566,507.29498,507.36487,-0.00549623,1.1100636,1.0537959,nan,2,2,0,0
126788000,126788000,47.39775439732077,8.545609689931963,505.79156,505.8599,-0.00549623,1.1202114,1.0573875,nan,2,2,0,0
127788000,127788000,47.39775386628534,8.54560948625282,504.2794,504.34314,-0.00549623,1.1099598,1.0535681,nan,2,2,0,0
128788000,128788000,47.397753323960984,8.545609105150236,502.77628,502.8357,-0.00549623,1.119997,1.0576729,nan,2,2,0,0
129788000,129788000,47.39775249349318,8.54560856029261,501.2752,501.3289,-0.00549623,1.109788,1.0536808,nan,2,2,0,0
130788000,130788000,47.397751827614,8.545607862336936,499.84634,499.89584,-0.00549623,1.1198545,1.0576264,nan,2,2,0,0
131788000,131788000,47.39775144676958,8.545607586909307,498.94513,498.98285,-0.00549623,1.1097928,1.05362,nan,2,2,0,0
132788000,132788000,47.39775111756842,8.545607526403419,498.28653,498.31558,-0.00549623,1.1200938,1.0580671,nan,2,2,0,0
133788000,133788000,47.397751108247164,8.545607719823678,496.88824,496.9177,-0.00549623,1.1099019,1.053942,nan,2,2,0,0
134788000,134788000,47.39775104962738,8.545607962407043,495.71008,495.73993,-0.00549623,1.1010242,1.0501282,nan,2,2,0,0
135788000,135788000,47.39775103971294,8.545608142825625,494.6946,494.7248,-0.00549623,1.110015,1.0538746,nan,2,2,0,0
136788000,136788000,47.39775083683787,8.545608203049817,493.8209,493.85095,-0.00549623,1.1203178,1.0574162,nan,2,2,0,0
137788000,137788000,47.3977507974734,8.54560841805866,493.07758,493.1076,-0.00549623,1.1100574,1.0535035,nan,2,2,0,0
138788000,138788000,47.39775080479953,8.545608048430326,492.40164,492.43124,-0.00549623,1.1203824,1.0580761,nan,2,2,0,0
139788000,139788000,47.39775090857877,8.545607836078736,491.7464,491.77756,-0.00549623,1.1100698,1.0535626,nan,2,2,0,0
140788000,140788000,47.39775101176757,8.545607817871096,491.06052,491.09308,-0.00549623,1.1201756,1.0575432,nan,2,2,0,0
141788000,141788000,47.39775088651041,8.545607862647993,490.39194,490.42822,-0.00549623,1.1099856,1.0540571,nan,2,2,0,0
142788000,142788000,47.3977508270703,8.545607830201538,489.70978,489.7497,-0.00549623,1.120057,1.057996,nan,2,2,0,0
143788000,143788000,47.3977508065693,8.545608116478885,489.05423,489.10284,-0.00549623,1.1099097,1.0538726,nan,2,2,0,0
144788000,144788000,47.397750637929406,8.54560807819651,488.37747,488.4325,-0.00549623,1.1199594,1.0577743,nan,2,2,0,0
145788000,145788000,47.39775039101973,8.545608127278443,488.04193,488.10406,-0.00549623,1.1098567,1.0535539,nan,2,2,0,0
146788000,146788000,47.39775019109107,8.545608219940526,488.03537,488.09818,-0.00549623,1.120235,1.0556602,nan,2,2,0,0
147788000,147788000,47.39775015800348,8.545608397292888,488.0478,488.111,-0.00549623,1.1102312,1.0503553,nan,2,2,0,0
148788000,148788000,47.397750098339365,8.545608482292202,488.0612,488.12347,-0.00549623,1.1211256,1.0520973,nan,2,2,0,0
