timestamp,timestamp_sample,time_last_fuse,device_id,observation[0],observation[1],observation[2],observation_variance[0],observation_variance[1],observation_variance[2],innovation[0],innovation[1],innovation[2],innovation_variance[0],innovation_variance[1],innovation_variance[2],test_ratio[0],test_ratio[1],test_ratio[2],estimator_instance,fusion_enabled,innovation_rejected,fused
3596000,3473268,0,0,0.0,0.0,0.02,0.09,0.09,0.20250002,0.0023164402,0.000613336,-0.053130385,25.142967,25.142948,10.202984,8.536615e-09,5.984676e-10,1.1066714e-05,0,1,0,0
3996000,3873557,0,0,0.0,0.0,-0.02,0.09,0.09,0.20250002,0.001451164,0.0023962315,0.009250801,0.10200064,0.10198998,0.20309263,8.25829e-07,2.2519569e-06,1.6854834e-05,0,1,0,0
4396000,4273732,0,0,0.0,0.0,-0.04,0.09,0.09,0.20250002,-0.0006365306,0.00085282227,0.03179887,0.09772716,0.09772654,0.2032388,1.658377e-07,2.976902e-07,0.00019901084,0,1,0,0
4788000,4673837,0,0,0.02,0.01,-0.04,0.09,0.09,0.20250002,-0.018216934,-0.0072022714,0.023996137,0.09758626,0.09758517,0.2053702,0.00013602599,2.126254e-05,0.00011215154,0,1,0,0
5188000,5073901,0,0,0.0,0.0,-0.01,0.09,0.09,0.20250002,-0.00010716991,0.00042749222,-0.010215899,0.098125264,0.09812494,0.20782049,4.6819295e-09,7.44967e-08,2.008745e-05,0,1,0,0
5596000,5473941,0,0,-0.01,0.01,0.03,0.09,0.09,0.20250002,0.0061412524,-0.01006948,-0.050564528,0.09409569,0.094095714,0.2094711,1.6032607e-05,4.3102675e-05,0.00048823372,0,1,0,0
5988000,5873964,0,0,0.0,0.01,-0.02,0.09,0.09,0.20250002,-0.0009089359,-0.010175937,-0.004055742,0.09230732,0.09230734,0.21163096,3.5800605e-07,4.4871704e-05,3.1090055e-06,0,1,0,0
6396000,6273979,0,0,0.0,0.0,0.0,0.09,0.09,0.20250002,0.00030366698,-0.00013375797,-0.021122396,0.09157689,0.091576904,0.21158333,4.0278124e-08,7.81472e-09,8.434608e-05,0,1,0,0
6796000,6673987,0,0,-0.01,-0.01,-0.01,0.09,0.09,0.20250002,0.009829705,0.007123716,-0.0064080656,0.09119294,0.09119291,0.21104376,4.238183e-05,2.2259332e-05,7.782898e-06,0,1,0,0
7196000,7073993,0,0,-0.01,-0.01,-0.01,0.09,0.09,0.20250002,0.006251119,0.008776621,-0.0023562443,0.090977594,0.09097762,0.21039918,1.718071e-05,3.3867265e-05,1.0554959e-06,0,1,0,0
7596000,7473996,0,0,0.01,0.0,0.049999997,0.09,0.09,0.20250002,-0.014183876,0.0011150949,-0.058659106,0.090839714,0.0908397,0.2097841,8.858784e-05,5.4753e-07,0.00065608224,0,1,0,0
7988000,7873998,0,0,0.01,0.0,0.02,0.09,0.09,0.20250002,-0.011842408,0.0007308411,-0.025971752,0.09137191,0.09137188,0.20919971,6.1394196e-05,2.3382628e-07,0.00012897377,0,1,0,0
8396000,8273999,0,0,0.02,0.0,0.0,0.09,0.09,0.20250002,-0.020234197,-0.0016839994,-0.00701534,0.091243416,0.091243416,0.2087787,0.00017948593,1.2432038e-06,9.429123e-06,0,1,0,0
8788000,8673999,8708000,0,-0.02,0.0,0.049999997,0.09,0.09,0.20250002,0.020038579,-0.00047495755,-0.05507004,0.091100045,0.09110006,0.20838967,0.0001763093,9.904918e-08,0.00058212277,0,1,0,0
9196000,9074000,9116000,0,0.0,0.0,-0.01,0.09,0.09,0.20250002,-0.022181876,0.00277662,0.059646524,0.18074214,0.18074207,0.4045037,0.00010889229,1.7062144e-06,0.00035180966,0,1,0,1
9588000,9474000,9508000,0,0.0,-0.02,0.0,0.09,0.09,0.20250002,-0.012821473,0.023803828,0.019071706,0.13617839,0.13617828,0.3028777,4.8286714e-05,0.00016643542,4.8036545e-05,0,1,0,1
9996000,9874000,9916000,0,-0.02,0.01,-0.03,0.09,0.09,0.20250002,0.008855034,-0.010223541,0.045098893,0.12216374,0.12216346,0.26866412,2.567427e-05,3.422326e-05,0.00030281828,0,1,0,1
10396000,10274000,10316000,0,0.02,0.01,0.0,0.09,0.09,0.20250002,-0.033519223,-0.007013248,0.006751515,0.116079435,0.11607928,0.25143012,0.00038716188,1.6948983e-05,7.2517887e-06,0,1,0,1
10788000,10674000,10708000,0,0.0,0.0,0.02,0.09,0.09,0.20250002,-0.0047551934,0.005782475,-0.013648558,0.11344512,0.11344505,0.24104574,7.972794e-06,1.1789679e-05,3.0912495e-05,0,1,0,1
11188000,11074000,11108000,0,0.01,-0.02,0.01,0.09,0.09,0.20250002,-0.011205331,0.027411317,0.002923375,0.1129072,0.112907276,0.23420659,4.4482356e-05,0.00026619376,1.4595869e-06,0,1,0,1
11596000,11474000,11516000,0,0.01,0.0,0.02,0.09,0.09,0.20250002,-0.005226503,0.00080016797,-0.002504347,0.113732174,0.11373253,0.22945353,9.60725e-06,2.2518404e-07,1.0933375e-06,0,1,0,1
11996000,11874000,11916000,0,0.0,0.0,0.0,0.09,0.09,0.20250002,0.009112973,-0.00047267159,0.02354686,0.11506847,0.115068875,0.22598995,2.8868471e-05,7.766424e-08,9.813791e-05,0,1,0,1
12396000,12274000,12316000,0,0.0,0.0,0.0,0.09,0.09,0.20250002,0.008390701,-0.0014621045,0.02199281,0.11661969,0.116619945,0.22353786,2.4148192e-05,7.3323633e-07,8.655065e-05,0,1,0,1
12796000,12674000,12716000,0,-0.01,0.01,-0.03,0.09,0.09,0.20250002,0.016554069,-0.009779869,0.05273854,0.11800739,0.118007466,0.22164159,9.288814e-05,3.2420263e-05,0.0005019552,0,1,0,1
13188000,13074000,13108000,0,0.01,0.0,0.01,0.09,0.09,0.20250002,-0.010530566,0.0031372085,0.011304209,0.118824385,0.11882411,0.22020856,3.7329988e-05,3.3131582e-06,2.3211658e-05,0,1,0,1
13588000,13474000,13508000,0,-0.03,0.0,-0.02,0.09,0.09,0.20250002,0.031357095,0.004317555,0.04423072,0.11942055,0.1194202,0.21920733,0.00032934616,6.243929e-06,0.0003569874,0,1,0,1
13996000,13874000,13916000,0,-0.01,0.0,-0.01,0.09,0.09,0.20250002,0.0023294003,0.0063977866,0.03096445,0.11974238,0.119742,0.21860969,1.8125933e-06,1.3673289e-05,0.00017543545,0,1,0,1
14396000,14274000,14316000,0,0.01,0.0,-0.01,0.09,0.09,0.20250002,-0.017105423,0.0061009703,0.031527646,0.11943266,0.11943239,0.21810381,9.7995144e-05,1.2466246e-05,0.00018229712,0,1,0,1
14796000,14674000,14716000,0,0.01,-0.01,0.0,0.09,0.09,0.20250002,-0.013074838,0.017372811,0.021856435,0.118864775,0.11886447,0.21776724,5.7528017e-05,0.00010156595,8.774575e-05,0,1,0,1
15196000,15074000,15116000,0,0.02,0.0,-0.02,0.09,0.09,0.20250002,-0.020278422,0.0050211363,0.0397159,0.118132226,0.1181319,0.2175615,0.00013923868,8.536834e-06,0.00029000588,0,1,0,1
15596000,15474000,15516000,0,-0.01,-0.01,0.0,0.09,0.09,0.20250002,0.01583149,0.01549648,0.019688666,0.11729792,0.11729761,0.21751755,8.54699e-05,8.189115e-05,7.1285016e-05,0,1,0,1
15996000,15874000,15916000,0,0.0,0.0,-0.01,0.09,0.09,0.20250002,0.0033427218,0.0018049508,0.031691484,0.116425276,0.11642511,0.21746609,3.838956e-06,1.1192936e-06,0.00018473687,0,1,0,1
16396000,16274000,16316000,0,0.0,0.01,-0.01,0.09,0.09,0.20250002,0.0049885768,-0.0064132162,0.032419533,0.11555526,0.11555518,0.21745758,8.614372e-06,1.4237126e-05,0.00019332985,0,1,0,1
16796000,16674000,16716000,0,0.0,0.0,-0.01,0.09,0.09,0.20250002,0.007869353,0.0059062922,0.036027,0.114707425,0.11470766,0.21747261,2.1594666e-05,1.2164589e-05,0.00023873254,0,1,0,1
17188000,17074000,17108000,0,0.0,0.0,0.0,0.09,0.09,0.20250002,0.009341262,0.0050910832,0.028526103,0.11378941,0.11378981,0.21745072,3.0673924e-05,9.11123e-06,0.00014968698,0,1,0,1
17596000,17474000,17516000,0,0.0,0.0,0.01,0.09,0.09,0.20250002,0.01155765,0.0032423506,0.020666635,0.113190174,0.11319075,0.21759892,4.720525e-05,3.7150871e-06,7.851322e-05,0,1,0,1
17996000,17874000,17916000,0,-0.01,-0.01,-0.049999997,0.09,0.09,0.20250002,0.019604024,0.012059653,0.079413205,0.11249241,0.112492904,0.21760489,0.00013665552,5.1713567e-05,0.0011592492,0,1,0,1
18388000,18274000,18308000,0,0.0,0.0,0.0,0.09,0.09,0.20250002,0.009523518,0.003151471,0.029461067,0.11174664,0.11174716,0.21755597,3.246537e-05,3.555086e-06,0.00015958275,0,1,0,1
18796000,18674000,18716000,0,0.0,0.0,-0.01,0.09,0.09,0.20250002,0.013737479,0.0051484765,0.04231555,0.11129147,0.111292176,0.21759687,6.78285e-05,9.526927e-06,0.00032916022,0,1,0,1
19196000,19074000,19116000,0,-0.01,0.0,0.0,0.09,0.09,0.20250002,0.027752208,0.0035044113,0.03371272,0.11075539,0.11075635,0.21756728,0.00027815712,4.4352846e-06,0.0002089556,0,1,0,1
19596000,19474000,19516000,0,0.02,0.0,0.0,0.09,0.09,0.20250002,-0.0033601578,0.0048780297,0.034556832,0.11027609,0.11027703,0.2176078,4.095416e-06,8.631054e-06,0.00021950953,0,1,0,1
19988000,19874000,19908000,0,0.02,0.0,-0.03,0.09,0.09,0.20250002,0.0014046542,0.0051581888,0.063894525,0.109760314,0.10976123,0.21751234,7.1904077e-07,9.696288e-06,0.00075076387,0,1,0,1
20396000,20274000,20316000,0,-0.01,0.0,-0.01,0.09,0.09,0.20250002,0.03568905,0.0065419334,0.041621223,0.109490514,0.10949123,0.21751548,0.00046532185,1.563482e-05,0.00031856605,0,1,0,1
20796000,20674000,20716000,0,0.01,-0.01,-0.03,0.09,0.09,0.20250002,0.011435213,0.012639148,0.062022254,0.10914321,0.109143905,0.21745192,4.792386e-05,5.854585e-05,0.00070760655,0,1,0,1
21196000,21074000,21116000,0,0.0,0.0,-0.03,0.09,0.09,0.20250002,0.019676935,-0.004408014,0.06356058,0.10883423,0.10883492,0.21746786,0.00014230146,7.1413056e-06,0.0007430887,0,1,0,1
21588000,21474000,21508000,0,-0.01,0.0,0.0,0.09,0.09,0.20250002,0.02597728,-0.00929522,0.032795586,0.10848321,0.10848403,0.21735829,0.00024881974,3.185763e-05,0.00019793135,0,1,0,1
21988000,21874000,21908000,0,0.0,0.0,-0.01,0.09,0.09,0.20250002,0.013551046,-0.011277742,0.042520426,0.10826792,0.10826885,0.21730763,6.7843124e-05,4.6989495e-05,0.00033279764,0,1,0,1
22388000,22274000,22308000,0,0.0,0.0,0.01,0.09,0.09,0.20250002,0.012584031,-0.01667413,0.023559535,0.10807279,0.10807392,0.21725911,5.8611546e-05,0.00010290238,0.000102191654,0,1,0,1
22796000,22674000,22716000,0,0.0,0.02,0.049999997,0.09,0.09,0.20250002,0.010941703,-0.040186066,-0.012879614,0.10797345,0.10797475,0.2172562,4.4351964e-05,0.00059825834,3.054172e-05,0,1,0,1
23196000,23074000,23116000,0,0.02,0.01,0.0,0.09,0.09,0.20250002,-0.008146038,-0.026345164,0.044941053,0.10779315,0.107794344,0.21728326,2.4624178e-05,0.0002575525,0.00037180926,0,1,0,1
23596000,23474000,23516000,0,0.01,0.01,0.0,0.09,0.09,0.20250002,0.0037449067,-0.023688918,0.046371218,0.107637055,0.107638255,0.21723394,5.21171e-06,0.00020853731,0.00039593995,0,1,0,1
23996000,23874000,23916000,0,0.01,0.02,-0.01,0.09,0.09,0.20250002,0.0034001833,-0.030594397,0.05593975,0.1075015,0.10750269,0.21719024,4.3017994e-06,0.00034827672,0.0005763161,0,1,0,1
24396000,24274000,24316000,0,-0.01,-0.01,-0.049999997,0.09,0.09,0.20250002,0.02459527,0.0003844984,0.095108084,0.10738299,0.10738424,0.21715325,0.00022533449,5.506916e-08,0.0016662055,0,1,0,1
24788000,24674000,24708000,0,0.0,-0.01,0.0,0.09,0.09,0.20250002,0.013810601,-0.006097108,0.042343356,0.10720378,0.10720516,0.21707538,7.116641e-05,1.3870499e-05,0.0003303847,0,1,0,1
25196000,25074000,25116000,0,0.0,-0.01,0.03,0.09,0.09,0.20250002,0.013094327,-0.010335585,0.0147075225,0.107199155,0.10720073,0.2171016,6.397864e-05,3.985955e-05,3.9854374e-05,0,1,0,1
25596000,25474000,25516000,0,0.0,0.01,0.01,0.09,0.09,0.20250002,0.010116568,-0.03412489,0.03925939,0.1071092,0.10711108,0.21715336,3.8220787e-05,0.00043487863,0.00028390987,0,1,0,1
25988000,25874000,25908000,0,0.0,-0.01,-0.02,0.09,0.09,0.20250002,0.006423887,-0.014811011,0.0689673,0.106958896,0.10696116,0.21707888,1.543259e-05,8.2035775e-05,0.0008764535,0,1,0,1
26396000,26274000,26316000,0,0.02,0.0,-0.02,0.09,0.09,0.20250002,-0.019659039,-0.02796055,0.07218951,0.10697284,0.10697572,0.21710533,0.00014451436,0.00029232516,0.0009601469,0,1,0,1
26796000,26674000,26716000,0,0.0,0.02,-0.02,0.09,0.09,0.20250002,0.0018691977,-0.05127416,0.073415935,0.10690207,0.10690522,0.21715528,1.3073274e-06,0.0009836899,0.0009928194,0,1,0,1
27196000,27074000,27116000,0,0.0,0.0,0.04,0.09,0.09,0.20250002,-0.0043380773,-0.030920539,0.015290022,0.10683702,0.10684083,0.21712571,7.045841e-06,0.00035794545,4.3069012e-05,0,1,0,1
27588000,27474000,27508000,0,0.0,0.01,0.0,0.09,0.09,0.20250002,-0.011085291,-0.04291656,0.062259912,0.10670826,0.10671276,0.21713021,4.6063422e-05,0.0006903883,0.00071409624,0,1,0,1
27996000,27874000,27916000,0,0.0,0.02,0.01,0.09,0.09,0.20250002,-0.017184302,-0.054292593,0.0608818,0.106737785,0.10674302,0.21715967,0.00011066381,0.0011045915,0.0006827407,0,1,0,1
28388000,28274000,28308000,0,-0.01,-0.01,-0.02,0.09,0.09,0.20250002,-0.010287406,-0.021494014,0.09576823,0.10661539,0.10662067,0.21709011,3.9705606e-05,0.00017332197,0.0016899073,0,1,0,1
28796000,28674000,28716000,0,0.01,0.0,-0.01,0.09,0.09,0.20250002,-0.033521544,-0.03787546,0.08654589,0.106654264,0.10665965,0.21705514,0.0004214342,0.00053799176,0.0013803297,0,1,0,1
29188000,29074000,29108000,0,0.0,0.0,-0.04,0.09,0.09,0.20250002,-0.022849748,-0.04034159,0.12163688,0.10653535,0.1065406,0.21707807,0.00019603295,0.0006110136,0.002726306,0,1,0,1
29588000,29474000,29508000,0,-0.02,0.0,0.07,0.09,0.09,0.20250002,-0.0014374312,-0.040554244,0.010617346,0.106510684,0.10651523,0.21707796,7.7596286e-07,0.0006176194,2.0771897e-05,0,1,0,1
29996000,29874000,29916000,0,0.0,0.0,0.01,0.09,0.09,0.20250002,-0.023233755,-0.042601395,0.07688768,0.1065535,0.10655748,0.21711631,0.00020264274,0.00068127696,0.0010891334,0,1,0,1
30396000,30274000,30316000,0,0.0,0.02,0.0,0.09,0.09,0.20250002,-0.020127093,-0.065105125,0.08643167,0.10651189,0.10651522,0.21717358,0.0001521332,0.001591764,0.0013759377,0,1,0,1
30788000,30670000,30708000,0,-0.01,-0.01,-0.01,0.09,0.09,0.20250002,-0.003230256,-0.032219686,0.09534274,0.10640592,0.106407925,0.21710496,3.922546e-06,0.00039023714,0.00167481,0,1,0,1
31188000,31074000,31108000,0,0.0,0.01,0.06,0.09,0.09,0.20250002,-0.012272397,-0.053190827,0.023677524,0.10638831,0.10638984,0.21709272,5.662717e-05,0.0010637346,0.00010329691,0,1,0,1
31596000,31474000,31516000,0,0.0,-0.01,0.02,0.09,0.09,0.20250002,-0.006512072,-0.03280841,0.06798445,0.10643689,0.10643761,0.21712165,1.5936987e-05,0.00040451554,0.000851483,0,1,0,1
31996000,31874000,31916000,0,0.0,0.01,0.02,0.09,0.09,0.20250002,-0.002152794,-0.054757744,0.06765482,0.10640145,0.10640159,0.21717235,1.7422777e-06,0.0011272051,0.00084304914,0,1,0,1
32396000,32274000,32316000,0,0.03,0.0,0.0,0.09,0.09,0.20250002,-0.028008563,-0.043904327,0.08745487,0.1063687,0.10636829,0.21707404,0.00029500393,0.0007248739,0.001409354,0,1,0,1
32796000,32674000,32716000,0,0.0,-0.01,0.0,0.09,0.09,0.20250002,0.015454979,-0.031542167,0.08574138,0.10633978,0.106338516,0.21713635,8.984648e-05,0.0003742419,0.0013542797,0,1,0,1
33196000,33074000,33116000,0,0.01,0.0,0.04,0.09,0.09,0.20250002,0.009732993,-0.042249445,0.043410674,0.10631365,0.106311955,0.21711574,3.564214e-05,0.00067161425,0.00034718562,0,1,0,1
33596000,33474000,33516000,0,-0.01,-0.01,0.0,0.09,0.09,0.20250002,0.034968026,-0.03372384,0.08098603,0.10629277,0.106290504,0.21709265,0.00046014902,0.0004279958,0.0012084679,0,1,0,1
33996000,33874000,33916000,0,0.0,-0.02,-0.099999994,0.09,0.09,0.20250002,0.02545138,-0.023185253,0.17685097,0.10627279,0.10627046,0.21714759,0.00024381513,0.00020233504,0.005761292,0,1,0,1
34396000,34274000,34316000,0,0.01,0.0,-0.01,0.09,0.09,0.20250002,0.018193139,-0.04629861,0.074137345,0.10625622,0.10625366,0.21712421,0.00012460082,0.0008069599,0.0010125717,0,1,0,1
34796000,34674000,34716000,0,-0.01,0.0,-0.01,0.09,0.09,0.20250002,0.04112097,-0.047532503,0.06629333,0.10624218,0.10623941,0.21711034,0.0006366338,0.0008506594,0.00080969074,0,1,0,1
35196000,35074000,35116000,0,-0.03,0.0,-0.04,0.09,0.09,0.20250002,-0.016016541,-0.046852358,-0.00830923,0.106302656,0.106305405,0.2170996,9.6528005e-05,0.0008259762,1.2721038e-05,0,1,0,1
35588000,35474000,35508000,0,-0.26999998,-0.06,-0.32999998,0.09,0.09,0.20250002,0.030494228,-0.049673405,-0.015903383,0.106529966,0.10653511,0.21704464,0.00034915918,0.0009264353,4.661117e-05,0,1,0,1
35996000,35874000,35916000,0,-0.21,-0.02,-0.76,0.09,0.09,0.20250002,0.024804324,-0.06888561,0.048981547,0.10693782,0.10693534,0.21708994,0.00023013543,0.0017749894,0.00044206413,0,1,0,1
36388000,36274000,36308000,0,-0.14,-0.03,-0.87,0.09,0.09,0.20250002,0.06502952,-0.02723193,0.035966337,0.10682793,0.10682906,0.21711057,0.0015834206,0.00027766902,0.000238326,0,1,0,1
36788000,36674000,36708000,0,-0.02,-0.02,-0.95,0.09,0.09,0.20250002,0.042253375,-0.01826163,-0.0011293292,0.10681127,0.10681163,0.2170304,0.00066859904,0.00012488796,2.3506097e-07,0,1,0,1
37188000,37074000,37108000,0,0.049999997,0.0,-1.0799999,0.09,0.09,0.20250002,0.048053414,-0.022299802,0.028773427,0.106770754,0.10676507,0.21710277,0.00086507975,0.00018630855,0.0001525379,0,1,0,1
37588000,37474000,37508000,0,0.12,0.01,-1.16,0.09,0.09,0.20250002,0.016186647,-0.018599018,0.023234248,0.110941865,0.11095091,0.21708907,9.446661e-05,0.00012471227,9.9467055e-05,0,1,0,1
37996000,37874000,37916000,0,0.13,0.049999997,-1.25,0.09,0.09,0.20250002,0.018545032,-0.05227667,0.04539132,0.13385576,0.13387209,0.2171191,0.00010277277,0.0008165557,0.00037958377,0,1,0,1
38396000,38274000,38316000,0,0.08,0.02,-1.3299999,0.09,0.09,0.20250002,0.048651338,-0.0036927909,0.06883967,0.15396675,0.1539732,0.2171699,0.00061492564,3.5426174e-06,0.0008728466,0,1,0,1
38796000,38674000,38716000,0,0.08,0.0,-1.3299999,0.09,0.09,0.20250002,0.007016413,0.00046434405,0.01970017,0.15833673,0.15833865,0.21714088,1.2436799e-05,5.4469428e-08,7.149214e-05,0,1,0,1
39196000,39074000,39116000,0,0.099999994,-0.01,-1.41,0.09,0.09,0.20250002,-0.024694279,-0.0016987026,0.06436157,0.15308341,0.15308182,0.21711397,0.00015933989,7.5399953e-07,0.0007631774,0,1,0,1
39596000,39474000,39516000,0,0.06,0.0,-1.4599999,0.09,0.09,0.20250002,0.011909891,-0.0132208,0.080096245,0.14551532,0.14551188,0.21709241,3.899122e-05,4.8048187e-05,0.0011820603,0,1,0,1
39996000,39874000,39916000,0,0.06,-0.02,-1.48,0.09,0.09,0.20250002,-0.02164463,0.012729088,0.07505131,0.13843589,0.138433,0.21715513,0.00013536663,4.6818226e-05,0.0010375438,0,1,0,1
40396000,40274000,40316000,0,0.02,-0.02,-1.4699999,0.09,0.09,0.20250002,0.0060381815,0.006656887,0.04343474,0.13249114,0.13248801,0.21714093,1.1007418e-05,1.3379065e-05,0.00034753035,0,1,0,1
40788000,40674000,40708000,0,0.02,-0.03,-1.56,0.09,0.09,0.20250002,-0.015242257,0.019000039,0.120404005,0.12741977,0.12741707,0.21708396,7.293261e-05,0.00011332908,0.0026712473,0,1,0,1
41196000,41074000,41116000,0,0.01,0.0,-1.54,0.09,0.09,0.20250002,-0.014450749,-0.011533612,0.08320522,0.12372877,0.123726785,0.21713156,6.75103e-05,4.300579e-05,0.001275376,0,1,0,1
41588000,41474000,41508000,0,0.0,0.01,-1.55,0.09,0.09,0.20250002,-0.012413127,-0.007117955,0.095288634,0.12029311,0.120291956,0.21715115,5.123676e-05,1.6847438e-05,0.0016725537,0,1,0,1
41988000,41874000,41908000,0,0.0,0.01,-1.3399999,0.09,0.09,0.20250002,-0.021245271,-0.0052436064,0.103312016,0.11751791,0.11751712,0.2171458,0.00015363157,9.358775e-06,0.001966121,0,1,0,1
42388000,42274000,42308000,0,0.0,0.0,-1.1899999,0.09,0.09,0.20250002,-0.022428602,0.006871181,0.12813926,0.11527436,0.115273744,0.21713975,0.00017455475,1.638296e-05,0.0030247192,0,1,0,1
42796000,42674000,42716000,0,-0.03,0.0,-1.04,0.09,0.09,0.20250002,0.00796343,0.0013689526,0.16166669,0.11350608,0.113505445,0.21717504,2.2348131e-05,6.604198e-07,0.0048138346,0,1,0,1
43188000,43074000,43108000,0,0.0,0.0,-0.78,0.09,0.09,0.20250002,-0.026014045,0.0017885991,0.115347445,0.11181942,0.11181879,0.21718441,0.00024207978,1.1443825e-06,0.0024504582,0,1,0,1
43588000,43474000,43508000,0,0.24,0.16,-0.48,0.09,0.09,0.20250002,0.017335907,0.060583144,0.11342588,0.11062558,0.11062797,0.21716347,0.000108666965,0.0013270847,0.0023697228,0,1,0,1
43988000,43874000,43908000,0,1.09,0.39999998,-0.22,0.09,0.09,0.20250002,-0.030740023,0.114316165,0.12935925,0.111184254,0.111251056,0.21717468,0.00033995786,0.004698629,0.0030820929,0,1,0,1
44396000,44274000,44316000,0,2.25,0.63,-0.14,0.09,0.09,0.20250002,-0.043754816,0.2228226,0.113663815,0.11681893,0.116856344,0.21761033,0.000655539,0.016995195,0.0023747887,0,1,0,1
44796000,44674000,44716000,0,3.32,0.88,-0.06,0.09,0.09,0.20250002,-0.11910963,0.29312158,0.07430394,0.12626186,0.12582368,0.21849358,0.0044945017,0.027314495,0.0010107529,0,1,0,1
45196000,45074000,45116000,0,4.13,1.25,0.03,0.09,0.09,0.20250002,-0.17633796,0.32487738,0.08350243,0.13478968,0.13387562,0.21938995,0.009227732,0.03153533,0.0012712807,0,1,0,1
45596000,45474000,45516000,0,4.38,1.63,0.12,0.09,0.09,0.20250002,-0.19279385,0.27639413,0.021233,0.1364141,0.13546064,0.21941441,0.010899011,0.022558203,8.2189734e-05,0,1,0,1
45996000,45874000,45916000,0,4.24,1.77,0.03,0.09,0.09,0.20250002,-0.17013836,0.19309664,0.07375524,0.13372597,0.13374597,0.21894136,0.0086586205,0.011151383,0.0009938434,0,1,0,1
46396000,46274000,46316000,0,4.17,1.88,0.06,0.09,0.09,0.20250002,-0.14468718,0.15808237,0.02115633,0.13074261,0.1316322,0.21864223,0.0064047608,0.0075938976,8.188542e-05,0,1,0,1
46796000,46678000,46716000,0,4.13,1.9599999,-0.02,0.09,0.09,0.20250002,-0.09965849,0.120076776,0.08514984,0.1276918,0.1290767,0.21844523,0.0031111832,0.004468175,0.0013276546,0,1,0,1
47188000,47074000,47108000,0,4.13,2.04,0.02,0.09,0.09,0.20250002,-0.07475805,0.048790216,0.034788724,0.124580964,0.12612814,0.21833736,0.0017944208,0.00075494184,0.00022172208,0,1,0,1
47588000,47474000,47508000,0,4.18,2.03,0.0,0.09,0.09,0.20250002,-0.06635761,0.056023836,0.058162708,0.122019514,0.12354061,0.21824522,0.0014434848,0.0010162392,0.0006200182,0,1,0,1
47996000,47874000,47916000,0,4.21,2.01,-0.049999997,0.09,0.09,0.20250002,-0.02943182,0.028652191,0.10581842,0.11989505,0.1213091,0.2182132,0.00028899676,0.00027069627,0.0020525868,0,1,0,1
48396000,48274000,48316000,0,4.2799997,1.9499999,0.01,0.09,0.09,0.20250002,-0.03232479,0.033305764,0.047620766,0.11782791,0.11907124,0.21813048,0.00035471804,0.0003726421,0.00041584967,0,1,0,1
48796000,48674000,48716000,0,4.3399997,1.9,-0.01,0.09,0.09,0.20250002,-0.008140087,0.031023026,0.07408584,0.11602913,0.11709604,0.21813992,2.284289e-05,0.0003287654,0.001006457,0,1,0,1
49188000,49074000,49108000,0,4.44,1.87,0.0,0.09,0.09,0.20250002,-0.0482049,0.021036863,0.063758746,0.114361115,0.11527021,0.21800429,0.00081276306,0.00015356946,0.00074588956,0,1,0,1
49596000,49474000,49516000,0,4.46,1.8399999,0.03,0.09,0.09,0.20250002,-0.020535469,0.015818357,0.03800077,0.11315894,0.11396315,0.2179761,0.0001490666,8.7825036e-05,0.00026499393,0,1,0,1
49988000,49874000,49908000,0,4.48,1.81,-0.01,0.09,0.09,0.20250002,-0.029360771,0.02594626,0.07313972,0.11191031,0.112652615,0.21782169,0.00030812348,0.00023903871,0.0009823482,0,1,0,1
50396000,50274000,50316000,0,4.49,1.81,-0.04,0.09,0.09,0.20250002,-0.019721985,0.01881349,0.102398455,0.11102015,0.11170177,0.21777152,0.00014013913,0.00012674728,0.0019259532,0,1,0,1
50788000,50674000,50708000,0,4.5,1.8,-0.01,0.09,0.09,0.20250002,-0.01580143,0.03176427,0.075466864,0.11006518,0.11067897,0.2177008,9.0740854e-05,0.00036464698,0.0010464358,0,1,0,1
51196000,51074000,51116000,0,4.5299997,1.8299999,0.02,0.09,0.09,0.20250002,-0.031188488,0.004888773,0.051626537,0.10943808,0.10999574,0.21764985,0.0003555332,8.691283e-06,0.00048983254,0,1,0,1
51588000,51474000,51508000,0,4.54,1.8499999,0.0,0.09,0.09,0.20250002,-0.023758411,-0.0026621819,0.06824084,0.108757496,0.10925329,0.21757388,0.00020760394,2.594782e-06,0.00085613446,0,1,0,1
51988000,51874000,51908000,0,4.54,1.86,-0.01,0.09,0.09,0.20250002,-0.009824276,0.0017244816,0.07526998,0.10829174,0.10873349,0.21747072,3.565051e-05,1.093991e-06,0.0010420842,0,1,0,1
52396000,52274000,52316000,0,4.5499997,1.88,-0.02,0.09,0.09,0.20250002,-0.012254715,-0.011019349,0.08746393,0.10799582,0.10839429,0.21741584,5.5623645e-05,4.4809025e-05,0.0014074299,0,1,0,1
52796000,52674000,52716000,0,4.56,1.86,0.0,0.09,0.09,0.20250002,-0.0094361305,0.014599323,0.06763682,0.10769151,0.10804429,0.21730423,3.3072454e-05,7.890847e-05,0.00084208924,0,1,0,1
53188000,53074000,53108000,0,4.5699997,1.87,0.02,0.09,0.09,0.20250002,-0.007121086,0.006189227,0.04878551,0.107393436,0.10770416,0.21722938,1.8887511e-05,1.42265735e-05,0.0004382512,0,1,0,1
53596000,53474000,53516000,0,4.58,1.87,0.0,0.09,0.09,0.20250002,-0.0059256554,0.011384487,0.06773079,0.10732817,0.10761084,0.21718211,1.3086366e-05,4.817602e-05,0.0008449057,0,1,0,1
53996000,53874000,53916000,0,4.61,1.88,-0.01,0.09,0.09,0.20250002,-0.030795574,0.0022170544,0.077029206,0.10722297,0.10748134,0.21708152,0.00035379262,1.8292776e-06,0.0010933218,0,1,0,1
54396000,54274000,54316000,0,4.61,1.91,-0.01,0.09,0.09,0.20250002,-0.022037506,-0.021918654,0.078401215,0.107160546,0.107401356,0.21698368,0.00018128002,0.00017892788,0.0011331268,0,1,0,1
54796000,54674000,54716000,0,4.6,1.91,-0.02,0.09,0.09,0.20250002,-0.013461113,-0.013994336,0.090674475,0.107135564,0.107365526,0.2168905,6.765319e-05,7.296251e-05,0.0015163154,0,1,0,1
55196000,55078000,55116000,0,4.61,1.9,-0.049999997,0.09,0.09,0.20250002,-0.021296978,-0.00407815,0.12267917,0.1071382,0.10735546,0.21679822,0.0001693369,6.196725e-06,0.0027768083,0,1,0,1
55596000,55474000,55516000,0,4.5899997,1.87,-0.03,0.09,0.09,0.20250002,0.00057792664,0.020434976,0.105770305,0.107156,0.107362464,0.21678779,1.2467774e-07,0.00015558072,0.0020642045,0,1,0,1
55996000,55874000,55916000,0,4.58,1.89,-0.01,0.09,0.09,0.20250002,0.011949062,-0.0064293146,0.08834621,0.10718324,0.10738034,0.21669962,5.3284486e-05,1.5398009e-05,0.0014407138,0,1,0,1
56396000,56274000,56316000,0,4.62,1.92,0.04,0.09,0.09,0.20250002,-0.029003143,-0.033203363,0.035113297,0.10721776,0.107410625,0.21661209,0.000313822,0.00041056026,0.00022767771,0,1,0,1
56796000,56678000,56716000,0,4.64,1.9,-0.03,0.09,0.09,0.20250002,-0.040433407,-0.008405328,0.10394201,0.107253015,0.107440725,0.21660362,0.000609721,2.6302701e-05,0.0019951542,0,1,0,1
57188000,57074000,57108000,0,4.66,1.89,-0.02,0.09,0.09,0.20250002,-0.053071022,0.0008597374,0.08680028,0.10721302,0.10739631,0.21647759,0.0010508177,2.7529748e-07,0.0013921604,0,1,0,1
57596000,57474000,57516000,0,4.64,1.88,-0.02,0.09,0.09,0.20250002,-0.03238201,0.008298278,0.08853397,0.10732559,0.10751015,0.21644935,0.00039080883,2.5620435e-05,0.0014485169,0,1,0,1
57996000,57874000,57916000,0,4.6,1.91,0.02,0.09,0.09,0.20250002,-0.003643036,-0.021772742,0.050065707,0.10733194,0.10751916,0.21637754,4.946043e-06,0.00017636012,0.00046337064,0,1,0,1
58388000,58274000,58308000,0,4.5699997,1.89,0.0,0.09,0.09,0.20250002,0.01596737,0.0043890476,0.06762462,0.10726111,0.107446715,0.21627077,9.507897e-05,7.1714576e-06,0.0008458081,0,1,0,1
58796000,58674000,58716000,0,4.5699997,1.88,-0.03,0.09,0.09,0.20250002,0.013230801,0.012253046,0.095157206,0.10734694,0.10752737,0.2162589,6.522928e-05,5.5850764e-05,0.0016748246,0,1,0,1
59196000,59074000,59116000,0,4.6,1.92,0.02,0.09,0.09,0.20250002,-0.013408661,-0.028513908,0.04296125,0.10732316,0.107495666,0.21627758,6.700965e-05,0.00030253982,0.0003413519,0,1,0,1
59596000,59474000,59516000,0,4.63,1.9,-0.01,0.09,0.09,0.20250002,-0.029686928,-0.0045309067,0.07425766,0.10729206,0.107454434,0.21622197,0.00032856624,7.641979e-06,0.0010200997,0,1,0,1
59996000,59878000,59916000,0,4.64,1.89,0.0,0.09,0.09,0.20250002,-0.025424004,0.002478838,0.06081994,0.10725744,0.10741061,0.2161672,0.00024105738,2.2882796e-06,0.00068448216,0,1,0,1
60396000,60274000,60316000,0,4.6,1.91,0.0,0.09,0.09,0.20250002,0.015440464,-0.02215147,0.060560126,0.1072144,0.107363395,0.21611679,8.894623e-05,0.00018281375,0.00067880494,0,1,0,1
60788000,60674000,60708000,0,4.6,1.9,-0.02,0.09,0.09,0.20250002,0.006995678,-0.010639429,0.080578804,0.10709405,0.1072392,0.2160995,1.8279077e-05,4.2222415e-05,0.0012018433,0,1,0,1
61196000,61074000,61116000,0,4.58,1.93,0.03,0.09,0.09,0.20250002,0.026089191,-0.03903091,0.028244017,0.10713443,0.10727561,0.21610007,0.0002541278,0.00056803663,0.00014765836,0,1,0,1
61596000,61474000,61516000,0,4.61,1.9,-0.01,0.09,0.09,0.20250002,-0.005323887,-0.010589957,0.062932834,0.10708317,0.10721523,0.21605077,1.0587573e-05,4.1840023e-05,0.00073326123,0,1,0,1
61996000,61874000,61916000,0,4.58,1.9,0.01,0.09,0.09,0.20250002,0.033456802,-0.018732667,0.03872148,0.10702652,0.107147664,0.21607675,0.00041834777,0.00013100157,0.00027755933,0,1,0,1
62388000,62274000,62308000,0,4.46,1.86,0.02,0.09,0.09,0.20250002,-0.029109478,-0.051863432,0.042288084,0.106884494,0.10702549,0.21599178,0.00031711304,0.001005299,0.00033117595,0,1,0,1
62796000,62674000,62716000,0,3.83,1.6899999,0.01,0.09,0.09,0.20250002,0.018043756,-0.080531836,0.038681984,0.10720798,0.107362926,0.21601753,0.00012147498,0.0024162442,0.00027706934,0,1,0,1
63196000,63074000,63116000,0,3.32,1.4699999,0.0,0.09,0.09,0.20250002,-0.016437769,-0.091750026,0.04817895,0.10777174,0.10769189,0.21611433,0.000100286125,0.003126723,0.00042962653,0,1,0,1
63596000,63474000,63516000,0,2.76,1.23,0.0,0.09,0.09,0.20250002,0.024528503,-0.097296834,0.046206087,0.10847354,0.10787687,0.21616903,0.00022185963,0.0035101778,0.00039506168,0,1,0,1
63996000,63878000,63916000,0,2.24,0.94,-0.02,0.09,0.09,0.20250002,0.05413437,-0.059989035,0.06523889,0.109318994,0.10798603,0.2162538,0.0010722857,0.0013330185,0.00078724406,0,1,0,1
64388000,64274000,64308000,0,1.79,0.71999997,0.0,0.09,0.09,0.20250002,0.070329785,-0.059944272,0.042856485,0.10996924,0.107857645,0.21630637,0.0017991499,0.0013326142,0.00033964383,0,1,0,1
64788000,64674000,64708000,0,1.37,0.65999997,-0.06,0.09,0.09,0.20250002,0.06892264,-0.015558302,0.058594164,0.11054774,0.107696325,0.21648051,0.0017188339,8.9904934e-05,0.0006343806,0,1,0,1
65196000,65074000,65116000,0,0.5,1.12,-0.01,0.09,0.09,0.20250002,-0.021115303,-0.029909492,0.038289256,0.1122808,0.10858735,0.21671622,0.00015883608,0.00032953292,0.00027059668,0,1,0,1
65596000,65474000,65516000,0,-0.17999999,1.63,-0.01,0.09,0.09,0.20250002,0.062466122,-0.0764631,0.09440443,0.112429135,0.109187566,0.21675475,0.0013882582,0.0021418578,0.00164466,0,1,0,1
65996000,65874000,65916000,0,-0.35,1.63,0.02,0.09,0.09,0.20250002,0.07919738,-0.047442794,0.03802838,0.11110615,0.10930446,0.21670055,0.0022581017,0.0008236878,0.00026694124,0,1,0,1
66396000,66274000,66316000,0,-0.66999996,1.9699999,-0.02,0.09,0.09,0.20250002,0.052968323,-0.021989226,0.059814267,0.11127728,0.110673465,0.21665679,0.0010085233,0.00017475772,0.00066053716,0,1,0,1
66796000,66674000,66716000,0,-1.0,2.74,-0.04,0.09,0.09,0.20250002,0.075888515,0.022966146,0.048451483,0.11265531,0.1132425,0.21671341,0.002044845,0.00018630599,0.00043329966,0,1,0,1
67196000,67074000,67116000,0,-1.22,3.6799998,0.01,0.09,0.09,0.20250002,0.07321596,0.040462255,0.06062802,0.11455034,0.11591859,0.21691063,0.0018718677,0.00056494615,0.000677838,0,1,0,1
67596000,67474000,67516000,0,-1.48,4.2599998,0.06,0.09,0.09,0.20250002,0.0726006,-0.029796124,0.033148017,0.11544813,0.11690304,0.21682787,0.0018262218,0.00030377618,0.00020270291,0,1,0,1
67996000,67874000,67916000,0,-1.63,4.3199997,0.04,0.09,0.09,0.20250002,0.09339154,-0.03166771,0.048619635,0.11548042,0.11629981,0.21664861,0.003021111,0.00034491677,0.00043644293,0,1,0,1
68396000,68274000,68316000,0,-1.56,4.25,0.07,0.09,0.09,0.20250002,0.08373976,0.01442194,-0.0019471273,0.11586361,0.115630075,0.21652888,0.0024208971,7.195095e-05,7.0037856e-07,0,1,0,1
68788000,68674000,68708000,0,-1.56,4.23,0.049999997,0.09,0.09,0.20250002,0.07732451,0.05324745,0.0033259988,0.11595629,0.11484255,0.21648572,0.0020625289,0.0009875403,2.0439718e-06,0,1,0,1
69188000,69074000,69108000,0,-1.5999999,4.27,0.04,0.09,0.09,0.20250002,0.105673194,0.04018259,0.007803224,0.115972295,0.11416379,0.21645634,0.0038515488,0.00056572777,1.125221e-05,0,1,0,1
69596000,69474000,69516000,0,-1.5699999,4.2599998,0.0,0.09,0.09,0.20250002,0.056024075,0.08809948,0.040727973,0.11582386,0.11354213,0.2164952,0.0010839553,0.002734322,0.00030647658,0,1,0,1
69988000,69874000,69908000,0,-1.5799999,4.31,0.03,0.09,0.09,0.20250002,0.062402487,0.06474066,0.0056037437,0.11513257,0.112642325,0.216462,0.0013528997,0.0014883758,5.8027636e-06,0,1,0,1
70396000,70274000,70316000,0,-1.5799999,4.3199997,0.03,0.09,0.09,0.20250002,0.054013133,0.092953205,0.004898412,0.11457968,0.111985706,0.21654354,0.0010184768,0.003086215,4.432262e-06,0,1,0,1
70796000,70674000,70716000,0,-1.56,4.37,0.089999996,0.09,0.09,0.20250002,0.026610017,0.07203674,-0.06055239,0.11376719,0.11121181,0.21658133,0.0002489621,0.0018664537,0.000677176,0,1,0,1
71196000,71074000,71116000,0,-1.55,4.3399997,0.049999997,0.09,0.09,0.20250002,0.036019087,0.07442284,-0.014422957,0.11298467,0.11047274,0.21669923,0.00045930993,0.002005475,3.8398233e-05,0,1,0,1
71596000,71474000,71516000,0,-1.4499999,3.9199998,0.03,0.09,0.09,0.20250002,0.05877602,0.0042672157,-0.017453698,0.112820506,0.109968595,0.21673231,0.00122482,6.623393e-06,5.6222645e-05,0,1,0,1
71996000,71874000,71916000,0,-1.25,3.3999999,0.02,0.09,0.09,0.20250002,0.020454884,0.053115368,-0.012396786,0.112595096,0.109683536,0.21677263,0.00014863959,0.0010288663,2.8357881e-05,0,1,0,1
72396000,72274000,72316000,0,-1.11,2.9299998,0.01,0.09,0.09,0.20250002,0.059513807,0.052954435,-0.0077248756,0.11219883,0.10949202,0.21681947,0.0012627202,0.0010244298,1.100892e-05,0,1,0,1
72796000,72674000,72716000,0,-0.91999996,2.46,0.02,0.09,0.09,0.20250002,0.042257726,0.08367014,-0.023712616,0.11157963,0.109294794,0.2168734,0.00064015825,0.002562132,0.000103708095,0,1,0,1
73188000,73074000,73108000,0,-0.74,2.06,0.03,0.09,0.09,0.20250002,0.047274828,0.073441505,-0.036647335,0.11069747,0.10900927,0.21688418,0.00080757384,0.0019791543,0.0002476948,0,1,0,1
73596000,73474000,73516000,0,-0.56,1.6999999,0.01,0.09,0.09,0.20250002,0.0010316372,0.05027914,-0.028958071,0.10989633,0.10881002,0.21698657,3.8737423e-07,0.0009293232,0.00015458468,0,1,0,1
73996000,73874000,73916000,0,-0.64,1.51,-0.049999997,0.09,0.09,0.20250002,-0.04143679,0.05208385,-0.017285071,0.10870312,0.10808776,0.21701492,0.00063181546,0.0010038981,5.5069704e-05,0,1,0,1
74388000,74274000,74308000,0,-1.09,0.72999996,-0.02,0.09,0.09,0.20250002,0.0146763325,0.017784953,-0.036621977,0.10884982,0.107699834,0.2169652,7.9153e-05,0.000117476346,0.00024725977,0,1,0,1
74788000,74670000,74708000,0,-1.48,-0.14,0.02,0.09,0.09,0.20250002,-0.006609082,0.05724866,-0.023274336,0.10952084,0.10764103,0.21704863,1.5953117e-05,0.0012179032,9.982919e-05,0,1,0,1
75188000,75074000,75108000,0,-1.65,-0.48,-0.01,0.09,0.09,0.20250002,0.028690815,0.07278794,-0.003339259,0.109154075,0.1073335,0.2170645,0.00030165171,0.001974438,2.0548086e-06,0,1,0,1
75596000,75474000,75516000,0,-1.9499999,-0.77,-0.03,0.09,0.09,0.20250002,-0.016345978,0.074211776,-0.009124549,0.109078005,0.10727972,0.21711387,9.798161e-05,0.0020534683,1.5338936e-05,0,1,0,1
75996000,75874000,75916000,0,-2.71,-1.02,-0.049999997,0.09,0.09,0.20250002,-0.08508015,0.057919085,-0.008287631,0.1093989,0.107630335,0.21708785,0.0026466926,0.0012467193,1.2655675e-05,0,1,0,1
76388000,76274000,76308000,0,-3.6299999,-1.1899999,0.02,0.09,0.09,0.20250002,-0.066812515,0.023716092,-0.019203242,0.109693296,0.10829901,0.21703126,0.0016277793,0.00020774078,6.796524e-05,0,1,0,1
76788000,76674000,76708000,0,-4.17,-1.4499999,0.04,0.09,0.09,0.20250002,-0.0046954155,0.03334701,-0.023305349,0.10966536,0.10863243,0.21702404,8.041528e-06,0.00040946266,0.00010010675,0,1,0,1
77188000,77074000,77108000,0,-4.21,-1.54,0.01,0.09,0.09,0.20250002,0.0019841194,0.01920712,-0.0041537154,0.10903344,0.10832532,0.21698861,1.4442284e-06,0.00013622428,3.1805087e-06,0,1,0,1
77596000,77474000,77516000,0,-4.17,-1.51,0.0,0.09,0.09,0.20250002,-0.00045013428,0.015067697,-0.011685096,0.108536266,0.10818514,0.21708028,7.467398e-08,8.394331e-05,2.5159625e-05,0,1,0,1
77996000,77874000,77916000,0,-4.14,-1.53,-0.03,0.09,0.09,0.20250002,-0.043078423,0.005924821,0.012657015,0.10819833,0.108086,0.2170507,0.0006860551,1.2990953e-05,2.952306e-05,0,1,0,1
78396000,78274000,78316000,0,-4.19,-1.56,-0.02,0.09,0.09,0.20250002,-0.014568329,0.0007151365,-0.0008456446,0.107955076,0.10801135,0.21703398,7.863872e-05,1.89395e-07,1.3179776e-07,0,1,0,1
78796000,78674000,78716000,0,-4.19,-1.5899999,0.01,0.09,0.09,0.20250002,-0.050467014,-0.0011134148,-0.027869511,0.10776088,0.1079332,0.21702328,0.0009453967,4.5942951e-07,0.00014315693,0,1,0,1
79196000,79074000,79116000,0,-4.23,-1.5899999,-0.02,0.09,0.09,0.20250002,-0.040770054,-0.02917707,0.0033049025,0.1076015,0.10784496,0.21702105,0.0006179086,0.00031575008,2.0131467e-06,0,1,0,1
79596000,79478000,79516000,0,-4.25,-1.5999999,0.0,0.09,0.09,0.20250002,-0.056895733,-0.036307335,-0.01624401,0.107460886,0.10773765,0.21701615,0.0012049498,0.00048941944,4.8635615e-05,0,1,0,1
79996000,79874000,79916000,0,-4.31,-1.5999999,0.0,0.09,0.09,0.20250002,-0.029556274,-0.05102396,-0.0143208355,0.10733962,0.1076192,0.21701005,0.0003255362,0.00096765056,3.780218e-05,0,1,0,1
80396000,80274000,80316000,0,-4.3199997,-1.63,-0.04,0.09,0.09,0.20250002,-0.052834988,-0.031392932,0.03101942,0.107236445,0.107495464,0.21700725,0.0010412638,0.00036671915,0.00017735893,0,1,0,1
80788000,80674000,80708000,0,-4.33,-1.65,-0.06,0.09,0.09,0.20250002,-0.06827402,-0.024268985,0.05546308,0.10707509,0.10729786,0.21703744,0.0017413357,0.00021956959,0.00056693505,0,1,0,1
81196000,81074000,81116000,0,-4.36,-1.63,-0.03,0.09,0.09,0.20250002,-0.063827515,-0.05659926,0.035812415,0.107082404,0.10726191,0.21708576,0.0015218005,0.0011946369,0.0002363175,0,1,0,1
81596000,81474000,81516000,0,-4.38,-1.67,-0.01,0.09,0.09,0.20250002,-0.06674051,-0.016741753,0.023698049,0.107017025,0.107146844,0.21707338,0.0016648925,0.00010463632,0.00010348528,0,1,0,1
81988000,81874000,81908000,0,-4.46,-1.6899999,0.0,0.09,0.09,0.20250002,-0.008736134,-0.00747931,0.016207077,0.10689376,0.10697367,0.21709159,2.8559209e-05,2.0917327e-05,4.8397884e-05,0,1,0,1
82396000,82274000,82316000,0,-4.47,-1.6899999,-0.01,0.09,0.09,0.20250002,-0.031328678,-0.016379356,0.029816194,0.106945194,0.106974825,0.21713358,0.00036709872,0.000100316436,0.00016377114,0,1,0,1
82796000,82674000,82716000,0,-4.5099998,-1.6899999,0.0,0.09,0.09,0.20250002,-0.01201725,-0.01905644,0.02099296,0.106918685,0.10690387,0.21711898,5.402771e-05,0.00013587828,8.119131e-05,0,1,0,1
83196000,83074000,83116000,0,-4.5099998,-1.6899999,-0.03,0.09,0.09,0.20250002,-0.03677845,-0.021570325,0.05367417,0.10690064,0.106847785,0.21710366,0.00050613517,0.00017418384,0.00053079095,0,1,0,1
83596000,83474000,83516000,0,-4.5299997,-1.66,0.0,0.09,0.09,0.20250002,-0.031007767,-0.052448988,0.028273646,0.10688933,0.10680745,0.21709175,0.00035980452,0.0010302264,0.00014729239,0,1,0,1
83988000,83874000,83908000,0,-4.36,-1.62,-0.01,0.09,0.09,0.20250002,0.032091618,-0.012784243,0.052104577,0.106913835,0.106814,0.21703859,0.0003853091,6.1204286e-05,0.000500351,0,1,0,1
84396000,84274000,84316000,0,-3.77,-1.4599999,-0.01,0.09,0.09,0.20250002,0.010329485,-0.004902363,0.04766076,0.1072845,0.10729353,0.21715751,3.9781426e-05,8.959781e-06,0.00041841483,0,1,0,1
84796000,84674000,84716000,0,-3.26,-1.27,-0.03,0.09,0.09,0.20250002,0.017187834,0.001452446,0.067055926,0.1074943,0.107691966,0.21714184,0.00010993015,7.8356794e-07,0.00082830596,0,1,0,1
85196000,85074000,85116000,0,-2.77,-1.06,0.02,0.09,0.09,0.20250002,0.02617383,-0.0019842386,0.020472333,0.10758214,0.108026534,0.21712448,0.0002547149,1.4578652e-06,7.7212186e-05,0,1,0,1
85588000,85474000,85508000,0,-2.28,-0.84,-0.02,0.09,0.09,0.20250002,-0.0054941177,-0.012401283,0.059115183,0.10747389,0.108171046,0.21714185,1.1234479e-05,5.6869863e-05,0.00064374594,0,1,0,1
85996000,85874000,85916000,0,-1.8399999,-0.63,0.0,0.09,0.09,0.20250002,-0.0043087006,-0.022391498,0.03683108,0.10745035,0.10834154,0.2171064,6.911062e-06,0.0001851106,0.0002499288,0,1,0,1
86388000,86274000,86308000,0,-1.55,-0.62,-0.02,0.09,0.09,0.20250002,-0.030565262,-0.03499949,0.017557215,0.10709256,0.107991874,0.21712355,0.00034894494,0.0004537246,5.6789017e-05,0,1,0,1
86788000,86674000,86708000,0,-0.91999996,-1.01,-0.07,0.09,0.09,0.20250002,0.019609153,-0.06110549,0.06814851,0.106735274,0.108208,0.21709226,0.0001441019,0.0013802606,0.00085571344,0,1,0,1
87196000,87074000,87116000,0,0.0,-1.4499999,-0.02,0.09,0.09,0.20250002,-0.0035352674,-0.052642107,0.07489336,0.10665911,0.108903445,0.21710284,4.6871255e-06,0.0010178527,0.0010334302,0,1,0,1
87596000,87474000,87516000,0,0.39,-1.66,0.01,0.09,0.09,0.20250002,-0.046230614,-0.006321192,0.05292353,0.10653758,0.10849482,0.21708539,0.0008024472,1.4731568e-05,0.0005160918,0,1,0,1
87988000,87874000,87908000,0,0.63,-1.8399999,-0.02,0.09,0.09,0.20250002,-0.045894146,-0.066013455,0.055935442,0.10662765,0.10810936,0.21709564,0.00079014123,0.0016123585,0.00057647843,0,1,0,1
88396000,88274000,88316000,0,0.9,-2.56,-0.04,0.09,0.09,0.20250002,-0.06778449,-0.11883569,0.043162726,0.107580185,0.108423926,0.21710184,0.0017083952,0.0052098907,0.0003432529,0,1,0,1
88796000,88674000,88716000,0,1.04,-3.54,0.0,0.09,0.09,0.20250002,-0.034603,-0.100875616,0.058378175,0.1088724,0.10880746,0.21705261,0.00043991595,0.0037408797,0.00062805257,0,1,0,1
89188000,89074000,89108000,0,1.22,-4.15,0.0,0.09,0.09,0.20250002,-0.015261412,-0.063243866,0.0861922,0.10937354,0.10891076,0.21697551,8.51799e-05,0.0014690142,0.001369573,0,1,0,1
89596000,89474000,89516000,0,1.43,-4.31,0.0,0.09,0.09,0.20250002,-0.058162212,-0.02494669,0.09289213,0.10913907,0.10876356,0.21698783,0.0012398284,0.00022887715,0.0015906787,0,1,0,1
89996000,89874000,89916000,0,1.37,-4.2599998,0.03,0.09,0.09,0.20250002,-0.04815936,-0.02208519,0.04243791,0.10867226,0.10829812,0.2169461,0.00085369503,0.00018015293,0.00033205972,0,1,0,1
90396000,90274000,90316000,0,1.38,-4.2599998,0.01,0.09,0.09,0.20250002,-0.048408985,-0.04075098,0.05531697,0.108356655,0.108017996,0.21692014,0.0008650802,0.00061495026,0.0005642569,0,1,0,1
90796000,90674000,90716000,0,1.4,-4.2799997,0.01,0.09,0.09,0.20250002,-0.054332018,-0.04689598,0.045315474,0.10807574,0.10778623,0.21697576,0.0010925555,0.0008161462,0.00037856618,0,1,0,1
91196000,91074000,91116000,0,1.4399999,-4.29,0.01,0.09,0.09,0.20250002,-0.075883985,-0.06769943,0.042866774,0.10780735,0.10758042,0.21695831,0.002136544,0.0017041067,0.00033878587,0,1,0,1
91596000,91474000,91516000,0,1.4499999,-4.33,0.02,0.09,0.09,0.20250002,-0.06844199,-0.060324192,0.030499835,0.10755098,0.1073863,0.2169419,0.0017421712,0.0013554832,0.00017151872,0,1,0,1
91988000,91874000,91908000,0,1.4499999,-4.36,0.0,0.09,0.09,0.20250002,-0.058089137,-0.06823778,0.049736183,0.10724205,0.10714103,0.21688871,0.0012585913,0.001738417,0.0004562133,0,1,0,1
92396000,92274000,92316000,0,1.4599999,-4.39,0.02,0.09,0.09,0.20250002,-0.06895673,-0.07802725,0.028514426,0.10710718,0.10706572,0.21694039,0.0017758028,0.0022745847,0.0001499163,0,1,0,1
92796000,92674000,92716000,0,1.4599999,-4.43,0.0,0.09,0.09,0.20250002,-0.06700361,-0.06755924,0.046728425,0.10691039,0.106935605,0.21693419,0.0016797183,0.0017072896,0.00040261899,0,1,0,1
93196000,93074000,93116000,0,1.4399999,-4.3399997,0.06,0.09,0.09,0.20250002,-0.090084076,-0.034812927,0.0010289885,0.10674232,0.106830366,0.21700738,0.0030410208,0.00045378102,1.9516706e-07,0,1,0,1
93588000,93474000,93508000,0,1.3,-3.8,0.04,0.09,0.09,0.20250002,-0.07794762,-0.057516575,0.008508474,0.106721416,0.10677898,0.21695174,0.0022772676,0.0012392537,1.3347507e-05,0,1,0,1
93996000,93874000,93916000,0,1.15,-3.33,0.0,0.09,0.09,0.20250002,-0.09502447,-0.04166937,0.03742409,0.107027106,0.106981695,0.21700692,0.003374715,0.0006492087,0.00025816,0,1,0,1
94396000,94274000,94316000,0,0.98999995,-2.86,0.06,0.09,0.09,0.20250002,-0.09938604,-0.051826715,-0.029302988,0.10729106,0.107112914,0.21701138,0.0036825375,0.0010030568,0.00015827098,0,1,0,1
94796000,94674000,94716000,0,0.78999996,-2.45,-0.03,0.09,0.09,0.20250002,-0.07048637,-0.019464493,0.056742705,0.10754531,0.10723881,0.21701673,0.0018479013,0.00014131692,0.0005934537,0,1,0,1
95196000,95074000,95116000,0,0.61,-2.0,0.02,0.09,0.09,0.20250002,-0.073843,-0.060191393,0.00082521513,0.10768418,0.10724798,0.21702664,0.0020254743,0.0013512623,1.2551087e-07,0,1,0,1
95596000,95474000,95516000,0,0.48,-1.64,0.06,0.09,0.09,0.20250002,-0.057667673,-0.033260107,-0.03869069,0.10772059,0.107137196,0.2171125,0.0012348838,0.00041301613,0.0002757961,0,1,0,1
95996000,95874000,95916000,0,0.35999998,-1.29,0.01,0.09,0.09,0.20250002,-0.027204901,-0.041041255,-0.07029304,0.10776642,0.10707905,0.21711446,0.0002747077,0.00062921166,0.00091032375,0,1,0,1
96388000,96270000,96308000,0,0.26,-0.91999996,-0.66999996,0.09,0.09,0.20250002,-0.038607553,-0.030162513,-0.10558915,0.108222954,0.1073941,0.21714456,0.0005509157,0.00033885555,0.0020537598,0,1,0,1
96796000,96674000,96716000,0,0.12,-0.5,-1.9399999,0.09,0.09,0.20250002,0.00064187497,-0.042626977,-0.10520923,0.10920422,0.10821376,0.21719512,1.509112e-07,0.00067165546,0.0020385322,0,1,0,1
97188000,97074000,97108000,0,0.049999997,-0.14999999,-2.61,0.09,0.09,0.20250002,-0.0223062,-0.036426112,-0.058927298,0.109272145,0.10826263,0.2171404,0.00018213846,0.00049023813,0.0006396647,0,1,0,1
97596000,97474000,97516000,0,-0.07,0.17,-2.75,0.09,0.09,0.20250002,0.006422922,-0.021143988,0.015540123,0.10897403,0.108006075,0.21719128,1.5142664e-05,0.0001655715,4.447608e-05,0,1,0,1
97996000,97874000,97916000,0,-0.08,0.14999999,-2.56,0.09,0.09,0.20250002,0.017050102,-0.054466516,-0.025292158,0.10822669,0.1074729,0.21717697,0.00010744337,0.0011041301,0.00011781973,0,1,0,1
98396000,98274000,98316000,0,-0.07,0.14,-2.52,0.09,0.09,0.20250002,0.021916378,-0.034542,-0.048805237,0.107817896,0.1072004,0.21724403,0.0001781996,0.00044520348,0.0004385761,0,1,0,1
98796000,98674000,98716000,0,-0.089999996,0.14,-2.57,0.09,0.09,0.20250002,0.050748087,-0.028831385,0.0048878193,0.107562035,0.10704836,0.2172355,0.00095772394,0.00031060682,4.399056e-06,0,1,0,1
99188000,99074000,99108000,0,-0.11,0.13,-2.52,0.09,0.09,0.20250002,0.07389883,-0.0057855323,-0.04409671,0.10732404,0.10689461,0.21717834,0.0020353454,1.2525378e-05,0.00035814245,0,1,0,1
99596000,99474000,99516000,0,-0.089999996,0.14,-2.61,0.09,0.09,0.20250002,0.057874616,-0.0064056665,0.04504776,0.10732019,0.106961116,0.2172266,0.001248403,1.5344853e-05,0.00037367444,0,1,0,1
99996000,99874000,99916000,0,-0.089999996,0.13,-2.54,0.09,0.09,0.20250002,0.07336513,0.014743462,-0.02764368,0.1072536,0.106966354,0.21729375,0.0020073703,8.128526e-05,0.00014067096,0,1,0,1
100396000,100278000,100316000,0,-0.07,0.14999999,-2.57,0.09,0.09,0.20250002,0.06427548,0.0043005347,-0.0032250881,0.10724293,0.10701068,0.21728216,0.0015409269,6.9131784e-06,1.9147808e-06,0,1,0,1
100788000,100670000,100708000,0,-0.07,0.14,-2.59,0.09,0.09,0.20250002,0.07618013,0.02709648,0.007169962,0.10718031,0.106991,0.21722369,0.0021658503,0.00027449755,9.4664365e-06,0,1,0,1
101188000,101074000,101108000,0,-0.03,0.16,-2.58,0.09,0.09,0.20250002,0.043897808,0.010896429,-0.012732029,0.10722001,0.10705774,0.21722259,0.00071890216,4.436192e-05,2.9850406e-05,0,1,0,1
101596000,101474000,101516000,0,-0.049999997,0.12,-2.58,0.09,0.09,0.20250002,0.07605624,0.05808521,-0.0244236,0.10733282,0.10718798,0.21726967,0.002155744,0.001259056,0.000109819695,0,1,0,1
101996000,101874000,101916000,0,-0.07,0.12,-2.44,0.09,0.09,0.20250002,0.094283074,0.054168247,-0.010854721,0.10721092,0.107073575,0.21726137,0.0033165643,0.0010961432,2.169276e-05,0,1,0,1
102388000,102270000,102308000,0,-0.049999997,0.12,-2.1,0.09,0.09,0.20250002,0.0730323,0.04614625,0.010415316,0.106876075,0.10674141,0.21728252,0.0019962247,0.00079799455,1.9970092e-05,0,1,0,1
102796000,102674000,102716000,0,-0.04,0.099999994,-1.81,0.09,0.09,0.20250002,0.07522713,0.060914576,-0.01603651,0.10682687,0.106695615,0.2173241,0.0021189877,0.0013910921,4.733386e-05,0,1,0,1
103196000,103074000,103116000,0,-0.04,0.11,-1.5999999,0.09,0.09,0.20250002,0.083099455,0.03982085,0.016432643,0.1067321,0.106596544,0.21730624,0.0025879822,0.0005950287,4.9705293e-05,0,1,0,1
103596000,103474000,103516000,0,0.0,0.099999994,-1.41,0.09,0.09,0.20250002,0.0484316,0.0458813,0.048820972,0.106665306,0.10652431,0.21729106,0.0008796187,0.0007904651,0.00043876402,0,1,0,1
103996000,103874000,103916000,0,0.0,0.04,-1.1,0.09,0.09,0.20250002,0.058454096,0.09299231,-0.05565393,0.10662936,0.10647662,0.21727975,0.0012817789,0.0032486268,0.00057020684,0,1,0,1
104396000,104274000,104316000,0,0.0,0.049999997,-0.94,0.09,0.09,0.20250002,0.054502856,0.07141278,-0.038489282,0.10662001,0.1064547,0.21727191,0.001114448,0.0019162274,0.00027273197,0,1,0,1
104796000,104674000,104716000,0,0.0,0.03,-0.83,0.09,0.09,0.20250002,0.05506824,0.08906877,-0.0043383837,0.10662927,0.10645822,0.2172647,0.0011375905,0.0029807924,3.4651875e-06,0,1,0,1
105196000,105074000,105116000,0,0.01,0.01,-0.69,0.09,0.09,0.20250002,0.04262557,0.10236561,-0.012104094,0.10664214,0.10646353,0.2172575,0.00068150886,0.0039370176,2.6974276e-05,0,1,0,1
105596000,105474000,105516000,0,0.01,0.0,-0.59,0.09,0.09,0.20250002,0.040664807,0.11528373,0.0060890913,0.10665086,0.106470436,0.21724734,0.00062020187,0.0049930625,6.826695e-06,0,1,0,1
105996000,105874000,105916000,0,0.0,0.03,-0.45999998,0.09,0.09,0.20250002,0.047688466,0.08416472,-0.026081353,0.106667414,0.10648452,0.21731171,0.0008528152,0.0026609313,0.00012520945,0,1,0,1
106396000,106274000,106316000,0,0.0,0.03,-0.35999998,0.09,0.09,0.20250002,0.043764796,0.09430075,-0.04325208,0.106685,0.10650158,0.21729532,0.0007181356,0.0033399058,0.00034436866,0,1,0,1
106796000,106674000,106716000,0,-0.049999997,-0.03,-0.31,0.09,0.09,0.20250002,0.0048179105,0.0722872,-0.07234219,0.106755726,0.106559694,0.21727419,8.697337e-06,0.001961507,0.0009634632,0,1,0,1
107196000,107074000,107116000,0,-0.65999997,-0.39999998,-0.28,0.09,0.09,0.20250002,-0.02383697,0.074056566,-0.06155777,0.10690964,0.10673869,0.2172137,0.0002125912,0.002055253,0.0006978121,0,1,0,1
107588000,107474000,107508000,0,-1.74,-0.74,-0.24,0.09,0.09,0.20250002,-0.016817808,0.09422475,-0.02529107,0.10713851,0.1074401,0.21716218,0.00010559739,0.0033053968,0.00011781762,0,1,0,1
107996000,107874000,107916000,0,-2.86,-1.1,-0.11,0.09,0.09,0.20250002,0.007478237,0.079059005,-0.076742366,0.10775221,0.10882418,0.21717593,2.0760237e-05,0.0022974035,0.0010847226,0,1,0,1
108396000,108274000,108316000,0,-3.84,-1.4499999,-0.02,0.09,0.09,0.20250002,0.050560474,0.06359315,-0.065651014,0.10830617,0.10998441,0.21717475,0.00094412407,0.001470786,0.00079384097,0,1,0,1
108796000,108674000,108716000,0,-4.29,-1.93,0.0,0.09,0.09,0.20250002,0.100078106,0.07491493,-0.0001802221,0.10893151,0.110314816,0.21724461,0.0036777705,0.0020349931,5.980356e-09,0,1,0,1
109188000,109074000,109108000,0,-4.2599998,-2.09,-0.04,0.09,0.09,0.20250002,0.11641359,0.13284159,0.0155325085,0.10920307,0.10991582,0.21715428,0.0049640085,0.006421964,4.444008e-05,0,1,0,1
109596000,109474000,109516000,0,-4.2,-2.08,-0.02,0.09,0.09,0.20250002,0.09551811,0.102212906,-0.0102523975,0.109635934,0.10987376,0.21718177,0.0033287297,0.003803448,1.9359204e-05,0,1,0,1
109996000,109874000,109916000,0,-4.22,-2.06,-0.07,0.09,0.09,0.20250002,0.09888363,0.083501935,0.034245074,0.10990006,0.10982541,0.21717148,0.00355886,0.0025395118,0.00021599984,0,1,0,1
110396000,110274000,110316000,0,-4.25,-2.03,-0.02,0.09,0.09,0.20250002,0.08675909,0.065730214,-0.015057202,0.11004522,0.10976198,0.21716885,0.002736017,0.0015744836,4.1759093e-05,0,1,0,1
110796000,110674000,110716000,0,-4.2599998,-2.03,-0.03,0.09,0.09,0.20250002,0.060920715,0.082161665,-0.005862994,0.11009235,0.109678894,0.21716727,0.0013484437,0.0024619282,6.3314696e-06,0,1,0,1
111196000,111074000,111116000,0,-4.2999997,-1.9699999,0.01,0.09,0.09,0.20250002,0.07345486,0.028609514,-0.049802884,0.11004102,0.10956829,0.2171639,0.0019613106,0.00029881066,0.00045685814,0,1,0,1
111596000,111474000,111516000,0,-4.3199997,-1.9599999,-0.04,0.09,0.09,0.20250002,0.067917824,0.028947234,-0.005843073,0.10988945,0.10942362,0.21716492,0.0016790805,0.00030631133,6.2885856e-06,0,1,0,1
111996000,111878000,111916000,0,-4.3399997,-1.9599999,0.0,0.09,0.09,0.20250002,0.06624985,0.024373174,-0.05260723,0.10966342,0.10924781,0.21724287,0.0016009139,0.0002175061,0.00050957175,0,1,0,1
112396000,112274000,112316000,0,-4.3399997,-1.9799999,-0.049999997,0.09,0.09,0.20250002,0.04553032,0.02717638,-0.0044507757,0.10940777,0.10904656,0.21723643,0.0007579023,0.00027091385,3.647529e-06,0,1,0,1
112796000,112674000,112716000,0,-4.37,-1.9799999,-0.07,0.09,0.09,0.20250002,0.059365273,0.002478838,0.01398474,0.10911684,0.10882065,0.21722718,0.0012919126,2.2586294e-06,3.6012614e-05,0,1,0,1
113196000,113074000,113116000,0,-4.39,-1.99,-0.06,0.09,0.09,0.20250002,0.054982185,-0.007302761,0.008941058,0.10880666,0.108573675,0.21721652,0.001111344,1.9647607e-05,1.4721259e-05,0,1,0,1
113596000,113474000,113516000,0,-4.4,-2.03,-0.08,0.09,0.09,0.20250002,0.040821075,0.010915279,0.033521727,0.10850041,0.108331405,0.21720192,0.000614324,4.3992164e-05,0.0002069422,0,1,0,1
113996000,113874000,113916000,0,-4.45,-2.02,-0.07,0.09,0.09,0.20250002,0.07034159,-0.02390337,0.02946204,0.10820685,0.10809472,0.21718664,0.0018290668,0.0002114335,0.00015986468,0,1,0,1
114396000,114274000,114316000,0,-4.45,-2.05,-0.11,0.09,0.09,0.20250002,0.051820755,-0.0073182583,0.07419398,0.10794354,0.10788068,0.21725398,0.0009951093,1.9857831e-05,0.0010135134,0,1,0,1
114796000,114674000,114716000,0,-4.43,-2.08,-0.049999997,0.09,0.09,0.20250002,0.018930435,0.0056898594,0.020612076,0.10770149,0.10768436,0.21723619,0.0001330943,1.2025703e-05,7.8229634e-05,0,1,0,1
115188000,115074000,115108000,0,-4.44,-2.07,-0.049999997,0.09,0.09,0.20250002,0.0213871,-0.01459837,0.02408424,0.10742031,0.10743548,0.21716544,0.00017032461,7.934526e-05,0.00010684032,0,1,0,1
115596000,115474000,115516000,0,-4.42,-2.03,-0.06,0.09,0.09,0.20250002,0.08710718,-0.01587987,0.05755468,0.107350916,0.107421905,0.2171985,0.0028272367,9.3899005e-05,0.0006100486,0,1,0,1
115996000,115874000,115916000,0,-3.87,-1.8199999,-0.089999996,0.09,0.09,0.20250002,0.05437851,-0.024263978,0.08022289,0.107407205,0.10775082,0.21724387,0.001101238,0.00021855635,0.0011849747,0,1,0,1
116396000,116274000,116316000,0,-3.36,-1.5899999,-0.03,0.09,0.09,0.20250002,0.05358696,-0.011265278,0.031361073,0.10742555,0.10805313,0.21721332,0.0010692289,4.697929e-05,0.00018111539,0,1,0,1
116796000,116674000,116716000,0,-2.86,-1.31,-0.03,0.09,0.09,0.20250002,0.05137968,-0.04575944,0.045023426,0.107385896,0.108292766,0.21718815,0.0009833216,0.0007734316,0.00037333695,0,1,0,1
117196000,117074000,117116000,0,-2.37,-1.1,-0.04,0.09,0.09,0.20250002,0.033683777,0.0018545389,0.061747212,0.10726555,0.10844678,0.21716282,0.0004230983,1.2685724e-06,0.0007022783,0,1,0,1
117596000,117474000,117516000,0,-1.93,-0.85999995,-0.01,0.09,0.09,0.20250002,0.027712822,-0.014328241,0.037351325,0.10709115,0.108454555,0.21713889,0.00028685862,7.57178e-05,0.00025700076,0,1,0,1
117988000,117874000,117908000,0,-1.53,-0.69,0.0,0.09,0.09,0.20250002,0.002197504,-0.037483335,0.031775445,0.10680243,0.108237326,0.21715298,1.8085822e-06,0.0005192295,0.00018598483,0,1,0,1
118396000,118274000,118316000,0,-1.1899999,-0.51,0.0,0.09,0.09,0.20250002,0.00252676,-0.0543769,0.10681631,0.10666375,0.108041786,0.21719,2.3942591e-06,0.0010947051,0.002101335,0,1,0,1
118796000,118674000,118716000,0,-0.78999996,-0.35999998,0.82,0.09,0.09,0.20250002,-0.012583733,-0.05207637,0.14532787,0.10598706,0.10728168,0.21716438,5.9762144e-05,0.0010111505,0.0038901754,0,1,0,1
119196000,119078000,119116000,0,-0.34,-0.19999999,1.61,0.09,0.09,0.20250002,-0.012868613,-0.052556008,-0.0189749,0.10560797,0.106884785,0.21721773,6.2723e-05,0.0010336865,6.630155e-05,0,1,0,1
119596000,119474000,119516000,0,0.04,-0.03,1.4599999,0.09,0.09,0.20250002,-0.062037557,-0.029821986,0.009477258,0.10589593,0.10699266,0.21719903,0.0014537512,0.00033249042,1.6541218e-05,0,1,0,1
119996000,119874000,119916000,0,0.08,0.04,1.4599999,0.09,0.09,0.20250002,-0.083955936,-0.0604829,0.01795268,0.10621077,0.10681512,0.21718548,0.0026545706,0.0013699115,5.935917e-05,0,1,0,1
120396000,120274000,120316000,0,0.099999994,0.03,1.48,0.09,0.09,0.20250002,-0.07720726,-0.015458007,0.024682164,0.106739335,0.1069821,0.2171764,0.0022338387,8.9342044e-05,0.000112205424,0,1,0,1
120796000,120674000,120716000,0,0.07,0.0,1.49,0.09,0.09,0.20250002,-0.059258647,0.021802252,0.012780428,0.10744964,0.10742449,0.21717212,0.0013072495,0.00017699435,3.0084773e-05,0,1,0,1
121196000,121074000,121116000,0,0.02,0.01,1.52,0.09,0.09,0.20250002,-0.047984734,0.007336868,0.009529948,0.10820162,0.10797423,0.21717276,0.00085120153,1.9941657e-05,1.6727681e-05,0,1,0,1
121588000,121474000,121508000,0,0.01,-0.01,1.5699999,0.09,0.09,0.20250002,-0.042516917,0.017554227,-0.03883767,0.108736575,0.10838196,0.21720421,0.0006649789,0.00011372774,0.00027777816,0,1,0,1
121996000,121874000,121916000,0,-0.01,-0.049999997,1.52,0.09,0.09,0.20250002,-0.038452104,0.051668752,0.0009740591,0.10929056,0.10883006,0.2172583,0.0005411498,0.0009812216,1.7468444e-07,0,1,0,1
122388000,122270000,122308000,0,-0.02,-0.049999997,1.52,0.09,0.09,0.20250002,-0.045597564,0.039742235,-0.008390069,0.109418616,0.10890933,0.21720564,0.00076006737,0.00058009545,1.2963432e-05,0,1,0,1
122796000,122674000,122716000,0,-0.04,-0.07,1.54,0.09,0.09,0.20250002,-0.036390007,0.06080184,-0.03390932,0.10956336,0.109033436,0.21724936,0.00048345816,0.0013562314,0.00021170918,0,1,0,1
123196000,123074000,123116000,0,-0.049999997,-0.06,1.52,0.09,0.09,0.20250002,-0.036296837,0.051565368,-0.016419172,0.10945837,0.10894988,0.21723261,0.0004814471,0.00097622396,4.9640654e-05,0,1,0,1
123596000,123474000,123516000,0,-0.089999996,-0.04,1.4699999,0.09,0.09,0.20250002,-0.0024817884,0.039667837,0.029296279,0.10925207,0.10878528,0.21721971,2.255069e-06,0.0005785847,0.0001580468,0,1,0,1
123996000,123874000,123916000,0,-0.089999996,-0.03,1.54,0.09,0.09,0.20250002,-0.011073902,0.03808308,-0.041361213,0.1089736,0.10855863,0.21720836,4.501322e-05,0.0005343918,0.00031504311,0,1,0,1
124396000,124274000,124316000,0,-0.089999996,-0.03,1.56,0.09,0.09,0.20250002,-0.009001374,0.046756443,-0.06163788,0.10866564,0.10830368,0.21728067,2.9825338e-05,0.00080742035,0.0006994139,0,1,0,1
124788000,124674000,124708000,0,-0.06,-0.02,1.54,0.09,0.09,0.20250002,-0.034357313,0.038473368,-0.048692107,0.1082798,0.10796983,0.21722299,0.0004360647,0.0005483754,0.00043658752,0,1,0,1
125196000,125074000,125116000,0,-0.099999994,-0.01,1.5,0.09,0.09,0.20250002,0.016804844,0.029164178,-0.021380901,0.108079456,0.10781324,0.21726672,0.00010451674,0.00031556396,8.416253e-05,0,1,0,1
125596000,125474000,125516000,0,-0.08,0.0,1.51,0.09,0.09,0.20250002,-0.0053266883,0.018479718,-0.034196615,0.10779712,0.1075716,0.217256,1.0528521e-05,0.00012698518,0.00021530516,0,1,0,1
125996000,125874000,125916000,0,-0.08,0.0,1.51,0.09,0.09,0.20250002,1.1637807e-05,0.01150449,-0.035291195,0.10754682,0.10735807,0.21724811,5.03738e-11,4.9312846e-05,0.00022931723,0,1,0,1
126396000,126274000,126316000,0,-0.08,0.0,1.51,0.09,0.09,0.20250002,0.0035480633,0.0052850456,-0.036969543,0.10733721,0.107179046,0.21724369,4.6912915e-06,1.0424315e-05,0.00025165235,0,1,0,1
126796000,126674000,126716000,0,-0.049999997,0.01,1.56,0.09,0.09,0.20250002,-0.024037741,-0.014426052,-0.088226676,0.10716687,0.107035175,0.21723588,0.00021566852,7.777292e-05,0.001433271,0,1,0,1
127188000,127074000,127108000,0,-0.06,-0.01,1.5,0.09,0.09,0.20250002,-0.008534763,-0.0015430264,-0.035179496,0.106971756,0.10686255,0.21725537,2.7237911e-05,8.9121227e-07,0.00022786034,0,1,0,1
127596000,127474000,127516000,0,-0.03,-0.04,1.5,0.09,0.09,0.20250002,-0.043679252,0.018302213,-0.042961597,0.1069685,0.10687716,0.2172267,0.0007134351,0.00012536673,0.00033986592,0,1,0,1
127988000,127874000,127908000,0,-0.06,-0.01,1.52,0.09,0.09,0.20250002,-0.016286355,-0.021116879,-0.061918378,0.106830955,0.10675508,0.21725285,9.931404e-05,0.00016708249,0.00070588454,0,1,0,1
128396000,128274000,128316000,0,-0.03,-0.03,1.51,0.09,0.09,0.20250002,-0.055763684,-0.001704881,-0.054457188,0.10688191,0.1068179,0.21730071,0.0011637474,1.0884389e-06,0.0005458952,0,1,0,1
128796000,128674000,128716000,0,-0.06,-0.03,1.52,0.09,0.09,0.20250002,-0.029880624,-0.008819742,-0.068924665,0.1068628,0.10680972,0.2172849,0.00033420487,2.9131375e-05,0.0008745401,0,1,0,1
129196000,129074000,129116000,0,-0.099999994,-0.03,1.49,0.09,0.09,0.20250002,-0.0033886582,-0.012492614,-0.04091513,0.10686106,0.10681687,0.21726428,4.298293e-06,5.844223e-05,0.00030820494,0,1,0,1
129596000,129474000,129516000,0,-0.089999996,-0.049999997,1.4599999,0.09,0.09,0.20250002,-0.026126556,0.0021753572,-0.012663126,0.10686942,0.106832154,0.21732105,0.0002554882,1.7718182e-06,2.9514813e-05,0,1,0,1
129996000,129874000,129916000,0,-0.049999997,-0.06,1.4699999,0.09,0.09,0.20250002,-0.06771139,0.003719978,-0.019513607,0.10688055,0.106848,0.21729502,0.0017158716,5.180532e-06,7.009473e-05,0,1,0,1
130396000,130274000,130316000,0,-0.049999997,-0.03,1.52,0.09,0.09,0.20250002,-0.064772025,-0.025156254,-0.065093756,0.10689936,0.10686885,0.21727316,0.0015698562,0.00023686496,0.00078006816,0,1,0,1
