timestamp,timestamp_sample,control_mode_flags,output_tracking_error[0],output_tracking_error[1],output_tracking_error[2],filter_fault_flags,pos_horiz_accuracy,pos_vert_accuracy,mag_test_ratio,vel_test_ratio,pos_test_ratio,hgt_test_ratio,tas_test_ratio,hagl_test_ratio,beta_test_ratio,time_slip,accel_device_id,gyro_device_id,baro_device_id,mag_device_id,gps_check_fail_flags,innovation_check_flags,solution_status_flags,reset_count_vel_ne,reset_count_vel_d,reset_count_pos_ne,reset_count_pod_d,reset_count_quat,pre_flt_fail_innov_heading,pre_flt_fail_innov_vel_horiz,pre_flt_fail_innov_vel_vert,pre_flt_fail_innov_height,pre_flt_fail_mag_field_disturbed,health_flags,timeout_flags
3444000,3364000,13421772800,0.00028196987,0.010736789,0.00059153617,0,14.166938,10.007018,nan,nan,nan,nan,0.0,0.0,0.0,0.0,1310988,1310988,6620172,0,0,0,128,1,1,1,1,0,0,0,0,0,0,0,0
3452000,3372000,13421772800,0.00025618353,0.010579698,0.0006742755,0,14.171185,10.008221,nan,nan,nan,nan,0.0,0.0,0.0,0.0,1310988,1310988,6620172,0,0,0,128,1,1,1,1,0,0,0,0,0,0,0,0
3644000,3564000,13421772800,2.0571899e-05,0.00478452,0.0011970578,0,0.7098272,7.094678,nan,nan,nan,nan,0.0,0.0,0.0,0.0,1310988,1310988,6620172,0,0,0,128,1,1,1,1,0,0,0,0,0,0,0,0
3844000,3764000,13421772800,1.1523013e-05,0.0039823204,0.0046823043,0,0.6592803,5.837909,nan,nan,nan,nan,0.0,0.0,0.0,0.0,1310988,1310988,6620172,0,0,0,128,1,1,1,1,0,0,0,0,0,0,0,0
4044000,3964000,13488881664,1.860925e-05,0.040918633,0.023150733,0,0.5001609,5.7735047,nan,nan,nan,nan,0.0,0.0,0.0,0.0,1310988,1310988,6620172,0,0,0,128,1,1,1,1,0,0,0,0,0,0,0,0
4244000,4164000,4898947585,0.002853494,0.03765372,0.016156506,0,0.0143056745,2.218035,nan,nan,nan,0.008133195,0.0,0.0,0.0,0.0,1310988,1310988,6620172,0,0,0,164,1,1,1,1,0,0,0,0,0,0,0,0
4444000,4364000,4898947585,0.00017732885,0.013406825,0.008680216,0,0.019054618,1.4937685,nan,nan,nan,0.0043378617,0.0,0.0,0.0,0.0,1310988,1310988,6620172,0,0,0,164,1,1,1,1,0,0,0,0,0,0,0,0
4644000,4564000,4898947585,0.00033579013,0.0025632204,0.005113126,0,0.031393837,1.1361777,nan,nan,nan,0.0013793348,0.0,0.0,0.0,0.0,1310988,1310988,6620172,0,0,0,164,1,1,1,1,0,0,0,0,0,0,0,0
4844000,4764000,4898947585,0.00047693806,0.003645748,0.0034856182,0,0.028215444,0.9904588,nan,nan,nan,0.0013449527,0.0,0.0,0.0,0.0,1310988,1310988,6620172,0,0,0,164,1,1,1,1,0,0,0,0,0,0,0,0
5044000,4964000,4898947585,0.0003779231,0.004299677,0.002613147,0,0.024521906,0.8895813,nan,nan,nan,0.001343286,0.0,0.0,0.0,0.0,1310988,1310988,6620172,0,0,0,164,1,1,1,1,0,0,0,0,0,0,0,0
5244000,5164000,4898947585,0.00038407862,0.003973773,0.00075092237,0,0.02238845,0.79335266,nan,nan,nan,0.0006076345,0.0,0.0,0.0,0.0,1310988,1310988,6620172,0,0,0,164,1,1,1,1,0,0,0,0,0,0,0,0
5444000,5364000,4898947585,0.00023946418,0.0029043355,0.0038585137,0,0.020945068,0.7390087,nan,nan,nan,0.00055451534,0.0,0.0,0.0,0.0,1310988,1310988,6620172,0,0,0,164,1,1,1,1,0,0,0,0,0,0,0,0
5644000,5564000,4898947585,0.00019216767,0.0016343674,0.00065899343,0,0.019699894,0.68147,nan,nan,nan,0.0017235695,0.0,0.0,0.0,0.0,1310988,1310988,6620172,0,0,0,164,1,1,1,1,0,0,0,0,0,0,0,0
5844000,5764000,4898947585,0.00022306507,0.0018257683,0.007362531,0,0.018553788,0.6465796,nan,nan,nan,0.007180988,0.0,0.0,0.0,0.0,1310988,1310988,6620172,0,0,0,164,1,1,1,1,0,0,0,0,0,0,0,0
6044000,5964000,4898947585,0.00020962323,0.0026433966,0.0015201479,0,0.017525515,0.6168049,nan,nan,nan,0.00021151712,0.0,0.0,0.0,0.0,1310988,1310988,6620172,0,0,0,164,1,1,1,1,0,0,0,0,0,0,0,0
6244000,6164000,4898947585,0.00010600399,0.0024422219,0.0025296868,0,0.016632587,0.5827974,nan,nan,nan,0.0003055607,0.0,0.0,0.0,0.0,1310988,1310988,6620172,0,0,0,164,1,1,1,1,0,0,0,0,0,0,0,0
6444000,6364000,4898947585,6.649089e-05,0.0019753168,0.0038012515,0,0.01586781,0.5611487,nan,nan,nan,0.0019502111,0.0,0.0,0.0,0.0,1310988,1310988,6620172,0,0,0,164,1,1,1,1,0,0,0,0,0,0,0,0
6644000,6564000,4898947585,2.3106024e-05,0.0019663887,0.0039004665,0,0.015212941,0.5419551,nan,nan,nan,0.0021567412,0.0,0.0,0.0,0.0,1310988,1310988,6620172,0,0,0,164,1,1,1,1,0,0,0,0,0,0,0,0
6844000,6764000,4898947585,0.00015582697,0.00288085,0.0039009536,0,0.014647102,0.51900417,nan,nan,nan,0.0020126652,0.0,0.0,0.0,0.0,1310988,1310988,6620172,0,0,0,164,1,1,1,1,0,0,0,0,0,0,0,0
7044000,6964000,4898947585,0.00017595038,0.00353473,0.0035798303,0,0.014152457,0.5040685,nan,nan,nan,0.0045596296,0.0,0.0,0.0,0.0,1310988,1310988,6620172,0,0,0,164,1,1,1,1,0,0,0,0,0,0,0,0
7244000,7164000,4898947585,0.00018679873,0.0038265386,0.003367383,0,0.013713221,0.4905292,nan,nan,nan,0.0017191346,0.0,0.0,0.0,0.0,1310988,1310988,6620172,0,0,0,164,1,1,1,1,0,0,0,0,0,0,0,0
7444000,7364000,4898947585,0.00025497793,0.0042227595,0.0034230996,0,0.013318278,0.47379646,nan,nan,nan,0.0005134978,0.0,0.0,0.0,0.0,1310988,1310988,6620172,0,0,0,164,1,1,1,1,0,0,0,0,0,0,0,0
7644000,7564000,4898947585,0.00028224883,0.0054654544,0.0021416314,0,0.013045851,0.46432093,nan,nan,nan,0.0007082848,0.0,0.0,0.0,0.0,1310988,1310988,6620172,0,0,0,164,1,1,1,1,0,0,0,0,0,0,0,0
7844000,7764000,4898947585,0.0002473304,0.0053649624,0.0023638753,0,0.012707151,0.45053536,nan,nan,nan,0.002046117,0.0,0.0,0.0,0.0,1310988,1310988,6620172,0,0,0,164,1,1,1,1,0,0,0,0,0,0,0,0
8044000,7964000,4898947585,0.0001712784,0.004859515,0.0036855561,0,0.012393986,0.4415312,nan,nan,nan,0.0027220768,0.0,0.0,0.0,0.0,1310988,1310988,6620172,0,0,0,164,1,1,1,1,0,0,0,0,0,0,0,0
8244000,8164000,4898947585,0.00011470762,0.0041806703,0.002656943,0,0.012102173,0.43319327,nan,nan,nan,0.0006149883,0.0,0.0,0.0,0.0,1310988,1310988,6620172,0,0,0,164,1,1,1,1,0,0,0,0,0,0,0,0
8444000,8364000,4898947585,6.525719e-05,0.003640552,0.002438802,0,0.011828645,0.42234397,nan,nan,nan,0.0008459341,0.0,0.0,0.0,0.0,1310988,1310988,6620172,0,0,0,164,1,1,1,1,0,0,0,0,0,0,0,0
8644000,8564000,4898947585,7.68255e-05,0.0033832635,0.003314027,0,0.011570803,0.41530514,nan,nan,nan,0.001003571,0.0,0.0,0.0,0.0,1310988,1310988,6620172,0,0,0,164,1,1,1,1,0,0,0,0,0,0,0,0
8844000,8764000,4898949633,7.113126e-05,0.0032342619,0.0034168574,0,0.011326624,0.96153486,nan,nan,nan,0.0029011243,0.0,0.0,0.0,0.0,1310988,1310988,6620172,0,0,0,164,1,1,1,2,0,0,0,0,0,0,0,0
9044000,8964000,4898949633,6.188184e-05,0.0029488073,0.004857893,0,0.011095101,0.8684196,nan,nan,nan,0.0011955512,0.0,0.0,0.0,0.0,1310988,1310988,6620172,0,0,0,164,1,1,1,2,0,0,0,0,0,0,0,0
9244000,9164000,4898949633,5.7496112e-05,0.0028227144,0.008224303,0,0.017474385,0.6142137,nan,nan,nan,0.003848077,0.0,0.0,0.0,0.0,1310988,1310988,6620172,0,0,0,164,1,1,1,2,0,0,0,0,0,0,0,0
9444000,9364000,4898949633,6.351263e-05,0.0026507315,0.0032914765,0,0.017076898,0.58816713,nan,nan,nan,0.0025856486,0.0,0.0,0.0,0.0,1310988,1310988,6620172,0,0,0,164,1,1,1,2,0,0,0,0,0,0,0,0
9644000,9564000,4898949633,7.24691e-05,0.0025136531,0.0014235252,0,0.016698817,0.49226546,nan,nan,nan,0.00094448833,0.0,0.0,0.0,0.0,1310988,1310988,6620172,0,0,0,164,1,1,1,2,0,0,0,0,0,0,0,0
9844000,9764000,4898949633,6.473448e-05,0.0024357657,0.00072181656,0,0.016337045,0.4747355,nan,nan,nan,0.0003643271,0.0,0.0,0.0,0.0,1310988,1310988,6620172,0,0,0,164,1,1,1,2,0,0,0,0,0,0,0,0
10044000,9964000,4898949633,6.952948e-05,0.0023924932,0.000864901,0,0.015989993,0.42038128,nan,nan,nan,0.0012346506,0.0,0.0,0.0,0.0,1310988,1310988,6620172,0,0,0,164,1,1,1,2,0,0,0,0,0,0,0,0
10244000,10164000,4898949633,7.7925615e-05,0.0024210177,0.0014034908,0,0.015656574,0.40996346,nan,nan,nan,0.002460834,0.0,0.0,0.0,0.0,1310988,1310988,6620172,0,0,0,164,1,1,1,2,0,0,0,0,0,0,0,0
10444000,10364000,4898949633,6.6364904e-05,0.0024385063,0.0019040427,0,0.0153353885,0.37400013,nan,nan,nan,0.003080361,0.0,0.0,0.0,0.0,1310988,1310988,6620172,0,0,0,164,1,1,1,2,0,0,0,0,0,0,0,0
10644000,10564000,4898949633,6.245896e-05,0.002284359,0.0016446994,0,0.015026343,0.36726376,nan,nan,nan,0.00040259416,0.0,0.0,0.0,0.0,1310988,1310988,6620172,0,0,0,164,1,1,1,2,0,0,0,0,0,0,0,0
10844000,10764000,4898949633,5.7393936e-05,0.0025111826,0.0019733354,0,0.014727334,0.3413126,nan,nan,nan,0.0020914366,0.0,0.0,0.0,0.0,1310988,1310988,6620172,0,0,0,164,1,1,1,2,0,0,0,0,0,0,0,0
11044000,10964000,4898949633,7.274675e-05,0.002813608,0.0016493637,0,0.014437805,0.33836567,nan,nan,nan,0.0021673793,0.0,0.0,0.0,0.0,1310988,1310988,6620172,0,0,0,164,1,1,1,2,0,0,0,0,0,0,0,0
11244000,11164000,4898949633,7.154163e-05,0.0031749408,0.0029970661,0,0.014157032,0.31700444,nan,nan,nan,0.0016959792,0.0,0.0,0.0,0.0,1310988,1310988,6620172,0,0,0,164,1,1,1,2,0,0,0,0,0,0,0,0
11444000,11364000,4898949633,8.253591e-05,0.0034939386,0.0032046814,0,0.01388484,0.31523457,nan,nan,nan,0.0030354245,0.0,0.0,0.0,0.0,1310988,1310988,6620172,0,0,0,164,1,1,1,2,0,0,0,0,0,0,0,0
11644000,11564000,4898949633,9.229585e-05,0.0037842996,0.0042921165,0,0.013620798,0.29826218,nan,nan,nan,0.0047471668,0.0,0.0,0.0,0.0,1310988,1310988,6620172,0,0,0,164,1,1,1,2,0,0,0,0,0,0,0,0
11844000,11764000,4898949633,0.00010595099,0.004152103,0.0042614317,0,0.013364166,0.29733685,nan,nan,nan,0.0022526083,0.0,0.0,0.0,0.0,1310988,1310988,6620172,0,0,0,164,1,1,1,2,0,0,0,0,0,0,0,0
12044000,11964000,4898949633,0.000114018876,0.004359252,0.005780164,0,0.013115061,0.28344083,nan,nan,nan,0.0027990318,0.0,0.0,0.0,0.0,1310988,1310988,6620172,0,0,0,164,1,1,1,2,0,0,0,0,0,0,0,0
12244000,12164000,4898949633,0.00011685403,0.004088988,0.004274541,0,0.0128732715,0.2831355,nan,nan,nan,0.0025424259,0.0,0.0,0.0,0.0,1310988,1310988,6620172,0,0,0,164,1,1,1,2,0,0,0,0,0,0,0,0
12444000,12364000,4898949633,8.8074274e-05,0.003775672,0.0042995717,0,0.01263791,0.27230233,nan,nan,nan,0.0038628886,0.0,0.0,0.0,0.0,1310988,1310988,6620172,0,0,0,164,1,1,1,2,0,0,0,0,0,0,0,0
12644000,12564000,4898949633,7.9071986e-05,0.0034614997,0.004102294,0,0.012408662,0.27165398,nan,nan,nan,0.0019354824,0.0,0.0,0.0,0.0,1310988,1310988,6620172,0,0,0,164,1,1,1,2,0,0,0,0,0,0,0,0
12844000,12764000,4898949633,5.4950553e-05,0.0019624638,0.0030369293,0,0.012239413,0.26412538,nan,nan,nan,0.0026866128,0.0,0.0,0.0,0.0,1310988,1310988,6620172,0,0,0,164,1,1,1,2,0,0,0,0,0,0,0,0
13044000,12964000,4898949633,5.4516637e-05,0.0014726218,0.0013938585,0,0.012018797,0.26485768,nan,nan,nan,0.0051081367,0.0,0.0,0.0,0.0,1310988,1310988,6620172,0,0,0,164,1,1,1,2,0,0,0,0,0,0,0,0
13244000,13164000,4898949633,9.59821e-05,0.0021843049,0.002536242,0,0.01180407,0.25612217,nan,nan,nan,0.0019352352,0.0,0.0,0.0,0.0,1310988,1310988,6620172,0,0,0,164,1,1,1,2,0,0,0,0,0,0,0,0
13444000,13364000,4898949633,0.0001015381,0.0025502401,0.0016862248,0,0.011595074,0.25715214,nan,nan,nan,0.002804712,0.0,0.0,0.0,0.0,1310988,1310988,6620172,0,0,0,164,1,1,1,2,0,0,0,0,0,0,0,0
13644000,13564000,4898949633,0.0001006084,0.0027574906,0.0022886936,0,0.0113917105,0.24945056,nan,nan,nan,0.003126597,0.0,0.0,0.0,0.0,1310988,1310988,6620172,0,0,0,164,1,1,1,2,0,0,0,0,0,0,0,0
13844000,13764000,4898949633,0.00010754967,0.0028480948,0.0023030306,0,0.011193941,0.25071257,nan,nan,nan,0.0024628984,0.0,0.0,0.0,0.0,1310988,1310988,6620172,0,0,0,164,1,1,1,2,0,0,0,0,0,0,0,0
14044000,13964000,4898949633,0.00010278149,0.0027695957,0.002854187,0,0.01100155,0.24441874,nan,nan,nan,0.002234227,0.0,0.0,0.0,0.0,1310988,1310988,6620172,0,0,0,164,1,1,1,2,0,0,0,0,0,0,0,0
14244000,14164000,4898949633,7.169483e-05,0.0020875998,0.0018375425,0,0.010814459,0.2452743,nan,nan,nan,0.0033769594,0.0,0.0,0.0,0.0,1310988,1310988,6620172,0,0,0,164,1,1,1,2,0,0,0,0,0,0,0,0
14444000,14364000,4898949633,2.5435444e-05,0.00095014257,0.0009707746,0,0.016488971,0.23961002,nan,nan,nan,0.0070052906,0.0,0.0,0.0,0.0,1310988,1310988,6620172,0,0,0,164,1,1,1,2,0,0,0,0,0,0,0,0
14644000,14564000,4898949633,2.6656024e-05,0.000726238,0.00089346,0,0.016201342,0.24121605,nan,nan,nan,0.0030315665,0.0,0.0,0.0,0.0,1310988,1310988,6620172,0,0,0,164,1,1,1,2,0,0,0,0,0,0,0,0
14844000,14764000,4898949633,3.4974273e-05,0.00087274646,0.0009247235,0,0.015919136,0.23548748,nan,nan,nan,0.0029849652,0.0,0.0,0.0,0.0,1310988,1310988,6620172,0,0,0,164,1,1,1,2,0,0,0,0,0,0,0,0
15044000,14964000,4898949633,3.3391458e-05,0.00092598615,0.0008006216,0,0.015642427,0.23722234,nan,nan,nan,0.0024207758,0.0,0.0,0.0,0.0,1310988,1310988,6620172,0,0,0,164,1,1,1,2,0,0,0,0,0,0,0,0
15244000,15164000,4898949633,3.5990077e-05,0.00097159896,0.0010901002,0,0.015370604,0.23196259,nan,nan,nan,0.0035818862,0.0,0.0,0.0,0.0,1310988,1310988,6620172,0,0,0,164,1,1,1,2,0,0,0,0,0,0,0,0
15444000,15364000,4898949633,3.316674e-05,0.0007438179,0.00070979015,0,0.0151030505,0.23379971,nan,nan,nan,0.0031458195,0.0,0.0,0.0,0.0,1310988,1310988,6620172,0,0,0,164,1,1,1,2,0,0,0,0,0,0,0,0
15644000,15564000,4898949633,3.285506e-05,0.00050492265,0.0014241342,0,0.014840482,0.22939245,nan,nan,nan,0.0051821615,0.0,0.0,0.0,0.0,1310988,1310988,6620172,0,0,0,164,1,1,1,2,0,0,0,0,0,0,0,0
15844000,15764000,4898949633,3.1700456e-05,0.0003580474,0.00048966304,0,0.014582745,0.23082978,nan,nan,nan,0.0033489305,0.0,0.0,0.0,0.0,1310988,1310988,6620172,0,0,0,164,1,1,1,2,0,0,0,0,0,0,0,0
16044000,15964000,4898949633,3.0194997e-05,0.0004247406,0.0004497221,0,0.014329728,0.2267411,nan,nan,nan,0.0029710247,0.0,0.0,0.0,0.0,1310988,1310988,6620172,0,0,0,164,1,1,1,2,0,0,0,0,0,0,0,0
16244000,16164000,4898949633,1.6438325e-05,0.0003721986,0.00045019577,0,0.014081784,0.22826818,nan,nan,nan,0.0036129162,0.0,0.0,0.0,0.0,1310988,1310988,6620172,0,0,0,164,1,1,1,2,0,0,0,0,0,0,0,0
16444000,16364000,4898949633,2.804634e-05,0.0007413734,0.0005884938,0,0.013838167,0.22444002,nan,nan,nan,0.0020244166,0.0,0.0,0.0,0.0,1310988,1310988,6620172,0,0,0,164,1,1,1,2,0,0,0,0,0,0,0,0
16644000,16564000,4898949633,3.478968e-05,0.0009819309,0.0007048284,0,0.013599198,0.22604227,nan,nan,nan,0.0018966226,0.0,0.0,0.0,0.0,1310988,1310988,6620172,0,0,0,164,1,1,1,2,0,0,0,0,0,0,0,0
16844000,16764000,4898949633,5.177734e-05,0.0014918137,0.001293475,0,0.013364428,0.22241965,nan,nan,nan,0.0018232305,0.0,0.0,0.0,0.0,1310988,1310988,6620172,0,0,0,164,1,1,1,2,0,0,0,0,0,0,0,0
17044000,16964000,4898949633,5.6442517e-05,0.0018473708,0.0019889597,0,0.013134288,0.22454333,nan,nan,nan,0.0017776559,0.0,0.0,0.0,0.0,1310988,1310988,6620172,0,0,0,164,1,1,1,2,0,0,0,0,0,0,0,0
17244000,17164000,4898949633,6.2726525e-05,0.0020722335,0.0016574623,0,0.012908737,0.22066052,nan,nan,nan,0.0019360846,0.0,0.0,0.0,0.0,1310988,1310988,6620172,0,0,0,164,1,1,1,2,0,0,0,0,0,0,0,0
17444000,17364000,4898949633,6.639545e-05,0.0022191878,0.0022860102,0,0.012687804,0.22282378,nan,nan,nan,0.002914039,0.0,0.0,0.0,0.0,1310988,1310988,6620172,0,0,0,164,1,1,1,2,0,0,0,0,0,0,0,0
17644000,17564000,4898949633,7.247177e-05,0.0023308524,0.0027122614,0,0.012471322,0.2195336,nan,nan,nan,0.0028966328,0.0,0.0,0.0,0.0,1310988,1310988,6620172,0,0,0,164,1,1,1,2,0,0,0,0,0,0,0,0
17844000,17764000,4898949633,5.8814217e-05,0.0019925612,0.0020335515,0,0.012259378,0.22130035,nan,nan,nan,0.003188793,0.0,0.0,0.0,0.0,1310988,1310988,6620172,0,0,0,164,1,1,1,2,0,0,0,0,0,0,0,0
18044000,17964000,4898949633,4.324238e-05,0.0013569891,0.0012221726,0,0.012101553,0.22109634,nan,nan,nan,0.0039611747,0.0,0.0,0.0,0.0,1310988,1310988,6620172,0,0,0,164,1,1,1,2,0,0,0,0,0,0,0,0
18244000,18164000,4898949633,3.0629515e-05,0.0011352119,0.0010868146,0,0.011895512,0.22299512,nan,nan,nan,0.0032277624,0.0,0.0,0.0,0.0,1310988,1310988,6620172,0,0,0,164,1,1,1,2,0,0,0,0,0,0,0,0
18444000,18364000,4898949633,2.0047115e-05,0.0006393806,0.00086519786,0,0.011693559,0.21984668,nan,nan,nan,0.0014750786,0.0,0.0,0.0,0.0,1310988,1310988,6620172,0,0,0,164,1,1,1,2,0,0,0,0,0,0,0,0
18644000,18564000,4898949633,6.9595546e-05,0.0008992654,0.0008509383,0,0.011496108,0.22221102,nan,nan,nan,0.0012289936,0.0,0.0,0.0,0.0,1310988,1310988,6620172,0,0,0,164,1,1,1,2,0,0,0,0,0,0,0,0
18844000,18764000,4898949633,9.5828786e-05,0.0018364115,0.0012091976,0,0.011303155,0.21871129,nan,nan,nan,0.0014293173,0.0,0.0,0.0,0.0,1310988,1310988,6620172,0,0,0,164,1,1,1,2,0,0,0,0,0,0,0,0
19044000,18964000,4898949633,0.0001153052,0.0026009206,0.0014363445,0,0.011114757,0.22109284,nan,nan,nan,0.0013535742,0.0,0.0,0.0,0.0,1310988,1310988,6620172,0,0,0,164,1,1,1,2,0,0,0,0,0,0,0,0
19244000,19164000,4898949633,0.0001219297,0.0029245294,0.0016847517,0,0.010930871,0.21810605,nan,nan,nan,0.0031031778,0.0,0.0,0.0,0.0,1310988,1310988,6620172,0,0,0,164,1,1,1,2,0,0,0,0,0,0,0,0
19444000,19364000,4898949633,0.00011411305,0.0027931926,0.001636589,0,0.010751526,0.22008164,nan,nan,nan,0.0013387679,0.0,0.0,0.0,0.0,1310988,1310988,6620172,0,0,0,164,1,1,1,2,0,0,0,0,0,0,0,0
19644000,19564000,4898949633,1.9598152e-05,0.0006497051,0.0005944255,0,0.01627694,0.21717826,nan,nan,nan,0.0013645118,0.0,0.0,0.0,0.0,1310988,1310988,6620172,0,0,0,164,1,1,1,2,0,0,0,0,0,0,0,0
19844000,19764000,4898949633,1.9815756e-05,0.0005206261,0.0005479454,0,0.016007852,0.21916503,nan,nan,nan,0.0016271968,0.0,0.0,0.0,0.0,1310988,1310988,6620172,0,0,0,164,1,1,1,2,0,0,0,0,0,0,0,0
20044000,19964000,4898949633,2.2060034e-05,0.00034530126,0.0003296115,0,0.015742138,0.21634494,nan,nan,nan,0.0017198054,0.0,0.0,0.0,0.0,1310988,1310988,6620172,0,0,0,164,1,1,1,2,0,0,0,0,0,0,0,0
20244000,20164000,4898949633,1.7628856e-05,0.00019178168,0.00037395107,0,0.015480245,0.2183438,nan,nan,nan,0.003285085,0.0,0.0,0.0,0.0,1310988,1310988,6620172,0,0,0,164,1,1,1,2,0,0,0,0,0,0,0,0
20444000,20364000,4898949633,1.9535857e-05,0.00035701474,0.00032259634,0,0.01522199,0.21557343,nan,nan,nan,0.0045073973,0.0,0.0,0.0,0.0,1310988,1310988,6620172,0,0,0,164,1,1,1,2,0,0,0,0,0,0,0,0
20644000,20564000,4898949633,1.9986392e-05,0.00059016177,0.00066111475,0,0.014967451,0.21799722,nan,nan,nan,0.0042743925,0.0,0.0,0.0,0.0,1310988,1310988,6620172,0,0,0,164,1,1,1,2,0,0,0,0,0,0,0,0
20844000,20764000,4898949633,1.2343692e-05,0.00084798073,0.00068409723,0,0.014716756,0.21486048,nan,nan,nan,0.0014607146,0.0,0.0,0.0,0.0,1310988,1310988,6620172,0,0,0,164,1,1,1,2,0,0,0,0,0,0,0,0
21044000,20964000,4898949633,2.0932463e-05,0.0012861227,0.0011897456,0,0.014469704,0.21728623,nan,nan,nan,0.0014093479,0.0,0.0,0.0,0.0,1310988,1310988,6620172,0,0,0,164,1,1,1,2,0,0,0,0,0,0,0,0
21244000,21164000,4898949633,4.4375418e-05,0.0019793296,0.0014470497,0,0.014226449,0.21461733,nan,nan,nan,0.0041266214,0.0,0.0,0.0,0.0,1310988,1310988,6620172,0,0,0,164,1,1,1,2,0,0,0,0,0,0,0,0
21444000,21364000,4898949633,6.628157e-05,0.0027297225,0.0020236052,0,0.013987256,0.21664423,nan,nan,nan,0.0035203262,0.0,0.0,0.0,0.0,1310988,1310988,6620172,0,0,0,164,1,1,1,2,0,0,0,0,0,0,0,0
21644000,21564000,4898949633,8.931603e-05,0.003369223,0.002682359,0,0.013752111,0.2140208,nan,nan,nan,0.0035754133,0.0,0.0,0.0,0.0,1310988,1310988,6620172,0,0,0,164,1,1,1,2,0,0,0,0,0,0,0,0
21844000,21764000,4898949633,0.00010349523,0.0036933613,0.0027837309,0,0.013520866,0.21605188,nan,nan,nan,0.003560819,0.0,0.0,0.0,0.0,1310988,1310988,6620172,0,0,0,164,1,1,1,2,0,0,0,0,0,0,0,0
22044000,21964000,4898949633,9.857106e-05,0.0034999442,0.0028274904,0,0.0132935345,0.2134672,nan,nan,nan,0.003757291,0.0,0.0,0.0,0.0,1310988,1310988,6620172,0,0,0,164,1,1,1,2,0,0,0,0,0,0,0,0
22244000,22164000,4898949633,9.798837e-05,0.0031229695,0.0024714388,0,0.013069948,0.21590817,nan,nan,nan,0.001638915,0.0,0.0,0.0,0.0,1310988,1310988,6620172,0,0,0,164,1,1,1,2,0,0,0,0,0,0,0,0
22444000,22364000,4898949633,0.00011040762,0.0029633392,0.0023104583,0,0.01285009,0.21295407,nan,nan,nan,0.0018832736,0.0,0.0,0.0,0.0,1310988,1310988,6620172,0,0,0,164,1,1,1,2,0,0,0,0,0,0,0,0
22644000,22564000,4898949633,0.000118280695,0.002912324,0.0023775708,0,0.012634118,0.21538983,nan,nan,nan,0.001997673,0.0,0.0,0.0,0.0,1310988,1310988,6620172,0,0,0,164,1,1,1,2,0,0,0,0,0,0,0,0
22844000,22764000,4898949633,0.00011836334,0.0029574821,0.0027716435,0,0.012422128,0.21245784,nan,nan,nan,0.0014370796,0.0,0.0,0.0,0.0,1310988,1310988,6620172,0,0,0,164,1,1,1,2,0,0,0,0,0,0,0,0
23044000,22964000,4898949633,9.5398595e-05,0.0027055633,0.003067193,0,0.012214115,0.21489267,nan,nan,nan,0.003143735,0.0,0.0,0.0,0.0,1310988,1310988,6620172,0,0,0,164,1,1,1,2,0,0,0,0,0,0,0,0
23244000,23164000,4898949633,6.0562747e-05,0.0012358385,0.0010621503,0,0.012058538,0.21545172,nan,nan,nan,0.0032662288,0.0,0.0,0.0,0.0,1310988,1310988,6620172,0,0,0,164,1,1,1,2,0,0,0,0,0,0,0,0
23444000,23364000,4898949633,3.3208093e-05,0.00050810387,0.0004915896,0,0.0118563995,0.21757156,nan,nan,nan,0.0024390223,0.0,0.0,0.0,0.0,1310988,1310988,6620172,0,0,0,164,1,1,1,2,0,0,0,0,0,0,0,0
23644000,23564000,4898949633,1.587857e-05,0.00093133084,0.0011392769,0,0.0116583165,0.21497378,nan,nan,nan,0.0034694357,0.0,0.0,0.0,0.0,1310988,1310988,6620172,0,0,0,164,1,1,1,2,0,0,0,0,0,0,0,0
23844000,23764000,4898949633,5.9689714e-06,0.0013851564,0.0013521562,0,0.011464509,0.2170907,nan,nan,nan,0.004790273,0.0,0.0,0.0,0.0,1310988,1310988,6620172,0,0,0,164,1,1,1,2,0,0,0,0,0,0,0,0
24044000,23964000,4898949633,2.0137288e-05,0.0017851815,0.0015567824,0,0.011274803,0.21451862,nan,nan,nan,0.0021953215,0.0,0.0,0.0,0.0,1310988,1310988,6620172,0,0,0,164,1,1,1,2,0,0,0,0,0,0,0,0
24244000,24164000,4898949633,3.2276e-05,0.002118882,0.0017400059,0,0.011089286,0.21704572,nan,nan,nan,0.0026741815,0.0,0.0,0.0,0.0,1310988,1310988,6620172,0,0,0,164,1,1,1,2,0,0,0,0,0,0,0,0
24444000,24364000,4898949633,1.8991295e-05,0.0018667579,0.0016061665,0,0.01090809,0.21408477,nan,nan,nan,0.006230617,0.0,0.0,0.0,0.0,1310988,1310988,6620172,0,0,0,164,1,1,1,2,0,0,0,0,0,0,0,0
24644000,24564000,4898949633,2.7242837e-05,0.0008480661,0.0010812586,0,0.010731039,0.21660651,nan,nan,nan,0.0034945812,0.0,0.0,0.0,0.0,1310988,1310988,6620172,0,0,0,164,1,1,1,2,0,0,0,0,0,0,0,0
24844000,24764000,4898949633,9.3356175e-06,0.00092627405,0.0009725701,0,0.016207645,0.2136719,nan,nan,nan,0.0022036212,0.0,0.0,0.0,0.0,1310988,1310988,6620172,0,0,0,164,1,1,1,2,0,0,0,0,0,0,0,0
25044000,24964000,4898949633,1.8396395e-05,0.00042477887,0.0005655528,0,0.015942717,0.21618384,nan,nan,nan,0.0021839747,0.0,0.0,0.0,0.0,1310988,1310988,6620172,0,0,0,164,1,1,1,2,0,0,0,0,0,0,0,0
25244000,25164000,4898949633,2.4039753e-05,0.00049008743,0.00046688094,0,0.015681257,0.21365619,nan,nan,nan,0.0024299903,0.0,0.0,0.0,0.0,1310988,1310988,6620172,0,0,0,164,1,1,1,2,0,0,0,0,0,0,0,0
25444000,25364000,4898949633,2.7891843e-05,0.0006510822,0.0005744341,0,0.015423394,0.21576805,nan,nan,nan,0.003620593,0.0,0.0,0.0,0.0,1310988,1310988,6620172,0,0,0,164,1,1,1,2,0,0,0,0,0,0,0,0
25644000,25564000,4898949633,3.0203988e-05,0.00059630536,0.0005721898,0,0.015169431,0.21325871,nan,nan,nan,0.0021448424,0.0,0.0,0.0,0.0,1310988,1310988,6620172,0,0,0,164,1,1,1,2,0,0,0,0,0,0,0,0
25844000,25764000,4898949633,3.6573227e-05,0.00052050204,0.00047422247,0,0.014919196,0.21576622,nan,nan,nan,0.0018962993,0.0,0.0,0.0,0.0,1310988,1310988,6620172,0,0,0,164,1,1,1,2,0,0,0,0,0,0,0,0
26044000,25964000,4898949633,4.3728913e-05,0.0007964217,0.0014753643,0,0.014672338,0.21288142,nan,nan,nan,0.004823963,0.0,0.0,0.0,0.0,1310988,1310988,6620172,0,0,0,164,1,1,1,2,0,0,0,0,0,0,0,0
26244000,26164000,4898949633,5.333633e-05,0.0011866238,0.0011480151,0,0.014428783,0.21537793,nan,nan,nan,0.0018054426,0.0,0.0,0.0,0.0,1310988,1310988,6620172,0,0,0,164,1,1,1,2,0,0,0,0,0,0,0,0
26444000,26364000,4898949633,6.834954e-05,0.0017397974,0.0014004596,0,0.014188669,0.2128875,nan,nan,nan,0.0014361907,0.0,0.0,0.0,0.0,1310988,1310988,6620172,0,0,0,164,1,1,1,2,0,0,0,0,0,0,0,0
26644000,26564000,4898949633,8.2158884e-05,0.0022951462,0.0020321927,0,0.013952348,0.21498412,nan,nan,nan,0.0008405276,0.0,0.0,0.0,0.0,1310988,1310988,6620172,0,0,0,164,1,1,1,2,0,0,0,0,0,0,0,0
26844000,26764000,4898949633,8.20922e-05,0.0025337415,0.0029425505,0,0.013719638,0.21251045,nan,nan,nan,0.0027771723,0.0,0.0,0.0,0.0,1310988,1310988,6620172,0,0,0,164,1,1,1,2,0,0,0,0,0,0,0,0
27044000,26964000,4898949633,8.8095614e-05,0.002637111,0.0032904216,0,0.0134906145,0.21499851,nan,nan,nan,0.0045557898,0.0,0.0,0.0,0.0,1310988,1310988,6620172,0,0,0,164,1,1,1,2,0,0,0,0,0,0,0,0
27244000,27164000,4898949633,0.00010384742,0.0028446529,0.0036719653,0,0.013265425,0.21214023,nan,nan,nan,0.0016138131,0.0,0.0,0.0,0.0,1310988,1310988,6620172,0,0,0,164,1,1,1,2,0,0,0,0,0,0,0,0
27444000,27364000,4898949633,0.00012635117,0.003205183,0.0035720868,0,0.013043968,0.21461768,nan,nan,nan,0.002675608,0.0,0.0,0.0,0.0,1310988,1310988,6620172,0,0,0,164,1,1,1,2,0,0,0,0,0,0,0,0
27644000,27564000,4898949633,0.00013693464,0.0034763538,0.0036785176,0,0.012826376,0.21217321,nan,nan,nan,0.0023570717,0.0,0.0,0.0,0.0,1310988,1310988,6620172,0,0,0,164,1,1,1,2,0,0,0,0,0,0,0,0
27844000,27764000,4898949633,0.000155755,0.0039862934,0.003966167,0,0.012612409,0.21425478,nan,nan,nan,0.0032179218,0.0,0.0,0.0,0.0,1310988,1310988,6620172,0,0,0,164,1,1,1,2,0,0,0,0,0,0,0,0
28044000,27964000,4898949633,0.00015991429,0.004675527,0.0055275867,0,0.012402076,0.21182933,nan,nan,nan,0.002182764,0.0,0.0,0.0,0.0,1310988,1310988,6620172,0,0,0,164,1,1,1,2,0,0,0,0,0,0,0,0
28244000,28164000,4898949633,0.00015855004,0.0049093617,0.005521786,0,0.012195888,0.2139059,nan,nan,nan,0.0022573222,0.0,0.0,0.0,0.0,1310988,1310988,6620172,0,0,0,164,1,1,1,2,0,0,0,0,0,0,0,0
28444000,28364000,4898949633,0.00013929314,0.0028301652,0.0019346818,0,0.012041617,0.21456833,nan,nan,nan,0.003157649,0.0,0.0,0.0,0.0,1310988,1310988,6620172,0,0,0,164,1,1,1,2,0,0,0,0,0,0,0,0
28644000,28564000,4898949633,0.00012187855,0.002222693,0.0015086682,0,0.011841044,0.21672544,nan,nan,nan,0.004651698,0.0,0.0,0.0,0.0,1310988,1310988,6620172,0,0,0,164,1,1,1,2,0,0,0,0,0,0,0,0
28844000,28764000,4898949633,0.0001151059,0.0015755309,0.0012270119,0,0.011644528,0.21421449,nan,nan,nan,0.0011887655,0.0,0.0,0.0,0.0,1310988,1310988,6620172,0,0,0,164,1,1,1,2,0,0,0,0,0,0,0,0
29044000,28964000,4898949633,0.00011951792,0.0013464545,0.0008640606,0,0.011451867,0.21636839,nan,nan,nan,0.00240666,0.0,0.0,0.0,0.0,1310988,1310988,6620172,0,0,0,164,1,1,1,2,0,0,0,0,0,0,0,0
29244000,29164000,4898949633,0.00012539994,0.0016036246,0.0011652679,0,0.011263143,0.213873,nan,nan,nan,0.0044120117,0.0,0.0,0.0,0.0,1310988,1310988,6620172,0,0,0,164,1,1,1,2,0,0,0,0,0,0,0,0
29444000,29364000,4898949633,0.00011598578,0.0015507027,0.0010879368,0,0.011078623,0.2160193,nan,nan,nan,0.0023650106,0.0,0.0,0.0,0.0,1310988,1310988,6620172,0,0,0,164,1,1,1,2,0,0,0,0,0,0,0,0
29644000,29564000,4898949633,0.00010182095,0.0015655984,0.001453889,0,0.010898321,0.21353787,nan,nan,nan,0.0027289863,0.0,0.0,0.0,0.0,1310988,1310988,6620172,0,0,0,164,1,1,1,2,0,0,0,0,0,0,0,0
29844000,29764000,4898949633,8.8676876e-05,0.0017293048,0.0013123023,0,0.010722175,0.21607956,nan,nan,nan,0.00539261,0.0,0.0,0.0,0.0,1310988,1310988,6620172,0,0,0,164,1,1,1,2,0,0,0,0,0,0,0,0
30044000,29964000,4898949633,2.1453989e-05,0.00188225,0.0017419889,0,0.016178349,0.21318875,nan,nan,nan,0.0053204847,0.0,0.0,0.0,0.0,1310988,1310988,6620172,0,0,0,164,1,1,1,2,0,0,0,0,0,0,0,0
30244000,30164000,4898949633,2.5929352e-05,0.00216844,0.0017938915,0,0.015916273,0.21571745,nan,nan,nan,0.0016862738,0.0,0.0,0.0,0.0,1310988,1310988,6620172,0,0,0,164,1,1,1,2,0,0,0,0,0,0,0,0
30444000,30364000,4898949633,3.739396e-05,0.0022543622,0.0019629674,0,0.015657421,0.2132448,nan,nan,nan,0.0046758447,0.0,0.0,0.0,0.0,1310988,1310988,6620172,0,0,0,164,1,1,1,2,0,0,0,0,0,0,0,0
30644000,30564000,4898949633,4.489267e-05,0.0023544447,0.0019818663,0,0.015401934,0.21536842,nan,nan,nan,0.0030577653,0.0,0.0,0.0,0.0,1310988,1310988,6620172,0,0,0,164,1,1,1,2,0,0,0,0,0,0,0,0
30844000,30764000,4898949633,5.1876432e-05,0.002609568,0.0021460564,0,0.015149392,0.21291229,nan,nan,nan,0.0014496017,0.0,0.0,0.0,0.0,1310988,1310988,6620172,0,0,0,164,1,1,1,2,0,0,0,0,0,0,0,0
31044000,30964000,4898949633,6.369796e-05,0.0029347427,0.0023540847,0,0.014900066,0.21502906,nan,nan,nan,0.0015870836,0.0,0.0,0.0,0.0,1310988,1310988,6620172,0,0,0,164,1,1,1,2,0,0,0,0,0,0,0,0
31244000,31164000,4898949633,6.506893e-05,0.0030092502,0.0024632136,0,0.014654442,0.21258385,nan,nan,nan,0.002121013,0.0,0.0,0.0,0.0,1310988,1310988,6620172,0,0,0,164,1,1,1,2,0,0,0,0,0,0,0,0
31444000,31364000,4898949633,5.7937632e-05,0.0027749545,0.0022903227,0,0.014412242,0.21509235,nan,nan,nan,0.004657504,0.0,0.0,0.0,0.0,1310988,1310988,6620172,0,0,0,164,1,1,1,2,0,0,0,0,0,0,0,0
31644000,31564000,4898949633,5.8927788e-05,0.002471356,0.001976638,0,0.014173603,0.21224308,nan,nan,nan,0.0016513104,0.0,0.0,0.0,0.0,1310988,1310988,6620172,0,0,0,164,1,1,1,2,0,0,0,0,0,0,0,0
31844000,31764000,4898949633,7.457256e-05,0.0022947155,0.0018503717,0,0.013938666,0.21473947,nan,nan,nan,0.0027282354,0.0,0.0,0.0,0.0,1310988,1310988,6620172,0,0,0,164,1,1,1,2,0,0,0,0,0,0,0,0
32044000,31964000,4898949633,8.441723e-05,0.0021906416,0.0016834723,0,0.013707331,0.21230446,nan,nan,nan,0.002915649,0.0,0.0,0.0,0.0,1310988,1310988,6620172,0,0,0,164,1,1,1,2,0,0,0,0,0,0,0,0
32244000,32164000,4832889473,8.9319015e-05,0.0021305417,0.0015487135,0,0.013479625,0.2144096,nan,nan,nan,0.0029024263,0.0,0.0,0.0,0.0,1310988,1310988,6620172,0,0,0,164,1,1,1,2,0,0,0,0,0,0,0,0
32444000,32364000,4832889473,1.3398135e-05,0.0025516294,0.0028912942,0,0.021673901,0.21520153,nan,nan,nan,0.0035261754,0.0,0.0,0.0,0.0,1310988,1310988,6620172,0,0,0,164,1,1,1,2,0,0,0,0,0,0,0,0
32644000,32564000,4832889473,1.3320025e-05,0.0035605708,0.0050402936,0,0.041167933,0.22135101,nan,nan,nan,0.004598853,0.0,0.0,0.0,0.0,1310988,1310988,6620172,0,0,0,164,1,1,1,2,0,0,0,0,0,0,0,0
32844000,32764000,4832889473,1.1001092e-05,0.0037028228,0.004802048,0,0.075554766,0.22312903,nan,nan,nan,0.0030575301,0.0,0.0,0.0,0.0,1310988,1310988,6620172,0,0,0,164,1,1,1,2,0,0,0,0,0,0,0,0
33044000,32964000,4832889473,1.1175824e-05,0.0036932607,0.00503907,0,0.124506034,0.23135224,nan,nan,nan,0.008209105,0.0,0.0,0.0,0.0,1310988,1310988,6620172,0,0,0,164,1,1,1,2,0,0,0,0,0,0,0,0
33244000,33164000,4832889473,1.0349965e-05,0.0033141002,0.003919091,0,0.18761711,0.23352674,nan,nan,nan,0.0045405603,0.0,0.0,0.0,0.0,1310988,1310988,6620172,0,0,0,164,1,1,1,2,0,0,0,0,0,0,0,0
33444000,33364000,4832889473,1.0676952e-05,0.0032149907,0.0043015354,0,0.26469833,0.24349587,nan,nan,nan,0.0045037335,0.0,0.0,0.0,0.0,1310988,1310988,6620172,0,0,0,164,1,1,1,2,0,0,0,0,0,0,0,0
33644000,33564000,4832889473,9.324634e-06,0.0026933711,0.0028197384,0,0.35562536,0.24680373,nan,nan,nan,0.0050706146,0.0,0.0,0.0,0.0,1310988,1310988,6620172,0,0,0,164,1,1,1,2,0,0,0,0,0,0,0,0
33844000,33764000,4832889473,1.016395e-05,0.0027550498,0.0038421138,0,0.46028218,0.25788388,nan,nan,nan,0.0037718902,0.0,0.0,0.0,0.0,1310988,1310988,6620172,0,0,0,164,1,1,1,2,0,0,0,0,0,0,0,0
34044000,33964000,4832889473,1.0087376e-05,0.002002019,0.0014503786,0,0.5784993,0.26140755,nan,nan,nan,0.0059876554,0.0,0.0,0.0,0.0,1310988,1310988,6620172,0,0,0,164,1,1,1,2,0,0,0,0,0,0,0,0
34244000,34164000,4832889473,8.753989e-06,0.0019015633,0.0016023869,0,0.710051,0.27392906,nan,nan,nan,0.0050328686,0.0,0.0,0.0,0.0,1310988,1310988,6620172,0,0,0,164,1,1,1,2,0,0,0,0,0,0,0,0
34444000,34364000,4832889473,1.7831926e-05,0.0012815207,0.0018769322,0,0.8545754,0.27718908,nan,nan,nan,0.007892626,0.0,0.0,0.0,0.0,1310988,1310988,6620172,0,0,0,164,1,1,1,2,0,0,0,0,0,0,0,0
34644000,34564000,4832889473,1.1050959e-05,0.0014312266,0.00083286705,0,1.0116153,0.29090917,nan,nan,nan,0.00809831,0.0,0.0,0.0,0.0,1310988,1310988,6620172,0,0,0,164,1,1,1,2,0,0,0,0,0,0,0,0
34844000,34764000,4832889473,2.8715032e-05,0.0011710199,0.0034761878,0,1.1804091,0.29325473,nan,nan,nan,0.0076884194,0.0,0.0,0.0,0.0,1310988,1310988,6620172,0,0,0,164,1,1,1,2,0,0,0,0,0,0,0,0
35044000,34964000,4832889473,2.0312307e-05,0.0008590478,0.001091468,0,1.3603106,0.3078255,nan,nan,nan,0.009106398,0.0,0.0,0.0,0.0,1310988,1310988,6620172,0,0,0,164,1,1,1,2,0,0,0,0,0,0,0,0
35244000,35164000,4832889473,2.6160518e-05,0.0010909041,0.0038997575,0,1.55961,0.30879375,nan,nan,nan,0.007601304,0.0,0.0,0.0,0.0,1310988,1310988,6620172,0,0,0,164,1,1,1,2,0,0,0,0,0,0,0,0
35444000,35364000,4832889473,9.437626e-06,0.00097133307,0.0012478747,0,1.7624942,0.32382947,nan,nan,nan,0.0094404835,0.0,0.0,0.0,0.0,1310988,1310988,6620172,0,0,0,164,1,1,1,2,0,0,0,0,0,0,0,0
35644000,35564000,4832889473,2.6651882e-05,0.0019956746,0.00506129,0,1.973892,0.32295278,nan,nan,nan,0.007691265,0.0,0.0,0.0,0.0,1310988,1310988,6620172,0,0,0,164,1,1,1,2,0,0,0,0,0,0,0,0
35844000,35764000,4832889473,1.3401409e-05,0.00078282156,0.00070215954,0,2.1921012,0.33969447,nan,nan,nan,0.006688627,0.0,0.0,0.0,0.0,1310988,1310988,6620172,0,0,0,164,1,1,1,2,0,0,0,0,0,0,0,0
36044000,35964000,4832889473,8.906338e-06,0.0007634378,0.0036608586,0,2.4142413,0.33510494,nan,nan,nan,0.006816429,0.0,0.0,0.0,0.0,1310988,1310988,6620172,0,0,0,164,1,1,1,2,0,0,0,0,0,0,0,0
36244000,36164000,4832889473,2.913289e-05,0.0010567599,0.0025118885,0,2.6374989,0.35194778,nan,nan,nan,0.005153995,0.0,0.0,0.0,0.0,1310988,1310988,6620172,0,0,0,164,1,1,1,2,0,0,0,0,0,0,0,0
36444000,36364000,4832889473,1.626275e-05,0.0015563931,0.005549822,0,2.8579614,0.3452634,nan,nan,nan,0.0074867145,0.0,0.0,0.0,0.0,1310988,1310988,6620172,0,0,0,164,1,1,1,2,0,0,0,0,0,0,0,0
36644000,36564000,4832889473,4.9822534e-05,0.0023779622,0.0055983956,0,3.0731606,0.3620088,nan,nan,nan,0.008939442,0.0,0.0,0.0,0.0,1310988,1310988,6620172,0,0,0,164,1,1,1,2,0,0,0,0,0,0,0,0
36844000,36764000,4832889473,3.1702617e-05,0.0023540754,0.0071965726,0,3.2794483,0.35332042,nan,nan,nan,0.0075669237,0.0,0.0,0.0,0.0,1310988,1310988,6620172,0,0,0,164,1,1,1,2,0,0,0,0,0,0,0,0
37044000,36964000,4832889473,6.227874e-05,0.003080705,0.007923751,0,3.4746697,0.3698256,nan,nan,nan,0.0056704343,0.0,0.0,0.0,0.0,1310988,1310988,6620172,0,0,0,164,1,1,1,2,0,0,0,0,0,0,0,0
37244000,37164000,4832889473,4.371765e-05,0.00257984,0.0080523,0,3.6556032,0.36121112,nan,nan,nan,0.0054846536,0.0,0.0,0.0,0.0,1310988,1310988,6620172,0,0,0,164,1,1,1,2,0,0,0,0,0,0,0,0
37444000,37364000,4832889473,6.673535e-05,0.0030643244,0.008966977,0,3.8210354,0.37542546,nan,nan,nan,0.0062484858,0.0,0.0,0.0,0.0,1310988,1310988,6620172,0,0,0,164,1,1,1,2,0,0,0,0,0,0,0,0
37644000,37564000,4832889473,5.663404e-05,0.0029384075,0.009670241,0,3.9688125,0.3654085,nan,nan,nan,0.006164913,0.0,0.0,0.0,0.0,1310988,1310988,6620172,0,0,0,164,1,1,1,2,0,0,0,0,0,0,0,0
37844000,37764000,4832889473,7.433986e-05,0.0036716424,0.011631729,0,4.0990343,0.3813562,nan,nan,nan,0.0051672137,0.0,0.0,0.0,0.0,1310988,1310988,6620172,0,0,0,164,1,1,1,2,0,0,0,0,0,0,0,0
38044000,37964000,4832889473,8.0939026e-05,0.0044786553,0.014505079,0,4.2105927,0.3680083,nan,nan,nan,0.0056011016,0.0,0.0,0.0,0.0,1310988,1310988,6620172,0,0,0,164,1,1,1,2,0,0,0,0,0,0,0,0
38244000,38164000,4832889473,9.4299394e-05,0.0054365685,0.017633755,0,4.304884,0.3835343,nan,nan,nan,0.0057318043,0.0,0.0,0.0,0.0,1310988,1310988,6620172,0,0,0,164,1,1,1,2,0,0,0,0,0,0,0,0
38444000,38364000,4832889473,0.00010425921,0.006786589,0.022358006,0,4.3817525,0.37142164,nan,nan,nan,0.007064432,0.0,0.0,0.0,0.0,1310988,1310988,6620172,0,0,0,164,1,1,1,2,0,0,0,0,0,0,0,0
38644000,38564000,4832889473,0.00010762652,0.007462606,0.025154242,0,4.4432063,0.38446507,nan,nan,nan,0.0075745555,0.0,0.0,0.0,0.0,1310988,1310988,6620172,0,0,0,164,1,1,1,2,0,0,0,0,0,0,0,0
38844000,38764000,4832889473,0.00011483815,0.008398774,0.028973453,0,4.4898114,0.37183765,nan,nan,nan,0.0056347195,0.0,0.0,0.0,0.0,1310988,1310988,6620172,0,0,0,164,1,1,1,2,0,0,0,0,0,0,0,0
39044000,38964000,4832889473,0.00011508159,0.008617216,0.030760879,0,4.5237947,0.38683432,nan,nan,nan,0.008859776,0.0,0.0,0.0,0.0,1310988,1310988,6620172,0,0,0,164,1,1,1,2,0,0,0,0,0,0,0,0
39244000,39164000,4832889473,0.0001208383,0.0092551075,0.034055676,0,4.54588,0.3714501,nan,nan,nan,0.0060715163,0.0,0.0,0.0,0.0,1310988,1310988,6620172,0,0,0,164,1,1,1,2,0,0,0,0,0,0,0,0
39444000,39364000,4832889473,0.0001178906,0.009106086,0.034693137,0,4.558256,0.38617012,nan,nan,nan,0.0074812234,0.0,0.0,0.0,0.0,1310988,1310988,6620172,0,0,0,164,1,1,1,2,0,0,0,0,0,0,0,0
39644000,39564000,4832889473,0.00012317965,0.00965115,0.037845634,0,4.5616775,0.37291396,nan,nan,nan,0.009923002,0.0,0.0,0.0,0.0,1310988,1310988,6620172,0,0,0,164,1,1,1,2,0,0,0,0,0,0,0,0
39844000,39764000,4832889473,0.00011677837,0.00920876,0.03733904,0,4.5579324,0.38531554,nan,nan,nan,0.014813617,0.0,0.0,0.0,0.0,1310988,1310988,6620172,0,0,0,164,1,1,1,2,0,0,0,0,0,0,0,0
40044000,39964000,4832889473,0.00011618294,0.00921115,0.038312327,0,4.5477357,0.37195426,nan,nan,nan,0.007961652,0.0,0.0,0.0,0.0,1310988,1310988,6620172,0,0,0,164,1,1,1,2,0,0,0,0,0,0,0,0
40244000,40164000,4832889473,0.00010868611,0.008356079,0.03624545,0,4.532501,0.3841903,nan,nan,nan,0.0075178007,0.0,0.0,0.0,0.0,1310988,1310988,6620172,0,0,0,164,1,1,1,2,0,0,0,0,0,0,0,0
40444000,40364000,4832889473,2.3568247e-05,0.0033741395,0.013612934,0,4.762814,0.3709032,nan,nan,nan,0.013492846,0.0,0.0,0.0,0.0,1310988,1310988,6620172,0,0,0,164,1,1,1,2,0,0,0,0,0,0,0,0
40644000,40564000,4832889473,1.9119288e-05,0.0011913499,0.0050339084,0,4.7367024,0.3830303,nan,nan,nan,0.009953128,0.0,0.0,0.0,0.0,1310988,1310988,6620172,0,0,0,164,1,1,1,2,0,0,0,0,0,0,0,0
40844000,40764000,4832889473,2.4696594e-05,0.002943756,0.011402107,0,4.7071,0.37000597,nan,nan,nan,0.013362156,0.0,0.0,0.0,0.0,1310988,1310988,6620172,0,0,0,164,1,1,1,2,0,0,0,0,0,0,0,0
41044000,40964000,4832889473,2.189999e-05,0.0010734133,0.002418314,0,4.674962,0.38435388,nan,nan,nan,0.013486131,0.0,0.0,0.0,0.0,1310988,1310988,6620172,0,0,0,164,1,1,1,2,0,0,0,0,0,0,0,0
41244000,41164000,4832889473,2.560455e-05,0.003385268,0.012306085,0,4.6406565,0.36904725,nan,nan,nan,0.012796085,0.0,0.0,0.0,0.0,1310988,1310988,6620172,0,0,0,164,1,1,1,2,0,0,0,0,0,0,0,0
41444000,41364000,4832889473,2.3937067e-05,0.0015171749,0.0031274527,0,4.6048903,0.38331226,nan,nan,nan,0.011242996,0.0,0.0,0.0,0.0,1310988,1310988,6620172,0,0,0,164,1,1,1,2,0,0,0,0,0,0,0,0
41644000,41564000,4832889473,2.6779026e-05,0.004590078,0.016536621,0,4.5679073,0.37029064,nan,nan,nan,0.018445872,0.0,0.0,0.0,0.0,1310988,1310988,6620172,0,0,0,164,1,1,1,2,0,0,0,0,0,0,0,0
41844000,41764000,4832889473,2.4682611e-05,0.0021333315,0.006017578,0,4.530023,0.382446,nan,nan,nan,0.015555476,0.0,0.0,0.0,0.0,1310988,1310988,6620172,0,0,0,164,1,1,1,2,0,0,0,0,0,0,0,0
42044000,41964000,4832889473,2.618238e-05,0.005586558,0.020113435,0,4.4914584,0.36957893,nan,nan,nan,0.022068998,0.0,0.0,0.0,0.0,1310988,1310988,6620172,0,0,0,164,1,1,1,2,0,0,0,0,0,0,0,0
42244000,42164000,4832889473,2.477412e-05,0.0029917278,0.009925131,0,4.452624,0.3817398,nan,nan,nan,0.021086294,0.0,0.0,0.0,0.0,1310988,1310988,6620172,0,0,0,164,1,1,1,2,0,0,0,0,0,0,0,0
42444000,42364000,4832889473,2.5081039e-05,0.0057296315,0.020587843,0,4.413675,0.3689928,nan,nan,nan,0.018992284,0.0,0.0,0.0,0.0,1310988,1310988,6620172,0,0,0,164,1,1,1,2,0,0,0,0,0,0,0,0
42644000,42564000,4832889473,2.478996e-05,0.0026870086,0.008568088,0,4.3748717,0.3833922,nan,nan,nan,0.022078086,0.0,0.0,0.0,0.0,1310988,1310988,6620172,0,0,0,164,1,1,1,2,0,0,0,0,0,0,0,0
42844000,42764000,4832889473,2.4603785e-05,0.0063671824,0.022788122,0,4.3363028,0.36835158,nan,nan,nan,0.024170963,0.0,0.0,0.0,0.0,1310988,1310988,6620172,0,0,0,164,1,1,1,2,0,0,0,0,0,0,0,0
43044000,42964000,4832889473,2.5162375e-05,0.0026339265,0.008701918,0,4.298148,0.38273048,nan,nan,nan,0.020084461,0.0,0.0,0.0,0.0,1310988,1310988,6620172,0,0,0,164,1,1,1,2,0,0,0,0,0,0,0,0
43244000,43164000,4832889473,2.470096e-05,0.0063869352,0.02313674,0,4.2604403,0.36996,nan,nan,nan,0.025868557,0.0,0.0,0.0,0.0,1310988,1310988,6620172,0,0,0,164,1,1,1,2,0,0,0,0,0,0,0,0
43444000,43364000,4832889473,2.5782749e-05,0.0023528934,0.009798362,0,4.2232637,0.38232422,nan,nan,nan,0.029216986,0.0,0.0,0.0,0.0,1310988,1310988,6620172,0,0,0,164,1,1,1,2,0,0,0,0,0,0,0,0
43644000,43564000,4832889473,2.4634428e-05,0.0074906233,0.026633495,0,4.186659,0.36963388,nan,nan,nan,0.030829659,0.0,0.0,0.0,0.0,1310988,1310988,6620172,0,0,0,164,1,1,1,2,0,0,0,0,0,0,0,0
43844000,43764000,4832889473,2.786924e-05,0.0022489906,0.0069406684,0,4.1507235,0.3819443,nan,nan,nan,0.02864792,0.0,0.0,0.0,0.0,1310988,1310988,6620172,0,0,0,164,1,1,1,2,0,0,0,0,0,0,0,0
44044000,43964000,4832889473,5.1294795e-05,0.0077973,0.031114716,0,4.115506,0.36889577,nan,nan,nan,0.029971898,0.0,0.0,0.0,0.0,1310988,1310988,6620172,0,0,0,164,1,1,1,2,0,0,0,0,0,0,0,0
44244000,44164000,4832889473,8.020026e-05,0.0074820598,0.044020608,0,4.0810966,0.38028327,nan,nan,nan,0.028809957,0.0,0.0,0.0,0.0,1310988,1310988,6620172,0,0,0,164,1,1,1,2,0,0,0,0,0,0,0,0
44444000,44364000,4831840897,0.00013933916,0.015280487,0.08871663,0,4.0476313,0.36666468,nan,nan,nan,0.032133766,0.0,0.0,0.0,0.0,1310988,1310988,6620172,0,0,0,164,1,1,1,2,0,0,0,0,0,0,0,0
44644000,44564000,4831840897,0.00018503002,0.020945566,0.13092966,0,4.0151577,0.37942368,nan,nan,nan,0.02966979,0.0,0.0,0.0,0.0,1310988,1310988,6620172,0,0,0,164,1,1,1,2,0,0,0,0,0,0,0,0
44844000,44764000,4831840897,0.0002691682,0.031863827,0.19603455,0,3.9835374,0.36346304,nan,nan,nan,0.027960375,0.0,0.0,0.0,0.0,1310988,1310988,6620172,0,0,0,1188,1,1,1,2,0,0,0,0,0,0,0,0
45044000,44964000,4831840897,0.00032527864,0.04068486,0.26012415,0,3.9529197,0.3754487,nan,nan,nan,0.037005894,0.0,0.0,0.0,0.0,1310988,1310988,6620172,0,0,0,1188,1,1,1,2,0,0,0,0,0,0,0,0
45244000,45164000,4831840897,0.0004268625,0.053009145,0.34124115,0,3.9230602,0.3596701,nan,nan,nan,0.028823795,0.0,0.0,0.0,0.0,1310988,1310988,6620172,0,0,0,1188,1,1,1,2,0,0,0,0,0,0,0,0
45444000,45364000,4831840897,0.0004801967,0.063513234,0.41488636,0,3.894263,0.36894193,nan,nan,nan,0.029706798,0.0,0.0,0.0,0.0,1310988,1310988,6620172,0,0,0,1188,1,1,1,2,0,0,0,0,0,0,0,0
45644000,45564000,4831840897,0.00013053075,0.021933598,0.15244594,0,4.019705,0.35557485,nan,nan,nan,0.031164475,0.0,0.0,0.0,0.0,1310988,1310988,6620172,0,0,0,1188,1,1,1,2,0,0,0,0,0,0,0,0
45844000,45764000,4831840897,0.00012431954,0.023606328,0.1677234,0,3.989815,0.36625996,nan,nan,nan,0.030908177,0.0,0.0,0.0,0.0,1310988,1310988,6620172,0,0,0,1188,1,1,1,2,0,0,0,0,0,0,0,0
46044000,45964000,4831840897,0.00019477087,0.029431704,0.19641733,0,3.960627,0.35130033,nan,nan,nan,0.028635405,0.0,0.0,0.0,0.0,1310988,1310988,6620172,0,0,0,1188,1,1,1,2,0,0,0,0,0,0,0,0
46244000,46164000,4831840897,0.00018629435,0.029996883,0.20470436,0,3.932757,0.36147058,nan,nan,nan,0.027088868,0.0,0.0,0.0,0.0,1310988,1310988,6620172,0,0,0,1188,1,1,1,2,0,0,0,0,0,0,0,0
46444000,46364000,4831840897,0.00026953657,0.033689328,0.22673945,0,3.9054813,0.34700936,nan,nan,nan,0.030383296,0.0,0.0,0.0,0.0,1310988,1310988,6620172,0,0,0,1188,1,1,1,2,0,0,0,0,0,0,0,0
46644000,46564000,4831840897,0.00026497702,0.033108544,0.22928356,0,3.879521,0.35677078,nan,nan,nan,0.03082554,0.0,0.0,0.0,0.0,1310988,1310988,6620172,0,0,0,1188,1,1,1,2,0,0,0,0,0,0,0,0
46844000,46764000,4831840897,0.00034940123,0.03608574,0.24651015,0,3.854118,0.34445587,nan,nan,nan,0.029764876,0.0,0.0,0.0,0.0,1310988,1310988,6620172,0,0,0,1188,1,1,1,2,0,0,0,0,0,0,0,0
47044000,46964000,4831840897,0.00034631457,0.0349457,0.2454625,0,3.8299658,0.35234106,nan,nan,nan,0.030000754,0.0,0.0,0.0,0.0,1310988,1310988,6620172,0,0,0,1188,1,1,1,2,0,0,0,0,0,0,0,0
47244000,47164000,4831840897,0.00042646163,0.037166003,0.25840268,0,3.8063564,0.3407205,nan,nan,nan,0.026627574,0.0,0.0,0.0,0.0,1310988,1310988,6620172,0,0,0,1188,1,1,1,2,0,0,0,0,0,0,0,0
47444000,47364000,4831840897,0.0004273397,0.036031026,0.25676337,0,3.7839866,0.3503426,nan,nan,nan,0.02851834,0.0,0.0,0.0,0.0,1310988,1310988,6620172,0,0,0,1188,1,1,1,2,0,0,0,0,0,0,0,0
47644000,47564000,4831840897,0.00051454734,0.038379688,0.2701798,0,3.7620776,0.33766586,nan,nan,nan,0.026036233,0.0,0.0,0.0,0.0,1310988,1310988,6620172,0,0,0,1188,1,1,1,2,0,0,0,0,0,0,0,0
47844000,47764000,4831840897,0.00051403604,0.0373104,0.2687139,0,3.7414052,0.3474401,nan,nan,nan,0.027364453,0.0,0.0,0.0,0.0,1310988,1310988,6620172,0,0,0,1188,1,1,1,2,0,0,0,0,0,0,0,0
48044000,47964000,4831840897,0.00060201285,0.039841052,0.28246096,0,3.7212102,0.33701894,nan,nan,nan,0.028053248,0.0,0.0,0.0,0.0,1310988,1310988,6620172,0,0,0,1188,1,1,1,2,0,0,0,0,0,0,0,0
48244000,48164000,4831840897,0.00060472253,0.0390444,0.28203347,0,3.7021542,0.3456125,nan,nan,nan,0.025771504,0.0,0.0,0.0,0.0,1310988,1310988,6620172,0,0,0,1188,1,1,1,2,0,0,0,0,0,0,0,0
48444000,48364000,4831840897,0.000693434,0.04176808,0.29655367,0,3.6835756,0.3343065,nan,nan,nan,0.026922243,0.0,0.0,0.0,0.0,1310988,1310988,6620172,0,0,0,1188,1,1,1,2,0,0,0,0,0,0,0,0
48644000,48564000,4831840897,0.0006991256,0.041097235,0.29699016,0,3.6661339,0.34492722,nan,nan,nan,0.025313148,0.0,0.0,0.0,0.0,1310988,1310988,6620172,0,0,0,1188,1,1,1,2,0,0,0,0,0,0,0,0
48844000,48764000,4831840897,0.00075263507,0.04391384,0.31241366,0,3.6491826,0.3357291,nan,nan,nan,0.027619466,0.0,0.0,0.0,0.0,1310988,1310988,6620172,0,0,0,1188,1,1,1,2,0,0,0,0,0,0,0,0
49044000,48964000,4831840897,0.0007301507,0.043882407,0.31570467,0,3.6332731,0.345389,nan,nan,nan,0.025417846,0.0,0.0,0.0,0.0,1310988,1310988,6620172,0,0,0,1188,1,1,1,2,0,0,0,0,0,0,0,0
49244000,49164000,4831840897,0.0007792823,0.04673248,0.33150792,0,3.617893,0.33676434,nan,nan,nan,0.024033308,0.0,0.0,0.0,0.0,1310988,1310988,6620172,0,0,0,1188,1,1,1,2,0,0,0,0,0,0,0,0
49444000,49364000,4831840897,0.0007618651,0.047228884,0.33718085,0,3.6034937,0.34710795,nan,nan,nan,0.023592921,0.0,0.0,0.0,0.0,1310988,1310988,6620172,0,0,0,1188,1,1,1,2,0,0,0,0,0,0,0,0
49644000,49564000,4831840897,0.00081428216,0.050423622,0.3546507,0,3.5896382,0.3387311,nan,nan,nan,0.024019325,0.0,0.0,0.0,0.0,1310988,1310988,6620172,0,0,0,1188,1,1,1,2,0,0,0,0,0,0,0,0
49844000,49764000,4831840897,0.0008025391,0.05146085,0.36240682,0,3.5767217,0.3514355,nan,nan,nan,0.025910217,0.0,0.0,0.0,0.0,1310988,1310988,6620172,0,0,0,1188,1,1,1,2,0,0,0,0,0,0,0,0
50044000,49964000,4831840897,0.00085085543,0.054663558,0.37982103,0,3.564342,0.34151953,nan,nan,nan,0.023495816,0.0,0.0,0.0,0.0,1310988,1310988,6620172,0,0,0,1188,1,1,1,2,0,0,0,0,0,0,0,0
50244000,50164000,4831840897,0.00084567146,0.056198336,0.38972852,0,3.5528524,0.3548573,nan,nan,nan,0.02624926,0.0,0.0,0.0,0.0,1310988,1310988,6620172,0,0,0,1188,1,1,1,2,0,0,0,0,0,0,0,0
50444000,50364000,4831840897,0.0008945648,0.05948539,0.40783396,0,3.5419304,0.3465279,nan,nan,nan,0.02447755,0.0,0.0,0.0,0.0,1310988,1310988,6620172,0,0,0,1188,1,1,1,2,0,0,0,0,0,0,0,0
50644000,50564000,4831840897,0.00089494383,0.061496492,0.41965535,0,3.5318117,0.35878095,nan,nan,nan,0.023494879,0.0,0.0,0.0,0.0,1310988,1310988,6620172,0,0,0,1188,1,1,1,2,0,0,0,0,0,0,0,0
50844000,50764000,4831840897,0.00019226369,0.024782224,0.17083253,0,3.6371753,0.3502549,nan,nan,nan,0.023702523,0.0,0.0,0.0,0.0,1310988,1310988,6620172,0,0,0,1188,1,1,1,2,0,0,0,0,0,0,0,0
51044000,50964000,4831840897,0.00019671678,0.024696978,0.17118855,0,3.6277912,0.36485067,nan,nan,nan,0.026568845,0.0,0.0,0.0,0.0,1310988,1310988,6620172,0,0,0,1188,1,1,1,2,0,0,0,0,0,0,0,0
51244000,51164000,4831840897,0.00024779234,0.023780383,0.1662965,0,3.6190495,0.35389456,nan,nan,nan,0.02294453,0.0,0.0,0.0,0.0,1310988,1310988,6620172,0,0,0,1188,1,1,1,2,0,0,0,0,0,0,0,0
51444000,51364000,4831840897,0.00026023758,0.023249581,0.16471173,0,3.6110802,0.36883625,nan,nan,nan,0.023459086,0.0,0.0,0.0,0.0,1310988,1310988,6620172,0,0,0,1188,1,1,1,2,0,0,0,0,0,0,0,0
51644000,51564000,4831840897,0.00031290337,0.022432232,0.15972705,0,3.6037567,0.3593062,nan,nan,nan,0.02651186,0.0,0.0,0.0,0.0,1310988,1310988,6620172,0,0,0,1188,1,1,1,2,0,0,0,0,0,0,0,0
51844000,51764000,4831840897,0.00033278408,0.021525614,0.15645866,0,3.5971394,0.37261716,nan,nan,nan,0.024128584,0.0,0.0,0.0,0.0,1310988,1310988,6620172,0,0,0,1188,1,1,1,2,0,0,0,0,0,0,0,0
52044000,51964000,4831840897,0.00038707076,0.021117736,0.15221669,0,3.5911474,0.3625381,nan,nan,nan,0.02674438,0.0,0.0,0.0,0.0,1310988,1310988,6620172,0,0,0,1188,1,1,1,2,0,0,0,0,0,0,0,0
52244000,52164000,4831840897,0.00040746835,0.019795444,0.14786041,0,3.5858076,0.3759453,nan,nan,nan,0.026942449,0.0,0.0,0.0,0.0,1310988,1310988,6620172,0,0,0,1188,1,1,1,2,0,0,0,0,0,0,0,0
52444000,52364000,4831840897,0.0004584065,0.019594515,0.1447533,0,3.581055,0.36522916,nan,nan,nan,0.027797064,0.0,0.0,0.0,0.0,1310988,1310988,6620172,0,0,0,1188,1,1,1,2,0,0,0,0,0,0,0,0
52644000,52564000,4831840897,0.00048468498,0.018424628,0.14059085,0,3.5769103,0.38083512,nan,nan,nan,0.024627065,0.0,0.0,0.0,0.0,1310988,1310988,6620172,0,0,0,1188,1,1,1,2,0,0,0,0,0,0,0,0
52844000,52764000,4831840897,0.0005350756,0.019107252,0.14011593,0,3.573305,0.36735925,nan,nan,nan,0.026009943,0.0,0.0,0.0,0.0,1310988,1310988,6620172,0,0,0,1188,1,1,1,2,0,0,0,0,0,0,0,0
53044000,52964000,4831840897,0.0005614686,0.017767765,0.13624737,0,3.5702658,0.38290405,nan,nan,nan,0.02587737,0.0,0.0,0.0,0.0,1310988,1310988,6620172,0,0,0,1188,1,1,1,2,0,0,0,0,0,0,0,0
53244000,53164000,4831840897,0.0006117846,0.019103007,0.13864286,0,3.567712,0.36903742,nan,nan,nan,0.027328052,0.0,0.0,0.0,0.0,1310988,1310988,6620172,0,0,0,1188,1,1,1,2,0,0,0,0,0,0,0,0
53444000,53364000,4831840897,0.00064059143,0.018270535,0.13678502,0,3.56569,0.3845465,nan,nan,nan,0.028258996,0.0,0.0,0.0,0.0,1310988,1310988,6620172,0,0,0,1188,1,1,1,2,0,0,0,0,0,0,0,0
53644000,53564000,4831840897,0.00069094147,0.020555662,0.14315212,0,3.564093,0.3722381,nan,nan,nan,0.028739123,0.0,0.0,0.0,0.0,1310988,1310988,6620172,0,0,0,1188,1,1,1,2,0,0,0,0,0,0,0,0
53844000,53764000,4831840897,0.00072280655,0.020132247,0.14362039,0,3.562988,0.38552502,nan,nan,nan,0.030431684,0.0,0.0,0.0,0.0,1310988,1310988,6620172,0,0,0,1188,1,1,1,2,0,0,0,0,0,0,0,0
54044000,53964000,4831840897,0.00073644856,0.023070214,0.15364254,0,3.562241,0.37291116,nan,nan,nan,0.029242728,0.0,0.0,0.0,0.0,1310988,1310988,6620172,0,0,0,1188,1,1,1,2,0,0,0,0,0,0,0,0
54244000,54164000,4831840897,0.0007331055,0.023224743,0.15692675,0,3.5619454,0.3860385,nan,nan,nan,0.028094651,0.0,0.0,0.0,0.0,1310988,1310988,6620172,0,0,0,1188,1,1,1,2,0,0,0,0,0,0,0,0
54444000,54364000,4831840897,0.0007497265,0.026714697,0.17053683,0,3.5619366,0.3731666,nan,nan,nan,0.029631617,0.0,0.0,0.0,0.0,1310988,1310988,6620172,0,0,0,1188,1,1,1,2,0,0,0,0,0,0,0,0
54644000,54564000,4831840897,0.0007486889,0.027441485,0.17681226,0,3.5623484,0.38848844,nan,nan,nan,0.028014537,0.0,0.0,0.0,0.0,1310988,1310988,6620172,0,0,0,1188,1,1,1,2,0,0,0,0,0,0,0,0
54844000,54764000,4831840897,0.00076830917,0.031185262,0.19314764,0,3.5629609,0.37309346,nan,nan,nan,0.028234785,0.0,0.0,0.0,0.0,1310988,1310988,6620172,0,0,0,1188,1,1,1,2,0,0,0,0,0,0,0,0
55044000,54964000,4831840897,0.00077066995,0.032582738,0.2026231,0,3.563963,0.3882069,nan,nan,nan,0.028183881,0.0,0.0,0.0,0.0,1310988,1310988,6620172,0,0,0,1188,1,1,1,2,0,0,0,0,0,0,0,0
55244000,55164000,4831840897,0.0007956811,0.036779325,0.22182354,0,3.565091,0.3727198,nan,nan,nan,0.029659312,0.0,0.0,0.0,0.0,1310988,1310988,6620172,0,0,0,1188,1,1,1,2,0,0,0,0,0,0,0,0
55444000,55364000,4831840897,0.0008000594,0.038547184,0.23367079,0,3.5665705,0.38768068,nan,nan,nan,0.03000558,0.0,0.0,0.0,0.0,1310988,1310988,6620172,0,0,0,1188,1,1,1,2,0,0,0,0,0,0,0,0
55644000,55564000,4831840897,0.00083033415,0.042946957,0.25483817,0,3.5681124,0.37436175,nan,nan,nan,0.033577017,0.0,0.0,0.0,0.0,1310988,1310988,6620172,0,0,0,1188,1,1,1,2,0,0,0,0,0,0,0,0
55844000,55764000,4831840897,0.0008372794,0.04532312,0.26968208,0,3.5699453,0.38701928,nan,nan,nan,0.030392777,0.0,0.0,0.0,0.0,1310988,1310988,6620172,0,0,0,1188,1,1,1,2,0,0,0,0,0,0,0,0
56044000,55964000,4831840897,0.00017988941,0.045971964,0.30384853,0,3.6917982,0.37356642,nan,nan,nan,0.033533327,0.0,0.0,0.0,0.0,1310988,1310988,6620172,0,0,0,1188,1,1,1,2,0,0,0,0,0,0,0,0
56244000,56164000,4831840897,0.00018896497,0.043004584,0.29125744,0,3.6944623,0.3884078,nan,nan,nan,0.033146743,0.0,0.0,0.0,0.0,1310988,1310988,6620172,0,0,0,1188,1,1,1,2,0,0,0,0,0,0,0,0
56444000,56364000,4831840897,0.00023713044,0.044810947,0.29263473,0,3.6970441,0.37262455,nan,nan,nan,0.03409665,0.0,0.0,0.0,0.0,1310988,1310988,6620172,0,0,0,1188,1,1,1,2,0,0,0,0,0,0,0,0
56644000,56564000,4831840897,0.00024793975,0.04172238,0.28011113,0,3.6998909,0.38729772,nan,nan,nan,0.033087682,0.0,0.0,0.0,0.0,1310988,1310988,6620172,0,0,0,1188,1,1,1,2,0,0,0,0,0,0,0,0
56844000,56764000,4831840897,0.00029919675,0.04334437,0.28156617,0,3.7026024,0.37370583,nan,nan,nan,0.033892933,0.0,0.0,0.0,0.0,1310988,1310988,6620172,0,0,0,1188,1,1,1,2,0,0,0,0,0,0,0,0
57044000,56964000,4831840897,0.00031661676,0.040904615,0.27141434,0,3.7055128,0.3861258,nan,nan,nan,0.03570559,0.0,0.0,0.0,0.0,1310988,1310988,6620172,0,0,0,1188,1,1,1,2,0,0,0,0,0,0,0,0
57244000,57164000,4831840897,0.0003751439,0.043139055,0.27547687,0,3.7082424,0.3727552,nan,nan,nan,0.033126224,0.0,0.0,0.0,0.0,1310988,1310988,6620172,0,0,0,1188,1,1,1,2,0,0,0,0,0,0,0,0
57444000,57364000,4831840897,0.00039163264,0.040910065,0.2668487,0,3.7111187,0.3850628,nan,nan,nan,0.03349982,0.0,0.0,0.0,0.0,1310988,1310988,6620172,0,0,0,1188,1,1,1,2,0,0,0,0,0,0,0,0
57644000,57564000,4831840897,0.00045443937,0.04380943,0.27376503,0,3.713758,0.3717263,nan,nan,nan,0.0365987,0.0,0.0,0.0,0.0,1310988,1310988,6620172,0,0,0,1188,1,1,1,2,0,0,0,0,0,0,0,0
57844000,57764000,4831840897,0.00047055635,0.041478798,0.26587,0,3.7165196,0.3863364,nan,nan,nan,0.03558456,0.0,0.0,0.0,0.0,1310988,1310988,6620172,0,0,0,1188,1,1,1,2,0,0,0,0,0,0,0,0
58044000,57964000,4831840897,0.0005400537,0.044798415,0.27540413,0,3.7189682,0.37084392,nan,nan,nan,0.03307248,0.0,0.0,0.0,0.0,1310988,1310988,6620172,0,0,0,1188,1,1,1,2,0,0,0,0,0,0,0,0
58244000,58164000,4831840897,0.00055827264,0.04302882,0.27024558,0,3.7215166,0.38540393,nan,nan,nan,0.03604494,0.0,0.0,0.0,0.0,1310988,1310988,6620172,0,0,0,1188,1,1,1,2,0,0,0,0,0,0,0,0
58444000,58364000,4831840897,0.00063508324,0.04681625,0.2825866,0,3.723718,0.3701636,nan,nan,nan,0.033322647,0.0,0.0,0.0,0.0,1310988,1310988,6620172,0,0,0,1188,1,1,1,2,0,0,0,0,0,0,0,0
58644000,58564000,4831840897,0.0006557095,0.045617674,0.2804161,0,3.725981,0.38464954,nan,nan,nan,0.034235645,0.0,0.0,0.0,0.0,1310988,1310988,6620172,0,0,0,1188,1,1,1,2,0,0,0,0,0,0,0,0
58844000,58764000,4831840897,0.0007382691,0.04987667,0.2956144,0,3.7278585,0.3694395,nan,nan,nan,0.033831943,0.0,0.0,0.0,0.0,1310988,1310988,6620172,0,0,0,1188,1,1,1,2,0,0,0,0,0,0,0,0
59044000,58964000,4831840897,0.00076498813,0.049250823,0.29642478,0,3.7297654,0.3839347,nan,nan,nan,0.035881653,0.0,0.0,0.0,0.0,1310988,1310988,6620172,0,0,0,1188,1,1,1,2,0,0,0,0,0,0,0,0
59244000,59164000,4831840897,0.000815783,0.0538421,0.31411168,0,3.7312756,0.37100163,nan,nan,nan,0.034008276,0.0,0.0,0.0,0.0,1310988,1310988,6620172,0,0,0,1188,1,1,1,2,0,0,0,0,0,0,0,0
59444000,59364000,4831840897,0.0008072066,0.05393583,0.3184032,0,3.7327514,0.38337165,nan,nan,nan,0.033507004,0.0,0.0,0.0,0.0,1310988,1310988,6620172,0,0,0,1188,1,1,1,2,0,0,0,0,0,0,0,0
59644000,59564000,4831840897,0.00086251047,0.059090804,0.33910674,0,3.7338269,0.3703767,nan,nan,nan,0.034317244,0.0,0.0,0.0,0.0,1310988,1310988,6620172,0,0,0,1188,1,1,1,2,0,0,0,0,0,0,0,0
59844000,59764000,4831840897,0.00085876306,0.05964172,0.34607473,0,3.7348645,0.38497478,nan,nan,nan,0.03612616,0.0,0.0,0.0,0.0,1310988,1310988,6620172,0,0,0,1188,1,1,1,2,0,0,0,0,0,0,0,0
60044000,59964000,4831840897,0.00091665634,0.06512429,0.36909816,0,3.7354639,0.36978295,nan,nan,nan,0.03284346,0.0,0.0,0.0,0.0,1310988,1310988,6620172,0,0,0,1188,1,1,1,2,0,0,0,0,0,0,0,0
60244000,60164000,4831840897,0.00091643346,0.06607024,0.3786881,0,3.736021,0.38436258,nan,nan,nan,0.03404824,0.0,0.0,0.0,0.0,1310988,1310988,6620172,0,0,0,1188,1,1,1,2,0,0,0,0,0,0,0,0
60444000,60364000,4831840897,0.0009791394,0.07185682,0.40406147,0,3.7361436,0.3692492,nan,nan,nan,0.031950347,0.0,0.0,0.0,0.0,1310988,1310988,6620172,0,0,0,1188,1,1,1,2,0,0,0,0,0,0,0,0
60644000,60564000,4831840897,0.000985261,0.07342259,0.41705748,0,3.736211,0.38376337,nan,nan,nan,0.031861253,0.0,0.0,0.0,0.0,1310988,1310988,6620172,0,0,0,1188,1,1,1,2,0,0,0,0,0,0,0,0
60844000,60764000,4831840897,0.0010516412,0.07938839,0.44445363,0,3.7358587,0.3708828,nan,nan,nan,0.03056388,0.0,0.0,0.0,0.0,1310988,1310988,6620172,0,0,0,1188,1,1,1,2,0,0,0,0,0,0,0,0
61044000,60964000,4831840897,0.0010638855,0.08178303,0.46128392,0,3.7354114,0.38326922,nan,nan,nan,0.031457175,0.0,0.0,0.0,0.0,1310988,1310988,6620172,0,0,0,1188,1,1,1,2,0,0,0,0,0,0,0,0
61244000,61164000,4831840897,0.00024068348,0.03543273,0.20578542,0,3.8724537,0.37033036,nan,nan,nan,0.031040836,0.0,0.0,0.0,0.0,1310988,1310988,6620172,0,0,0,1188,1,1,1,2,0,0,0,0,0,0,0,0
61444000,61364000,4831840897,0.00025080334,0.03358412,0.19723202,0,3.8718321,0.38495526,nan,nan,nan,0.03226377,0.0,0.0,0.0,0.0,1310988,1310988,6620172,0,0,0,1188,1,1,1,2,0,0,0,0,0,0,0,0
61644000,61564000,4831840897,0.00031371557,0.034115225,0.1965651,0,3.8707554,0.36986387,nan,nan,nan,0.028873123,0.0,0.0,0.0,0.0,1310988,1310988,6620172,0,0,0,1188,1,1,1,2,0,0,0,0,0,0,0,0
61844000,61764000,4831840897,0.0003300853,0.03250152,0.189217,0,3.8695874,0.3844191,nan,nan,nan,0.0283135,0.0,0.0,0.0,0.0,1310988,1310988,6620172,0,0,0,1188,1,1,1,2,0,0,0,0,0,0,0,0
62044000,61964000,4831840897,0.00040273534,0.033571105,0.19080345,0,3.867987,0.3713292,nan,nan,nan,0.03405424,0.0,0.0,0.0,0.0,1310988,1310988,6620172,0,0,0,1188,1,1,1,2,0,0,0,0,0,0,0,0
62244000,62164000,4831840897,0.00042559643,0.03266571,0.1844028,0,3.8662636,0.38373676,nan,nan,nan,0.02830043,0.0,0.0,0.0,0.0,1310988,1310988,6620172,0,0,0,1188,1,1,1,2,0,0,0,0,0,0,0,0
62444000,62364000,4831840897,0.00049797073,0.03416234,0.18708244,0,3.8642266,0.37083212,nan,nan,nan,0.027355222,0.0,0.0,0.0,0.0,1310988,1310988,6620172,0,0,0,1188,1,1,1,2,0,0,0,0,0,0,0,0
62644000,62564000,4831840897,0.0005295381,0.032748558,0.1845844,0,3.8623023,0.3855064,nan,nan,nan,0.027898155,0.0,0.0,0.0,0.0,1310988,1310988,6620172,0,0,0,1188,1,1,1,2,0,0,0,0,0,0,0,0
62844000,62764000,4831840897,0.0006142189,0.034696616,0.19363078,0,3.8601794,0.37026983,nan,nan,nan,0.027101494,0.0,0.0,0.0,0.0,1310988,1310988,6620172,0,0,0,1188,1,1,1,2,0,0,0,0,0,0,0,0
63044000,62964000,4831840897,0.00065790094,0.03491606,0.19861741,0,3.8581812,0.3849524,nan,nan,nan,0.028409516,0.0,0.0,0.0,0.0,1310988,1310988,6620172,0,0,0,1188,1,1,1,2,0,0,0,0,0,0,0,0
63244000,63164000,4831840897,0.0007629172,0.039568476,0.21964404,0,3.8559415,0.3718779,nan,nan,nan,0.030424338,0.0,0.0,0.0,0.0,1310988,1310988,6620172,0,0,0,1188,1,1,1,2,0,0,0,0,0,0,0,0
63444000,63364000,4831840897,0.0008146152,0.04113019,0.23378786,0,3.8538241,0.38445324,nan,nan,nan,0.029064905,0.0,0.0,0.0,0.0,1310988,1310988,6620172,0,0,0,1188,1,1,1,2,0,0,0,0,0,0,0,0
63644000,63564000,4831840897,0.00094446365,0.048341144,0.267528,0,3.851426,0.3714555,nan,nan,nan,0.030400366,0.0,0.0,0.0,0.0,1310988,1310988,6620172,0,0,0,1188,1,1,1,2,0,0,0,0,0,0,0,0
63844000,63764000,4831840897,0.0010078364,0.05140334,0.29127878,0,3.8491774,0.38402784,nan,nan,nan,0.03098436,0.0,0.0,0.0,0.0,1310988,1310988,6620172,0,0,0,1188,1,1,1,2,0,0,0,0,0,0,0,0
64044000,63964000,4831840897,0.0011688028,0.061128426,0.33764428,0,3.8465796,0.3711303,nan,nan,nan,0.03331841,0.0,0.0,0.0,0.0,1310988,1310988,6620172,0,0,0,1188,1,1,1,2,0,0,0,0,0,0,0,0
64244000,64164000,4831840897,0.0012408165,0.06518766,0.36913747,0,3.8441916,0.38603446,nan,nan,nan,0.034312237,0.0,0.0,0.0,0.0,1310988,1310988,6620172,0,0,0,1188,1,1,1,2,0,0,0,0,0,0,0,0
64444000,64364000,4831840897,0.0013649481,0.07646971,0.4246671,0,3.8413076,0.37100914,nan,nan,nan,0.033596948,0.0,0.0,0.0,0.0,1310988,1310988,6620172,0,0,0,1188,1,1,1,2,0,0,0,0,0,0,0,0
64644000,64564000,4831840897,0.0013719015,0.08134876,0.46184883,0,3.838683,0.38589883,nan,nan,nan,0.03316878,0.0,0.0,0.0,0.0,1310988,1310988,6620172,0,0,0,1188,1,1,1,2,0,0,0,0,0,0,0,0
64844000,64764000,4831840897,0.0015225813,0.095294,0.5254272,0,3.8354666,0.3708521,nan,nan,nan,0.038023736,0.0,0.0,0.0,0.0,1310988,1310988,6620172,0,0,0,1188,1,1,1,2,0,0,0,0,0,0,0,0
65044000,64964000,4831840897,0.0015322488,0.10113759,0.5674045,0,3.8326335,0.38573307,nan,nan,nan,0.037389416,0.0,0.0,0.0,0.0,1310988,1310988,6620172,0,0,0,1188,1,1,1,2,0,0,0,0,0,0,0,0
65244000,65164000,4831840897,0.0017043417,0.113919415,0.63869625,0,3.829282,0.37250745,nan,nan,nan,0.037397128,0.0,0.0,0.0,0.0,1310988,1310988,6620172,0,0,0,1188,1,1,1,2,0,0,0,0,0,0,0,0
65444000,65364000,4831840897,0.0017266516,0.119770624,0.68799984,0,3.826262,0.38446242,nan,nan,nan,0.039662063,0.0,0.0,0.0,0.0,1310988,1310988,6620172,0,0,0,1188,1,1,1,2,0,0,0,0,0,0,0,0
65644000,65564000,4831840897,0.0019285099,0.1359304,0.7687156,0,3.8224444,0.37050372,nan,nan,nan,0.038469348,0.0,0.0,0.0,0.0,1310988,1310988,6620172,0,0,0,1188,1,1,1,2,0,0,0,0,0,0,0,0
65844000,65764000,4831840897,0.0019433042,0.1434782,0.82271844,0,3.8189251,0.38378564,nan,nan,nan,0.038067464,0.0,0.0,0.0,0.0,1310988,1310988,6620172,0,0,0,1188,1,1,1,2,0,0,0,0,0,0,0,0
