timestamp,timestamp_sample,yaw_composite,yaw_variance,yaw[0],yaw[1],yaw[2],yaw[3],yaw[4],innov_vn[0],innov_vn[1],innov_vn[2],innov_vn[3],innov_vn[4],innov_ve[0],innov_ve[1],innov_ve[2],innov_ve[3],innov_ve[4],weight[0],weight[1],weight[2],weight[3],weight[4],yaw_composite_valid
32396000,32316000,2.6779451,3.5801747,-2.5132742,-1.2566371,0.0,1.2566371,2.5132742,0.0,0.0,0.0,0.0,0.0,0.0,0.0,0.0,0.0,0.0,0.2,0.2,0.2,0.2,0.2,0
32404000,32324000,-2.896614,3.6999953,-2.5132904,-1.2566533,-1.619181e-05,1.2566209,2.513258,0.0,0.0,0.0,0.0,0.0,0.0,0.0,0.0,0.0,0.0,0.2,0.2,0.2,0.2,0.2,0
33396000,33316000,-2.7216396,3.5696917,-2.513795,-1.259663,-0.0011650611,1.2591271,2.5161607,-0.05238694,-0.00032828376,0.05779706,0.041426368,-0.026768379,-0.019248309,-0.06326513,-0.027331157,0.03913636,0.043947138,0.20158811,0.20016842,0.19852035,0.19891416,0.20080905,0
34396000,34316000,-2.4396436,3.4872432,-2.5125866,-1.2629867,-0.004370541,1.26054,2.5202923,-0.08258948,-0.01449339,0.06413772,0.04377357,-0.04749603,-0.027896563,-0.08759389,-0.041308913,0.048280366,0.055811953,0.20366707,0.20138025,0.1972023,0.19688699,0.20086339,0
35396000,35316000,-3.1326258,3.7971308,-2.5146234,-1.2635245,0.0066078734,1.2770847,2.5287266,-0.004159542,0.0893428,0.10178148,0.014339158,-0.05047018,-0.078505434,-0.06093796,0.034290697,0.07498195,0.004434108,0.20626873,0.19754246,0.19229533,0.1975916,0.20630196,0
36396000,36316000,1.9989744,2.452695,-2.6644645,-1.2710307,0.15384261,1.3719972,2.436292,-0.09166953,-0.051138043,0.09607354,0.11176213,0.014187261,0.05367779,-0.08510909,-0.065434486,0.062076136,0.12232067,0.17234412,0.11094596,0.15435117,0.27314225,0.2892165,0
37396000,37316000,1.6898447,1.7055258,-2.7529218,-1.212306,0.25368634,1.3626266,2.334446,-0.30754656,-0.31688124,-0.027862564,0.07178974,-0.06449907,0.12968393,-0.16524078,-0.2090078,0.013525748,0.18322952,0.11337659,0.06788059,0.16155866,0.35560837,0.3015758,0
38396000,38316000,1.5940865,1.1362243,-2.8332129,-1.1692375,0.33990788,1.365672,2.2555077,-0.10833832,-0.0884243,0.034649886,0.046367764,-0.010524571,0.0475063,-0.084694594,-0.06491099,0.023562957,0.07739791,0.07007833,0.035805684,0.1535862,0.4317215,0.30880827,0
39396000,39316000,1.5882832,1.1273422,-2.8313677,-1.1652789,0.34279102,1.3655533,2.2549684,-0.045543864,-0.05230183,-0.02947171,-0.02093833,-0.026380941,0.034471244,0.010214231,0.0041754805,0.018350028,0.032146208,0.06880792,0.03545043,0.15465228,0.4339497,0.30713966,0
40396000,40316000,1.5942959,1.1152575,-2.8358345,-1.1665412,0.3455015,1.3673955,2.2540956,0.05454349,0.07861821,0.037669033,0.01404446,0.018959407,-0.017659195,0.026270641,0.04781704,0.024480965,-0.0041321553,0.06855543,0.034599494,0.15262634,0.4348617,0.30935708,0
41396000,41316000,1.5991784,1.0986671,-2.8394053,-1.1654122,0.3503191,1.3702247,2.2534003,0.031746827,0.06728106,0.030818636,0.0012079962,-0.00090032443,-0.051287364,-0.012663585,0.019431839,0.0014522262,-0.028728928,0.06779057,0.033565875,0.15087146,0.43667102,0.31110108,0
42396000,42316000,1.5981312,1.0816957,-2.8431132,-1.1634767,0.35399345,1.3708881,2.2507677,0.016383814,0.035685733,0.012798958,-0.003700865,-0.0036826893,-0.02069507,0.0035713953,0.02078173,0.008957727,-0.008774976,0.06654785,0.032633487,0.15014909,0.4392063,0.3114633,0
43396000,43316000,1.4952741,1.0777351,-2.9462478,-1.2650862,0.25264838,1.2687867,2.1478949,0.004994555,0.0039102673,-0.009918613,-0.011910933,-0.006079351,-0.0069788042,0.008040744,0.0066379453,-0.0029913362,-0.009306612,0.06620447,0.032418974,0.1500724,0.43988734,0.31141675,0
44396000,44316000,0.4655608,0.027610721,1.1253707,-1.7163477,0.26963037,0.44960973,0.54408514,-1.6805031,-2.868319,-0.025981426,-0.09611821,-0.26653123,1.4400452,-2.0628147,-0.99403906,-0.09903115,0.46837592,1.5847325e-05,1.5847325e-05,0.0029485447,0.8224309,0.17458884,1
45396000,45316000,0.2235311,0.009888217,0.41269675,-1.6487786,0.21639708,0.22449404,0.22046256,-0.81615114,-3.6280842,-0.26791143,-0.5067682,-0.45784163,1.1143081,-3.6570911,-0.2373004,-0.04263735,0.057485104,2.4639063e-05,2.4639063e-05,0.0040046424,0.7698295,0.22611657,1
46396000,46316000,0.1890417,0.00827728,0.30501735,-1.4081664,0.2442616,0.20109126,0.17329514,-0.747421,-1.5745068,-0.7308285,-0.7787075,-0.725904,0.23134196,-2.294653,-0.081864476,-0.055359364,-0.026822925,7.094794e-05,7.094794e-05,0.010167784,0.5427243,0.446966,1
47396000,47316000,0.13992274,0.008017432,0.2625072,-1.4113958,0.2079823,0.15744139,0.12555377,-0.73671174,-0.7744975,-0.74191904,-0.75299,-0.71918917,0.027920246,-1.000917,-0.107735515,-0.07478428,-0.046305418,6.811929e-05,6.4974985e-05,0.009237899,0.42846763,0.5621614,1
48396000,48316000,0.10908873,0.009026974,0.23813191,-1.4613408,0.18660614,0.13132778,0.09645729,-0.7084522,-0.45150256,-0.71930075,-0.7265606,-0.7170069,-0.03770423,0.12252438,-0.065668344,-0.03455484,-0.011569262,7.442711e-05,0.0005886975,0.00816284,0.35753393,0.6336401,1
49396000,49316000,0.10667528,0.015428871,0.23976764,-1.4839894,0.19037844,0.13253203,0.096443765,-0.6855242,-0.40743065,-0.6948886,-0.70248127,-0.7001569,-0.04342878,0.3434652,-0.046447992,-0.018918395,0.00016283989,8.616508e-05,0.0031310355,0.0084569035,0.347063,0.64126277,1
50396000,50316000,0.10271548,0.041345987,0.24709442,-1.4988254,0.19934173,0.13929671,0.102326654,-0.5674472,-0.13193989,-0.5711241,-0.5736661,-0.57235193,-0.0029408932,0.4578433,0.010771632,0.03861153,0.056541443,9.9286575e-05,0.0131832985,0.008963114,0.34300816,0.6347461,1
51396000,51316000,0.090403825,0.07521303,0.24913117,-1.5028427,0.20149976,0.14096364,0.103777274,-0.5102954,-0.036833763,-0.5106201,-0.5094094,-0.5069246,-0.00015413761,0.39079857,0.015964031,0.04145038,0.05748129,0.000100322446,0.02646597,0.008926818,0.3378249,0.626682,0
52396000,52316000,0.05282017,0.15528363,0.24820608,-1.505202,0.20010628,0.13961644,0.1023619,-0.39223194,0.048618317,-0.39032793,-0.38670206,-0.38352108,0.00049960613,0.29206407,0.015893579,0.03670752,0.049635768,9.370805e-05,0.059431385,0.008403421,0.3233494,0.6087221,0
53396000,53316000,0.031962182,0.19652764,0.24811763,-1.5061218,0.1998814,0.13937618,0.10209093,-0.32815075,0.045515537,-0.32630253,-0.32299614,-0.3202753,0.020586848,0.262653,0.0339514,0.05124569,0.06196809,9.1099566e-05,0.077258684,0.008185055,0.31645858,0.59800655,0
54396000,54316000,-0.0111975735,0.27176836,0.2474303,-1.5072265,0.19891375,0.13847218,0.10116571,-0.26825428,0.041958332,-0.2661414,-0.2627387,-0.26017046,-0.002292037,0.17735612,0.008638978,0.022286057,0.030717611,8.573014e-05,0.111869,0.007755019,0.303174,0.5771164,0
55396000,55316000,-0.0287968,0.29722252,0.24583979,-1.5085986,0.19721569,0.13682315,0.09952002,-0.22366047,0.04866886,-0.22181654,-0.21885157,-0.21663332,0.024055243,0.18328702,0.03378308,0.045755148,0.053157806,8.36961e-05,0.12432142,0.0075943214,0.2983527,0.5696479,0
56396000,56316000,-0.031068921,0.3009676,0.24598086,-1.5084054,0.19734201,0.13695684,0.09965464,-0.17863989,0.024713993,-0.17708111,-0.17465448,-0.17287874,-0.0039156675,0.10765207,0.0032229424,0.011949658,0.017333746,8.3395425e-05,0.12617238,0.0075679086,0.29762727,0.56854904,0
57396000,57316000,-0.047936812,0.32612538,0.24585602,-1.509048,0.19716817,0.13676439,0.099445276,-0.16263533,-0.00028514862,-0.16117096,-0.15897942,-0.15741396,0.03576207,0.11583316,0.041291595,0.048008084,0.052141905,8.197662e-05,0.13881257,0.007443769,0.29314655,0.5605152,0
58396000,58316000,-0.033991005,0.30739534,0.2471312,-1.5075418,0.19849218,0.13808823,0.10077755,-0.048517227,0.10652161,-0.04657221,-0.043833256,-0.041961193,0.044431567,0.098021984,0.049243093,0.055032372,0.05856967,8.3169965e-05,0.1292741,0.0075420598,0.29659614,0.5665045,0
59396000,59316000,-0.030122483,0.30065453,0.24655455,-1.5079752,0.19792962,0.1375306,0.10022475,-0.061478138,0.039019108,-0.05970621,-0.05732441,-0.055751324,0.0052677393,0.01842153,0.007934213,0.0111022,0.013007641,8.355573e-05,0.12588526,0.007574897,0.29779902,0.5686572,0
60396000,60316000,-0.032975398,0.3055339,0.24685544,-1.50764,0.19821115,0.13782041,0.10051486,0.00079488754,0.046760082,0.0021309853,0.003836155,0.004925728,0.013707995,-0.0023206472,0.014468908,0.015320659,0.0157969,8.317918e-05,0.12829448,0.007545325,0.29687992,0.56719697,0
61396000,61316000,-0.030716062,0.30165437,0.24652007,-1.5079647,0.19788894,0.13749482,0.10019029,0.020890713,0.05960369,0.022391796,0.024271011,0.025445461,0.0012453794,-0.027984023,0.0015586615,0.0018488169,0.0019681454,8.3459716e-05,0.12631397,0.007567807,0.29761666,0.56841815,0
62396000,62316000,-0.0025671658,0.25400347,0.24528168,-1.5080295,0.19676638,0.13642772,0.09917021,-0.026928425,0.14038277,-0.027970314,-0.028719425,-0.028879642,0.019319177,0.20896542,0.027254462,0.037086964,0.043257475,8.6117e-05,0.10335969,0.007795089,0.3058033,0.5829558,0
63396000,63316000,0.1184801,0.0073186243,0.23935208,-1.4363803,0.19657148,0.13965856,0.104970105,0.06999445,0.93560386,0.0608418,0.052167177,0.048492193,0.13921762,1.3169969,0.18306577,0.23885608,0.27387464,0.00012347137,1.0932085e-05,0.010376545,0.36193198,0.6275571,1
64396000,64316000,0.1262812,0.006261628,0.21963952,-1.2654542,0.18946312,0.14174668,0.11350733,0.43455958,1.0554647,0.42290568,0.40760565,0.39963722,0.2919001,1.6738367,0.3246507,0.37400132,0.4043073,0.00021383319,2.7720667e-05,0.0154587915,0.41093874,0.5733609,1
65396000,65316000,0.9254434,0.005877266,1.0023509,-0.39409068,0.98139894,0.9373243,0.9121548,0.648651,2.15529,0.6610105,0.6842326,0.69884586,0.33967626,1.1875197,0.37121558,0.42361796,0.45429552,0.00040711646,9.741873e-05,0.024669753,0.46236178,0.5124639,1
66396000,66316000,1.8192892,0.0060007614,1.877891,0.5452986,1.8688829,1.8264974,1.8041462,0.99810666,2.284646,1.0042956,1.029594,1.0430309,-0.023250222,0.024015665,-0.018856525,-0.0048868656,0.0022851229,0.0010933088,0.00046304445,0.054618124,0.5352451,0.4085804,1
67396000,67316000,2.0231085,0.0063458923,2.0647373,0.73582417,2.065662,2.0232193,2.002661,1.0614903,3.2083812,1.0671421,1.1347679,1.1681272,-0.19634819,-1.3577194,-0.19567275,-0.19632864,-0.19765615,0.0031358341,0.00090521533,0.14727528,0.5752581,0.27342558,1
68396000,68316000,2.103895,0.007269537,2.1281872,0.7665649,2.1367083,2.0930212,2.073232,1.0834816,2.2079787,1.0800155,1.0973924,1.1047912,-0.40016532,-1.7825313,-0.3947115,-0.41926455,-0.4305961,0.0063393507,0.0014388191,0.3431128,0.49986845,0.14924063,1
69396000,69316000,2.1310344,0.00687429,2.1506798,0.73291755,2.1609945,2.115563,2.095293,1.0799859,1.3710405,1.0788971,1.0821145,1.0829881,-0.32913208,-1.7076705,-0.32050467,-0.35619283,-0.37217712,0.0071274573,0.0011221581,0.41306728,0.45750457,0.121178575,1
70396000,70316000,2.1493351,0.0049596066,2.1649685,0.6954796,2.1762865,2.1297705,2.1091743,0.8850932,0.4706415,0.88520545,0.8837717,0.88260126,-0.19408321,-1.1884782,-0.18483114,-0.22181082,-0.23821783,0.007627851,0.00019287592,0.46459287,0.42430595,0.10328048,1
71396000,71316000,2.1612463,0.0046888264,2.1757271,0.6936758,2.1873283,2.1404364,2.1198988,0.7554055,0.16604948,0.75611603,0.7524835,0.75039786,-0.15444326,-0.93093777,-0.14575338,-0.18015432,-0.19536448,0.00778814,8.073162e-05,0.48227978,0.4123859,0.09746548,1
72396000,72316000,2.11336,0.0040956466,2.135437,0.7437821,2.1441615,2.101692,2.0827398,0.7391288,-0.9825982,0.74768376,0.7086781,0.69087195,0.13785243,-0.19925189,0.1484704,0.10212898,0.08186221,0.0062309243,6.147812e-05,0.33838528,0.50479317,0.15052913,1
73396000,73316000,2.0764217,0.0036428045,2.102766,0.8092794,2.1091669,2.0710707,2.0535543,0.52641904,-1.0486774,0.5328975,0.49768412,0.48143253,0.33826876,0.021481276,0.34558678,0.30669188,0.28931308,0.0046868594,3.073768e-05,0.23144989,0.5591808,0.20465162,1
74396000,74316000,2.6254961,0.0033777524,2.6531093,1.4572916,2.6577408,2.6236196,2.607676,0.33765978,-0.6637813,0.34307534,0.306207,0.28942126,0.44872338,1.0610557,0.44899458,0.44724244,0.4468432,0.003608584,2.5516705e-05,0.16819452,0.5807582,0.24741323,1
75396000,75316000,-2.8449247,0.00336476,-2.8184605,2.3617156,-2.814737,-2.8457139,-2.8600326,0.40960968,-0.28542173,0.41322625,0.3851738,0.37236404,0.76853764,1.4072093,0.76784277,0.77332354,0.7762036,0.0032411446,0.00014346997,0.14807414,0.5859862,0.262555,1
76396000,76316000,-2.5849419,0.00330618,-2.5643096,2.6824217,-2.5597887,-2.5882165,-2.601233,0.4230919,0.94114995,0.42394876,0.4182737,0.41607308,0.80616117,2.110747,0.80077624,0.84014523,0.85882473,0.004447453,0.0002170234,0.21401693,0.5714704,0.20984825,1
77396000,77316000,-2.5927107,0.0039071953,-2.5756276,2.696752,-2.570275,-2.5978405,-2.6102688,0.60782814,1.1680071,0.6069851,0.6116085,0.6138191,0.9114914,1.6255931,0.9083568,0.92574674,0.9338046,0.005558279,0.0008496309,0.2834989,0.5410986,0.1689946,1
78396000,78316000,-2.5667114,0.003630465,-2.5519814,2.6988313,-2.5458438,-2.5741942,-2.5868602,0.470021,1.0541489,0.46608663,0.48444557,0.4925475,0.9228894,0.6654431,0.9232174,0.92149734,0.9205435,0.0063188807,0.0005077256,0.33836588,0.5109601,0.14384739,1
79396000,79316000,-2.560213,0.0033004081,-2.546328,2.6949995,-2.539977,-2.5686302,-2.5814064,0.35701966,0.8809099,0.3529241,0.37144947,0.379591,0.79668224,0.42300975,0.7974329,0.7938496,0.792044,0.0065260706,0.00015345226,0.35447165,0.50150096,0.13734782,1
80396000,80316000,-2.5534532,0.0032079765,-2.5401733,2.6941557,-2.5336494,-2.562534,-2.575393,0.22053194,0.6470504,0.21706438,0.23242521,0.23916817,0.61398304,0.29277742,0.61451614,0.61201036,0.61072886,0.0067079077,4.2922333e-05,0.36905548,0.49257267,0.13162103,1
81396000,81316000,-2.5507903,0.0032482813,-2.537697,2.694488,-2.5311184,-2.560075,-2.57296,0.1441617,0.50384235,0.14129305,0.15392065,0.15946722,0.4675802,0.22026014,0.4678539,0.46653426,0.4658183,0.006768181,2.846811e-05,0.3739786,0.48950338,0.1297214,1
82396000,82316000,-2.5470936,0.003295446,-2.5342455,2.6956456,-2.527598,-2.5566354,-2.5695477,0.07935476,0.34794855,0.07741022,0.08591318,0.08966446,0.3346734,0.21472573,0.33448672,0.33522415,0.33548343,0.006845273,1.608569e-05,0.38038468,0.48550165,0.12725243,1
83396000,83316000,-2.5448654,0.003364055,-2.5321255,2.6972132,-2.5254526,-2.5545096,-2.5674279,0.01403141,0.22987223,0.012624264,0.018778324,0.021505356,0.2307483,0.18142414,0.23032355,0.23211598,0.2328769,0.006877331,1.1749966e-05,0.3830768,0.48382068,0.12621355,1
84396000,84316000,-2.545425,0.0033873182,-2.5323513,2.7097201,-2.5258775,-2.554508,-2.567256,-0.134197,0.0064897537,-0.13737941,-0.12366557,-0.117776394,0.27901125,-0.42681468,0.28256547,0.2669978,0.2597885,0.006732702,1.1663022e-05,0.37070587,0.49159235,0.13095737,1
85396000,85316000,-2.5694258,0.003298264,-2.5555577,2.7355845,-2.5497627,-2.576766,-2.5888345,-0.36426592,-0.18955278,-0.36829567,-0.35026312,-0.3425064,0.2157414,-0.76897097,0.2205987,0.1985172,0.18826747,0.0062616565,1.5643884e-05,0.3327769,0.51464874,0.14629702,1
86396000,86316000,-2.4925625,0.0032147493,-2.4782019,2.8835292,-2.4732838,-2.4979465,-2.509067,-0.6928201,-0.6570022,-0.6943481,-0.6868806,-0.6836703,-0.098915875,-0.6286763,-0.096349,-0.10903537,-0.11494374,0.005677886,5.267572e-05,0.2899778,0.5389771,0.16531453,1
87396000,87316000,-1.5669738,0.0031312713,-1.554495,-2.4144826,-1.5498396,-1.5723977,-1.5828141,-0.7433345,-1.5467703,-0.74111915,-0.7523721,-0.75758207,0.06324744,-0.6871706,0.06893897,0.040983915,0.028165817,0.0059724995,7.1769224e-05,0.30981228,0.5287918,0.15535179,1
88396000,88316000,-0.87198496,0.003160457,-0.86277884,-1.6708655,-0.8578023,-0.87905914,-0.8885989,-0.9571127,-1.8624264,-0.9518055,-0.9761573,-0.986889,0.0032699108,0.14648461,0.0046434402,-0.0014004707,-0.0039920807,0.007025564,0.00027257978,0.391042,0.48015746,0.12150242,1
89396000,89316000,-0.9372513,0.00278177,-0.93181074,-1.6807526,-0.9267229,-0.94594795,-0.9545334,-0.7239238,-1.9815397,-0.71572226,-0.7486095,-0.7628894,0.1996026,0.5773518,0.20032716,0.19758081,0.19656992,0.0080273105,6.9635505e-05,0.4885351,0.41455424,0.08881372,1
90396000,90316000,-0.9033029,0.0028503493,-0.9001588,-1.6364255,-0.8946328,-0.9136235,-0.92201555,-0.9627881,-1.1938461,-0.9601822,-0.96928185,-0.97310895,0.14962816,0.69665766,0.14632845,0.15773296,0.1629548,0.008637316,0.0003070455,0.5765737,0.3497713,0.06471051,1
91396000,91316000,-0.8895198,0.0028143323,-0.8870802,-1.6286017,-0.8813782,-0.9005472,-0.9089849,-0.9109633,-0.9427104,-0.90943897,-0.91454786,-0.9166504,0.052239418,0.59429383,0.04835701,0.06139803,0.06730986,0.008757408,0.00019868273,0.6017837,0.3306422,0.058618072,1
92396000,92316000,-0.88281417,0.0027441375,-0.8809258,-1.6263839,-0.8751055,-0.8943983,-0.9028735,-0.68482393,-0.68006927,-0.6835829,-0.68766224,-0.68933064,-0.037868023,0.4258535,-0.041311264,-0.029895306,-0.024737835,0.008829291,4.976693e-05,0.61990345,0.31676736,0.054450057,1
93396000,93316000,-0.87957144,0.0027801034,-0.87779677,-1.6239259,-0.8719518,-0.8912718,-0.89975375,-0.5932011,-0.5066593,-0.59266627,-0.59437543,-0.59503543,-0.07020378,0.3430779,-0.07352209,-0.06258345,-0.05765438,0.008844295,3.2266493e-05,0.62404495,0.3135545,0.05352408,1
94396000,94316000,-0.93129474,0.0067739547,-0.9226814,-1.6361809,-0.91741306,-0.9357484,-0.94387084,-0.61173785,0.01601857,-0.61498374,-0.6037456,-0.59883475,-0.4541254,0.018782377,-0.45924592,-0.4419303,-0.43418527,0.00848092,0.008179426,0.55437267,0.36024088,0.06872603,1
95396000,95316000,-1.1169101,0.08471862,-0.9590897,-1.63981,-0.9543176,-0.97168213,-0.97944415,-0.37143713,0.17813468,-0.3742144,-0.36418945,-0.35979086,-0.6730766,-0.2619655,-0.67725444,-0.66246104,-0.6557884,0.0062684375,0.23432699,0.38649592,0.30850026,0.0644084,0
96396000,96316000,-1.5531132,0.04758002,-0.97801393,-1.6289356,-0.97367644,-0.99017805,-0.9976063,0.011128247,0.25732958,0.009905368,0.014542103,0.016588002,-0.90777946,-0.7290926,-0.9094579,-0.9031342,-0.9002429,0.00095878914,0.87687635,0.056348346,0.053683456,0.012132977,1
97396000,97316000,-1.6029977,0.020720635,-0.9860891,-1.6309376,-0.9818558,-0.99817795,-1.0055404,0.22563474,0.2870391,0.22537275,0.22637062,0.22682206,-1.1381439,-1.0728849,-1.1386652,-1.136614,-1.1356566,0.00093649933,0.9535952,0.02042316,0.020349389,0.0046957484,1
98396000,98316000,-1.6187257,0.014480675,-0.98387396,-1.6363316,-0.9795779,-0.9961156,-1.0035686,0.5233269,0.13787077,0.52554256,0.5168734,0.5131001,-1.032676,-1.1418635,-1.031153,-1.0369093,-1.0394881,0.001385256,0.97096753,0.012495064,0.012323466,0.0028286618,1
99396000,99316000,-1.626134,0.012414927,-0.9812703,-1.6403869,-0.9769114,-0.9936357,-1.0011662,0.65959924,0.11635622,0.6626639,0.65073514,0.6455362,-0.9358457,-1.1228986,-0.9334709,-0.94244355,-0.9464759,0.001255714,0.9766794,0.010053156,0.009784734,0.0022270808,1
100396000,100316000,-1.6246928,0.014227141,-0.9780711,-1.6416509,-0.9736634,-0.990512,-0.9980928,0.6824342,0.0791884,0.68573624,0.67292184,0.667329,-0.8404128,-1.0971844,-0.837443,-0.848648,-0.8536951,0.0014903585,0.97244084,0.011986768,0.011495348,0.0025866625,1
101396000,101316000,-1.6167864,0.018907057,-0.97632957,-1.6408938,-0.9719052,-0.9887812,-0.9963709,0.65419936,0.063648686,0.65738916,0.645031,0.63963455,-0.7755213,-1.0481224,-0.7724693,-0.7839675,-0.7891493,0.0021166801,0.9609663,0.017073534,0.016220557,0.0036228877,1
102396000,102316000,-1.6172891,0.018452784,-0.9762925,-1.6407721,-0.97186977,-0.98874336,-0.9963318,0.6418542,0.11053348,0.644681,0.63373667,0.62895477,-0.6352609,-0.9007374,-0.6323817,-0.64322054,-0.64810854,0.002059194,0.9619645,0.016598165,0.015846724,0.003531474,1
103396000,103316000,-1.6156069,0.019162113,-0.9761039,-1.6401981,-0.97168404,-0.9885467,-0.9961306,0.6400558,0.13461484,0.6426954,0.6324706,0.62799907,-0.5900921,-0.8646843,-0.5872133,-0.59805715,-0.6029516,0.0021549175,0.9601635,0.017364118,0.01661919,0.0036982945,1
104396000,104316000,-1.6115369,0.021048075,-0.9767138,-1.639202,-0.9723075,-0.98912597,-0.99669,0.617407,0.13578454,0.61989397,0.6102556,0.60603875,-0.52374375,-0.7982728,-0.5209202,-0.5315579,-0.5363615,0.0024226075,0.9551334,0.019500349,0.018770661,0.0041730553,1
105396000,105316000,-1.6137241,0.01970678,-0.9778134,-1.6393001,-0.9734171,-0.9902087,-0.9977622,0.6039478,0.14706913,0.60628057,0.5972326,0.59327185,-0.47585824,-0.74799293,-0.4731073,-0.4834784,-0.4881632,0.0022389833,0.95843756,0.017992252,0.017447634,0.0038835376,1
106396000,106316000,-1.6154096,0.018758934,-0.9784719,-1.6395276,-0.97407985,-0.99086004,-0.9984093,0.5965887,0.18712345,0.59862316,0.59071934,0.58725536,-0.46025226,-0.7289194,-0.4576306,-0.46752414,-0.47199595,0.0021096766,0.9607653,0.016934793,0.016515331,0.0036749076,1
107396000,107316000,-2.412401,0.0034808472,-1.759632,-2.413755,-1.7553596,-1.7718301,-1.7793664,0.7440874,0.10238457,0.7485544,0.731321,0.72387075,-0.5978851,-0.44621754,-0.5974292,-0.5990198,-0.59963894,0.00011671736,0.99775887,0.0009135116,0.0009829192,0.00022792835,1
108396000,108316000,3.1142848,0.002237853,-2.6336865,3.1142209,-2.630508,-2.6443272,-2.6504192,1.2824686,0.5644181,1.2885084,1.2634335,1.2526767,-0.76968324,0.15944636,-0.773955,-0.756256,-0.7479688,3.166813e-05,0.9998731,3.166813e-05,3.166813e-05,3.166813e-05,1
109396000,109316000,3.12976,0.0021994617,-2.6655028,3.1295958,-2.662785,-2.6754632,-2.681074,1.3723917,0.7792072,1.3759799,1.3595316,1.3524253,-0.3569889,-0.16033173,-0.35733342,-0.3559091,-0.35522795,8.8564346e-05,0.99964577,8.8564346e-05,8.8564346e-05,8.8564346e-05,1
110396000,110316000,3.1148667,0.0025308023,-2.6837656,3.1140263,-2.6811397,-2.693797,-2.6994154,1.1930988,0.87783456,1.1944172,1.1879697,1.1851306,-0.26484466,-0.5318358,-0.26308322,-0.2715521,-0.27554107,0.0004552986,0.9981787,0.0004552986,0.0004552986,0.0004552986,1
111396000,111316000,3.1082504,0.0024848324,-2.6880596,3.1075704,-2.6854324,-2.69816,-2.7038097,1.0421989,0.7989495,1.0430663,1.0387905,1.03689,-0.27905548,-0.59561145,-0.27711165,-0.2864598,-0.2908553,0.0003667859,0.9985328,0.0003667859,0.0003667859,0.0003667859,1
112396000,112316000,3.10474,0.0022955379,-2.6890957,3.104478,-2.686462,-2.6992488,-2.7049274,0.79215884,0.5712104,0.7929547,0.7890475,0.78731084,-0.2690109,-0.5513772,-0.26725638,-0.27566254,-0.2796017,0.00014003078,0.99943674,0.00013966922,0.00014148979,0.00014211655,1
113396000,113316000,3.1029418,0.002298843,-2.690194,3.102771,-2.6875594,-2.7003648,-2.706052,0.6597383,0.44048572,0.6605971,0.65638494,0.65452075,-0.29969168,-0.52662253,-0.29822326,-0.30524373,-0.3085251,9.071542e-05,0.9996335,9.0296075e-05,9.242548e-05,9.315058e-05,1
114396000,114316000,3.1002536,0.002308729,-2.692598,3.1001573,-2.689966,-2.7027807,-2.7084723,0.45660496,0.25346327,0.45749235,0.45315742,0.45124793,-0.28449702,-0.4267602,-0.2834866,-0.28830147,-0.29053497,5.0803563e-05,0.9997933,5.0413553e-05,5.240578e-05,5.311051e-05,1
115396000,115316000,3.098817,0.0023658187,-2.6942348,3.0987358,-2.691605,-2.7044156,-2.7101054,0.3182931,0.13189316,0.31914854,0.3149581,0.31312275,-0.2893629,-0.38698363,-0.28860378,-0.2922001,-0.29385805,4.28001e-05,0.9998253,4.242606e-05,4.4348242e-05,4.5029068e-05,1
116396000,116316000,3.1190047,0.0031016353,-2.6852984,3.117443,-2.682709,-2.6952493,-2.7008111,0.105997324,0.027787209,0.10578489,0.106761694,0.10715127,-0.30263138,-0.77593374,-0.30006444,-0.31239128,-0.3181944,0.00085685827,0.99658525,0.00085807126,0.0008536922,0.0008461362,1
117396000,117316000,-3.0066104,0.044319984,-2.673781,-3.1338851,-2.6712885,-2.6832664,-2.688568,-0.18181396,-0.1941464,-0.18240356,-0.17961836,-0.17843843,-0.3537395,-0.8626307,-0.35105622,-0.3638487,-0.36987817,0.07313924,0.71716875,0.074252225,0.06911965,0.066320084,1
118396000,118316000,-2.7505128,0.0037499107,-2.742848,3.1037273,-2.740461,-2.7518196,-2.7568026,-0.57355547,-0.61219454,-0.5736947,-0.57306445,-0.5728009,-0.5441712,-0.8301555,-0.5426085,-0.5499526,-0.5534017,0.2662095,0.007550382,0.2751981,0.23493068,0.21611135,1
119396000,119316000,2.631271,0.002443622,2.6355166,2.2097754,2.6378584,2.6268137,2.621938,-0.6897341,-0.76528704,-0.6896254,-0.6901734,-0.69041836,-0.59340215,-0.84590286,-0.5919668,-0.5986578,-0.6017945,0.2746507,0.00025529735,0.28762287,0.23100938,0.20646177,1
120396000,120316000,1.8477296,0.0039168783,1.8550383,1.4251273,1.8574237,1.8462412,1.8413786,-1.1106931,-1.2594285,-1.1096035,-1.1147008,-1.11687,-0.755598,-0.5255614,-0.7566428,-0.7517284,-0.7493723,0.27894482,0.008163472,0.29626694,0.22280116,0.1938236,1
121396000,121316000,1.6319757,0.0047456454,1.6411799,1.2060472,1.6436024,1.6322515,1.6273427,-1.1779019,-1.3291034,-1.176531,-1.1829094,-1.1856148,-0.696335,-0.25062683,-0.69853085,-0.6882951,-0.6834279,0.2787893,0.012566394,0.29691452,0.22031315,0.19141659,1
122396000,122316000,1.6875799,0.0047172853,1.6968577,1.2593937,1.699293,1.6878889,1.6829506,-1.0768155,-1.1750131,-1.0756907,-1.0809066,-1.0831063,-0.4649586,0.01215874,-0.46738523,-0.45609307,-0.45073336,0.2795977,0.012706448,0.2984407,0.21888806,0.19036698,1
123396000,123316000,1.6882178,0.00455914,1.6971295,1.2596676,1.6995654,1.6881617,1.683224,-0.9594123,-0.99842125,-0.95866376,-0.9621199,-0.96356124,-0.30375367,0.13050888,-0.3060217,-0.29547432,-0.29047206,0.28014198,0.011864748,0.2992647,0.21854782,0.19018073,1
124396000,124316000,1.6856456,0.0049193916,1.6954234,1.2585748,1.6978551,1.6864656,1.6815344,-0.7778498,-0.7366909,-0.77765256,-0.77853715,-0.77887243,-0.09524432,0.24851173,-0.09712258,-0.08838627,-0.08424698,0.2791012,0.013908117,0.2978758,0.21840245,0.19071244,1
125396000,125316000,1.6854652,0.0051902714,1.6957226,1.2602673,1.6980925,1.6871194,1.6819547,-0.6464124,-0.56864095,-0.646492,-0.6460848,-0.64586675,0.009876367,0.29140154,0.008287944,0.015678603,0.019179128,0.27846497,0.015267621,0.29703575,0.2183329,0.19089878,1
126396000,126316000,1.6833719,0.0055390573,1.694366,1.2590094,1.6967349,1.6857637,1.6805997,-0.53397715,-0.41535324,-0.53436905,-0.53250855,-0.531667,0.14962561,0.3595613,0.14837217,0.15420751,0.15696982,0.2776589,0.017000409,0.29595733,0.21830422,0.1910792,1
127396000,127316000,1.6824148,0.005785953,1.6938556,1.2583904,1.6962248,1.6852509,1.6800851,-0.4658296,-0.32596248,-0.46638638,-0.4637577,-0.46258724,0.23700911,0.40745476,0.23594187,0.24091242,0.2432643,0.27721265,0.018044762,0.2953658,0.2182773,0.1910995,1
128396000,128316000,1.6820822,0.0059234137,1.6937342,1.2579815,1.696105,1.6851236,1.6799543,-0.40901703,-0.23252174,-0.40982375,-0.40602702,-0.40435427,0.34822652,0.47831646,0.34733126,0.3514985,0.35346776,0.27702454,0.018525515,0.29509425,0.21833748,0.19101818,1
129396000,129316000,1.6830665,0.0056631435,1.6939727,1.2582768,1.6963434,1.6853645,1.6801963,-0.29133555,-0.09541997,-0.29227698,-0.28785077,-0.2859075,0.39508206,0.50195223,0.394288,0.3979841,0.39972907,0.27772453,0.016771963,0.29594254,0.2186117,0.19094928,1
130396000,130316000,1.6827784,0.0057197,1.6937202,1.2578503,1.6960919,1.6851083,1.6799381,-0.27464586,-0.0542934,-0.27577215,-0.27048582,-0.2681738,0.45187187,0.51742345,0.4512702,0.45407268,0.4553936,0.27768013,0.016844228,0.29582632,0.21874997,0.19089931,1
131396000,131316000,1.6816775,0.0059198164,1.6929818,1.257186,1.6953529,1.6843709,1.679201,-0.23273686,0.015152857,-0.23404679,-0.22790292,-0.22522137,0.5363754,0.57534,0.5358838,0.5381748,0.5392521,0.2772692,0.017695311,0.29523504,0.2188151,0.19098525,1
132396000,132316000,1.6796,0.0063947937,1.6919765,1.2564915,1.6943456,1.6833704,1.6782032,-0.18227991,0.076961204,-0.18368185,-0.17710693,-0.17424081,0.5618314,0.57618994,0.56145793,0.56319976,0.56401557,0.2761143,0.020226784,0.29365388,0.21880026,0.19120483,1
133396000,133316000,1.6778996,0.0067812474,1.6910831,1.2557102,1.6934514,1.6824781,1.6773117,-0.16425067,0.065023825,-0.16549334,-0.15966465,-0.15712345,0.4943772,0.5046843,0.49406016,0.49554056,0.49623442,0.27530655,0.022130676,0.29258236,0.2187038,0.19127661,1
134396000,134316000,1.6766893,0.0071570324,1.690716,1.255656,1.6930826,1.6821164,1.676953,-0.1169332,0.13337225,-0.1183103,-0.11185161,-0.109038025,0.5643179,0.55885404,0.56406105,0.5652619,0.56582314,0.2744366,0.024132738,0.2914005,0.21864371,0.19138646,1
135396000,135316000,1.6762409,0.0072937347,1.6904904,1.2553782,1.6928573,1.6818895,1.6767253,-0.090274386,0.15854241,-0.09165452,-0.08518275,-0.08236436,0.56067926,0.546146,0.56047285,0.56144065,0.56189203,0.27423525,0.024653478,0.29111063,0.21863504,0.19136563,1
136396000,136316000,1.6771628,0.007069431,1.6908184,1.2556213,1.6931858,1.6822164,1.6770517,-0.06390259,0.18601191,-0.06530344,-0.05873666,-0.055878125,0.59213895,0.5656711,0.59199494,0.592672,0.59298635,0.27478942,0.02324571,0.29173964,0.21886672,0.19135857,1
137396000,137316000,1.6773127,0.007067963,1.690864,1.2556798,1.6932311,1.6822624,1.6770977,-0.048406053,0.19509171,-0.049787603,-0.04331356,-0.040496513,0.585376,0.546054,0.58530855,0.5856322,0.58577985,0.2748837,0.022999251,0.29181674,0.21893375,0.19136658,1
138396000,138316000,1.6761397,0.0074113896,1.6904458,1.2548928,1.6928152,1.6818359,1.6766665,-0.01775974,0.21924447,-0.019113658,-0.012769289,-0.010009137,0.5962087,0.55040944,0.59618294,0.5963119,0.5963677,0.27427718,0.024757179,0.29104543,0.21869303,0.19122715,1
139396000,139316000,1.6751534,0.007690163,1.6900246,1.2543173,1.6923946,1.6814108,1.6762391,-0.029972602,0.20997156,-0.03134684,-0.024907302,-0.022106221,0.57348955,0.52425295,0.5734778,0.5735388,0.5735619,0.27380574,0.02607913,0.2904466,0.21852064,0.19114788,1
140396000,140316000,1.6743727,0.007819367,1.6895119,1.2541299,1.6918799,1.6809042,1.675736,-0.042328704,0.1908595,-0.043665957,-0.03739927,-0.034673,0.54083914,0.49146524,0.5408356,0.5408564,0.540861,0.27350396,0.026729925,0.29000252,0.2185265,0.19123703,1
141396000,141316000,1.6757557,0.0074674943,1.6899432,1.2545234,1.6923114,1.6813358,1.6761676,0.028443655,0.25184086,0.027159177,0.03317855,0.035797585,0.52095264,0.470839,0.5209647,0.5209147,0.5208864,0.27437443,0.024482677,0.29104897,0.21881628,0.19127762,1
142396000,142316000,1.6762415,0.0073402436,1.6900558,1.2546716,1.6924238,1.6814497,1.676282,0.024278395,0.2332789,0.023058865,0.028771592,0.031256717,0.49927118,0.4378018,0.49936098,0.4989517,0.4987552,0.27472204,0.023604864,0.29144078,0.21893464,0.19129756,1
143396000,143316000,1.6763846,0.007305915,1.690007,1.2548201,1.692374,1.6814051,1.6762398,0.048337243,0.24917991,0.047159925,0.052674465,0.0550735,0.44321522,0.37975037,0.44332537,0.4428223,0.4425823,0.27487049,0.023163572,0.29158786,0.21901785,0.1913602,1
144396000,144316000,1.6770262,0.0072021517,1.6903113,1.2549645,1.6926792,1.6817067,1.6765399,0.08782859,0.27338123,0.08673333,0.091862604,0.09409456,0.4561967,0.3913512,0.45633256,0.45571247,0.45541883,0.27523583,0.022360029,0.29202786,0.21906888,0.19130751,1
145396000,145316000,1.6773336,0.007129036,1.6903175,1.2548507,1.6926861,1.6817107,1.676543,0.07417297,0.25325206,0.07310724,0.07809716,0.0802682,0.45101586,0.38130426,0.45118526,0.45041007,0.45004377,0.2755558,0.021644248,0.29242042,0.21911451,0.19126497,1
146396000,146316000,1.6760519,0.0073890556,1.6895798,1.2542322,1.6919476,1.6809746,1.675808,0.015346538,0.2010046,0.014255157,0.019366939,0.021591866,0.45156848,0.39023548,0.45168543,0.45115346,0.4509019,0.2750467,0.022933124,0.2917491,0.21897364,0.19129756,1
146604000,146524000,1.6761345,0.0074057,1.6896625,1.2543147,1.6920303,1.6810572,1.6758906,0.015346538,0.2010046,0.014255157,0.019366939,0.021591866,0.45156848,0.39023548,0.45168543,0.45115346,0.4509019,0.2750467,0.022933124,0.2917491,0.21897364,0.19129756,1
