timestamp,timestamp_sample,gps_hvel[0],gps_hvel[1],gps_vvel,gps_hpos[0],gps_hpos[1],gps_vpos,ev_hvel[0],ev_hvel[1],ev_vvel,ev_hpos[0],ev_hpos[1],ev_vpos,rng_vpos,baro_vpos,aux_hvel[0],aux_hvel[1],aux_vvel,flow[0],flow[1],terr_flow[0],terr_flow[1],heading,mag_field[0],mag_field[1],mag_field[2],gravity[0],gravity[1],gravity[2],drag[0],drag[1],airspeed,beta,hagl,hagl_rate
3444000,3364000,0.0,0.0,0.0,0.0,0.0,0.0,0.0,0.0,0.0,0.0,0.0,0.0,0.0,0.0,0.0,0.0,nan,0.0,0.0,0.0,0.0,0.0,0.0,0.0,0.0,0.00027470398,0.0,0.0,0.0,0.0,0.0,0.0,0.0,0.0
3452000,3372000,0.0,0.0,0.0,0.0,0.0,0.0,0.0,0.0,0.0,0.0,0.0,0.0,0.0,0.0,0.0,0.0,nan,0.0,0.0,0.0,0.0,0.0,0.0,0.0,0.0,0.00024924424,0.0,0.0,0.0,0.0,0.0,0.0,0.0,0.0
3460000,3380000,0.0,0.0,0.0,0.0,0.0,0.0,0.0,0.0,0.0,0.0,0.0,0.0,0.0,7.909598e-14,0.0,0.0,nan,0.0,0.0,0.0,0.0,0.0,0.0,0.0,0.0,0.00026296504,0.0,0.0,0.0,0.0,0.0,0.0,0.0,0.0
3468000,3388000,0.0,0.0,0.0,0.0,0.0,0.0,0.0,0.0,0.0,0.0,0.0,0.0,0.0,7.909598e-14,0.0,0.0,nan,0.0,0.0,0.0,0.0,0.0,inf,0.0,0.0,7.6752694e-05,0.0,0.0,0.0,0.0,0.0,0.0,0.0,0.0
3476000,3396000,0.0,0.0,0.0,0.0,0.0,0.0,0.0,0.0,0.0,0.0,0.0,0.0,0.0,7.909598e-14,0.0,0.0,nan,0.0,0.0,0.0,0.0,0.0,inf,0.0,0.0,0.00043964476,0.0,0.0,0.0,0.0,0.0,0.0,0.0,0.0
3484000,3404000,0.0,0.0,0.0,0.0,0.0,0.0,0.0,0.0,0.0,0.0,0.0,0.0,0.0,7.909598e-14,0.0,0.0,nan,0.0,0.0,0.0,0.0,0.0,inf,0.0,0.0,0.0007326378,0.0,0.0,0.0,0.0,0.0,0.0,0.0,0.0
3492000,3412000,0.0,0.0,0.0,0.0,0.0,0.0,0.0,0.0,0.0,0.0,0.0,0.0,0.0,7.909598e-14,0.0,0.0,nan,0.0,0.0,0.0,0.0,0.0,inf,0.0,0.0,0.0007869201,0.0,0.0,0.0,0.0,0.0,0.0,0.0,0.0
3500000,3420000,0.0,0.0,0.0,0.0,0.0,0.0,0.0,0.0,0.0,0.0,0.0,0.0,0.0,7.909598e-14,0.0,0.0,nan,0.0,0.0,0.0,0.0,0.0,inf,0.0,0.0,0.00020711878,0.0,0.0,0.0,0.0,0.0,0.0,0.0,0.0
3508000,3428000,0.0,0.0,0.0,0.0,0.0,0.0,0.0,0.0,0.0,0.0,0.0,0.0,0.0,7.909598e-14,0.0,0.0,nan,0.0,0.0,0.0,0.0,0.0,inf,0.0,0.0,0.0004532072,0.0,0.0,0.0,0.0,0.0,0.0,0.0,0.0
3516000,3436000,0.0,0.0,0.0,0.0,0.0,0.0,0.0,0.0,0.0,0.0,0.0,0.0,0.0,5.711903e-08,0.0,0.0,nan,0.0,0.0,0.0,0.0,0.0,inf,0.0,0.0,0.000191595,0.0,0.0,0.0,0.0,0.0,0.0,0.0,0.0
3524000,3444000,0.0,0.0,0.0,0.0,0.0,0.0,0.0,0.0,0.0,0.0,0.0,0.0,0.0,5.711903e-08,0.0,0.0,nan,0.0,0.0,0.0,0.0,0.0,inf,0.0,0.0,0.00024519762,0.0,0.0,0.0,0.0,0.0,0.0,0.0,0.0
3532000,3452000,0.0,0.0,0.0,0.0,0.0,0.0,0.0,0.0,0.0,0.0,0.0,0.0,0.0,5.711903e-08,0.0,0.0,nan,0.0,0.0,0.0,0.0,0.0,inf,0.0,0.0,0.00062928983,0.0,0.0,0.0,0.0,0.0,0.0,0.0,0.0
3540000,3460000,0.0,0.0,0.0,0.0,0.0,0.0,0.0,0.0,0.0,0.0,0.0,0.0,0.0,5.711903e-08,0.0,0.0,nan,0.0,0.0,0.0,0.0,0.0,inf,0.0,0.0,0.00018056185,0.0,0.0,0.0,0.0,0.0,0.0,0.0,0.0
3548000,3468000,0.0,0.0,0.0,0.0,0.0,0.0,0.0,0.0,0.0,0.0,0.0,0.0,0.0,5.711903e-08,0.0,0.0,nan,0.0,0.0,0.0,0.0,0.0,inf,0.0,0.0,0.0006062357,0.0,0.0,0.0,0.0,0.0,0.0,0.0,0.0
3556000,3476000,0.0,0.0,0.0,0.0,0.0,0.0,0.0,0.0,0.0,0.0,0.0,0.0,0.0,5.711903e-08,0.0,0.0,nan,0.0,0.0,0.0,0.0,0.0,inf,0.0,0.0,0.0007089875,0.0,0.0,0.0,0.0,0.0,0.0,0.0,0.0
3564000,3484000,0.0,0.0,0.0,0.0,0.0,0.0,0.0,0.0,0.0,0.0,0.0,0.0,0.0,5.711903e-08,0.0,0.0,nan,0.0,0.0,0.0,0.0,0.0,inf,0.0,0.0,0.000114799936,0.0,0.0,0.0,0.0,0.0,0.0,0.0,0.0
3572000,3492000,0.0,0.0,0.0,0.0,0.0,0.0,0.0,0.0,0.0,0.0,0.0,0.0,0.0,5.711903e-08,0.0,0.0,nan,0.0,0.0,0.0,0.0,0.0,inf,0.0,0.0,3.5973757e-05,0.0,0.0,0.0,0.0,0.0,0.0,0.0,0.0
3580000,3500000,0.0,0.0,0.0,0.0,0.0,0.0,0.0,0.0,0.0,0.0,0.0,0.0,0.0,5.6370675e-10,0.0,0.0,nan,0.0,0.0,0.0,0.0,0.0,inf,0.0,0.0,1.5773696e-05,0.0,0.0,0.0,0.0,0.0,0.0,0.0,0.0
3588000,3508000,0.0,0.0,0.0,0.0,0.0,0.0,0.0,0.0,0.0,0.0,0.0,0.0,0.0,5.6370675e-10,0.0,0.0,nan,0.0,0.0,0.0,0.0,0.0,inf,0.0,0.0,0.0003593241,0.0,0.0,0.0,0.0,0.0,0.0,0.0,0.0
3596000,3516000,8.536615e-09,0.0,1.1066714e-05,1.2261902e-11,0.0,93.5142,0.0,0.0,0.0,0.0,0.0,0.0,0.0,5.6370675e-10,0.0,0.0,nan,0.0,0.0,0.0,0.0,0.0,inf,0.0,0.0,3.4709653e-06,0.0,0.0,0.0,0.0,0.0,0.0,0.0,0.0
3604000,3524000,8.536615e-09,0.0,1.1066714e-05,1.2261902e-11,0.0,93.5142,0.0,0.0,0.0,0.0,0.0,0.0,0.0,5.6370675e-10,0.0,0.0,nan,0.0,0.0,0.0,0.0,0.0,inf,0.0,0.0,0.00030137453,0.0,0.0,0.0,0.0,0.0,0.0,0.0,0.0
3612000,3532000,8.536615e-09,0.0,1.1066714e-05,1.2261902e-11,0.0,93.5142,0.0,0.0,0.0,0.0,0.0,0.0,0.0,5.6370675e-10,0.0,0.0,nan,0.0,0.0,0.0,0.0,0.0,inf,0.0,0.0,0.00011293878,0.0,0.0,0.0,0.0,0.0,0.0,0.0,0.0
3620000,3540000,8.536615e-09,0.0,1.1066714e-05,1.2261902e-11,0.0,93.5142,0.0,0.0,0.0,0.0,0.0,0.0,0.0,5.6370675e-10,0.0,0.0,nan,0.0,0.0,0.0,0.0,0.0,inf,0.0,0.0,0.0002856149,0.0,0.0,0.0,0.0,0.0,0.0,0.0,0.0
3628000,3548000,8.536615e-09,0.0,1.1066714e-05,1.2261902e-11,0.0,93.5142,0.0,0.0,0.0,0.0,0.0,0.0,0.0,5.6370675e-10,0.0,0.0,nan,0.0,0.0,0.0,0.0,0.0,inf,0.0,0.0,3.8817492e-05,0.0,0.0,0.0,0.0,0.0,0.0,0.0,0.0
3636000,3556000,8.536615e-09,0.0,1.1066714e-05,1.2261902e-11,0.0,93.5142,0.0,0.0,0.0,0.0,0.0,0.0,0.0,8.7764214e-08,0.0,0.0,nan,0.0,0.0,0.0,0.0,0.0,inf,0.0,0.0,0.0006910118,0.0,0.0,0.0,0.0,0.0,0.0,0.0,0.0
3644000,3564000,8.536615e-09,0.0,1.1066714e-05,1.2261902e-11,0.0,93.5142,0.0,0.0,0.0,0.0,0.0,0.0,0.0,8.7764214e-08,0.0,0.0,nan,0.0,0.0,0.0,0.0,0.0,inf,0.0,0.0,0.00024315056,0.0,0.0,0.0,0.0,0.0,0.0,0.0,0.0
3652000,3572000,8.536615e-09,0.0,1.1066714e-05,1.2261902e-11,0.0,93.5142,0.0,0.0,0.0,0.0,0.0,0.0,0.0,8.7764214e-08,0.0,0.0,nan,0.0,0.0,0.0,0.0,0.0,inf,0.0,0.0,0.0007423884,0.0,0.0,0.0,0.0,0.0,0.0,0.0,0.0
3660000,3580000,8.536615e-09,0.0,1.1066714e-05,1.2261902e-11,0.0,93.5142,0.0,0.0,0.0,0.0,0.0,0.0,0.0,8.7764214e-08,0.0,0.0,nan,0.0,0.0,0.0,0.0,0.0,inf,0.0,0.0,0.00017429964,0.0,0.0,0.0,0.0,0.0,0.0,0.0,0.0
3668000,3588000,8.536615e-09,0.0,1.1066714e-05,1.2261902e-11,0.0,93.5142,0.0,0.0,0.0,0.0,0.0,0.0,0.0,8.7764214e-08,0.0,0.0,nan,0.0,0.0,0.0,0.0,0.0,inf,0.0,0.0,5.7841215e-05,0.0,0.0,0.0,0.0,0.0,0.0,0.0,0.0
3676000,3596000,8.536615e-09,0.0,1.1066714e-05,1.2261902e-11,0.0,93.5142,0.0,0.0,0.0,0.0,0.0,0.0,0.0,8.7764214e-08,0.0,0.0,nan,0.0,0.0,0.0,0.0,0.0,inf,0.0,0.0,0.0005527295,0.0,0.0,0.0,0.0,0.0,0.0,0.0,0.0
3684000,3604000,8.536615e-09,0.0,1.1066714e-05,1.2261902e-11,0.0,93.5142,0.0,0.0,0.0,0.0,0.0,0.0,0.0,8.7764214e-08,0.0,0.0,nan,0.0,0.0,0.0,0.0,0.0,inf,0.0,0.0,0.00033294756,0.0,0.0,0.0,0.0,0.0,0.0,0.0,0.0
3692000,3612000,8.536615e-09,0.0,1.1066714e-05,1.2261902e-11,0.0,93.5142,0.0,0.0,0.0,0.0,0.0,0.0,0.0,8.7764214e-08,0.0,0.0,nan,0.0,0.0,0.0,0.0,0.0,inf,0.0,0.0,0.00029482713,0.0,0.0,0.0,0.0,0.0,0.0,0.0,0.0
3700000,3620000,8.536615e-09,0.0,1.1066714e-05,1.2261902e-11,0.0,93.5142,0.0,0.0,0.0,0.0,0.0,0.0,0.0,1.2890771e-07,0.0,0.0,nan,0.0,0.0,0.0,0.0,0.0,inf,0.0,0.0,0.00047063848,0.0,0.0,0.0,0.0,0.0,0.0,0.0,0.0
3708000,3628000,8.536615e-09,0.0,1.1066714e-05,1.2261902e-11,0.0,93.5142,0.0,0.0,0.0,0.0,0.0,0.0,0.0,1.2890771e-07,0.0,0.0,nan,0.0,0.0,0.0,0.0,0.0,inf,0.0,0.0,0.00037273075,0.0,0.0,0.0,0.0,0.0,0.0,0.0,0.0
3716000,3636000,8.536615e-09,0.0,1.1066714e-05,1.2261902e-11,0.0,93.5142,0.0,0.0,0.0,0.0,0.0,0.0,0.0,1.2890771e-07,0.0,0.0,nan,0.0,0.0,0.0,0.0,0.0,inf,0.0,0.0,0.00012335327,0.0,0.0,0.0,0.0,0.0,0.0,0.0,0.0
3724000,3644000,8.536615e-09,0.0,1.1066714e-05,1.2261902e-11,0.0,93.5142,0.0,0.0,0.0,0.0,0.0,0.0,0.0,1.2890771e-07,0.0,0.0,nan,0.0,0.0,0.0,0.0,0.0,inf,0.0,0.0,1.0578575e-05,0.0,0.0,0.0,0.0,0.0,0.0,0.0,0.0
3732000,3652000,8.536615e-09,0.0,1.1066714e-05,1.2261902e-11,0.0,93.5142,0.0,0.0,0.0,0.0,0.0,0.0,0.0,1.2890771e-07,0.0,0.0,nan,0.0,0.0,0.0,0.0,0.0,inf,0.0,0.0,0.00073331274,0.0,0.0,0.0,0.0,0.0,0.0,0.0,0.0
3740000,3660000,8.536615e-09,0.0,1.1066714e-05,1.2261902e-11,0.0,93.5142,0.0,0.0,0.0,0.0,0.0,0.0,0.0,1.2890771e-07,0.0,0.0,nan,0.0,0.0,0.0,0.0,0.0,inf,0.0,0.0,0.0004796168,0.0,0.0,0.0,0.0,0.0,0.0,0.0,0.0
3748000,3668000,8.536615e-09,0.0,1.1066714e-05,1.2261902e-11,0.0,93.5142,0.0,0.0,0.0,0.0,0.0,0.0,0.0,1.2890771e-07,0.0,0.0,nan,0.0,0.0,0.0,0.0,0.0,inf,0.0,0.0,0.000112707945,0.0,0.0,0.0,0.0,0.0,0.0,0.0,0.0
3756000,3676000,8.536615e-09,0.0,1.1066714e-05,1.2261902e-11,0.0,93.5142,0.0,0.0,0.0,0.0,0.0,0.0,0.0,4.0172299e-07,0.0,0.0,nan,0.0,0.0,0.0,0.0,0.0,inf,0.0,0.0,0.00014813409,0.0,0.0,0.0,0.0,0.0,0.0,0.0,0.0
3764000,3684000,8.536615e-09,0.0,1.1066714e-05,1.2261902e-11,0.0,93.5142,0.0,0.0,0.0,0.0,0.0,0.0,0.0,4.0172299e-07,0.0,0.0,nan,0.0,0.0,0.0,0.0,0.0,inf,0.0,0.0,0.0001025079,0.0,0.0,0.0,0.0,0.0,0.0,0.0,0.0
3772000,3692000,8.536615e-09,0.0,1.1066714e-05,1.2261902e-11,0.0,93.5142,0.0,0.0,0.0,0.0,0.0,0.0,0.0,4.0172299e-07,0.0,0.0,nan,0.0,0.0,0.0,0.0,0.0,inf,0.0,0.0,1.5213264e-05,0.0,0.0,0.0,0.0,0.0,0.0,0.0,0.0
3780000,3700000,8.536615e-09,0.0,1.1066714e-05,1.2261902e-11,0.0,93.5142,0.0,0.0,0.0,0.0,0.0,0.0,0.0,4.0172299e-07,0.0,0.0,nan,0.0,0.0,0.0,0.0,0.0,inf,0.0,0.0,0.00050664385,0.0,0.0,0.0,0.0,0.0,0.0,0.0,0.0
3788000,3708000,8.536615e-09,0.0,1.1066714e-05,1.2261902e-11,0.0,93.5142,0.0,0.0,0.0,0.0,0.0,0.0,0.0,4.0172299e-07,0.0,0.0,nan,0.0,0.0,0.0,0.0,0.0,inf,0.0,0.0,0.00025489755,0.0,0.0,0.0,0.0,0.0,0.0,0.0,0.0
3796000,3716000,8.536615e-09,0.0,1.1066714e-05,1.2261902e-11,0.0,93.5142,0.0,0.0,0.0,0.0,0.0,0.0,0.0,4.0172299e-07,0.0,0.0,nan,0.0,0.0,0.0,0.0,0.0,inf,0.0,0.0,0.0005271387,0.0,0.0,0.0,0.0,0.0,0.0,0.0,0.0
3804000,3724000,8.536615e-09,0.0,1.1066714e-05,1.2261902e-11,0.0,93.5142,0.0,0.0,0.0,0.0,0.0,0.0,0.0,4.0172299e-07,0.0,0.0,nan,0.0,0.0,0.0,0.0,0.0,inf,0.0,0.0,0.00019534433,0.0,0.0,0.0,0.0,0.0,0.0,0.0,0.0
3812000,3732000,8.536615e-09,0.0,1.1066714e-05,1.2261902e-11,0.0,93.5142,0.0,0.0,0.0,0.0,0.0,0.0,0.0,4.0172299e-07,0.0,0.0,nan,0.0,0.0,0.0,0.0,0.0,inf,0.0,0.0,0.00030378142,0.0,0.0,0.0,0.0,0.0,0.0,0.0,0.0
3820000,3740000,8.536615e-09,0.0,1.1066714e-05,1.2261902e-11,0.0,93.5142,0.0,0.0,0.0,0.0,0.0,0.0,0.0,6.5319347e-07,0.0,0.0,nan,0.0,0.0,0.0,0.0,0.0,inf,0.0,0.0,0.0002664061,0.0,0.0,0.0,0.0,0.0,0.0,0.0,0.0
3828000,3748000,8.536615e-09,0.0,1.1066714e-05,1.2261902e-11,0.0,93.5142,0.0,0.0,0.0,0.0,0.0,0.0,0.0,6.5319347e-07,0.0,0.0,nan,0.0,0.0,0.0,0.0,0.0,inf,0.0,0.0,0.000590954,0.0,0.0,0.0,0.0,0.0,0.0,0.0,0.0
3836000,3756000,8.536615e-09,0.0,1.1066714e-05,1.2261902e-11,0.0,93.5142,0.0,0.0,0.0,0.0,0.0,0.0,0.0,6.5319347e-07,0.0,0.0,nan,0.0,0.0,0.0,0.0,0.0,inf,0.0,0.0,0.00038052897,0.0,0.0,0.0,0.0,0.0,0.0,0.0,0.0
3844000,3764000,8.536615e-09,0.0,1.1066714e-05,1.2261902e-11,0.0,93.5142,0.0,0.0,0.0,0.0,0.0,0.0,0.0,6.5319347e-07,0.0,0.0,nan,0.0,0.0,0.0,0.0,0.0,inf,0.0,0.0,0.00039107326,0.0,0.0,0.0,0.0,0.0,0.0,0.0,0.0
3852000,3772000,8.536615e-09,0.0,1.1066714e-05,1.2261902e-11,0.0,93.5142,0.0,0.0,0.0,0.0,0.0,0.0,0.0,6.5319347e-07,0.0,0.0,nan,0.0,0.0,0.0,0.0,0.0,inf,0.0,0.0,0.00023249254,0.0,0.0,0.0,0.0,0.0,0.0,0.0,0.0
3860000,3780000,8.536615e-09,0.0,1.1066714e-05,1.2261902e-11,0.0,93.5142,0.0,0.0,0.0,0.0,0.0,0.0,0.0,6.5319347e-07,0.0,0.0,nan,0.0,0.0,0.0,0.0,0.0,inf,0.0,0.0,2.524866e-05,0.0,0.0,0.0,0.0,0.0,0.0,0.0,0.0
3868000,3788000,8.536615e-09,0.0,1.1066714e-05,1.2261902e-11,0.0,93.5142,0.0,0.0,0.0,0.0,0.0,0.0,0.0,6.5319347e-07,0.0,0.0,nan,0.0,0.0,0.0,0.0,0.0,inf,0.0,0.0,0.00013178693,0.0,0.0,0.0,0.0,0.0,0.0,0.0,0.0
3876000,3796000,8.536615e-09,0.0,1.1066714e-05,1.2261902e-11,0.0,93.5142,0.0,0.0,0.0,0.0,0.0,0.0,0.0,6.966113e-08,0.0,0.0,nan,0.0,0.0,0.0,0.0,0.0,inf,0.0,0.0,8.897679e-05,0.0,0.0,0.0,0.0,0.0,0.0,0.0,0.0
3884000,3804000,8.536615e-09,0.0,1.1066714e-05,1.2261902e-11,0.0,93.5142,0.0,0.0,0.0,0.0,0.0,0.0,0.0,6.966113e-08,0.0,0.0,nan,0.0,0.0,0.0,0.0,0.0,inf,0.0,0.0,7.777144e-05,0.0,0.0,0.0,0.0,0.0,0.0,0.0,0.0
3892000,3812000,8.536615e-09,0.0,1.1066714e-05,1.2261902e-11,0.0,93.5142,0.0,0.0,0.0,0.0,0.0,0.0,0.0,6.966113e-08,0.0,0.0,nan,0.0,0.0,0.0,0.0,0.0,inf,0.0,0.0,0.00028168695,0.0,0.0,0.0,0.0,0.0,0.0,0.0,0.0
3900000,3820000,8.536615e-09,0.0,1.1066714e-05,1.2261902e-11,0.0,93.5142,0.0,0.0,0.0,0.0,0.0,0.0,0.0,6.966113e-08,0.0,0.0,nan,0.0,0.0,0.0,0.0,0.0,inf,0.0,0.0,0.00016460364,0.0,0.0,0.0,0.0,0.0,0.0,0.0,0.0
3908000,3828000,8.536615e-09,0.0,1.1066714e-05,1.2261902e-11,0.0,93.5142,0.0,0.0,0.0,0.0,0.0,0.0,0.0,6.966113e-08,0.0,0.0,nan,0.0,0.0,0.0,0.0,0.0,inf,0.0,0.0,0.0004223294,0.0,0.0,0.0,0.0,0.0,0.0,0.0,0.0
3916000,3836000,8.536615e-09,0.0,1.1066714e-05,1.2261902e-11,0.0,93.5142,0.0,0.0,0.0,0.0,0.0,0.0,0.0,6.966113e-08,0.0,0.0,nan,0.0,0.0,0.0,0.0,0.0,inf,0.0,0.0,0.0008589915,0.0,0.0,0.0,0.0,0.0,0.0,0.0,0.0
3924000,3844000,8.536615e-09,0.0,1.1066714e-05,1.2261902e-11,0.0,93.5142,0.0,0.0,0.0,0.0,0.0,0.0,0.0,6.966113e-08,0.0,0.0,nan,0.0,0.0,0.0,0.0,0.0,inf,0.0,0.0,0.00023313574,0.0,0.0,0.0,0.0,0.0,0.0,0.0,0.0
3932000,3852000,8.536615e-09,0.0,1.1066714e-05,1.2261902e-11,0.0,93.5142,0.0,0.0,0.0,0.0,0.0,0.0,0.0,6.966113e-08,0.0,0.0,nan,0.0,0.0,0.0,0.0,0.0,inf,0.0,0.0,0.0008897122,0.0,0.0,0.0,0.0,0.0,0.0,0.0,0.0
3940000,3860000,8.536615e-09,0.0,1.1066714e-05,1.2261902e-11,0.0,93.5142,0.0,0.0,0.0,0.0,0.0,0.0,0.0,1.2609884e-10,0.0,0.0,nan,0.0,0.0,0.0,0.0,0.0,inf,0.0,0.0,0.00031355722,0.0,0.0,0.0,0.0,0.0,0.0,0.0,0.0
3948000,3868000,8.536615e-09,0.0,1.1066714e-05,1.2261902e-11,0.0,93.5142,0.0,0.0,0.0,0.0,0.0,0.0,0.0,1.2609884e-10,0.0,0.0,nan,0.0,0.0,0.0,0.0,0.0,inf,0.0,0.0,0.00050006,0.0,0.0,0.0,0.0,0.0,0.0,0.0,0.0
3956000,3876000,8.536615e-09,0.0,1.1066714e-05,1.2261902e-11,0.0,93.5142,0.0,0.0,0.0,0.0,0.0,0.0,0.0,1.2609884e-10,0.0,0.0,nan,0.0,0.0,0.0,0.0,0.0,inf,0.0,0.0,0.00051255734,0.0,0.0,0.0,0.0,0.0,0.0,0.0,0.0
3964000,3884000,8.536615e-09,0.0,1.1066714e-05,1.2261902e-11,0.0,93.5142,0.0,0.0,0.0,0.0,0.0,0.0,0.0,1.2609884e-10,0.0,0.0,nan,0.0,0.0,0.0,0.0,0.0,inf,0.0,0.0,0.0005762323,0.0,0.0,0.0,0.0,0.0,0.0,0.0,0.0
3972000,3892000,8.536615e-09,0.0,1.1066714e-05,1.2261902e-11,0.0,93.5142,0.0,0.0,0.0,0.0,0.0,0.0,0.0,1.2609884e-10,0.0,0.0,nan,0.0,0.0,0.0,0.0,0.0,inf,0.0,0.0,0.00018178897,0.0,0.0,0.0,0.0,0.0,0.0,0.0,0.0
3980000,3900000,8.536615e-09,0.0,1.1066714e-05,1.2261902e-11,0.0,93.5142,0.0,0.0,0.0,0.0,0.0,0.0,0.0,1.2609884e-10,0.0,0.0,nan,0.0,0.0,0.0,0.0,0.0,inf,0.0,0.0,0.00030949002,0.0,0.0,0.0,0.0,0.0,0.0,0.0,0.0
3988000,3908000,8.536615e-09,0.0,1.1066714e-05,1.2261902e-11,0.0,93.5142,0.0,0.0,0.0,0.0,0.0,0.0,0.0,1.2609884e-10,0.0,0.0,nan,0.0,0.0,0.0,0.0,0.0,inf,0.0,0.0,0.00049411674,0.0,0.0,0.0,0.0,0.0,0.0,0.0,0.0
3996000,3916000,2.2519569e-06,0.0,1.6854834e-05,4.316936e-09,0.0,277.58832,0.0,0.0,0.0,0.0,0.0,0.0,0.0,6.217772e-06,0.0,0.0,nan,0.0,0.0,0.0,0.0,0.0,inf,0.0,0.0,0.0002999159,0.0,0.0,0.0,0.0,0.0,0.0,0.0,0.0
4004000,3924000,2.2519569e-06,0.0,1.6854834e-05,4.316936e-09,0.0,277.58832,0.0,0.0,0.0,0.0,0.0,0.0,0.0,6.217772e-06,0.0,0.0,nan,0.0,0.0,0.0,0.0,0.0,inf,0.0,0.0,0.0008318674,0.0,0.0,0.0,0.0,0.0,0.0,0.0,0.0
4012000,3932000,2.2519569e-06,0.0,1.6854834e-05,4.316936e-09,0.0,277.58832,0.0,0.0,0.0,0.0,0.0,0.0,0.0,6.217772e-06,0.0,0.0,nan,0.0,0.0,0.0,0.0,0.0,inf,0.0,0.0,0.000106858526,0.0,0.0,0.0,0.0,0.0,0.0,0.0,0.0
4020000,3940000,2.2519569e-06,0.0,1.6854834e-05,4.316936e-09,0.0,277.58832,0.0,0.0,0.0,0.0,0.0,0.0,0.0,6.217772e-06,0.0,0.0,nan,0.0,0.0,0.0,0.0,0.0,inf,0.0,0.0,0.00040622515,0.0,0.0,0.0,0.0,0.0,0.0,0.0,0.0
4028000,3948000,2.2519569e-06,0.0,1.6854834e-05,4.316936e-09,0.0,277.58832,0.0,0.0,0.0,0.0,0.0,0.0,0.0,6.217772e-06,0.0,0.0,nan,0.0,0.0,0.0,0.0,0.0,inf,0.0,0.0,0.00026205298,0.0,0.0,0.0,0.0,0.0,0.0,0.0,0.0
4036000,3956000,2.2519569e-06,0.0,1.6854834e-05,4.316936e-09,0.0,277.58832,0.0,0.0,0.0,0.0,0.0,0.0,0.0,6.217772e-06,0.0,0.0,nan,0.0,0.0,0.0,0.0,0.0,inf,0.0,0.0,0.0005798115,0.0,0.0,0.0,0.0,0.0,0.0,0.0,0.0
4044000,3964000,2.2519569e-06,0.0,1.6854834e-05,4.316936e-09,0.0,277.58832,0.0,0.0,0.0,0.0,0.0,0.0,0.0,6.217772e-06,0.0,0.0,nan,0.0,0.0,0.0,0.0,0.0,inf,0.0,0.0,0.0005184362,0.0,0.0,0.0,0.0,0.0,0.0,0.0,0.0
4052000,3972000,2.2519569e-06,0.0,1.6854834e-05,4.316936e-09,0.0,277.58832,0.0,0.0,0.0,0.0,0.0,0.0,0.0,6.217772e-06,0.0,0.0,nan,0.0,0.0,0.0,0.0,0.0,inf,0.0,0.0,0.00063457777,0.0,0.0,0.0,0.0,0.0,0.0,0.0,0.0
4060000,3980000,2.2519569e-06,0.0,1.6854834e-05,4.316936e-09,0.0,277.58832,0.0,0.0,0.0,0.0,0.0,0.0,0.0,4.9245494e-07,0.0,0.0,nan,0.0,0.0,0.0,0.0,0.0,inf,0.0,0.0,0.00048899796,0.0,0.0,0.0,0.0,0.0,0.0,0.0,0.0
4068000,3988000,2.2519569e-06,0.0,1.6854834e-05,4.316936e-09,0.0,277.58832,0.0,0.0,0.0,0.0,0.0,0.0,0.0,4.9245494e-07,0.0,0.0,nan,0.0,0.0,0.0,0.0,0.0,inf,0.0,0.0,0.0004177873,0.0,0.0,0.0,0.0,0.0,0.0,0.0,0.0
4076000,3996000,2.2519569e-06,0.0,1.6854834e-05,4.316936e-09,0.0,277.58832,0.0,0.0,0.0,0.0,0.0,0.0,0.0,4.9245494e-07,0.0,0.0,nan,0.0,0.0,0.0,0.0,0.0,inf,0.0,0.0,0.0003010752,0.0,0.0,0.0,0.0,0.0,0.0,0.0,0.0
4084000,4004000,2.2519569e-06,0.0,1.6854834e-05,4.316936e-09,0.0,277.58832,0.0,0.0,0.0,0.0,0.0,0.0,0.0,4.9245494e-07,0.0,0.0,nan,0.0,0.0,0.0,0.0,0.0,inf,0.0,0.0,0.0006858665,0.0,0.0,0.0,0.0,0.0,0.0,0.0,0.0
4092000,4012000,2.2519569e-06,0.0,1.6854834e-05,4.316936e-09,0.0,277.58832,0.0,0.0,0.0,0.0,0.0,0.0,0.0,4.9245494e-07,0.0,0.0,nan,0.0,0.0,0.0,0.0,0.0,inf,0.0,0.0,0.00027948766,0.0,0.0,0.0,0.0,0.0,0.0,0.0,0.0
4100000,4020000,2.2519569e-06,0.0,1.6854834e-05,4.316936e-09,0.0,277.58832,0.0,0.0,0.0,0.0,0.0,0.0,0.0,4.9245494e-07,0.0,0.0,nan,0.0,0.0,0.0,0.0,0.0,inf,0.0,0.0,0.0006741762,0.0,0.0,0.0,0.0,0.0,0.0,0.0,0.0
4108000,4028000,2.2519569e-06,0.0,1.6854834e-05,4.316936e-09,0.0,277.58832,0.0,0.0,0.0,0.0,0.0,0.0,0.0,4.9245494e-07,0.0,0.0,nan,0.0,0.0,0.0,0.0,0.0,inf,0.0,0.0,0.0012462765,0.0,0.0,0.0,0.0,0.0,0.0,0.0,0.0
4116000,4036000,2.2519569e-06,0.0,1.6854834e-05,4.316936e-09,0.0,277.58832,0.0,0.0,0.0,0.0,0.0,0.0,0.0,9.179433e-06,0.0,0.0,nan,0.0,0.0,0.0,0.0,0.0,inf,0.0,0.0,0.0019158939,0.0,0.0,0.0,0.0,0.0,0.0,0.0,0.0
4124000,4044000,2.2519569e-06,0.0,1.6854834e-05,4.316936e-09,0.0,277.58832,0.0,0.0,0.0,0.0,0.0,0.0,0.0,9.179433e-06,0.0,0.0,nan,0.0,0.0,0.0,0.0,0.0,inf,0.0,0.0,0.0001321945,0.0,0.0,0.0,0.0,0.0,0.0,0.0,0.0
4132000,4052000,2.2519569e-06,0.0,1.6854834e-05,4.316936e-09,0.0,277.58832,0.0,0.0,0.0,0.0,0.0,0.0,0.0,9.179433e-06,0.0,0.0,nan,0.0,0.0,0.0,0.0,0.0,inf,0.0,0.0,0.00010663976,0.0,0.0,0.0,0.0,0.0,0.0,0.0,0.0
4140000,4060000,2.2519569e-06,0.0,1.6854834e-05,4.316936e-09,0.0,277.58832,0.0,0.0,0.0,0.0,0.0,0.0,0.0,9.179433e-06,0.0,0.0,nan,0.0,0.0,0.0,0.0,0.0,inf,0.0,0.0,0.0006282623,0.0,0.0,0.0,0.0,0.0,0.0,0.0,0.0
4148000,4068000,2.2519569e-06,0.0,1.6854834e-05,4.316936e-09,0.0,277.58832,0.0,0.0,0.0,0.0,0.0,0.0,0.0,9.179433e-06,0.0,0.0,nan,0.0,0.0,0.0,0.0,0.0,inf,0.0,0.0,0.0017076407,0.0,0.0,0.0,0.0,0.0,0.0,0.0,0.0
4156000,4076000,2.2519569e-06,0.0,1.6854834e-05,4.316936e-09,0.0,277.58832,0.0,0.0,0.0,0.0,0.0,0.0,0.0,9.179433e-06,0.0,0.0,nan,0.0,0.0,0.0,0.0,0.0,inf,0.0,0.0,0.00018104985,0.0,0.0,0.0,0.0,0.0,0.0,0.0,0.0
4164000,4084000,2.2519569e-06,0.0,1.6854834e-05,4.316936e-09,0.0,277.58832,0.0,0.0,0.0,0.0,0.0,0.0,0.0,9.179433e-06,0.0,0.0,nan,0.0,0.0,0.0,0.0,0.0,inf,0.0,0.0,0.00029379086,0.0,0.0,0.0,0.0,0.0,0.0,0.0,0.0
4172000,4092000,2.2519569e-06,0.0,1.6854834e-05,4.316936e-09,0.0,277.58832,0.0,0.0,0.0,0.0,0.0,0.0,0.0,9.179433e-06,0.0,0.0,nan,0.0,0.0,0.0,0.0,0.0,inf,0.0,0.0,0.00025336727,0.0,0.0,0.0,0.0,0.0,0.0,0.0,0.0
4180000,4100000,2.2519569e-06,0.0,1.6854834e-05,4.316936e-09,0.0,277.58832,0.0,0.0,0.0,0.0,0.0,0.0,0.0,2.1245298e-05,0.0,0.0,nan,0.0,0.0,0.0,0.0,0.00013529333,inf,0.0,0.0,6.104544e-05,0.0,0.0,0.0,0.0,0.0,0.0,0.0,0.0
4188000,4108000,2.2519569e-06,0.0,1.6854834e-05,4.316936e-09,0.0,277.58832,0.0,0.0,0.0,0.0,0.0,0.0,0.0,2.1245298e-05,0.0,0.0,nan,0.0,0.0,0.0,0.0,0.00013529333,inf,0.0,0.0,0.0012213755,0.0,0.0,0.0,0.0,0.0,0.0,0.0,0.0
4196000,4116000,2.2519569e-06,0.0,1.6854834e-05,4.316936e-09,0.0,277.58832,0.0,0.0,0.0,0.0,0.0,0.0,0.0,2.1245298e-05,0.0,0.0,nan,0.0,0.0,0.0,0.0,0.00013529333,inf,0.0,0.0,0.00038076215,0.0,0.0,0.0,0.0,0.0,0.0,0.0,0.0
4204000,4124000,2.2519569e-06,0.0,1.6854834e-05,4.316936e-09,0.0,277.58832,0.0,0.0,0.0,0.0,0.0,0.0,0.0,2.1245298e-05,0.0,0.0,nan,0.0,0.0,0.0,0.0,0.00013529333,inf,0.0,0.0,0.00012851882,0.0,0.0,0.0,0.0,0.0,0.0,0.0,0.0
4212000,4132000,2.2519569e-06,0.0,1.6854834e-05,4.316936e-09,0.0,277.58832,0.0,0.0,0.0,0.0,0.0,0.0,0.0,2.1245298e-05,0.0,0.0,nan,0.0,0.0,0.0,0.0,0.00013529333,inf,0.0,0.0,0.00022071198,0.0,0.0,0.0,0.0,0.0,0.0,0.0,0.0
4220000,4140000,2.2519569e-06,0.0,1.6854834e-05,4.316936e-09,0.0,277.58832,0.0,0.0,0.0,0.0,0.0,0.0,0.0,2.1245298e-05,0.0,0.0,nan,0.0,0.0,0.0,0.0,0.00013529333,inf,0.0,0.0,0.00031829448,0.0,0.0,0.0,0.0,0.0,0.0,0.0,0.0
4228000,4148000,2.2519569e-06,0.0,1.6854834e-05,4.316936e-09,0.0,277.58832,0.0,0.0,0.0,0.0,0.0,0.0,0.0,2.1245298e-05,0.0,0.0,nan,0.0,0.0,0.0,0.0,0.00013529333,inf,0.0,0.0,6.268919e-05,0.0,0.0,0.0,0.0,0.0,0.0,0.0,0.0
4236000,4156000,2.2519569e-06,0.0,1.6854834e-05,4.316936e-09,0.0,277.58832,0.0,0.0,0.0,0.0,0.0,0.0,0.0,6.614881e-05,0.0,0.0,nan,0.0,0.0,0.0,0.0,0.00013529333,inf,0.0,0.0,7.640493e-06,0.0,0.0,0.0,0.0,0.0,0.0,0.0,0.0
4244000,4164000,2.2519569e-06,0.0,1.6854834e-05,4.316936e-09,0.0,277.58832,0.0,0.0,0.0,0.0,0.0,0.0,0.0,6.614881e-05,0.0,0.0,nan,0.0,0.0,0.0,0.0,0.00013529333,inf,0.0,0.0,4.8553076e-05,0.0,0.0,0.0,0.0,0.0,0.0,0.0,0.0
4252000,4172000,2.2519569e-06,0.0,1.6854834e-05,4.316936e-09,0.0,277.58832,0.0,0.0,0.0,0.0,0.0,0.0,0.0,6.614881e-05,0.0,0.0,nan,0.0,0.0,0.0,0.0,3.4123602e-06,inf,0.0,0.0,1.5154111e-05,0.0,0.0,0.0,0.0,0.0,0.0,0.0,0.0
4260000,4180000,2.2519569e-06,0.0,1.6854834e-05,4.316936e-09,0.0,277.58832,0.0,0.0,0.0,0.0,0.0,0.0,0.0,6.614881e-05,0.0,0.0,nan,0.0,0.0,0.0,0.0,3.4123602e-06,inf,0.0,0.0,0.00020181492,0.0,0.0,0.0,0.0,0.0,0.0,0.0,0.0
4268000,4188000,2.2519569e-06,0.0,1.6854834e-05,4.316936e-09,0.0,277.58832,0.0,0.0,0.0,0.0,0.0,0.0,0.0,6.614881e-05,0.0,0.0,nan,0.0,0.0,0.0,0.0,3.4123602e-06,inf,0.0,0.0,0.00034615357,0.0,0.0,0.0,0.0,0.0,0.0,0.0,0.0
4276000,4196000,2.2519569e-06,0.0,1.6854834e-05,4.316936e-09,0.0,277.58832,0.0,0.0,0.0,0.0,0.0,0.0,0.0,6.614881e-05,0.0,0.0,nan,0.0,0.0,0.0,0.0,3.4123602e-06,inf,0.0,0.0,0.00014132717,0.0,0.0,0.0,0.0,0.0,0.0,0.0,0.0
4284000,4204000,2.2519569e-06,0.0,1.6854834e-05,4.316936e-09,0.0,277.58832,0.0,0.0,0.0,0.0,0.0,0.0,0.0,2.1596763e-05,0.0,0.0,nan,0.0,0.0,0.0,0.0,3.4123602e-06,inf,0.0,0.0,0.00041519612,0.0,0.0,0.0,0.0,0.0,0.0,0.0,0.0
4292000,4212000,2.2519569e-06,0.0,1.6854834e-05,4.316936e-09,0.0,277.58832,0.0,0.0,0.0,0.0,0.0,0.0,0.0,2.1596763e-05,0.0,0.0,nan,0.0,0.0,0.0,0.0,3.4123602e-06,inf,0.0,0.0,8.799814e-05,0.0,0.0,0.0,0.0,0.0,0.0,0.0,0.0
4300000,4220000,2.2519569e-06,0.0,1.6854834e-05,4.316936e-09,0.0,277.58832,0.0,0.0,0.0,0.0,0.0,0.0,0.0,2.1596763e-05,0.0,0.0,nan,0.0,0.0,0.0,0.0,3.4123602e-06,inf,0.0,0.0,0.00031007463,0.0,0.0,0.0,0.0,0.0,0.0,0.0,0.0
4308000,4228000,2.2519569e-06,0.0,1.6854834e-05,4.316936e-09,0.0,277.58832,0.0,0.0,0.0,0.0,0.0,0.0,0.0,2.1596763e-05,0.0,0.0,nan,0.0,0.0,0.0,0.0,3.4123602e-06,inf,0.0,0.0,0.00068093056,0.0,0.0,0.0,0.0,0.0,0.0,0.0,0.0
4316000,4236000,2.2519569e-06,0.0,1.6854834e-05,4.316936e-09,0.0,277.58832,0.0,0.0,0.0,0.0,0.0,0.0,0.0,2.1596763e-05,0.0,0.0,nan,0.0,0.0,0.0,0.0,3.4123602e-06,inf,0.0,0.0,4.366624e-05,0.0,0.0,0.0,0.0,0.0,0.0,0.0,0.0
4324000,4244000,2.2519569e-06,0.0,1.6854834e-05,4.316936e-09,0.0,277.58832,0.0,0.0,0.0,0.0,0.0,0.0,0.0,2.1596763e-05,0.0,0.0,nan,0.0,0.0,0.0,0.0,5.8121866e-05,inf,0.0,0.0,0.00024689484,0.0,0.0,0.0,0.0,0.0,0.0,0.0,0.0
4332000,4252000,2.2519569e-06,0.0,1.6854834e-05,4.316936e-09,0.0,277.58832,0.0,0.0,0.0,0.0,0.0,0.0,0.0,2.1596763e-05,0.0,0.0,nan,0.0,0.0,0.0,0.0,5.8121866e-05,inf,0.0,0.0,5.714603e-05,0.0,0.0,0.0,0.0,0.0,0.0,0.0,0.0
4340000,4260000,2.2519569e-06,0.0,1.6854834e-05,4.316936e-09,0.0,277.58832,0.0,0.0,0.0,0.0,0.0,0.0,0.0,2.1596763e-05,0.0,0.0,nan,0.0,0.0,0.0,0.0,5.8121866e-05,inf,0.0,0.0,5.252183e-05,0.0,0.0,0.0,0.0,0.0,0.0,0.0,0.0
4348000,4268000,2.2519569e-06,0.0,1.6854834e-05,4.316936e-09,0.0,277.58832,0.0,0.0,0.0,0.0,0.0,0.0,0.0,1.3537353e-07,0.0,0.0,nan,0.0,0.0,0.0,0.0,5.8121866e-05,inf,0.0,0.0,0.000114451344,0.0,0.0,0.0,0.0,0.0,0.0,0.0,0.0
4356000,4276000,2.2519569e-06,0.0,1.6854834e-05,4.316936e-09,0.0,277.58832,0.0,0.0,0.0,0.0,0.0,0.0,0.0,1.3537353e-07,0.0,0.0,nan,0.0,0.0,0.0,0.0,5.8121866e-05,inf,0.0,0.0,0.00024060872,0.0,0.0,0.0,0.0,0.0,0.0,0.0,0.0
4364000,4284000,2.2519569e-06,0.0,1.6854834e-05,4.316936e-09,0.0,277.58832,0.0,0.0,0.0,0.0,0.0,0.0,0.0,1.3537353e-07,0.0,0.0,nan,0.0,0.0,0.0,0.0,5.8121866e-05,inf,0.0,0.0,0.0003025886,0.0,0.0,0.0,0.0,0.0,0.0,0.0,0.0
4372000,4292000,2.2519569e-06,0.0,1.6854834e-05,4.316936e-09,0.0,277.58832,0.0,0.0,0.0,0.0,0.0,0.0,0.0,1.3537353e-07,0.0,0.0,nan,0.0,0.0,0.0,0.0,5.8121866e-05,inf,0.0,0.0,0.00043225006,0.0,0.0,0.0,0.0,0.0,0.0,0.0,0.0
4380000,4300000,2.2519569e-06,0.0,1.6854834e-05,4.316936e-09,0.0,277.58832,0.0,0.0,0.0,0.0,0.0,0.0,0.0,1.3537353e-07,0.0,0.0,nan,0.0,0.0,0.0,0.0,5.8121866e-05,inf,0.0,0.0,0.00017362893,0.0,0.0,0.0,0.0,0.0,0.0,0.0,0.0
4388000,4308000,2.2519569e-06,0.0,1.6854834e-05,4.316936e-09,0.0,277.58832,0.0,0.0,0.0,0.0,0.0,0.0,0.0,1.3537353e-07,0.0,0.0,nan,0.0,0.0,0.0,0.0,0.00055199955,inf,0.0,0.0,0.001514144,0.0,0.0,0.0,0.0,0.0,0.0,0.0,0.0
4396000,4316000,2.976902e-07,0.0,0.00019901084,1.2113029e-10,0.0,5.889146e-11,0.0,0.0,0.0,0.0,0.0,0.0,0.0,1.3537353e-07,0.0,0.0,nan,0.0,0.0,0.0,0.0,0.00055199955,inf,0.0,0.0,0.0004537023,0.0,0.0,0.0,0.0,0.0,0.0,0.0,0.0
4404000,4324000,2.976902e-07,0.0,0.00019901084,1.2113029e-10,0.0,5.889146e-11,0.0,0.0,0.0,0.0,0.0,0.0,0.0,1.881695e-05,0.0,0.0,nan,0.0,0.0,0.0,0.0,0.00055199955,inf,0.0,0.0,0.00016354748,0.0,0.0,0.0,0.0,0.0,0.0,0.0,0.0
4412000,4332000,2.976902e-07,0.0,0.00019901084,1.2113029e-10,0.0,5.889146e-11,0.0,0.0,0.0,0.0,0.0,0.0,0.0,1.881695e-05,0.0,0.0,nan,0.0,0.0,0.0,0.0,0.00055199955,inf,0.0,0.0,0.0004502761,0.0,0.0,0.0,0.0,0.0,0.0,0.0,0.0
4420000,4340000,2.976902e-07,0.0,0.00019901084,1.2113029e-10,0.0,5.889146e-11,0.0,0.0,0.0,0.0,0.0,0.0,0.0,1.881695e-05,0.0,0.0,nan,0.0,0.0,0.0,0.0,0.00055199955,inf,0.0,0.0,0.0008378933,0.0,0.0,0.0,0.0,0.0,0.0,0.0,0.0
4428000,4348000,2.976902e-07,0.0,0.00019901084,1.2113029e-10,0.0,5.889146e-11,0.0,0.0,0.0,0.0,0.0,0.0,0.0,1.881695e-05,0.0,0.0,nan,0.0,0.0,0.0,0.0,0.00055199955,inf,0.0,0.0,6.2556544e-05,0.0,0.0,0.0,0.0,0.0,0.0,0.0,0.0
4436000,4356000,2.976902e-07,0.0,0.00019901084,1.2113029e-10,0.0,5.889146e-11,0.0,0.0,0.0,0.0,0.0,0.0,0.0,1.881695e-05,0.0,0.0,nan,0.0,0.0,0.0,0.0,0.00055199955,inf,0.0,0.0,0.0002837779,0.0,0.0,0.0,0.0,0.0,0.0,0.0,0.0
4444000,4364000,2.976902e-07,0.0,0.00019901084,1.2113029e-10,0.0,5.889146e-11,0.0,0.0,0.0,0.0,0.0,0.0,0.0,1.881695e-05,0.0,0.0,nan,0.0,0.0,0.0,0.0,0.00055199955,inf,0.0,0.0,4.2590364e-06,0.0,0.0,0.0,0.0,0.0,0.0,0.0,0.0
4452000,4372000,2.976902e-07,0.0,0.00019901084,1.2113029e-10,0.0,5.889146e-11,0.0,0.0,0.0,0.0,0.0,0.0,0.0,1.881695e-05,0.0,0.0,nan,0.0,0.0,0.0,0.0,0.00055199955,inf,0.0,0.0,0.00034109366,0.0,0.0,0.0,0.0,0.0,0.0,0.0,0.0
4460000,4380000,2.976902e-07,0.0,0.00019901084,1.2113029e-10,0.0,5.889146e-11,0.0,0.0,0.0,0.0,0.0,0.0,0.0,1.881695e-05,0.0,0.0,nan,0.0,0.0,0.0,0.0,1.2486843e-06,inf,0.0,0.0,0.0014715944,0.0,0.0,0.0,0.0,0.0,0.0,0.0,0.0
4468000,4388000,2.976902e-07,0.0,0.00019901084,1.2113029e-10,0.0,5.889146e-11,0.0,0.0,0.0,0.0,0.0,0.0,0.0,3.8608814e-09,0.0,0.0,nan,0.0,0.0,0.0,0.0,1.2486843e-06,inf,0.0,0.0,0.00034785856,0.0,0.0,0.0,0.0,0.0,0.0,0.0,0.0
4476000,4396000,2.976902e-07,0.0,0.00019901084,1.2113029e-10,0.0,5.889146e-11,0.0,0.0,0.0,0.0,0.0,0.0,0.0,3.8608814e-09,0.0,0.0,nan,0.0,0.0,0.0,0.0,1.2486843e-06,inf,0.0,0.0,0.000424006,0.0,0.0,0.0,0.0,0.0,0.0,0.0,0.0
4484000,4404000,2.976902e-07,0.0,0.00019901084,1.2113029e-10,0.0,5.889146e-11,0.0,0.0,0.0,0.0,0.0,0.0,0.0,3.8608814e-09,0.0,0.0,nan,0.0,0.0,0.0,0.0,1.2486843e-06,inf,0.0,0.0,0.0011700481,0.0,0.0,0.0,0.0,0.0,0.0,0.0,0.0
4492000,4412000,2.976902e-07,0.0,0.00019901084,1.2113029e-10,0.0,5.889146e-11,0.0,0.0,0.0,0.0,0.0,0.0,0.0,3.8608814e-09,0.0,0.0,nan,0.0,0.0,0.0,0.0,1.2486843e-06,inf,0.0,0.0,0.00043369675,0.0,0.0,0.0,0.0,0.0,0.0,0.0,0.0
4500000,4420000,2.976902e-07,0.0,0.00019901084,1.2113029e-10,0.0,5.889146e-11,0.0,0.0,0.0,0.0,0.0,0.0,0.0,3.8608814e-09,0.0,0.0,nan,0.0,0.0,0.0,0.0,1.2486843e-06,inf,0.0,0.0,0.0006672436,0.0,0.0,0.0,0.0,0.0,0.0,0.0,0.0
4508000,4428000,2.976902e-07,0.0,0.00019901084,1.2113029e-10,0.0,5.889146e-11,0.0,0.0,0.0,0.0,0.0,0.0,0.0,3.8608814e-09,0.0,0.0,nan,0.0,0.0,0.0,0.0,1.2486843e-06,inf,0.0,0.0,0.0009800728,0.0,0.0,0.0,0.0,0.0,0.0,0.0,0.0
4516000,4436000,2.976902e-07,0.0,0.00019901084,1.2113029e-10,0.0,5.889146e-11,0.0,0.0,0.0,0.0,0.0,0.0,0.0,5.2863943e-05,0.0,0.0,nan,0.0,0.0,0.0,0.0,1.2486843e-06,inf,0.0,0.0,0.00014628192,0.0,0.0,0.0,0.0,0.0,0.0,0.0,0.0
4524000,4444000,2.976902e-07,0.0,0.00019901084,1.2113029e-10,0.0,5.889146e-11,0.0,0.0,0.0,0.0,0.0,0.0,0.0,5.2863943e-05,0.0,0.0,nan,0.0,0.0,0.0,0.0,1.2486843e-06,inf,0.0,0.0,0.0004974808,0.0,0.0,0.0,0.0,0.0,0.0,0.0,0.0
4532000,4452000,2.976902e-07,0.0,0.00019901084,1.2113029e-10,0.0,5.889146e-11,0.0,0.0,0.0,0.0,0.0,0.0,0.0,5.2863943e-05,0.0,0.0,nan,0.0,0.0,0.0,0.0,0.0005861331,inf,0.0,0.0,0.0008575679,0.0,0.0,0.0,0.0,0.0,0.0,0.0,0.0
4540000,4460000,2.976902e-07,0.0,0.00019901084,1.2113029e-10,0.0,5.889146e-11,0.0,0.0,0.0,0.0,0.0,0.0,0.0,5.2863943e-05,0.0,0.0,nan,0.0,0.0,0.0,0.0,0.0005861331,inf,0.0,0.0,0.00013052374,0.0,0.0,0.0,0.0,0.0,0.0,0.0,0.0
4548000,4468000,2.976902e-07,0.0,0.00019901084,1.2113029e-10,0.0,5.889146e-11,0.0,0.0,0.0,0.0,0.0,0.0,0.0,5.2863943e-05,0.0,0.0,nan,0.0,0.0,0.0,0.0,0.0005861331,inf,0.0,0.0,0.0005266237,0.0,0.0,0.0,0.0,0.0,0.0,0.0,0.0
4556000,4476000,2.976902e-07,0.0,0.00019901084,1.2113029e-10,0.0,5.889146e-11,0.0,0.0,0.0,0.0,0.0,0.0,0.0,5.2863943e-05,0.0,0.0,nan,0.0,0.0,0.0,0.0,0.0005861331,inf,0.0,0.0,0.00019925092,0.0,0.0,0.0,0.0,0.0,0.0,0.0,0.0
4564000,4484000,2.976902e-07,0.0,0.00019901084,1.2113029e-10,0.0,5.889146e-11,0.0,0.0,0.0,0.0,0.0,0.0,0.0,5.2863943e-05,0.0,0.0,nan,0.0,0.0,0.0,0.0,0.0005861331,inf,0.0,0.0,0.0002061574,0.0,0.0,0.0,0.0,0.0,0.0,0.0,0.0
4572000,4492000,2.976902e-07,0.0,0.00019901084,1.2113029e-10,0.0,5.889146e-11,0.0,0.0,0.0,0.0,0.0,0.0,0.0,6.117579e-07,0.0,0.0,nan,0.0,0.0,0.0,0.0,0.0005861331,inf,0.0,0.0,9.404629e-05,0.0,0.0,0.0,0.0,0.0,0.0,0.0,0.0
4580000,4500000,2.976902e-07,0.0,0.00019901084,1.2113029e-10,0.0,5.889146e-11,0.0,0.0,0.0,0.0,0.0,0.0,0.0,6.117579e-07,0.0,0.0,nan,0.0,0.0,0.0,0.0,0.0005861331,inf,0.0,0.0,0.00015239243,0.0,0.0,0.0,0.0,0.0,0.0,0.0,0.0
4588000,4508000,2.976902e-07,0.0,0.00019901084,1.2113029e-10,0.0,5.889146e-11,0.0,0.0,0.0,0.0,0.0,0.0,0.0,6.117579e-07,0.0,0.0,nan,0.0,0.0,0.0,0.0,0.0005861331,inf,0.0,0.0,0.00035736666,0.0,0.0,0.0,0.0,0.0,0.0,0.0,0.0
4596000,4516000,2.976902e-07,0.0,0.00019901084,1.2113029e-10,0.0,5.889146e-11,0.0,0.0,0.0,0.0,0.0,0.0,0.0,6.117579e-07,0.0,0.0,nan,0.0,0.0,0.0,0.0,9.479029e-05,inf,0.0,0.0,6.5275526e-05,0.0,0.0,0.0,0.0,0.0,0.0,0.0,0.0
4604000,4524000,2.976902e-07,0.0,0.00019901084,1.2113029e-10,0.0,5.889146e-11,0.0,0.0,0.0,0.0,0.0,0.0,0.0,6.117579e-07,0.0,0.0,nan,0.0,0.0,0.0,0.0,9.479029e-05,inf,0.0,0.0,0.0004806546,0.0,0.0,0.0,0.0,0.0,0.0,0.0,0.0
4612000,4532000,2.976902e-07,0.0,0.00019901084,1.2113029e-10,0.0,5.889146e-11,0.0,0.0,0.0,0.0,0.0,0.0,0.0,6.117579e-07,0.0,0.0,nan,0.0,0.0,0.0,0.0,9.479029e-05,inf,0.0,0.0,0.00031140988,0.0,0.0,0.0,0.0,0.0,0.0,0.0,0.0
4620000,4540000,2.976902e-07,0.0,0.00019901084,1.2113029e-10,0.0,5.889146e-11,0.0,0.0,0.0,0.0,0.0,0.0,0.0,6.117579e-07,0.0,0.0,nan,0.0,0.0,0.0,0.0,9.479029e-05,inf,0.0,0.0,0.00017367132,0.0,0.0,0.0,0.0,0.0,0.0,0.0,0.0
4628000,4548000,2.976902e-07,0.0,0.00019901084,1.2113029e-10,0.0,5.889146e-11,0.0,0.0,0.0,0.0,0.0,0.0,0.0,6.117579e-07,0.0,0.0,nan,0.0,0.0,0.0,0.0,9.479029e-05,inf,0.0,0.0,0.0003021358,0.0,0.0,0.0,0.0,0.0,0.0,0.0,0.0
4636000,4556000,2.976902e-07,0.0,0.00019901084,1.2113029e-10,0.0,5.889146e-11,0.0,0.0,0.0,0.0,0.0,0.0,0.0,1.9025072e-06,0.0,0.0,nan,0.0,0.0,0.0,0.0,9.479029e-05,inf,0.0,0.0,0.0016286682,0.0,0.0,0.0,0.0,0.0,0.0,0.0,0.0
4644000,4564000,2.976902e-07,0.0,0.00019901084,1.2113029e-10,0.0,5.889146e-11,0.0,0.0,0.0,0.0,0.0,0.0,0.0,1.9025072e-06,0.0,0.0,nan,0.0,0.0,0.0,0.0,9.479029e-05,inf,0.0,0.0,0.0004087493,0.0,0.0,0.0,0.0,0.0,0.0,0.0,0.0
4652000,4572000,2.976902e-07,0.0,0.00019901084,1.2113029e-10,0.0,5.889146e-11,0.0,0.0,0.0,0.0,0.0,0.0,0.0,1.9025072e-06,0.0,0.0,nan,0.0,0.0,0.0,0.0,9.479029e-05,inf,0.0,0.0,0.0006723579,0.0,0.0,0.0,0.0,0.0,0.0,0.0,0.0
4660000,4580000,2.976902e-07,0.0,0.00019901084,1.2113029e-10,0.0,5.889146e-11,0.0,0.0,0.0,0.0,0.0,0.0,0.0,1.9025072e-06,0.0,0.0,nan,0.0,0.0,0.0,0.0,9.479029e-05,inf,0.0,0.0,0.0030735754,0.0,0.0,0.0,0.0,0.0,0.0,0.0,0.0
4668000,4588000,2.976902e-07,0.0,0.00019901084,1.2113029e-10,0.0,5.889146e-11,0.0,0.0,0.0,0.0,0.0,0.0,0.0,1.9025072e-06,0.0,0.0,nan,0.0,0.0,0.0,0.0,5.2271913e-05,inf,0.0,0.0,0.00031797925,0.0,0.0,0.0,0.0,0.0,0.0,0.0,0.0
4676000,4596000,2.976902e-07,0.0,0.00019901084,1.2113029e-10,0.0,5.889146e-11,0.0,0.0,0.0,0.0,0.0,0.0,0.0,1.9025072e-06,0.0,0.0,nan,0.0,0.0,0.0,0.0,5.2271913e-05,inf,0.0,0.0,0.00048722577,0.0,0.0,0.0,0.0,0.0,0.0,0.0,0.0
4684000,4604000,2.976902e-07,0.0,0.00019901084,1.2113029e-10,0.0,5.889146e-11,0.0,0.0,0.0,0.0,0.0,0.0,0.0,1.9025072e-06,0.0,0.0,nan,0.0,0.0,0.0,0.0,5.2271913e-05,inf,0.0,0.0,4.1448824e-05,0.0,0.0,0.0,0.0,0.0,0.0,0.0,0.0
4692000,4612000,2.976902e-07,0.0,0.00019901084,1.2113029e-10,0.0,5.889146e-11,0.0,0.0,0.0,0.0,0.0,0.0,0.0,4.601218e-11,0.0,0.0,nan,0.0,0.0,0.0,0.0,5.2271913e-05,inf,0.0,0.0,0.00037800038,0.0,0.0,0.0,0.0,0.0,0.0,0.0,0.0
4700000,4620000,2.976902e-07,0.0,0.00019901084,1.2113029e-10,0.0,5.889146e-11,0.0,0.0,0.0,0.0,0.0,0.0,0.0,4.601218e-11,0.0,0.0,nan,0.0,0.0,0.0,0.0,5.2271913e-05,inf,0.0,0.0,0.0004366998,0.0,0.0,0.0,0.0,0.0,0.0,0.0,0.0
4708000,4628000,2.976902e-07,0.0,0.00019901084,1.2113029e-10,0.0,5.889146e-11,0.0,0.0,0.0,0.0,0.0,0.0,0.0,4.601218e-11,0.0,0.0,nan,0.0,0.0,0.0,0.0,5.2271913e-05,inf,0.0,0.0,0.0005774999,0.0,0.0,0.0,0.0,0.0,0.0,0.0,0.0
4716000,4636000,2.976902e-07,0.0,0.00019901084,1.2113029e-10,0.0,5.889146e-11,0.0,0.0,0.0,0.0,0.0,0.0,0.0,4.601218e-11,0.0,0.0,nan,0.0,0.0,0.0,0.0,5.2271913e-05,inf,0.0,0.0,0.0003218003,0.0,0.0,0.0,0.0,0.0,0.0,0.0,0.0
4724000,4644000,2.976902e-07,0.0,0.00019901084,1.2113029e-10,0.0,5.889146e-11,0.0,0.0,0.0,0.0,0.0,0.0,0.0,4.601218e-11,0.0,0.0,nan,0.0,0.0,0.0,0.0,5.2271913e-05,inf,0.0,0.0,0.00011589193,0.0,0.0,0.0,0.0,0.0,0.0,0.0,0.0
4732000,4652000,2.976902e-07,0.0,0.00019901084,1.2113029e-10,0.0,5.889146e-11,0.0,0.0,0.0,0.0,0.0,0.0,0.0,4.601218e-11,0.0,0.0,nan,0.0,0.0,0.0,0.0,5.2271913e-05,inf,0.0,0.0,0.0001038365,0.0,0.0,0.0,0.0,0.0,0.0,0.0,0.0
4740000,4660000,2.976902e-07,0.0,0.00019901084,1.2113029e-10,0.0,5.889146e-11,0.0,0.0,0.0,0.0,0.0,0.0,0.0,4.601218e-11,0.0,0.0,nan,0.0,0.0,0.0,0.0,9.233043e-05,inf,0.0,0.0,0.00022420048,0.0,0.0,0.0,0.0,0.0,0.0,0.0,0.0
4748000,4668000,2.976902e-07,0.0,0.00019901084,1.2113029e-10,0.0,5.889146e-11,0.0,0.0,0.0,0.0,0.0,0.0,0.0,4.601218e-11,0.0,0.0,nan,0.0,0.0,0.0,0.0,9.233043e-05,inf,0.0,0.0,0.00011275196,0.0,0.0,0.0,0.0,0.0,0.0,0.0,0.0
4756000,4676000,2.976902e-07,0.0,0.00019901084,1.2113029e-10,0.0,5.889146e-11,0.0,0.0,0.0,0.0,0.0,0.0,0.0,1.1422603e-05,0.0,0.0,nan,0.0,0.0,0.0,0.0,9.233043e-05,inf,0.0,0.0,1.151183e-05,0.0,0.0,0.0,0.0,0.0,0.0,0.0,0.0
4764000,4684000,2.976902e-07,0.0,0.00019901084,1.2113029e-10,0.0,5.889146e-11,0.0,0.0,0.0,0.0,0.0,0.0,0.0,1.1422603e-05,0.0,0.0,nan,0.0,0.0,0.0,0.0,9.233043e-05,inf,0.0,0.0,6.9961345e-05,0.0,0.0,0.0,0.0,0.0,0.0,0.0,0.0
4772000,4692000,2.976902e-07,0.0,0.00019901084,1.2113029e-10,0.0,5.889146e-11,0.0,0.0,0.0,0.0,0.0,0.0,0.0,1.1422603e-05,0.0,0.0,nan,0.0,0.0,0.0,0.0,9.233043e-05,inf,0.0,0.0,0.00040663098,0.0,0.0,0.0,0.0,0.0,0.0,0.0,0.0
4780000,4700000,2.976902e-07,0.0,0.00019901084,1.2113029e-10,0.0,5.889146e-11,0.0,0.0,0.0,0.0,0.0,0.0,0.0,1.1422603e-05,0.0,0.0,nan,0.0,0.0,0.0,0.0,9.233043e-05,inf,0.0,0.0,0.0011106178,0.0,0.0,0.0,0.0,0.0,0.0,0.0,0.0
4788000,4708000,0.00013602599,0.0,0.00011215154,2.0820794e-06,0.0,2.7010638e-09,0.0,0.0,0.0,0.0,0.0,0.0,0.0,1.1422603e-05,0.0,0.0,nan,0.0,0.0,0.0,0.0,9.233043e-05,inf,0.0,0.0,0.0010703945,0.0,0.0,0.0,0.0,0.0,0.0,0.0,0.0
4796000,4716000,0.00013602599,0.0,0.00011215154,2.0820794e-06,0.0,2.7010638e-09,0.0,0.0,0.0,0.0,0.0,0.0,0.0,1.1422603e-05,0.0,0.0,nan,0.0,0.0,0.0,0.0,9.233043e-05,inf,0.0,0.0,4.5393903e-05,0.0,0.0,0.0,0.0,0.0,0.0,0.0,0.0
4804000,4724000,0.00013602599,0.0,0.00011215154,2.0820794e-06,0.0,2.7010638e-09,0.0,0.0,0.0,0.0,0.0,0.0,0.0,1.1422603e-05,0.0,0.0,nan,0.0,0.0,0.0,0.0,9.233043e-05,inf,0.0,0.0,9.017964e-05,0.0,0.0,0.0,0.0,0.0,0.0,0.0,0.0
4812000,4732000,0.00013602599,0.0,0.00011215154,2.0820794e-06,0.0,2.7010638e-09,0.0,0.0,0.0,0.0,0.0,0.0,0.0,1.8088302e-06,0.0,0.0,nan,0.0,0.0,0.0,0.0,2.2789543e-05,inf,0.0,0.0,0.00076880166,0.0,0.0,0.0,0.0,0.0,0.0,0.0,0.0
4820000,4740000,0.00013602599,0.0,0.00011215154,2.0820794e-06,0.0,2.7010638e-09,0.0,0.0,0.0,0.0,0.0,0.0,0.0,1.8088302e-06,0.0,0.0,nan,0.0,0.0,0.0,0.0,2.2789543e-05,inf,0.0,0.0,0.0012986233,0.0,0.0,0.0,0.0,0.0,0.0,0.0,0.0
4828000,4748000,0.00013602599,0.0,0.00011215154,2.0820794e-06,0.0,2.7010638e-09,0.0,0.0,0.0,0.0,0.0,0.0,0.0,1.8088302e-06,0.0,0.0,nan,0.0,0.0,0.0,0.0,2.2789543e-05,inf,0.0,0.0,0.00045179005,0.0,0.0,0.0,0.0,0.0,0.0,0.0,0.0
4836000,4756000,0.00013602599,0.0,0.00011215154,2.0820794e-06,0.0,2.7010638e-09,0.0,0.0,0.0,0.0,0.0,0.0,0.0,1.8088302e-06,0.0,0.0,nan,0.0,0.0,0.0,0.0,2.2789543e-05,inf,0.0,0.0,0.00033502458,0.0,0.0,0.0,0.0,0.0,0.0,0.0,0.0
4844000,4764000,0.00013602599,0.0,0.00011215154,2.0820794e-06,0.0,2.7010638e-09,0.0,0.0,0.0,0.0,0.0,0.0,0.0,1.8088302e-06,0.0,0.0,nan,0.0,0.0,0.0,0.0,2.2789543e-05,inf,0.0,0.0,0.0014215059,0.0,0.0,0.0,0.0,0.0,0.0,0.0,0.0
4852000,4772000,0.00013602599,0.0,0.00011215154,2.0820794e-06,0.0,2.7010638e-09,0.0,0.0,0.0,0.0,0.0,0.0,0.0,1.8088302e-06,0.0,0.0,nan,0.0,0.0,0.0,0.0,2.2789543e-05,inf,0.0,0.0,0.0013894032,0.0,0.0,0.0,0.0,0.0,0.0,0.0,0.0
4860000,4780000,0.00013602599,0.0,0.00011215154,2.0820794e-06,0.0,2.7010638e-09,0.0,0.0,0.0,0.0,0.0,0.0,0.0,1.8088302e-06,0.0,0.0,nan,0.0,0.0,0.0,0.0,2.2789543e-05,inf,0.0,0.0,0.00064918055,0.0,0.0,0.0,0.0,0.0,0.0,0.0,0.0
4868000,4788000,0.00013602599,0.0,0.00011215154,2.0820794e-06,0.0,2.7010638e-09,0.0,0.0,0.0,0.0,0.0,0.0,0.0,1.8088302e-06,0.0,0.0,nan,0.0,0.0,0.0,0.0,2.2789543e-05,inf,0.0,0.0,0.0005109041,0.0,0.0,0.0,0.0,0.0,0.0,0.0,0.0
4876000,4796000,0.00013602599,0.0,0.00011215154,2.0820794e-06,0.0,2.7010638e-09,0.0,0.0,0.0,0.0,0.0,0.0,0.0,1.1338738e-05,0.0,0.0,nan,0.0,0.0,0.0,0.0,2.2789543e-05,inf,0.0,0.0,0.00051296374,0.0,0.0,0.0,0.0,0.0,0.0,0.0,0.0
4884000,4804000,0.00013602599,0.0,0.00011215154,2.0820794e-06,0.0,2.7010638e-09,0.0,0.0,0.0,0.0,0.0,0.0,0.0,1.1338738e-05,0.0,0.0,nan,0.0,0.0,0.0,0.0,6.946765e-05,inf,0.0,0.0,0.001825762,0.0,0.0,0.0,0.0,0.0,0.0,0.0,0.0
4892000,4812000,0.00013602599,0.0,0.00011215154,2.0820794e-06,0.0,2.7010638e-09,0.0,0.0,0.0,0.0,0.0,0.0,0.0,1.1338738e-05,0.0,0.0,nan,0.0,0.0,0.0,0.0,6.946765e-05,inf,0.0,0.0,0.00013142847,0.0,0.0,0.0,0.0,0.0,0.0,0.0,0.0
4900000,4820000,0.00013602599,0.0,0.00011215154,2.0820794e-06,0.0,2.7010638e-09,0.0,0.0,0.0,0.0,0.0,0.0,0.0,1.1338738e-05,0.0,0.0,nan,0.0,0.0,0.0,0.0,6.946765e-05,inf,0.0,0.0,0.0004212855,0.0,0.0,0.0,0.0,0.0,0.0,0.0,0.0
4908000,4828000,0.00013602599,0.0,0.00011215154,2.0820794e-06,0.0,2.7010638e-09,0.0,0.0,0.0,0.0,0.0,0.0,0.0,1.1338738e-05,0.0,0.0,nan,0.0,0.0,0.0,0.0,6.946765e-05,inf,0.0,0.0,0.00029970644,0.0,0.0,0.0,0.0,0.0,0.0,0.0,0.0
4916000,4836000,0.00013602599,0.0,0.00011215154,2.0820794e-06,0.0,2.7010638e-09,0.0,0.0,0.0,0.0,0.0,0.0,0.0,1.1338738e-05,0.0,0.0,nan,0.0,0.0,0.0,0.0,6.946765e-05,inf,0.0,0.0,0.000106247426,0.0,0.0,0.0,0.0,0.0,0.0,0.0,0.0
4924000,4844000,0.00013602599,0.0,0.00011215154,2.0820794e-06,0.0,2.7010638e-09,0.0,0.0,0.0,0.0,0.0,0.0,0.0,1.1338738e-05,0.0,0.0,nan,0.0,0.0,0.0,0.0,6.946765e-05,inf,0.0,0.0,0.00013459267,0.0,0.0,0.0,0.0,0.0,0.0,0.0,0.0
4932000,4852000,0.00013602599,0.0,0.00011215154,2.0820794e-06,0.0,2.7010638e-09,0.0,0.0,0.0,0.0,0.0,0.0,0.0,7.666287e-06,0.0,0.0,nan,0.0,0.0,0.0,0.0,6.946765e-05,inf,0.0,0.0,3.021881e-06,0.0,0.0,0.0,0.0,0.0,0.0,0.0,0.0
4940000,4860000,0.00013602599,0.0,0.00011215154,2.0820794e-06,0.0,2.7010638e-09,0.0,0.0,0.0,0.0,0.0,0.0,0.0,7.666287e-06,0.0,0.0,nan,0.0,0.0,0.0,0.0,6.946765e-05,inf,0.0,0.0,3.387451e-05,0.0,0.0,0.0,0.0,0.0,0.0,0.0,0.0
4948000,4868000,0.00013602599,0.0,0.00011215154,2.0820794e-06,0.0,2.7010638e-09,0.0,0.0,0.0,0.0,0.0,0.0,0.0,7.666287e-06,0.0,0.0,nan,0.0,0.0,0.0,0.0,6.946765e-05,inf,0.0,0.0,0.00067197584,0.0,0.0,0.0,0.0,0.0,0.0,0.0,0.0
4956000,4876000,0.00013602599,0.0,0.00011215154,2.0820794e-06,0.0,2.7010638e-09,0.0,0.0,0.0,0.0,0.0,0.0,0.0,7.666287e-06,0.0,0.0,nan,0.0,0.0,0.0,0.0,2.6882197e-05,inf,0.0,0.0,0.00038922203,0.0,0.0,0.0,0.0,0.0,0.0,0.0,0.0
4964000,4884000,0.00013602599,0.0,0.00011215154,2.0820794e-06,0.0,2.7010638e-09,0.0,0.0,0.0,0.0,0.0,0.0,0.0,7.666287e-06,0.0,0.0,nan,0.0,0.0,0.0,0.0,2.6882197e-05,inf,0.0,0.0,0.00054333283,0.0,0.0,0.0,0.0,0.0,0.0,0.0,0.0
4972000,4892000,0.00013602599,0.0,0.00011215154,2.0820794e-06,0.0,2.7010638e-09,0.0,0.0,0.0,0.0,0.0,0.0,0.0,7.666287e-06,0.0,0.0,nan,0.0,0.0,0.0,0.0,2.6882197e-05,inf,0.0,0.0,0.00026887687,0.0,0.0,0.0,0.0,0.0,0.0,0.0,0.0
4980000,4900000,0.00013602599,0.0,0.00011215154,2.0820794e-06,0.0,2.7010638e-09,0.0,0.0,0.0,0.0,0.0,0.0,0.0,7.666287e-06,0.0,0.0,nan,0.0,0.0,0.0,0.0,2.6882197e-05,inf,0.0,0.0,0.0013252898,0.0,0.0,0.0,0.0,0.0,0.0,0.0,0.0
4988000,4908000,0.00013602599,0.0,0.00011215154,2.0820794e-06,0.0,2.7010638e-09,0.0,0.0,0.0,0.0,0.0,0.0,0.0,7.666287e-06,0.0,0.0,nan,0.0,0.0,0.0,0.0,2.6882197e-05,inf,0.0,0.0,0.00024564285,0.0,0.0,0.0,0.0,0.0,0.0,0.0,0.0
4996000,4916000,0.00013602599,0.0,0.00011215154,2.0820794e-06,0.0,2.7010638e-09,0.0,0.0,0.0,0.0,0.0,0.0,0.0,1.8043847e-06,0.0,0.0,nan,0.0,0.0,0.0,0.0,2.6882197e-05,inf,0.0,0.0,0.0004085345,0.0,0.0,0.0,0.0,0.0,0.0,0.0,0.0
5004000,4924000,0.00013602599,0.0,0.00011215154,2.0820794e-06,0.0,2.7010638e-09,0.0,0.0,0.0,0.0,0.0,0.0,0.0,1.8043847e-06,0.0,0.0,nan,0.0,0.0,0.0,0.0,2.6882197e-05,inf,0.0,0.0,0.00068862765,0.0,0.0,0.0,0.0,0.0,0.0,0.0,0.0
5012000,4932000,0.00013602599,0.0,0.00011215154,2.0820794e-06,0.0,2.7010638e-09,0.0,0.0,0.0,0.0,0.0,0.0,0.0,1.8043847e-06,0.0,0.0,nan,0.0,0.0,0.0,0.0,2.6882197e-05,inf,0.0,0.0,7.825968e-05,0.0,0.0,0.0,0.0,0.0,0.0,0.0,0.0
5020000,4940000,0.00013602599,0.0,0.00011215154,2.0820794e-06,0.0,2.7010638e-09,0.0,0.0,0.0,0.0,0.0,0.0,0.0,1.8043847e-06,0.0,0.0,nan,0.0,0.0,0.0,0.0,2.6882197e-05,inf,0.0,0.0,7.8664256e-05,0.0,0.0,0.0,0.0,0.0,0.0,0.0,0.0
5028000,4948000,0.00013602599,0.0,0.00011215154,2.0820794e-06,0.0,2.7010638e-09,0.0,0.0,0.0,0.0,0.0,0.0,0.0,1.8043847e-06,0.0,0.0,nan,0.0,0.0,0.0,0.0,0.00021728445,inf,0.0,0.0,0.0005423078,0.0,0.0,0.0,0.0,0.0,0.0,0.0,0.0
5036000,4956000,0.00013602599,0.0,0.00011215154,2.0820794e-06,0.0,2.7010638e-09,0.0,0.0,0.0,0.0,0.0,0.0,0.0,1.8043847e-06,0.0,0.0,nan,0.0,0.0,0.0,0.0,0.00021728445,inf,0.0,0.0,6.852682e-05,0.0,0.0,0.0,0.0,0.0,0.0,0.0,0.0
5044000,4964000,0.00013602599,0.0,0.00011215154,2.0820794e-06,0.0,2.7010638e-09,0.0,0.0,0.0,0.0,0.0,0.0,0.0,1.8043847e-06,0.0,0.0,nan,0.0,0.0,0.0,0.0,0.00021728445,inf,0.0,0.0,0.00017485794,0.0,0.0,0.0,0.0,0.0,0.0,0.0,0.0
5052000,4972000,0.00013602599,0.0,0.00011215154,2.0820794e-06,0.0,2.7010638e-09,0.0,0.0,0.0,0.0,0.0,0.0,0.0,1.7369717e-06,0.0,0.0,nan,0.0,0.0,0.0,0.0,0.00021728445,inf,0.0,0.0,0.00071236945,0.0,0.0,0.0,0.0,0.0,0.0,0.0,0.0
5060000,4980000,0.00013602599,0.0,0.00011215154,2.0820794e-06,0.0,2.7010638e-09,0.0,0.0,0.0,0.0,0.0,0.0,0.0,1.7369717e-06,0.0,0.0,nan,0.0,0.0,0.0,0.0,0.00021728445,inf,0.0,0.0,0.0009688112,0.0,0.0,0.0,0.0,0.0,0.0,0.0,0.0
5068000,4988000,0.00013602599,0.0,0.00011215154,2.0820794e-06,0.0,2.7010638e-09,0.0,0.0,0.0,0.0,0.0,0.0,0.0,1.7369717e-06,0.0,0.0,nan,0.0,0.0,0.0,0.0,0.00021728445,inf,0.0,0.0,0.00015731766,0.0,0.0,0.0,0.0,0.0,0.0,0.0,0.0
5076000,4996000,0.00013602599,0.0,0.00011215154,2.0820794e-06,0.0,2.7010638e-09,0.0,0.0,0.0,0.0,0.0,0.0,0.0,1.7369717e-06,0.0,0.0,nan,0.0,0.0,0.0,0.0,0.00021728445,inf,0.0,0.0,0.0013129395,0.0,0.0,0.0,0.0,0.0,0.0,0.0,0.0
5084000,5004000,0.00013602599,0.0,0.00011215154,2.0820794e-06,0.0,2.7010638e-09,0.0,0.0,0.0,0.0,0.0,0.0,0.0,1.7369717e-06,0.0,0.0,nan,0.0,0.0,0.0,0.0,0.00021728445,inf,0.0,0.0,0.0007753803,0.0,0.0,0.0,0.0,0.0,0.0,0.0,0.0
5092000,5012000,0.00013602599,0.0,0.00011215154,2.0820794e-06,0.0,2.7010638e-09,0.0,0.0,0.0,0.0,0.0,0.0,0.0,1.7369717e-06,0.0,0.0,nan,0.0,0.0,0.0,0.0,0.00021728445,inf,0.0,0.0,0.00062049733,0.0,0.0,0.0,0.0,0.0,0.0,0.0,0.0
5100000,5020000,0.00013602599,0.0,0.00011215154,2.0820794e-06,0.0,2.7010638e-09,0.0,0.0,0.0,0.0,0.0,0.0,0.0,1.7369717e-06,0.0,0.0,nan,0.0,0.0,0.0,0.0,0.000103042796,inf,0.0,0.0,3.865132e-05,0.0,0.0,0.0,0.0,0.0,0.0,0.0,0.0
5108000,5028000,0.00013602599,0.0,0.00011215154,2.0820794e-06,0.0,2.7010638e-09,0.0,0.0,0.0,0.0,0.0,0.0,0.0,1.7369717e-06,0.0,0.0,nan,0.0,0.0,0.0,0.0,0.000103042796,inf,0.0,0.0,0.0004507868,0.0,0.0,0.0,0.0,0.0,0.0,0.0,0.0
5116000,5036000,0.00013602599,0.0,0.00011215154,2.0820794e-06,0.0,2.7010638e-09,0.0,0.0,0.0,0.0,0.0,0.0,0.0,1.1399735e-05,0.0,0.0,nan,0.0,0.0,0.0,0.0,0.000103042796,inf,0.0,0.0,0.00041293746,0.0,0.0,0.0,0.0,0.0,0.0,0.0,0.0
5124000,5044000,0.00013602599,0.0,0.00011215154,2.0820794e-06,0.0,2.7010638e-09,0.0,0.0,0.0,0.0,0.0,0.0,0.0,1.1399735e-05,0.0,0.0,nan,0.0,0.0,0.0,0.0,0.000103042796,inf,0.0,0.0,0.00013558297,0.0,0.0,0.0,0.0,0.0,0.0,0.0,0.0
5132000,5052000,0.00013602599,0.0,0.00011215154,2.0820794e-06,0.0,2.7010638e-09,0.0,0.0,0.0,0.0,0.0,0.0,0.0,1.1399735e-05,0.0,0.0,nan,0.0,0.0,0.0,0.0,0.000103042796,inf,0.0,0.0,1.4223388e-05,0.0,0.0,0.0,0.0,0.0,0.0,0.0,0.0
5140000,5060000,0.00013602599,0.0,0.00011215154,2.0820794e-06,0.0,2.7010638e-09,0.0,0.0,0.0,0.0,0.0,0.0,0.0,1.1399735e-05,0.0,0.0,nan,0.0,0.0,0.0,0.0,0.000103042796,inf,0.0,0.0,0.00037701163,0.0,0.0,0.0,0.0,0.0,0.0,0.0,0.0
5148000,5068000,0.00013602599,0.0,0.00011215154,2.0820794e-06,0.0,2.7010638e-09,0.0,0.0,0.0,0.0,0.0,0.0,0.0,1.1399735e-05,0.0,0.0,nan,0.0,0.0,0.0,0.0,0.000103042796,inf,0.0,0.0,1.9365725e-05,0.0,0.0,0.0,0.0,0.0,0.0,0.0,0.0
5156000,5076000,0.00013602599,0.0,0.00011215154,2.0820794e-06,0.0,2.7010638e-09,0.0,0.0,0.0,0.0,0.0,0.0,0.0,1.1399735e-05,0.0,0.0,nan,0.0,0.0,0.0,0.0,0.000103042796,inf,0.0,0.0,0.00014464838,0.0,0.0,0.0,0.0,0.0,0.0,0.0,0.0
5164000,5084000,0.00013602599,0.0,0.00011215154,2.0820794e-06,0.0,2.7010638e-09,0.0,0.0,0.0,0.0,0.0,0.0,0.0,1.1399735e-05,0.0,0.0,nan,0.0,0.0,0.0,0.0,0.000103042796,inf,0.0,0.0,0.00032642033,0.0,0.0,0.0,0.0,0.0,0.0,0.0,0.0
5172000,5092000,0.00013602599,0.0,0.00011215154,2.0820794e-06,0.0,2.7010638e-09,0.0,0.0,0.0,0.0,0.0,0.0,0.0,4.1596495e-06,0.0,0.0,nan,0.0,0.0,0.0,0.0,0.00015966747,inf,0.0,0.0,1.889152e-05,0.0,0.0,0.0,0.0,0.0,0.0,0.0,0.0
5180000,5100000,0.00013602599,0.0,0.00011215154,2.0820794e-06,0.0,2.7010638e-09,0.0,0.0,0.0,0.0,0.0,0.0,0.0,4.1596495e-06,0.0,0.0,nan,0.0,0.0,0.0,0.0,0.00015966747,inf,0.0,0.0,0.00013908661,0.0,0.0,0.0,0.0,0.0,0.0,0.0,0.0
5188000,5108000,7.44967e-08,0.0,2.008745e-05,2.231793e-06,0.0,8.3128846e-08,0.0,0.0,0.0,0.0,0.0,0.0,0.0,4.1596495e-06,0.0,0.0,nan,0.0,0.0,0.0,0.0,0.00015966747,inf,0.0,0.0,0.0009965716,0.0,0.0,0.0,0.0,0.0,0.0,0.0,0.0
5196000,5116000,7.44967e-08,0.0,2.008745e-05,2.231793e-06,0.0,8.3128846e-08,0.0,0.0,0.0,0.0,0.0,0.0,0.0,4.1596495e-06,0.0,0.0,nan,0.0,0.0,0.0,0.0,0.00015966747,inf,0.0,0.0,0.00026793362,0.0,0.0,0.0,0.0,0.0,0.0,0.0,0.0
5204000,5124000,7.44967e-08,0.0,2.008745e-05,2.231793e-06,0.0,8.3128846e-08,0.0,0.0,0.0,0.0,0.0,0.0,0.0,4.1596495e-06,0.0,0.0,nan,0.0,0.0,0.0,0.0,0.00015966747,inf,0.0,0.0,0.0016189337,0.0,0.0,0.0,0.0,0.0,0.0,0.0,0.0
5212000,5132000,7.44967e-08,0.0,2.008745e-05,2.231793e-06,0.0,8.3128846e-08,0.0,0.0,0.0,0.0,0.0,0.0,0.0,4.1596495e-06,0.0,0.0,nan,0.0,0.0,0.0,0.0,0.00015966747,inf,0.0,0.0,0.00041699441,0.0,0.0,0.0,0.0,0.0,0.0,0.0,0.0
5220000,5140000,7.44967e-08,0.0,2.008745e-05,2.231793e-06,0.0,8.3128846e-08,0.0,0.0,0.0,0.0,0.0,0.0,0.0,4.1596495e-06,0.0,0.0,nan,0.0,0.0,0.0,0.0,0.00015966747,inf,0.0,0.0,0.000103651386,0.0,0.0,0.0,0.0,0.0,0.0,0.0,0.0
5228000,5148000,7.44967e-08,0.0,2.008745e-05,2.231793e-06,0.0,8.3128846e-08,0.0,0.0,0.0,0.0,0.0,0.0,0.0,4.1596495e-06,0.0,0.0,nan,0.0,0.0,0.0,0.0,0.00015966747,inf,0.0,0.0,0.00026648078,0.0,0.0,0.0,0.0,0.0,0.0,0.0,0.0
5236000,5156000,7.44967e-08,0.0,2.008745e-05,2.231793e-06,0.0,8.3128846e-08,0.0,0.0,0.0,0.0,0.0,0.0,0.0,3.6918814e-07,0.0,0.0,nan,0.0,0.0,0.0,0.0,0.00015966747,inf,0.0,0.0,1.624991e-05,0.0,0.0,0.0,0.0,0.0,0.0,0.0,0.0
5244000,5164000,7.44967e-08,0.0,2.008745e-05,2.231793e-06,0.0,8.3128846e-08,0.0,0.0,0.0,0.0,0.0,0.0,0.0,3.6918814e-07,0.0,0.0,nan,0.0,0.0,0.0,0.0,0.0001531935,inf,0.0,0.0,0.00019193481,0.0,0.0,0.0,0.0,0.0,0.0,0.0,0.0
5252000,5172000,7.44967e-08,0.0,2.008745e-05,2.231793e-06,0.0,8.3128846e-08,0.0,0.0,0.0,0.0,0.0,0.0,0.0,3.6918814e-07,0.0,0.0,nan,0.0,0.0,0.0,0.0,0.0001531935,inf,0.0,0.0,0.0004852071,0.0,0.0,0.0,0.0,0.0,0.0,0.0,0.0
5260000,5180000,7.44967e-08,0.0,2.008745e-05,2.231793e-06,0.0,8.3128846e-08,0.0,0.0,0.0,0.0,0.0,0.0,0.0,3.6918814e-07,0.0,0.0,nan,0.0,0.0,0.0,0.0,0.0001531935,inf,0.0,0.0,0.00033640506,0.0,0.0,0.0,0.0,0.0,0.0,0.0,0.0
5268000,5188000,7.44967e-08,0.0,2.008745e-05,2.231793e-06,0.0,8.3128846e-08,0.0,0.0,0.0,0.0,0.0,0.0,0.0,3.6918814e-07,0.0,0.0,nan,0.0,0.0,0.0,0.0,0.0001531935,inf,0.0,0.0,0.00064237934,0.0,0.0,0.0,0.0,0.0,0.0,0.0,0.0
5276000,5196000,7.44967e-08,0.0,2.008745e-05,2.231793e-06,0.0,8.3128846e-08,0.0,0.0,0.0,0.0,0.0,0.0,0.0,3.6918814e-07,0.0,0.0,nan,0.0,0.0,0.0,0.0,0.0001531935,inf,0.0,0.0,0.00024719155,0.0,0.0,0.0,0.0,0.0,0.0,0.0,0.0
5284000,5204000,7.44967e-08,0.0,2.008745e-05,2.231793e-06,0.0,8.3128846e-08,0.0,0.0,0.0,0.0,0.0,0.0,0.0,3.6918814e-07,0.0,0.0,nan,0.0,0.0,0.0,0.0,0.0001531935,inf,0.0,0.0,0.00020416283,0.0,0.0,0.0,0.0,0.0,0.0,0.0,0.0
5292000,5212000,7.44967e-08,0.0,2.008745e-05,2.231793e-06,0.0,8.3128846e-08,0.0,0.0,0.0,0.0,0.0,0.0,0.0,9.929514e-06,0.0,0.0,nan,0.0,0.0,0.0,0.0,0.0001531935,inf,0.0,0.0,3.086681e-05,0.0,0.0,0.0,0.0,0.0,0.0,0.0,0.0
5300000,5220000,7.44967e-08,0.0,2.008745e-05,2.231793e-06,0.0,8.3128846e-08,0.0,0.0,0.0,0.0,0.0,0.0,0.0,9.929514e-06,0.0,0.0,nan,0.0,0.0,0.0,0.0,0.0001531935,inf,0.0,0.0,2.8848544e-05,0.0,0.0,0.0,0.0,0.0,0.0,0.0,0.0
5308000,5228000,7.44967e-08,0.0,2.008745e-05,2.231793e-06,0.0,8.3128846e-08,0.0,0.0,0.0,0.0,0.0,0.0,0.0,9.929514e-06,0.0,0.0,nan,0.0,0.0,0.0,0.0,0.0001531935,inf,0.0,0.0,3.8088045e-05,0.0,0.0,0.0,0.0,0.0,0.0,0.0,0.0
5316000,5236000,7.44967e-08,0.0,2.008745e-05,2.231793e-06,0.0,8.3128846e-08,0.0,0.0,0.0,0.0,0.0,0.0,0.0,9.929514e-06,0.0,0.0,nan,0.0,0.0,0.0,0.0,3.3795837e-07,inf,0.0,0.0,0.0014713745,0.0,0.0,0.0,0.0,0.0,0.0,0.0,0.0
5324000,5244000,7.44967e-08,0.0,2.008745e-05,2.231793e-06,0.0,8.3128846e-08,0.0,0.0,0.0,0.0,0.0,0.0,0.0,9.929514e-06,0.0,0.0,nan,0.0,0.0,0.0,0.0,3.3795837e-07,inf,0.0,0.0,0.0002383912,0.0,0.0,0.0,0.0,0.0,0.0,0.0,0.0
5332000,5252000,7.44967e-08,0.0,2.008745e-05,2.231793e-06,0.0,8.3128846e-08,0.0,0.0,0.0,0.0,0.0,0.0,0.0,9.929514e-06,0.0,0.0,nan,0.0,0.0,0.0,0.0,3.3795837e-07,inf,0.0,0.0,0.00026604813,0.0,0.0,0.0,0.0,0.0,0.0,0.0,0.0
5340000,5260000,7.44967e-08,0.0,2.008745e-05,2.231793e-06,0.0,8.3128846e-08,0.0,0.0,0.0,0.0,0.0,0.0,0.0,1.912077e-05,0.0,0.0,nan,0.0,0.0,0.0,0.0,3.3795837e-07,inf,0.0,0.0,8.7285414e-05,0.0,0.0,0.0,0.0,0.0,0.0,0.0,0.0
5348000,5268000,7.44967e-08,0.0,2.008745e-05,2.231793e-06,0.0,8.3128846e-08,0.0,0.0,0.0,0.0,0.0,0.0,0.0,1.912077e-05,0.0,0.0,nan,0.0,0.0,0.0,0.0,3.3795837e-07,inf,0.0,0.0,0.00032318092,0.0,0.0,0.0,0.0,0.0,0.0,0.0,0.0
5356000,5276000,7.44967e-08,0.0,2.008745e-05,2.231793e-06,0.0,8.3128846e-08,0.0,0.0,0.0,0.0,0.0,0.0,0.0,1.912077e-05,0.0,0.0,nan,0.0,0.0,0.0,0.0,3.3795837e-07,inf,0.0,0.0,0.00045046437,0.0,0.0,0.0,0.0,0.0,0.0,0.0,0.0
5364000,5284000,7.44967e-08,0.0,2.008745e-05,2.231793e-06,0.0,8.3128846e-08,0.0,0.0,0.0,0.0,0.0,0.0,0.0,1.912077e-05,0.0,0.0,nan,0.0,0.0,0.0,0.0,3.3795837e-07,inf,0.0,0.0,0.0001929747,0.0,0.0,0.0,0.0,0.0,0.0,0.0,0.0
5372000,5292000,7.44967e-08,0.0,2.008745e-05,2.231793e-06,0.0,8.3128846e-08,0.0,0.0,0.0,0.0,0.0,0.0,0.0,1.912077e-05,0.0,0.0,nan,0.0,0.0,0.0,0.0,3.3795837e-07,inf,0.0,0.0,0.00017125231,0.0,0.0,0.0,0.0,0.0,0.0,0.0,0.0
5380000,5300000,7.44967e-08,0.0,2.008745e-05,2.231793e-06,0.0,8.3128846e-08,0.0,0.0,0.0,0.0,0.0,0.0,0.0,1.912077e-05,0.0,0.0,nan,0.0,0.0,0.0,0.0,3.3795837e-07,inf,0.0,0.0,0.00020389295,0.0,0.0,0.0,0.0,0.0,0.0,0.0,0.0
5388000,5308000,7.44967e-08,0.0,2.008745e-05,2.231793e-06,0.0,8.3128846e-08,0.0,0.0,0.0,0.0,0.0,0.0,0.0,1.912077e-05,0.0,0.0,nan,0.0,0.0,0.0,0.0,1.6947184e-05,inf,0.0,0.0,0.0012421286,0.0,0.0,0.0,0.0,0.0,0.0,0.0,0.0
5396000,5316000,7.44967e-08,0.0,2.008745e-05,2.231793e-06,0.0,8.3128846e-08,0.0,0.0,0.0,0.0,0.0,0.0,0.0,1.912077e-05,0.0,0.0,nan,0.0,0.0,0.0,0.0,1.6947184e-05,inf,0.0,0.0,2.8259688e-05,0.0,0.0,0.0,0.0,0.0,0.0,0.0,0.0
5404000,5324000,7.44967e-08,0.0,2.008745e-05,2.231793e-06,0.0,8.3128846e-08,0.0,0.0,0.0,0.0,0.0,0.0,0.0,3.0748618e-07,0.0,0.0,nan,0.0,0.0,0.0,0.0,1.6947184e-05,inf,0.0,0.0,0.0005050482,0.0,0.0,0.0,0.0,0.0,0.0,0.0,0.0
5412000,5332000,7.44967e-08,0.0,2.008745e-05,2.231793e-06,0.0,8.3128846e-08,0.0,0.0,0.0,0.0,0.0,0.0,0.0,3.0748618e-07,0.0,0.0,nan,0.0,0.0,0.0,0.0,1.6947184e-05,inf,0.0,0.0,0.0013061465,0.0,0.0,0.0,0.0,0.0,0.0,0.0,0.0
5420000,5340000,7.44967e-08,0.0,2.008745e-05,2.231793e-06,0.0,8.3128846e-08,0.0,0.0,0.0,0.0,0.0,0.0,0.0,3.0748618e-07,0.0,0.0,nan,0.0,0.0,0.0,0.0,1.6947184e-05,inf,0.0,0.0,0.00038040016,0.0,0.0,0.0,0.0,0.0,0.0,0.0,0.0
5428000,5348000,7.44967e-08,0.0,2.008745e-05,2.231793e-06,0.0,8.3128846e-08,0.0,0.0,0.0,0.0,0.0,0.0,0.0,3.0748618e-07,0.0,0.0,nan,0.0,0.0,0.0,0.0,1.6947184e-05,inf,0.0,0.0,0.00022403336,0.0,0.0,0.0,0.0,0.0,0.0,0.0,0.0
5436000,5356000,7.44967e-08,0.0,2.008745e-05,2.231793e-06,0.0,8.3128846e-08,0.0,0.0,0.0,0.0,0.0,0.0,0.0,3.0748618e-07,0.0,0.0,nan,0.0,0.0,0.0,0.0,1.6947184e-05,inf,0.0,0.0,0.00048146772,0.0,0.0,0.0,0.0,0.0,0.0,0.0,0.0
5444000,5364000,7.44967e-08,0.0,2.008745e-05,2.231793e-06,0.0,8.3128846e-08,0.0,0.0,0.0,0.0,0.0,0.0,0.0,3.0748618e-07,0.0,0.0,nan,0.0,0.0,0.0,0.0,1.6947184e-05,inf,0.0,0.0,0.00044516154,0.0,0.0,0.0,0.0,0.0,0.0,0.0,0.0
5452000,5372000,7.44967e-08,0.0,2.008745e-05,2.231793e-06,0.0,8.3128846e-08,0.0,0.0,0.0,0.0,0.0,0.0,0.0,3.0748618e-07,0.0,0.0,nan,0.0,0.0,0.0,0.0,1.6947184e-05,inf,0.0,0.0,0.00038032103,0.0,0.0,0.0,0.0,0.0,0.0,0.0,0.0
5460000,5380000,7.44967e-08,0.0,2.008745e-05,2.231793e-06,0.0,8.3128846e-08,0.0,0.0,0.0,0.0,0.0,0.0,0.0,3.567311e-05,0.0,0.0,nan,0.0,0.0,0.0,0.0,0.00010478104,inf,0.0,0.0,0.0005274861,0.0,0.0,0.0,0.0,0.0,0.0,0.0,0.0
5468000,5388000,7.44967e-08,0.0,2.008745e-05,2.231793e-06,0.0,8.3128846e-08,0.0,0.0,0.0,0.0,0.0,0.0,0.0,3.567311e-05,0.0,0.0,nan,0.0,0.0,0.0,0.0,0.00010478104,inf,0.0,0.0,0.0004391795,0.0,0.0,0.0,0.0,0.0,0.0,0.0,0.0
5476000,5396000,7.44967e-08,0.0,2.008745e-05,2.231793e-06,0.0,8.3128846e-08,0.0,0.0,0.0,0.0,0.0,0.0,0.0,3.567311e-05,0.0,0.0,nan,0.0,0.0,0.0,0.0,0.00010478104,inf,0.0,0.0,0.0013955466,0.0,0.0,0.0,0.0,0.0,0.0,0.0,0.0
5484000,5404000,7.44967e-08,0.0,2.008745e-05,2.231793e-06,0.0,8.3128846e-08,0.0,0.0,0.0,0.0,0.0,0.0,0.0,3.567311e-05,0.0,0.0,nan,0.0,0.0,0.0,0.0,0.00010478104,inf,0.0,0.0,0.004149191,0.0,0.0,0.0,0.0,0.0,0.0,0.0,0.0
5492000,5412000,7.44967e-08,0.0,2.008745e-05,2.231793e-06,0.0,8.3128846e-08,0.0,0.0,0.0,0.0,0.0,0.0,0.0,3.567311e-05,0.0,0.0,nan,0.0,0.0,0.0,0.0,0.00010478104,inf,0.0,0.0,0.0036400366,0.0,0.0,0.0,0.0,0.0,0.0,0.0,0.0
5500000,5420000,7.44967e-08,0.0,2.008745e-05,2.231793e-06,0.0,8.3128846e-08,0.0,0.0,0.0,0.0,0.0,0.0,0.0,3.567311e-05,0.0,0.0,nan,0.0,0.0,0.0,0.0,0.00010478104,inf,0.0,0.0,8.3726e-05,0.0,0.0,0.0,0.0,0.0,0.0,0.0,0.0
5508000,5428000,7.44967e-08,0.0,2.008745e-05,2.231793e-06,0.0,8.3128846e-08,0.0,0.0,0.0,0.0,0.0,0.0,0.0,3.567311e-05,0.0,0.0,nan,0.0,0.0,0.0,0.0,0.00010478104,inf,0.0,0.0,0.00043613135,0.0,0.0,0.0,0.0,0.0,0.0,0.0,0.0
5516000,5436000,7.44967e-08,0.0,2.008745e-05,2.231793e-06,0.0,8.3128846e-08,0.0,0.0,0.0,0.0,0.0,0.0,0.0,3.567311e-05,0.0,0.0,nan,0.0,0.0,0.0,0.0,0.00010478104,inf,0.0,0.0,1.1899931e-05,0.0,0.0,0.0,0.0,0.0,0.0,0.0,0.0
5524000,5444000,7.44967e-08,0.0,2.008745e-05,2.231793e-06,0.0,8.3128846e-08,0.0,0.0,0.0,0.0,0.0,0.0,0.0,7.643523e-06,0.0,0.0,nan,0.0,0.0,0.0,0.0,0.00010478104,inf,0.0,0.0,0.00020397344,0.0,0.0,0.0,0.0,0.0,0.0,0.0,0.0
5532000,5452000,7.44967e-08,0.0,2.008745e-05,2.231793e-06,0.0,8.3128846e-08,0.0,0.0,0.0,0.0,0.0,0.0,0.0,7.643523e-06,0.0,0.0,nan,0.0,0.0,0.0,0.0,1.395538e-05,inf,0.0,0.0,0.0008033796,0.0,0.0,0.0,0.0,0.0,0.0,0.0,0.0
5540000,5460000,7.44967e-08,0.0,2.008745e-05,2.231793e-06,0.0,8.3128846e-08,0.0,0.0,0.0,0.0,0.0,0.0,0.0,7.643523e-06,0.0,0.0,nan,0.0,0.0,0.0,0.0,1.395538e-05,inf,0.0,0.0,0.0013545073,0.0,0.0,0.0,0.0,0.0,0.0,0.0,0.0
5548000,5468000,7.44967e-08,0.0,2.008745e-05,2.231793e-06,0.0,8.3128846e-08,0.0,0.0,0.0,0.0,0.0,0.0,0.0,7.643523e-06,0.0,0.0,nan,0.0,0.0,0.0,0.0,1.395538e-05,inf,0.0,0.0,8.603278e-05,0.0,0.0,0.0,0.0,0.0,0.0,0.0,0.0
5556000,5476000,7.44967e-08,0.0,2.008745e-05,2.231793e-06,0.0,8.3128846e-08,0.0,0.0,0.0,0.0,0.0,0.0,0.0,7.643523e-06,0.0,0.0,nan,0.0,0.0,0.0,0.0,1.395538e-05,inf,0.0,0.0,2.3210227e-05,0.0,0.0,0.0,0.0,0.0,0.0,0.0,0.0
5564000,5484000,7.44967e-08,0.0,2.008745e-05,2.231793e-06,0.0,8.3128846e-08,0.0,0.0,0.0,0.0,0.0,0.0,0.0,7.643523e-06,0.0,0.0,nan,0.0,0.0,0.0,0.0,1.395538e-05,inf,0.0,0.0,2.1105338e-05,0.0,0.0,0.0,0.0,0.0,0.0,0.0,0.0
5572000,5492000,7.44967e-08,0.0,2.008745e-05,2.231793e-06,0.0,8.3128846e-08,0.0,0.0,0.0,0.0,0.0,0.0,0.0,7.643523e-06,0.0,0.0,nan,0.0,0.0,0.0,0.0,1.395538e-05,inf,0.0,0.0,0.001278162,0.0,0.0,0.0,0.0,0.0,0.0,0.0,0.0
5580000,5500000,7.44967e-08,0.0,2.008745e-05,2.231793e-06,0.0,8.3128846e-08,0.0,0.0,0.0,0.0,0.0,0.0,0.0,2.5487793e-06,0.0,0.0,nan,0.0,0.0,0.0,0.0,1.395538e-05,inf,0.0,0.0,0.000917712,0.0,0.0,0.0,0.0,0.0,0.0,0.0,0.0
5588000,5508000,7.44967e-08,0.0,2.008745e-05,2.231793e-06,0.0,8.3128846e-08,0.0,0.0,0.0,0.0,0.0,0.0,0.0,2.5487793e-06,0.0,0.0,nan,0.0,0.0,0.0,0.0,1.395538e-05,inf,0.0,0.0,7.4368836e-05,0.0,0.0,0.0,0.0,0.0,0.0,0.0,0.0
5596000,5516000,4.3102675e-05,0.0,0.00048823372,2.2468294e-06,0.0,2.9824982e-06,0.0,0.0,0.0,0.0,0.0,0.0,0.0,2.5487793e-06,0.0,0.0,nan,0.0,0.0,0.0,0.0,1.395538e-05,inf,0.0,0.0,0.000295284,0.0,0.0,0.0,0.0,0.0,0.0,0.0,0.0
5604000,5524000,4.3102675e-05,0.0,0.00048823372,2.2468294e-06,0.0,2.9824982e-06,0.0,0.0,0.0,0.0,0.0,0.0,0.0,2.5487793e-06,0.0,0.0,nan,0.0,0.0,0.0,0.0,0.00017940528,inf,0.0,0.0,0.000595282,0.0,0.0,0.0,0.0,0.0,0.0,0.0,0.0
5612000,5532000,4.3102675e-05,0.0,0.00048823372,2.2468294e-06,0.0,2.9824982e-06,0.0,0.0,0.0,0.0,0.0,0.0,0.0,2.5487793e-06,0.0,0.0,nan,0.0,0.0,0.0,0.0,0.00017940528,inf,0.0,0.0,0.00021781679,0.0,0.0,0.0,0.0,0.0,0.0,0.0,0.0
5620000,5540000,4.3102675e-05,0.0,0.00048823372,2.2468294e-06,0.0,2.9824982e-06,0.0,0.0,0.0,0.0,0.0,0.0,0.0,2.5487793e-06,0.0,0.0,nan,0.0,0.0,0.0,0.0,0.00017940528,inf,0.0,0.0,0.0004731933,0.0,0.0,0.0,0.0,0.0,0.0,0.0,0.0
5628000,5548000,4.3102675e-05,0.0,0.00048823372,2.2468294e-06,0.0,2.9824982e-06,0.0,0.0,0.0,0.0,0.0,0.0,0.0,2.5487793e-06,0.0,0.0,nan,0.0,0.0,0.0,0.0,0.00017940528,inf,0.0,0.0,0.0012258346,0.0,0.0,0.0,0.0,0.0,0.0,0.0,0.0
5636000,5556000,4.3102675e-05,0.0,0.00048823372,2.2468294e-06,0.0,2.9824982e-06,0.0,0.0,0.0,0.0,0.0,0.0,0.0,2.5487793e-06,0.0,0.0,nan,0.0,0.0,0.0,0.0,0.00017940528,inf,0.0,0.0,0.0003173567,0.0,0.0,0.0,0.0,0.0,0.0,0.0,0.0
5644000,5564000,4.3102675e-05,0.0,0.00048823372,2.2468294e-06,0.0,2.9824982e-06,0.0,0.0,0.0,0.0,0.0,0.0,0.0,2.970886e-06,0.0,0.0,nan,0.0,0.0,0.0,0.0,0.00017940528,inf,0.0,0.0,0.00015855084,0.0,0.0,0.0,0.0,0.0,0.0,0.0,0.0
5652000,5572000,4.3102675e-05,0.0,0.00048823372,2.2468294e-06,0.0,2.9824982e-06,0.0,0.0,0.0,0.0,0.0,0.0,0.0,2.970886e-06,0.0,0.0,nan,0.0,0.0,0.0,0.0,0.00017940528,inf,0.0,0.0,0.0012632089,0.0,0.0,0.0,0.0,0.0,0.0,0.0,0.0
5660000,5580000,4.3102675e-05,0.0,0.00048823372,2.2468294e-06,0.0,2.9824982e-06,0.0,0.0,0.0,0.0,0.0,0.0,0.0,2.970886e-06,0.0,0.0,nan,0.0,0.0,0.0,0.0,0.00017940528,inf,0.0,0.0,0.0023608378,0.0,0.0,0.0,0.0,0.0,0.0,0.0,0.0
5668000,5588000,4.3102675e-05,0.0,0.00048823372,2.2468294e-06,0.0,2.9824982e-06,0.0,0.0,0.0,0.0,0.0,0.0,0.0,2.970886e-06,0.0,0.0,nan,0.0,0.0,0.0,0.0,0.00016028677,inf,0.0,0.0,0.00026820393,0.0,0.0,0.0,0.0,0.0,0.0,0.0,0.0
5676000,5596000,4.3102675e-05,0.0,0.00048823372,2.2468294e-06,0.0,2.9824982e-06,0.0,0.0,0.0,0.0,0.0,0.0,0.0,2.970886e-06,0.0,0.0,nan,0.0,0.0,0.0,0.0,0.00016028677,inf,0.0,0.0,2.9982793e-05,0.0,0.0,0.0,0.0,0.0,0.0,0.0,0.0
5684000,5604000,4.3102675e-05,0.0,0.00048823372,2.2468294e-06,0.0,2.9824982e-06,0.0,0.0,0.0,0.0,0.0,0.0,0.0,2.970886e-06,0.0,0.0,nan,0.0,0.0,0.0,0.0,0.00016028677,inf,0.0,0.0,0.00027323357,0.0,0.0,0.0,0.0,0.0,0.0,0.0,0.0
