timestamp,timestamp_sample,device_id,x,y,z,temperature,error_count
4100000,4100000,197388,0.007437077,-0.21325472,0.42517456,11.832727,0
5096000,5096000,197388,0.0021474552,-0.22133459,0.42639428,11.832727,0
6092000,6092000,197388,0.015113272,-0.21213068,0.42134902,11.832727,0
7100000,7100000,197388,0.009257532,-0.21588932,0.4293177,11.832727,0
8096000,8096000,197388,0.012367152,-0.21877249,0.4291214,11.832727,0
9092000,9092000,197388,0.0064872284,-0.21548793,0.42761135,11.832727,0
10100000,10100000,197388,0.013122527,-0.22469096,0.4364668,11.832727,0
11096000,11096000,197388,0.01223504,-0.214551,0.42681608,11.832727,0
12088000,12088000,197388,0.012355498,-0.21512793,0.42886677,11.832727,0
13100000,13100000,197388,0.0047678626,-0.21322723,0.43104422,11.832727,0
14096000,14096000,197388,0.013806623,-0.21075861,0.42913982,11.832727,0
15092000,15092000,197388,0.008351528,-0.21028315,0.4318026,11.832727,0
16100000,16100000,197388,0.015902739,-0.21358638,0.4247187,11.832727,0
17096000,17096000,197388,0.014759323,-0.21332659,0.4307166,11.832727,0
18092000,18092000,197388,0.007537783,-0.22436151,0.42666173,11.832727,0
19100000,19100000,197388,0.0062962896,-0.22245294,0.42706802,11.832727,0
20096000,20096000,197388,0.008909799,-0.21886243,0.42840114,11.832727,0
21092000,21092000,197388,0.011395425,-0.21616806,0.43096706,11.832727,0
22100000,22100000,197388,0.002216568,-0.21645834,0.43017587,11.832727,0
23096000,23096000,197388,0.006333663,-0.21229388,0.43566465,11.832727,0
24092000,24092000,197388,0.012360697,-0.2153639,0.42894882,11.832727,0
25100000,25100000,197388,0.0030160602,-0.20953725,0.42776597,11.832727,0
26092000,26092000,197388,0.013344519,-0.21319178,0.42389348,11.832727,0
27092000,27092000,197388,0.008179052,-0.21710886,0.4205369,11.832727,0
28100000,28100000,197388,0.013106134,-0.21843944,0.43172842,11.832727,0
29092000,29092000,197388,0.003777491,-0.21990976,0.43110347,11.832727,0
30092000,30092000,197388,0.0068227234,-0.2114226,0.43594107,11.832727,0
31100000,31100000,197388,0.008769005,-0.21337627,0.42411488,11.832727,0
32092000,32092000,197388,0.00809071,-0.21879674,0.42792183,11.832727,0
33092000,33092000,197388,0.00832965,-0.21797997,0.43528476,11.832727,0
34100000,34100000,197388,0.0010019043,-0.21277654,0.43159446,11.832727,0
35092000,35092000,197388,0.010072614,-0.18598711,0.4403689,11.832605,0
36092000,36092000,197388,0.010207262,-0.2237702,0.42112103,11.829584,0
37100000,37100000,197388,0.011050743,-0.22425677,0.42754418,11.823328,0
38092000,38092000,197388,0.01118714,-0.21291776,0.43417102,11.815729,0
39092000,39092000,197388,0.005246177,-0.22228369,0.425458,11.80694,0
40100000,40100000,197388,0.013396792,-0.21398805,0.43176138,11.797419,0
41096000,41096000,197388,0.006229044,-0.21593869,0.44186392,11.78747,0
42092000,42092000,197388,0.0142675135,-0.21722129,0.4269497,11.778101,0
43100000,43100000,197388,0.008584005,-0.21570994,0.4233966,11.771296,0
44096000,44096000,197388,0.28933796,-0.19293445,0.32210714,11.76861,0
45092000,45092000,197388,0.3428977,-0.010978071,0.34054592,11.768274,0
46100000,46100000,197388,0.27237535,-0.05341157,0.39741424,11.768671,0
47096000,47096000,197388,0.27486426,-0.05932481,0.38974634,11.7686405,0
48092000,48092000,197388,0.27645063,-0.06747657,0.3823948,11.768549,0
49100000,49100000,197388,0.28306356,-0.05921444,0.38820395,11.768457,0
50096000,50096000,197388,0.2712327,-0.06549351,0.38577646,11.768366,0
51092000,51092000,197388,0.28187832,-0.05978558,0.3862301,11.768274,0
52100000,52100000,197388,0.28099906,-0.06632721,0.3874129,11.768183,0
53096000,53096000,197388,0.28386256,-0.06930502,0.3815104,11.768061,0
54092000,54092000,197388,0.28280938,-0.06575558,0.38943776,11.767939,0
55100000,55100000,197388,0.28342384,-0.06751224,0.37986028,11.767786,0
56096000,56096000,197388,0.28357756,-0.061353803,0.38416895,11.767725,0
57092000,57092000,197388,0.2890371,-0.06736061,0.38582343,11.767664,0
58100000,58100000,197388,0.27344355,-0.06800201,0.3856013,11.767572,0
59096000,59096000,197388,0.28692922,-0.070392296,0.38729885,11.767542,0
60092000,60092000,197388,0.27530396,-0.06301827,0.38662118,11.767572,0
61100000,61100000,197388,0.28011292,-0.064302735,0.38600436,11.767633,0
62096000,62096000,197388,0.2639145,-0.06747732,0.39015067,11.767664,0
63092000,63092000,197388,0.1889923,-0.060678296,0.4377961,11.767694,0
64100000,64100000,197388,0.1830551,-0.06463823,0.43107802,11.767603,0
65096000,65096000,197388,0.14250176,-0.01742117,0.45964512,11.767328,0
66092000,66092000,197388,0.058764253,-0.16863142,0.4483517,11.767389,0
67100000,67100000,197388,0.07900665,-0.21587697,0.4234965,11.767267,0
68096000,68096000,197388,0.005196029,-0.21515581,0.4302436,11.767572,0
69092000,69092000,197388,0.011682652,-0.20481208,0.43491194,11.767786,0
70100000,70100000,197388,0.009678644,-0.2062584,0.42817068,11.768,0
71096000,71096000,197388,-0.018310668,-0.20954078,0.43295303,11.768335,0
72092000,72092000,197388,-0.060749233,-0.20643048,0.43372086,11.7685795,0
73100000,73100000,197388,-0.08137379,-0.21284968,0.42890674,11.768763,0
74096000,74096000,197388,-0.15225089,-0.06999266,0.45154154,11.768763,0
75092000,75092000,197388,-0.17943382,0.0191483,0.44372278,11.768854,0
76100000,76100000,197388,-0.037370283,0.04859493,0.47980443,11.768824,0
77096000,77096000,197388,-0.15479796,0.047825836,0.45485935,11.769007,0
78092000,78092000,197388,-0.12721387,0.06902206,0.45649353,11.769007,0
79100000,79100000,197388,-0.13665174,0.069404416,0.4556,11.768854,0
80096000,80096000,197388,-0.12530187,0.06599788,0.45769554,11.7686405,0
81092000,81092000,197388,-0.12007325,0.06263488,0.46867263,11.768427,0
82096000,82096000,197388,-0.12020465,0.06670004,0.45506963,11.768305,0
83096000,83096000,197388,-0.12327847,0.0671421,0.45884135,11.768183,0
84092000,84092000,197388,-0.20538011,0.06790379,0.43292758,11.768152,0
85100000,85100000,197388,-0.21049263,0.06630254,0.42284745,11.768091,0
86096000,86096000,197388,-0.20606185,0.0717891,0.4315019,11.76803,0
87092000,87092000,197388,-0.04776463,0.2839529,0.39498326,11.7677555,0
88100000,88100000,197388,0.18677467,0.19556244,0.39775473,11.767725,0
89092000,89092000,197388,0.17261155,0.21214655,0.39890915,11.767603,0
90092000,90092000,197388,0.12841286,0.21401021,0.40669695,11.767725,0
91100000,91100000,197388,0.13428195,0.20752051,0.41605386,11.767725,0
92096000,92096000,197388,0.13709167,0.20579995,0.4075369,11.767786,0
93092000,93092000,197388,0.089743845,0.21297635,0.42439827,11.767969,0
94100000,94100000,197388,0.050935034,0.21145521,0.4287706,11.768183,0
95096000,95096000,197388,0.03431828,0.19746554,0.435267,11.768366,0
96092000,96092000,197388,0.035819445,0.20947918,0.43177855,11.768335,0
97100000,97100000,197388,0.01794838,0.21145009,0.43091747,11.758142,0
98096000,98096000,197388,0.053865887,0.20546223,0.4412252,11.740686,0
99092000,99092000,197388,0.059474774,0.21199664,0.42720836,11.7242985,0
100100000,100100000,197388,0.05723689,0.20860268,0.4303431,11.707514,0
101096000,101096000,197388,0.05293897,0.19967407,0.43058515,11.690607,0
102088000,102088000,197388,0.053178884,0.21226951,0.43979004,11.674402,0
103100000,103100000,197388,0.056099378,0.20351481,0.4320348,11.661982,0
104096000,104096000,197388,0.05995901,0.21491925,0.42807454,11.653498,0
105092000,105092000,197388,0.057832632,0.20771094,0.4255783,11.648066,0
106096000,106096000,197388,0.06501709,0.20889798,0.427674,11.644526,0
107096000,107096000,197388,0.007927271,0.10737957,0.46794564,11.642176,0
108092000,108092000,197388,-0.013906458,0.068990365,0.47681257,11.640772,0
109100000,109100000,197388,-0.13574201,0.07391148,0.44784927,11.64065,0
110096000,110096000,197388,-0.12212988,0.07229072,0.46001866,11.640589,0
111092000,111092000,197388,-0.12301578,0.073990844,0.45898393,11.640497,0
112100000,112100000,197388,-0.12438838,0.07961338,0.46516114,11.640253,0
113096000,113096000,197388,-0.1168333,0.08676098,0.45563835,11.639856,0
114092000,114092000,197388,-0.12284847,0.07942847,0.4584625,11.63946,0
115100000,115100000,197388,-0.12111185,0.08552249,0.45746702,11.639002,0
116096000,116096000,197388,-0.19788021,0.0818515,0.4281862,11.638544,0
117092000,117092000,197388,-0.2150744,0.075207055,0.4207131,11.638178,0
118100000,118100000,197388,-0.22094539,0.07649132,0.41759765,11.637995,0
119096000,119096000,197388,-0.2422832,-0.13979237,0.39285168,11.642481,0
120092000,120092000,197388,-0.067767695,-0.21152921,0.42408222,11.652033,0
121100000,121100000,197388,0.022043003,-0.21436836,0.41984466,11.66189,0
122096000,122096000,197388,0.00045271206,-0.20864071,0.4285641,11.671991,0
123092000,123092000,197388,-0.0020519912,-0.21069714,0.43080702,11.6817875,0
124100000,124100000,197388,0.003782253,-0.21785253,0.42710805,11.691828,0
125096000,125096000,197388,0.00046334483,-0.21345136,0.4293353,11.701899,0
126092000,126092000,197388,0.0042997403,-0.21466042,0.42885846,11.711695,0
127100000,127100000,197388,-0.006793157,-0.21628305,0.4302228,11.721735,0
128096000,128096000,197388,-0.006740985,-0.20479798,0.4391734,11.731714,0
129092000,129092000,197388,0.003039529,-0.21253717,0.42577252,11.741358,0
130100000,130100000,197388,6.3726846e-05,-0.22022098,0.4290426,11.751184,0
131096000,131096000,197388,0.0036251333,-0.2243858,0.4275127,11.759668,0
132092000,132092000,197388,0.0018831735,-0.21516424,0.43077788,11.764246,0
133100000,133100000,197388,0.0008822616,-0.2213444,0.42305273,11.770136,0
134096000,134096000,197388,9.316644e-05,-0.22289178,0.43251634,11.778772,0
135092000,135092000,197388,0.006066812,-0.21034373,0.42940724,11.785883,0
136100000,136100000,197388,-0.0015480431,-0.20908694,0.43048128,11.79217,0
137096000,137096000,197388,-0.0075803013,-0.21458244,0.42496306,11.797541,0
138092000,138092000,197388,-0.0039999513,-0.21911359,0.43042016,11.802027,0
139100000,139100000,197388,0.0017238632,-0.22267023,0.43020046,11.806299,0
140092000,140092000,197388,-0.0028674975,-0.2181456,0.42710087,11.810541,0
141092000,141092000,197388,-0.0015038049,-0.21173765,0.43416646,11.814875,0
142100000,142100000,197388,0.0014768009,-0.22849451,0.43385154,11.819178,0
143096000,143096000,197388,-0.0016176546,-0.22836214,0.43001625,11.823359,0
144092000,144092000,197388,0.002932453,-0.21619217,0.42814445,11.827539,0
145100000,145100000,197388,-0.0017355386,-0.22011174,0.42940626,11.831873,0
146092000,146092000,197388,-0.0009558847,-0.21826339,0.42518738,11.832727,0
147092000,147092000,197388,-0.0051226206,-0.21783853,0.427352,11.832727,0
148100000,148100000,197388,-0.0052355872,-0.21831767,0.43391752,11.832727,0
149096000,149096000,197388,-0.0023597472,-0.21193688,0.43169865,11.832727,0
