timestamp,timestamp_sample,time_last_fuse,device_id,observation,observation_variance,innovation,innovation_variance,test_ratio,estimator_instance,fusion_enabled,innovation_rejected,fused
3596000,3473268,0,0,-488.10403,1.0,488.0999,101.90604,93.5142,0,0,1,0
3996000,3873557,0,0,-488.11102,1.0,488.12238,34.333355,277.58832,0,0,1,0
4396000,4273732,0,0,-0.04208374,1.0,-7.408857e-05,3.728294,5.889146e-11,0,0,0,0
4788000,4673837,0,0,-0.04309082,1.0,-0.00037353858,2.0663128,2.7010638e-09,0,0,0,0
5188000,5073901,0,0,-0.04309082,1.0,-0.0018591955,1.6632532,8.3128846e-08,0,0,0,0
5596000,5473941,0,0,-0.038085938,1.0,-0.010513198,1.4823456,2.9824982e-06,0,0,0,0
5988000,5873964,0,0,-0.0440979,1.0,-0.009625871,1.3927362,2.661161e-06,0,0,0,0
6396000,6273979,0,0,-0.039093018,1.0,-0.0140049085,1.323568,5.9275376e-06,0,0,0,0
6796000,6673987,0,0,-0.050079346,1.0,-0.0022241808,1.275928,1.550865e-07,0,0,0,0
7196000,7073993,0,0,-0.051086426,1.0,0.001879096,1.2412095,1.137923e-07,0,0,0,0
7596000,7473996,0,0,-0.04510498,1.0,-0.0006563775,1.2186751,1.4140977e-08,0,0,0,0
7988000,7873998,0,0,-0.04309082,1.0,-0.0031182095,1.197199,3.2486597e-07,0,0,0,0
8396000,8273999,0,0,-0.0440979,1.0,-0.0022447295,1.1802392,1.7077252e-07,0,0,0,0
8788000,8673999,8708000,0,-0.0440979,1.0,-0.00549623,1.1661859,1.0361485e-06,0,0,0,0
9196000,9074000,9116000,0,-0.047088623,1.0,0.017851613,1.6473224,7.7381355e-06,0,1,0,1
9588000,9474000,9508000,0,-0.04208374,1.0,0.008787669,1.3454427,2.295843e-06,0,1,0,1
9996000,9874000,9916000,0,-0.033081055,1.0,-0.0009284541,1.242504,2.7751284e-08,0,1,0,1
10396000,10274000,10316000,0,-0.032104492,1.0,-0.00019332767,1.1947048,1.2513748e-09,0,1,0,1
10788000,10674000,10708000,0,-0.037078857,1.0,0.00827883,1.1678674,2.3474934e-06,0,1,0,1
11188000,11074000,11108000,0,-0.038085938,1.0,0.012640085,1.1519859,5.5476985e-06,0,1,0,1
11596000,11474000,11516000,0,-0.054107666,1.0,0.034105852,1.142213,4.073528e-05,0,1,0,1
11996000,11874000,11916000,0,-0.051086426,1.0,0.031552795,1.1350437,3.508513e-05,0,1,0,1
12396000,12274000,12316000,0,-0.04208374,1.0,0.023907628,1.129772,2.0236816e-05,0,1,0,1
12796000,12674000,12716000,0,-0.0440979,1.0,0.020905903,1.1270126,1.5512045e-05,0,1,0,1
13188000,13074000,13108000,0,-0.046081543,1.0,0.02515071,1.1232188,2.2526627e-05,0,1,0,1
13588000,13474000,13508000,0,-0.050079346,1.0,0.031661727,1.1206214,3.5782465e-05,0,1,0,1
13996000,13874000,13916000,0,-0.051086426,1.0,0.029501013,1.118904,3.111294e-05,0,1,0,1
14396000,14274000,14316000,0,-0.053100586,1.0,0.032474548,1.1181333,3.772703e-05,0,1,0,1
14796000,14674000,14716000,0,-0.048095703,1.0,0.03209168,1.1165031,3.6896483e-05,0,1,0,1
15196000,15074000,15116000,0,-0.049102783,1.0,0.02992178,1.1151751,3.2113803e-05,0,1,0,1
15596000,15474000,15516000,0,-0.05709839,1.0,0.037309177,1.1151406,4.9930022e-05,0,1,0,1
15996000,15874000,15916000,0,-0.040100098,1.0,0.018860385,1.1142671,1.27694375e-05,0,1,0,1
16396000,16274000,16316000,0,-0.04510498,1.0,0.023331054,1.1136127,1.9552152e-05,0,1,0,1
16796000,16674000,16716000,0,-0.040100098,1.0,0.018824706,1.1131442,1.2734004e-05,0,1,0,1
17188000,17074000,17108000,0,-0.041107178,1.0,0.023962326,1.1123827,2.0647321e-05,0,1,0,1
17596000,17474000,17516000,0,-0.047088623,1.0,0.033892225,1.1126363,4.1295898e-05,0,1,0,1
17996000,17874000,17916000,0,-0.046081543,1.0,0.02924703,1.1134892,3.072823e-05,0,1,0,1
18388000,18274000,18308000,0,-0.0440979,1.0,0.030720148,1.1129252,3.3918812e-05,0,1,0,1
18796000,18674000,18716000,0,-0.038085938,1.0,0.028598007,1.1133517,2.9383204e-05,0,1,0,1
19196000,19074000,19116000,0,-0.041107178,1.0,0.03469755,1.113285,4.3256496e-05,0,1,0,1
19596000,19474000,19516000,0,-0.0440979,1.0,0.042064965,1.1132308,6.357931e-05,0,1,0,1
19988000,19874000,19908000,0,-0.039093018,1.0,0.033767223,1.1137468,4.095097e-05,0,1,0,1
20396000,20274000,20316000,0,-0.053100586,1.0,0.049793538,1.114191,8.901153e-05,0,1,0,1
20796000,20674000,20716000,0,-0.041107178,1.0,0.0361384,1.1140647,4.6890775e-05,0,1,0,1
21196000,21074000,21116000,0,-0.047088623,1.0,0.044463623,1.1139195,7.099306e-05,0,1,0,1
21588000,21474000,21508000,0,-0.053100586,1.0,0.053736817,1.1143564,0.0001036525,0,1,0,1
21988000,21874000,21908000,0,-0.041107178,1.0,0.042645812,1.1142383,6.52882e-05,0,1,0,1
22388000,22274000,22308000,0,-0.038085938,1.0,0.04255976,1.1141056,6.5032735e-05,0,1,0,1
22796000,22674000,22716000,0,-0.037078857,1.0,0.05065877,1.1143917,9.2115224e-05,0,1,0,1
23196000,23074000,23116000,0,-0.049102783,1.0,0.06316738,1.114155,0.00014325179,0,1,0,1
23596000,23474000,23516000,0,-0.04510498,1.0,0.060182948,1.1149648,0.00012994086,0,1,0,1
23996000,23874000,23916000,0,-0.046081543,1.0,0.0607287,1.1147078,0.00013233871,0,1,0,1
24396000,24274000,24316000,0,-0.04510498,1.0,0.058951177,1.114463,0.00012473241,0,1,0,1
24788000,24674000,24708000,0,-0.04208374,1.0,0.056616448,1.1137642,0.00011512031,0,1,0,1
25196000,25074000,25116000,0,-0.036102295,1.0,0.057171054,1.1140323,0.00011735852,0,1,0,1
25596000,25474000,25516000,0,-0.0440979,1.0,0.07290504,1.1148406,0.0001907051,0,1,0,1
25988000,25874000,25908000,0,-0.047088623,1.0,0.07330862,1.1141043,0.00019294972,0,1,0,1
26396000,26274000,26316000,0,-0.037078857,1.0,0.062774375,1.1143209,0.00014145377,0,1,0,1
26796000,26674000,26716000,0,-0.047088623,1.0,0.07210966,1.1150686,0.00018652856,0,1,0,1
27196000,27074000,27116000,0,-0.046081543,1.0,0.07739608,1.1147382,0.00021494385,0,1,0,1
27588000,27474000,27508000,0,-0.038085938,1.0,0.07380609,1.1139418,0.00019560588,0,1,0,1
27996000,27874000,27916000,0,-0.033081055,1.0,0.07484782,1.1141262,0.00020113325,0,1,0,1
28388000,28274000,28308000,0,-0.051086426,1.0,0.09806013,1.1144193,0.00034514078,0,1,0,1
28796000,28674000,28716000,0,-0.039093018,1.0,0.08838953,1.1136608,0.0002806136,0,1,0,1
29188000,29074000,29108000,0,-0.048095703,1.0,0.09701355,1.114064,0.0003379206,0,1,0,1
29588000,29474000,29508000,0,-0.054107666,1.0,0.12037977,1.1139416,0.00052036083,0,1,0,1
29996000,29874000,29916000,0,-0.041107178,1.0,0.115682535,1.1142361,0.00048041696,0,1,0,1
30396000,30274000,30316000,0,-0.04208374,1.0,0.12020076,1.1139858,0.0005187938,0,1,0,1
30788000,30670000,30708000,0,-0.038085938,1.0,0.11766625,1.114331,0.00049699226,0,1,0,1
31188000,31074000,31108000,0,-0.050079346,1.0,0.14092939,1.1141375,0.00071305706,0,1,0,1
31596000,31474000,31516000,0,-0.0440979,1.0,0.1421646,1.1143701,0.00072546006,0,1,0,1
31996000,31874000,31916000,0,-0.04309082,1.0,0.14801615,1.1140696,0.0007866217,0,1,0,1
32396000,32274000,32316000,0,-0.048095703,1.0,0.1533955,1.1138405,0.0008450108,0,1,0,1
32796000,32674000,32716000,0,-0.0440979,1.0,0.15042403,1.1146804,0.00081197766,0,1,0,1
33196000,33074000,33116000,0,-0.034088135,1.0,0.14453498,1.1144363,0.000749809,0,1,0,1
33596000,33474000,33516000,0,-0.035095215,1.0,0.14528814,1.1141702,0.00075782475,0,1,0,1
33996000,33874000,33916000,0,-0.029083252,1.0,0.12580016,1.114949,0.00056776346,0,1,0,1
34396000,34274000,34316000,0,-0.049102783,1.0,0.14346424,1.1146688,0.0007385866,0,1,0,1
34796000,34674000,34716000,0,-0.047088623,1.0,0.13753,1.114458,0.0006788771,0,1,0,1
35196000,35074000,35116000,0,-0.053100586,1.0,0.12973997,1.1142795,0.0006042455,0,1,0,1
35588000,35474000,35508000,0,-0.13708496,1.0,0.12912434,1.1136724,0.000598851,0,1,0,1
35996000,35874000,35916000,0,-0.35910034,1.0,0.111402735,1.1140168,0.00044561515,0,1,0,1
36388000,36274000,36308000,0,-0.6980896,1.0,0.122386575,1.1133922,0.0005381203,0,1,0,1
36788000,36674000,36708000,0,-1.0610962,1.0,0.11309314,1.1133038,0.00045953525,0,1,0,1
37188000,37074000,37108000,0,-1.4710999,1.0,0.10276532,1.1142428,0.00037911706,0,1,0,1
37588000,37474000,37508000,0,-1.9270935,1.0,0.10413396,1.1140893,0.0003893362,0,1,0,1
37996000,37874000,37916000,0,-2.4031067,1.0,0.08282399,1.1143557,0.00024623427,0,1,0,1
38396000,38274000,38316000,0,-2.9230957,1.0,0.08734441,1.1151395,0.0002736535,0,1,0,1
38796000,38674000,38716000,0,-3.4530945,1.0,0.087095976,1.11484,0.00027217212,0,1,0,1
39196000,39074000,39116000,0,-4.0111084,1.0,0.0919795,1.1145251,0.00030363532,0,1,0,1
39596000,39474000,39516000,0,-4.581085,1.0,0.09251404,1.1142272,0.00030725682,0,1,0,1
39996000,39874000,39916000,0,-5.158081,1.0,0.08758402,1.1139486,0.00027545114,0,1,0,1
40396000,40274000,40316000,0,-5.7550964,1.0,0.098475456,1.1147382,0.00034797104,0,1,0,1
40788000,40674000,40708000,0,-6.357086,1.0,0.10876417,1.1140306,0.00042475117,0,1,0,1
41196000,41074000,41116000,0,-6.96109,1.0,0.09317875,1.11432,0.00031166195,0,1,0,1
41588000,41474000,41508000,0,-7.5940857,1.0,0.12532568,1.1146648,0.0005636323,0,1,0,1
41988000,41874000,41908000,0,-8.180084,1.0,0.14180851,1.1144586,0.0007217731,0,1,0,1
42388000,42274000,42308000,0,-8.683105,1.0,0.1438446,1.1142603,0.00074278045,0,1,0,1
42796000,42674000,42716000,0,-9.113098,1.0,0.1329794,1.1144965,0.00063467294,0,1,0,1
43188000,43074000,43108000,0,-9.485107,1.0,0.1623087,1.1137422,0.00094614754,0,1,0,1
43588000,43474000,43508000,0,-9.739105,1.0,0.16934109,1.1145855,0.0010291325,0,1,0,1
43988000,43874000,43908000,0,-9.870087,1.0,0.16893673,1.114374,0.0010244179,0,1,0,1
44396000,44274000,44316000,0,-9.917084,1.0,0.16814518,1.1146126,0.0010146234,0,1,0,1
44796000,44674000,44716000,0,-9.952087,1.0,0.16927338,1.1144001,0.0010284807,0,1,0,1
45196000,45074000,45116000,0,-9.95108,1.0,0.16524887,1.1143205,0.0009802275,0,1,0,1
45596000,45474000,45516000,0,-9.928101,1.0,0.17764854,1.1143684,0.0011328033,0,1,0,1
45996000,45874000,45916000,0,-9.899109,1.0,0.1752615,1.1144118,0.0011025221,0,1,0,1
46396000,46274000,46316000,0,-9.890106,1.0,0.18722153,1.1144338,0.0012581062,0,1,0,1
46796000,46678000,46716000,0,-9.894104,1.0,0.18875313,1.1143762,0.0012788408,0,1,0,1
47188000,47074000,47108000,0,-9.893097,1.0,0.1850357,1.1148529,0.0012284387,0,1,0,1
47588000,47474000,47508000,0,-9.910095,1.0,0.19638062,1.1147456,0.0013838258,0,1,0,1
47996000,47874000,47916000,0,-9.919098,1.0,0.18984699,1.1150703,0.0012929008,0,1,0,1
48396000,48274000,48316000,0,-9.9270935,1.0,0.19156456,1.1148953,0.0013166072,0,1,0,1
48796000,48674000,48716000,0,-9.9151,1.0,0.1724062,1.1157964,0.001065567,0,1,0,1
49188000,49074000,49108000,0,-9.926086,1.0,0.17713451,1.1151358,0.0011254823,0,1,0,1
49596000,49474000,49516000,0,-9.936096,1.0,0.18789005,1.1155142,0.0012658798,0,1,0,1
49988000,49874000,49908000,0,-9.942108,1.0,0.18625832,1.1148406,0.0012447397,0,1,0,1
50396000,50274000,50316000,0,-9.950104,1.0,0.18144035,1.1151278,0.0011808728,0,1,0,1
50788000,50674000,50708000,0,-9.959106,1.0,0.18165398,1.1154898,0.001183271,0,1,0,1
51196000,51074000,51116000,0,-9.960083,1.0,0.18185616,1.115731,0.00118565,0,1,0,1
51588000,51474000,51508000,0,-9.970093,1.0,0.18945217,1.1149333,0.001287687,0,1,0,1
51988000,51874000,51908000,0,-9.982086,1.0,0.19311523,1.1157136,0.0013370275,0,1,0,1
52396000,52274000,52316000,0,-9.978088,1.0,0.18084812,1.115879,0.0011723867,0,1,0,1
52796000,52674000,52716000,0,-9.99408,1.0,0.19166851,1.1154913,0.0013173323,0,1,0,1
53188000,53074000,53108000,0,-9.997101,1.0,0.19207668,1.1146209,0.0013239821,0,1,0,1
53596000,53474000,53516000,0,-10.010101,1.0,0.2008686,1.1147777,0.0014477577,0,1,0,1
53996000,53874000,53916000,0,-10.009094,1.0,0.18966484,1.1154838,0.0012899427,0,1,0,1
54396000,54274000,54316000,0,-10.020081,1.0,0.19173908,1.1151159,0.0013187464,0,1,0,1
54796000,54674000,54716000,0,-10.028107,1.0,0.189991,1.1147623,0.0012952207,0,1,0,1
55196000,55078000,55116000,0,-10.036102,1.0,0.18545437,1.1143942,0.0012345118,0,1,0,1
55596000,55474000,55516000,0,-10.045105,1.0,0.18935108,1.1140289,0.0012873573,0,1,0,1
55996000,55874000,55916000,0,-10.048096,1.0,0.18892765,1.1147034,0.0012808306,0,1,0,1
56396000,56274000,56316000,0,-10.051086,1.0,0.19472408,1.1142933,0.0013611305,0,1,0,1
56796000,56678000,56716000,0,-10.042084,1.0,0.181983,1.1138693,0.0011892888,0,1,0,1
57188000,57074000,57108000,0,-10.0520935,1.0,0.18527889,1.1140414,0.001232567,0,1,0,1
57596000,57474000,57516000,0,-10.056091,1.0,0.1809206,1.1141226,0.0011751764,0,1,0,1
57996000,57874000,57916000,0,-10.058105,1.0,0.18070126,1.1137382,0.0011727333,0,1,0,1
58388000,58274000,58308000,0,-10.06308,1.0,0.18139362,1.1129367,0.0011825882,0,1,0,1
58796000,58674000,58716000,0,-10.071106,1.0,0.18307018,1.1130848,0.0012043896,0,1,0,1
59196000,59074000,59116000,0,-10.074097,1.0,0.1852808,1.1127732,0.0012339972,0,1,0,1
59596000,59474000,59516000,0,-10.066101,1.0,0.17078114,1.1134819,0.0010477474,0,1,0,1
59996000,59878000,59916000,0,-10.071106,1.0,0.17012596,1.1131396,0.0010400435,0,1,0,1
60396000,60274000,60316000,0,-10.0780945,1.0,0.17384529,1.1128132,0.0010863345,0,1,0,1
60788000,60674000,60708000,0,-10.070099,1.0,0.15987492,1.113063,0.000918546,0,1,0,1
61196000,61074000,61116000,0,-10.058105,1.0,0.15211105,1.1132059,0.0008313924,0,1,0,1
61596000,61474000,61516000,0,-10.055084,1.0,0.14572906,1.1128327,0.00076334784,0,1,0,1
61996000,61874000,61916000,0,-10.046082,1.0,0.13547516,1.11349,0.0006593151,0,1,0,1
62388000,62274000,62308000,0,-10.048096,1.0,0.14044094,1.1126673,0.0007090586,0,1,0,1
62796000,62674000,62716000,0,-10.044098,1.0,0.14033985,1.1127751,0.00070796965,0,1,0,1
63196000,63074000,63116000,0,-10.048096,1.0,0.14229393,1.1124055,0.00072806404,0,1,0,1
63596000,63474000,63516000,0,-10.0520935,1.0,0.14337254,1.113071,0.00073870167,0,1,0,1
63996000,63878000,63916000,0,-10.066101,1.0,0.15237808,1.1127478,0.00083465746,0,1,0,1
64388000,64274000,64308000,0,-10.070099,1.0,0.14997482,1.1120428,0.00080904976,0,1,0,1
64788000,64674000,64708000,0,-10.083099,1.0,0.15023422,1.1118584,0.00081198546,0,1,0,1
65196000,65074000,65116000,0,-10.106079,1.0,0.14889526,1.1121624,0.0007973584,0,1,0,1
65596000,65474000,65516000,0,-10.102081,1.0,0.14138031,1.1130122,0.000718353,0,1,0,1
65996000,65874000,65916000,0,-10.091095,1.0,0.14347172,1.1128303,0.00073988404,0,1,0,1
66396000,66274000,66316000,0,-10.091095,1.0,0.14007378,1.1126541,0.00070536433,0,1,0,1
66796000,66674000,66716000,0,-10.110107,1.0,0.14540958,1.1125226,0.0007602164,0,1,0,1
67196000,67074000,67116000,0,-10.110107,1.0,0.13499641,1.1134449,0.0006546901,0,1,0,1
67596000,67474000,67516000,0,-10.092102,1.0,0.1316557,1.113302,0.00062276796,0,1,0,1
67996000,67874000,67916000,0,-10.068085,1.0,0.12630367,1.1131206,0.00057325745,0,1,0,1
68396000,68274000,68316000,0,-10.067108,1.0,0.14028072,1.1129223,0.00070727966,0,1,0,1
68788000,68674000,68708000,0,-10.044098,1.0,0.12219429,1.1132606,0.00053649413,0,1,0,1
69188000,69074000,69108000,0,-10.03009,1.0,0.11351204,1.1130619,0.0004630464,0,1,0,1
69596000,69474000,69516000,0,-10.026093,1.0,0.11009884,1.1132824,0.00043553204,0,1,0,1
69988000,69874000,69908000,0,-10.010101,1.0,0.09778309,1.1125798,0.00034376077,0,1,0,1
70396000,70274000,70316000,0,-9.992096,1.0,0.08533764,1.112862,0.000261758,0,1,0,1
70796000,70674000,70716000,0,-9.966095,1.0,0.07768726,1.1126631,0.00021696812,0,1,0,1
71196000,71074000,71116000,0,-9.96109,1.0,0.08232784,1.1124852,0.00024370207,0,1,0,1
71596000,71474000,71516000,0,-9.935089,1.0,0.064935684,1.1133474,0.00015149424,0,1,0,1
71996000,71874000,71916000,0,-9.928101,1.0,0.0620203,1.113192,0.0001382158,0,1,0,1
72396000,72274000,72316000,0,-9.9021,1.0,0.039325714,1.1130819,5.5575845e-05,0,1,0,1
72796000,72674000,72716000,0,-9.890106,1.0,0.029392242,1.1130486,3.1046406e-05,0,1,0,1
73188000,73074000,73108000,0,-9.889099,1.0,0.034662247,1.1126325,4.3193824e-05,0,1,0,1
73596000,73474000,73516000,0,-9.875092,1.0,0.024383545,1.1131573,2.1364718e-05,0,1,0,1
73996000,73874000,73916000,0,-9.885101,1.0,0.0230999,1.1131405,1.9174771e-05,0,1,0,1
74388000,74274000,74308000,0,-9.887085,1.0,0.012036324,1.1126616,5.2081637e-06,0,1,0,1
74788000,74670000,74708000,0,-9.8811035,1.0,0.0024585724,1.1136943,2.1710008e-07,0,1,0,1
75188000,75074000,75108000,0,-9.873108,1.0,0.0018730164,1.1136724,1.260044e-07,0,1,0,1
75596000,75474000,75516000,0,-9.865082,1.0,-0.011566162,1.1141039,4.803003e-06,0,1,0,1
75996000,75874000,75916000,0,-9.870087,1.0,-0.023389816,1.1139823,1.9644243e-05,0,1,0,1
76388000,76274000,76308000,0,-9.873108,1.0,-0.022677422,1.1133909,1.8475646e-05,0,1,0,1
76788000,76674000,76708000,0,-9.855103,1.0,-0.023742676,1.1133338,2.0253212e-05,0,1,0,1
77188000,77074000,77108000,0,-9.844086,1.0,-0.01943779,1.1132648,1.3575483e-05,0,1,0,1
77596000,77474000,77516000,0,-9.843109,1.0,-0.016181946,1.1136248,9.405515e-06,0,1,0,1
77996000,77874000,77916000,0,-9.8461,1.0,-0.011838913,1.114507,5.0303806e-06,0,1,0,1
78396000,78274000,78316000,0,-9.850098,1.0,-0.012262344,1.1133127,5.4024385e-06,0,1,0,1
78796000,78674000,78716000,0,-9.863098,1.0,0.0006914139,1.1131645,1.7178166e-08,0,1,0,1
79196000,79074000,79116000,0,-9.867096,1.0,-0.0007686615,1.1140891,2.12134e-08,0,1,0,1
79596000,79478000,79516000,0,-9.872101,1.0,0.00031852722,1.1139243,3.643321e-09,0,1,0,1
79996000,79874000,79916000,0,-9.896088,1.0,0.02188778,1.113732,1.720611e-05,0,1,0,1
80396000,80274000,80316000,0,-9.922089,1.0,0.03719139,1.113553,4.968599e-05,0,1,0,1
80788000,80674000,80708000,0,-9.926086,1.0,0.02631855,1.1139654,2.4872088e-05,0,1,0,1
81196000,81074000,81116000,0,-9.922089,1.0,0.0136060715,1.114265,6.645643e-06,0,1,0,1
81596000,81474000,81516000,0,-9.941101,1.0,0.03244877,1.1140206,3.7806214e-05,0,1,0,1
81988000,81874000,81908000,0,-9.9530945,1.0,0.04191208,1.1143571,6.30542e-05,0,1,0,1
82396000,82274000,82316000,0,-9.952087,1.0,0.03889942,1.114626,5.4302156e-05,0,1,0,1
82796000,82674000,82716000,0,-9.969086,1.0,0.055009842,1.1143872,0.00010861872,0,1,0,1
83196000,83074000,83116000,0,-9.975098,1.0,0.054739952,1.1141559,0.00010757785,0,1,0,1
83596000,83474000,83516000,0,-9.980103,1.0,0.058234215,1.1139635,0.00012177145,0,1,0,1
83988000,83874000,83908000,0,-9.972107,1.0,0.0497427,1.113358,8.889633e-05,0,1,0,1
84396000,84274000,84316000,0,-9.982086,1.0,0.062026024,1.1136957,0.00013817877,0,1,0,1
84796000,84674000,84716000,0,-9.970093,1.0,0.047418594,1.1145391,8.069786e-05,0,1,0,1
85196000,85074000,85116000,0,-9.980103,1.0,0.060881615,1.1142992,0.00013305478,0,1,0,1
85588000,85474000,85508000,0,-9.990082,1.0,0.06819248,1.1136078,0.0001670324,0,1,0,1
85996000,85874000,85916000,0,-9.985107,1.0,0.06313038,1.1139054,0.00014311609,0,1,0,1
86388000,86274000,86308000,0,-10.002106,1.0,0.078897476,1.1142961,0.00022345269,0,1,0,1
86788000,86674000,86708000,0,-10.0271,1.0,0.079143524,1.1141206,0.000224884,0,1,0,1
87196000,87074000,87116000,0,-10.0271,1.0,0.06776905,1.1143677,0.00016485201,0,1,0,1
87596000,87474000,87516000,0,-10.041107,1.0,0.089715004,1.1141492,0.00028896602,0,1,0,1
87988000,87874000,87908000,0,-10.036102,1.0,0.08293438,1.1134818,0.00024708483,0,1,0,1
88396000,88274000,88316000,0,-10.051086,1.0,0.0856514,1.11377,0.00026347136,0,1,0,1
88796000,88674000,88716000,0,-10.066101,1.0,0.09226799,1.114604,0.0003055213,0,1,0,1
89188000,89074000,89108000,0,-10.066101,1.0,0.0970335,1.1138948,0.00033811093,0,1,0,1
89596000,89474000,89516000,0,-10.053101,1.0,0.09280586,1.1141378,0.00030922308,0,1,0,1
89996000,89874000,89916000,0,-10.034088,1.0,0.08645344,1.1139082,0.00026839544,0,1,0,1
90396000,90274000,90316000,0,-10.036102,1.0,0.09834194,1.1137062,0.00034734968,0,1,0,1
90796000,90674000,90716000,0,-10.039093,1.0,0.10184097,1.1134857,0.00037258075,0,1,0,1
91196000,91074000,91116000,0,-10.046082,1.0,0.11268711,1.1143204,0.00045582527,0,1,0,1
91596000,91474000,91516000,0,-10.0401,1.0,0.107494354,1.1140842,0.0004148712,0,1,0,1
91988000,91874000,91908000,0,-10.029083,1.0,0.09380722,1.1134375,0.00031613072,0,1,0,1
92396000,92274000,92316000,0,-10.033081,1.0,0.102048874,1.1137874,0.00037400218,0,1,0,1
92796000,92674000,92716000,0,-10.024109,1.0,0.0921278,1.1136078,0.00030486612,0,1,0,1
93196000,93074000,93116000,0,-10.008087,1.0,0.087389946,1.1134335,0.00027435864,0,1,0,1
93588000,93474000,93508000,0,-9.993103,1.0,0.08439064,1.1138369,0.00025575666,0,1,0,1
93996000,93874000,93916000,0,-9.969086,1.0,0.06677437,1.1141549,0.00016007885,0,1,0,1
94396000,94274000,94316000,0,-9.9730835,1.0,0.08097839,1.1139549,0.00023546733,0,1,0,1
94796000,94674000,94716000,0,-9.970093,1.0,0.07373619,1.1137407,0.0001952708,0,1,0,1
95196000,95074000,95116000,0,-9.943085,1.0,0.045562744,1.1135616,7.457023e-05,0,1,0,1
95596000,95474000,95516000,0,-9.934082,1.0,0.0473032,1.1144339,8.031316e-05,0,1,0,1
95996000,95874000,95916000,0,-9.924103,1.0,0.049542427,1.1142334,8.811267e-05,0,1,0,1
96388000,96270000,96308000,0,-10.048096,1.0,0.04151821,1.1135505,6.191948e-05,0,1,0,1
96796000,96674000,96716000,0,-10.555084,1.0,0.00038051605,1.114878,5.1949165e-09,0,1,0,1
97188000,97074000,97108000,0,-11.476105,1.0,-0.013072014,1.1141789,6.134654e-06,0,1,0,1
97596000,97474000,97516000,0,-12.574097,1.0,-0.0413723,1.1144904,6.143318e-05,0,1,0,1
97996000,97874000,97916000,0,-13.639099,1.0,-0.024127007,1.1142577,2.089687e-05,0,1,0,1
98396000,98274000,98316000,0,-14.670105,1.0,-0.011814117,1.1150666,5.006817e-06,0,1,0,1
98796000,98674000,98716000,0,-15.690094,1.0,-0.020317078,1.1148341,1.4810586e-05,0,1,0,1
99188000,99074000,99108000,0,-16.706085,1.0,-0.0027599335,1.114125,2.7347858e-07,0,1,0,1
99596000,99474000,99516000,0,-17.722107,1.0,-0.04102707,1.1144136,6.041636e-05,0,1,0,1
99996000,99874000,99916000,0,-18.756104,1.0,-0.027860641,1.1141598,2.7867289e-05,0,1,0,1
100396000,100278000,100316000,0,-19.796082,1.0,-0.012374878,1.1149856,5.493797e-06,0,1,0,1
100788000,100670000,100708000,0,-20.820099,1.0,-0.0012893677,1.1142945,5.96779e-08,0,1,0,1
101188000,101074000,101108000,0,-21.848083,1.0,-0.008321762,1.1141382,2.4862882e-06,0,1,0,1
101596000,101474000,101516000,0,-22.875092,1.0,-0.037776947,1.1144714,5.122061e-05,0,1,0,1
101996000,101874000,101916000,0,-23.916107,1.0,-0.02347374,1.1143162,1.9779536e-05,0,1,0,1
102388000,102270000,102308000,0,-24.820099,1.0,0.0002193451,1.1136853,1.7280384e-09,0,1,0,1
102796000,102674000,102716000,0,-25.603119,1.0,-0.012825012,1.1140101,5.905905e-06,0,1,0,1
103196000,103074000,103116000,0,-26.278107,1.0,-0.019908905,1.1148722,1.4220984e-05,0,1,0,1
103596000,103474000,103516000,0,-26.863068,1.0,-0.028909683,1.1146953,2.999097e-05,0,1,0,1
103996000,103874000,103916000,0,-27.376068,1.0,-0.0058689117,1.114549,1.2361637e-06,0,1,0,1
104396000,104274000,104316000,0,-27.799103,1.0,0.0030784607,1.1144352,3.401515e-07,0,1,0,1
104796000,104674000,104716000,0,-28.15207,1.0,-0.0031757355,1.1143323,3.620211e-07,0,1,0,1
105196000,105074000,105116000,0,-28.453094,1.0,-0.005832672,1.1142324,1.2212915e-06,0,1,0,1
105596000,105474000,105516000,0,-28.704071,1.0,-0.008863449,1.1141155,2.8205595e-06,0,1,0,1
105996000,105874000,105916000,0,-28.910065,1.0,-0.008459091,1.113953,2.569452e-06,0,1,0,1
106396000,106274000,106316000,0,-29.075104,1.0,-0.008523941,1.1148416,2.60692e-06,0,1,0,1
106796000,106674000,106716000,0,-29.219086,1.0,-0.004869461,1.1146483,8.5091057e-07,0,1,0,1
107196000,107074000,107116000,0,-29.354095,1.0,0.0004005432,1.1144141,5.758537e-09,0,1,0,1
107588000,107474000,107508000,0,-29.46811,1.0,-0.001537323,1.1147335,8.480456e-08,0,1,0,1
107996000,107874000,107916000,0,-29.54007,1.0,-0.0062885284,1.1149474,1.4187427e-06,0,1,0,1
108396000,108274000,108316000,0,-29.594086,1.0,0.0034446716,1.1145955,4.2583204e-07,0,1,0,1
108796000,108674000,108716000,0,-29.600067,1.0,-0.008142471,1.1142299,2.3801133e-06,0,1,0,1
109188000,109074000,109108000,0,-29.582123,1.0,-0.02037239,1.1144865,1.4895983e-05,0,1,0,1
109596000,109474000,109516000,0,-29.59311,1.0,-0.01537323,1.1147147,8.480599e-06,0,1,0,1
109996000,109874000,109916000,0,-29.604095,1.0,-0.0195961,1.1144812,1.3782453e-05,0,1,0,1
110396000,110274000,110316000,0,-29.611115,1.0,-0.020309448,1.1142719,1.4806932e-05,0,1,0,1
110796000,110674000,110716000,0,-29.614105,1.0,-0.023937225,1.1140707,2.0572868e-05,0,1,0,1
111196000,111074000,111116000,0,-29.617096,1.0,-0.02296257,1.1138667,1.8935109e-05,0,1,0,1
111596000,111474000,111516000,0,-29.626068,1.0,-0.023456573,1.1137123,1.9761326e-05,0,1,0,1
111996000,111878000,111916000,0,-29.637115,1.0,-0.019767761,1.1135637,1.4036535e-05,0,1,0,1
112396000,112274000,112316000,0,-29.657074,1.0,-0.017461777,1.114453,1.0943975e-05,0,1,0,1
112796000,112674000,112716000,0,-29.681122,1.0,-0.013917923,1.1142868,6.9536345e-06,0,1,0,1
113196000,113074000,113116000,0,-29.706085,1.0,-0.010128021,1.1141251,3.6827753e-06,0,1,0,1
113596000,113474000,113516000,0,-29.739105,1.0,0.0021362305,1.11395,1.6386662e-07,0,1,0,1
113996000,113874000,113916000,0,-29.769073,1.0,0.010881424,1.1137829,4.2523684e-06,0,1,0,1
114396000,114274000,114316000,0,-29.794098,1.0,0.011293411,1.1136498,4.581014e-06,0,1,0,1
114796000,114674000,114716000,0,-29.81308,1.0,0.013271332,1.1145446,6.3210837e-06,0,1,0,1
115188000,115074000,115108000,0,-29.84311,1.0,0.026039124,1.113884,2.434853e-05,0,1,0,1
115596000,115474000,115516000,0,-29.887115,1.0,0.051288605,1.1142151,9.443494e-05,0,1,0,1
115996000,115874000,115916000,0,-29.901093,1.0,0.040859222,1.1140193,5.9944243e-05,0,1,0,1
116396000,116274000,116316000,0,-29.929108,1.0,0.05152321,1.1148565,9.524602e-05,0,1,0,1
116796000,116674000,116716000,0,-29.953094,1.0,0.06427002,1.114629,0.00014823355,0,1,0,1
117196000,117074000,117116000,0,-29.96811,1.0,0.06568718,1.1143696,0.00015487878,0,1,0,1
117596000,117474000,117516000,0,-29.987091,1.0,0.07766342,1.1140945,0.00021655641,0,1,0,1
117988000,117874000,117908000,0,-30.001068,1.0,0.08611107,1.1144336,0.00026614833,0,1,0,1
118396000,118274000,118316000,0,-30.00412,1.0,0.07504082,1.1146883,0.00020206992,0,1,0,1
118796000,118674000,118716000,0,-29.8591,1.0,0.09119034,1.1144207,0.00029847538,0,1,0,1
119196000,119078000,119116000,0,-29.34909,1.0,0.11838341,1.1141305,0.0005031594,0,1,0,1
119596000,119474000,119516000,0,-28.730072,1.0,0.10595894,1.1149024,0.00040280825,0,1,0,1
119996000,119874000,119916000,0,-28.147125,1.0,0.09185028,1.114666,0.00030274448,0,1,0,1
120396000,120274000,120316000,0,-27.558075,1.0,0.08579826,1.1144408,0.00026421653,0,1,0,1
120796000,120674000,120716000,0,-26.946075,1.0,0.065359116,1.1142395,0.00015335354,0,1,0,1
121196000,121074000,121116000,0,-26.34311,1.0,0.05907631,1.1140652,0.00012530723,0,1,0,1
121588000,121474000,121508000,0,-25.730072,1.0,0.044923782,1.1134262,7.25022e-05,0,1,0,1
121996000,121874000,121916000,0,-25.117096,1.0,0.04990959,1.1137599,8.946156e-05,0,1,0,1
122388000,122270000,122308000,0,-24.505096,1.0,0.027290344,1.1141757,2.673772e-05,0,1,0,1
122796000,122674000,122716000,0,-23.888092,1.0,0.028234482,1.1144812,2.8611914e-05,0,1,0,1
123196000,123074000,123116000,0,-23.285095,1.0,0.027391434,1.1142558,2.6934234e-05,0,1,0,1
123596000,123474000,123516000,0,-22.670105,1.0,0.0063762665,1.1140659,1.459762e-06,0,1,0,1
123996000,123874000,123916000,0,-22.051086,1.0,-0.008079529,1.1138936,2.3441658e-06,0,1,0,1
124396000,124274000,124316000,0,-21.429108,1.0,-0.019256592,1.1137527,1.33177255e-05,0,1,0,1
124788000,124674000,124708000,0,-20.81009,1.0,-0.04206276,1.1141858,6.351816e-05,0,1,0,1
125196000,125074000,125116000,0,-20.205109,1.0,-0.032945633,1.1145289,3.8955106e-05,0,1,0,1
125596000,125474000,125516000,0,-19.587097,1.0,-0.051847458,1.1143756,9.649023e-05,0,1,0,1
125996000,125874000,125916000,0,-18.983093,1.0,-0.05428505,1.1142455,0.00010578877,0,1,0,1
126396000,126274000,126316000,0,-18.366089,1.0,-0.0698452,1.114146,0.0001751423,0,1,0,1
126796000,126674000,126716000,0,-17.751099,1.0,-0.074769974,1.114028,0.0002007328,0,1,0,1
127188000,127074000,127108000,0,-17.154083,1.0,-0.08144951,1.1134117,0.00023833135,0,1,0,1
127596000,127474000,127516000,0,-16.536102,1.0,-0.08805466,1.1138287,0.00027844938,0,1,0,1
127988000,127874000,127908000,0,-15.922089,1.0,-0.111263275,1.1143236,0.0004443778,0,1,0,1
128396000,128274000,128316000,0,-15.32309,1.0,-0.0943079,1.1147361,0.00031914207,0,1,0,1
128796000,128674000,128716000,0,-14.714081,1.0,-0.100912094,1.1145841,0.0003654547,0,1,0,1
129196000,129074000,129116000,0,-14.111084,1.0,-0.10567856,1.1143907,0.00040086327,0,1,0,1
129596000,129474000,129516000,0,-13.516083,1.0,-0.107577324,1.1152267,0.0004150862,0,1,0,1
129996000,129874000,129916000,0,-12.9071045,1.0,-0.122107506,1.1149696,0.0005349112,0,1,0,1
130396000,130274000,130316000,0,-12.31308,1.0,-0.111418724,1.1147301,0.00044545784,0,1,0,1
130796000,130674000,130716000,0,-11.743103,1.0,-0.11461544,1.1145045,0.00047148124,0,1,0,1
131196000,131074000,131116000,0,-11.298096,1.0,-0.12592983,1.1142647,0.00056928385,0,1,0,1
131596000,131474000,131516000,0,-10.963104,1.0,-0.11318588,1.1150942,0.00045955024,0,1,0,1
131988000,131874000,131908000,0,-10.692108,1.0,-0.1235199,1.1143755,0.000547649,0,1,0,1
132396000,132274000,132316000,0,-10.4841,1.0,-0.110827446,1.1146098,0.00044079003,0,1,0,1
132796000,132674000,132716000,0,-10.229095,1.0,-0.08964634,1.1153755,0.00028820665,0,1,0,1
133196000,133074000,133116000,0,-9.694092,1.0,-0.06900501,1.11506,0.00017081383,0,1,0,1
133588000,133474000,133508000,0,-9.099091,1.0,-0.08334923,1.1142685,0.00024938668,0,1,0,1
133996000,133874000,133916000,0,-8.607086,1.0,-0.071905136,1.114479,0.00018557008,0,1,0,1
134396000,134274000,134316000,0,-8.139099,1.0,-0.054171562,1.1152732,0.000105249834,0,1,0,1
134788000,134674000,134708000,0,-7.6760864,1.0,-0.07345104,1.1145405,0.0001936244,0,1,0,1
135188000,135074000,135108000,0,-7.2500916,1.0,-0.07110977,1.1143326,0.00018151132,0,1,0,1
135596000,135474000,135516000,0,-6.866089,1.0,-0.038696766,1.1145946,5.373935e-05,0,1,0,1
135988000,135874000,135908000,0,-6.472107,1.0,-0.059372902,1.113914,0.00012658576,0,1,0,1
136396000,136274000,136316000,0,-6.123108,1.0,-0.03883934,1.1142479,5.415292e-05,0,1,0,1
136796000,136674000,136716000,0,-5.787079,1.0,-0.041318417,1.1140889,6.1295344e-05,0,1,0,1
137196000,137074000,137116000,0,-5.4780884,1.0,-0.038965225,1.1139218,5.4520482e-05,0,1,0,1
137596000,137474000,137516000,0,-5.1810913,1.0,-0.03560829,1.1147888,4.549563e-05,0,1,0,1
137988000,137874000,137908000,0,-4.8950806,1.0,-0.046649456,1.1141558,7.81281e-05,0,1,0,1
138388000,138274000,138308000,0,-4.6500854,1.0,-0.021404743,1.1140274,1.6450691e-05,0,1,0,1
138796000,138674000,138716000,0,-4.3771057,1.0,-0.022045135,1.1143148,1.7445267e-05,0,1,0,1
139196000,139074000,139116000,0,-4.114105,1.0,-0.027373314,1.11516,2.68768e-05,0,1,0,1
139596000,139474000,139516000,0,-3.8591003,1.0,-0.025245667,1.1149305,2.2865772e-05,0,1,0,1
139996000,139874000,139916000,0,-3.591095,1.0,-0.018200636,1.1147344,1.1886711e-05,0,1,0,1
140396000,140274000,140316000,0,-3.3240967,1.0,-0.00732708,1.1145473,1.9267409e-06,0,1,0,1
140796000,140674000,140716000,0,-3.0680847,1.0,0.0048747063,1.1143395,8.5298103e-07,0,1,0,1
141188000,141074000,141108000,0,-2.7901,1.0,-0.013520002,1.1147338,6.559071e-06,0,1,0,1
141596000,141474000,141516000,0,-2.5300903,1.0,0.004683256,1.115021,7.868153e-07,0,1,0,1
141996000,141878000,141916000,0,-2.262085,1.0,0.011289358,1.1147568,4.5731804e-06,0,1,0,1
142396000,142274000,142316000,0,-2.0090942,1.0,0.030397415,1.1144679,3.3163913e-05,0,1,0,1
142796000,142674000,142716000,0,-1.7471008,1.0,0.033905506,1.1152353,4.1231957e-05,0,1,0,1
143188000,143074000,143108000,0,-1.5080872,1.0,0.05097437,1.1144572,9.326105e-05,0,1,0,1
143596000,143474000,143516000,0,-1.242096,1.0,0.05106175,1.1146429,9.3565475e-05,0,1,0,1
143996000,143874000,143916000,0,-0.9810791,1.0,0.059640706,1.1153934,0.00012756087,0,1,0,1
144396000,144274000,144316000,0,-0.71710205,1.0,0.067706466,1.1150861,0.00016444166,0,1,0,1
144796000,144674000,144716000,0,-0.45510864,1.0,0.07620248,1.1148044,0.0002083529,0,1,0,1
145196000,145074000,145116000,0,-0.18008423,1.0,0.07065228,1.114513,0.00017915427,0,1,0,1
145596000,145474000,145516000,0,-0.05908203,1.0,0.069589004,1.114302,0.00017383543,0,1,0,1
145996000,145878000,145916000,0,-0.047088623,1.0,0.06787757,1.113556,0.00016550093,0,1,0,1
146396000,146274000,146316000,0,-0.048095703,1.0,0.06895993,1.1133307,0.00017085568,0,1,0,1
146796000,146674000,146716000,0,-0.052093506,1.0,0.071542315,1.1116953,0.00018416208,0,1,0,1
147188000,147074000,147108000,0,-0.040100098,1.0,0.057272986,1.109501,0.00011825838,0,1,0,1
147588000,147470000,147508000,0,-0.050079346,1.0,0.0667784,1.107721,0.00016102809,0,1,0,1
147996000,147874000,147916000,0,-0.04510498,1.0,0.05495992,1.1064171,0.00010920268,0,1,0,1
148396000,148274000,148316000,0,-0.047088623,1.0,0.057797376,1.1049882,0.000120925695,0,1,0,1
148796000,148674000,148716000,0,-0.0440979,1.0,0.05543142,1.1047531,0.000111251735,0,1,0,1
149188000,149074000,149108000,0,-0.040100098,1.0,0.048434444,1.1037179,8.501793e-05,0,1,0,1
