timestamp,timestamp_sample,time_last_fuse,device_id,observation,observation_variance,innovation,innovation_variance,test_ratio,estimator_instance,fusion_enabled,innovation_rejected,fused
3348000,3315000,0,0,1.6152885,0.0,-1.6157144,0.0,0.0,0,0,0,0
3468000,3386032,3388000,0,1.6338814,0.0,-1.6342769,0.0,inf,0,0,1,0
3540000,3455132,3388000,0,1.5917336,0.0,0.026387095,0.0,inf,0,0,1,0
3612000,3524461,3388000,0,1.6224337,0.0,-0.00430727,0.0,inf,0,0,1,0
3676000,3591268,3388000,0,1.6122237,0.0,0.0058823824,0.0,inf,0,0,1,0
3748000,3661928,3388000,0,1.6312354,0.0,-0.013123751,0.0,inf,0,0,1,0
3820000,3735395,3388000,0,1.6254561,0.0,-0.0073108673,0.0,inf,0,0,1,0
3892000,3807485,3388000,0,1.6268607,0.0,-0.008736134,0.0,inf,0,0,1,0
3964000,3879491,3388000,0,1.6603787,0.0,-0.042286754,0.0,inf,0,0,1,0
4036000,3950843,3388000,0,1.6248862,0.0,-0.0068211555,0.0,inf,0,0,1,0
4108000,4023575,3388000,0,1.6168623,0.0,0.0011554956,0.0,inf,0,0,1,0
4180000,4095278,4100000,0,1.6102601,0.0,0.009569287,0.10012353,0.00013529333,0,1,0,1
4252000,4167649,4172000,0,1.6204255,0.0,-0.0015120506,0.09911312,3.4123602e-06,0,1,0,1
4324000,4238243,4244000,0,1.6252539,0.0,-0.0062150955,0.09831265,5.8121866e-05,0,1,0,1
4388000,4307704,4308000,0,1.6385633,0.0,-0.019089937,0.097661555,0.00055199955,0,1,0,1
4460000,4377346,4380000,0,1.6201397,0.0,0.00090551376,0.09713837,1.2486843e-06,0,1,0,1
4532000,4447753,4452000,0,1.6014026,0.0,0.019575357,0.09671114,0.0005861331,0,1,0,1
4596000,4514452,4516000,0,1.6274787,0.0,-0.007857323,0.09634711,9.479029e-05,0,1,0,1
4668000,4586462,4588000,0,1.6259145,0.0,-0.0058261156,0.09606013,5.2271913e-05,0,1,0,1
4740000,4653818,4660000,0,1.6282263,0.0,-0.0077337027,0.095826015,9.233043e-05,0,1,0,1
4812000,4725828,4732000,0,1.6248654,0.0,-0.00383842,0.095636286,2.2789543e-05,0,1,0,1
4884000,4797848,4804000,0,1.61469,0.0,0.006696224,0.09548403,6.946765e-05,0,1,0,1
4956000,4869857,4876000,0,1.6169003,0.0,0.0041629076,0.09536349,2.6882197e-05,0,1,0,1
5028000,4941374,4948000,0,1.632769,0.0,-0.011829495,0.09527022,0.00021728445,0,1,0,1
5100000,5012882,5020000,0,1.6296648,0.0,-0.008143306,0.095200054,0.000103042796,0,1,0,1
5172000,5085395,5092000,0,1.6321301,0.0,-0.010134101,0.09514969,0.00015966747,0,1,0,1
5244000,5157900,5164000,0,1.6126467,0.0,0.009924769,0.095116064,0.0001531935,0,1,0,1
5316000,5229412,5236000,0,1.6215705,0.0,0.00046610832,0.09509636,3.3795837e-07,0,1,0,1
5388000,5300918,5308000,0,1.6252754,0.0,-0.0033005476,0.09508846,1.6947184e-05,0,1,0,1
5460000,5373426,5380000,0,1.6139686,0.0,0.008206964,0.09509018,0.00010478104,0,1,0,1
5532000,5444931,5452000,0,1.6247818,0.0,-0.0029952526,0.09509958,1.395538e-05,0,1,0,1
5604000,5516939,5524000,0,1.6111742,0.0,0.01074028,0.09511507,0.00017940528,0,1,0,1
5668000,5583942,5588000,0,1.6112652,0.0,0.010151148,0.0951012,0.00016028677,0,1,0,1
5740000,5655060,5660000,0,1.625486,0.0,-0.0045318604,0.09512572,3.1938052e-05,0,1,0,1
5804000,5721951,5724000,0,1.6227374,0.0,-0.001527071,0.0951177,3.6266902e-06,0,1,0,1
5876000,5793557,5796000,0,1.631253,0.0,-0.009909511,0.09514696,0.00015267321,0,1,0,1
5948000,5865959,5868000,0,1.6186433,0.0,0.0032047033,0.09517645,1.5962449e-05,0,1,0,1
6020000,5936365,5940000,0,1.6197457,0.0,0.0018846989,0.095205285,5.5192013e-06,0,1,0,1
6084000,6003965,6004000,0,1.6268985,0.0,-0.005345106,0.09519719,4.4395798e-05,0,1,0,1
6156000,6075243,6076000,0,1.6222934,0.0,-0.00047075748,0.09522476,3.44269e-07,0,1,0,1
6228000,6147971,6148000,0,1.6132247,0.0,0.008649588,0.09524997,0.00011619283,0,1,0,1
6300000,6219976,6220000,0,1.6222576,0.0,-0.0007915497,0.09527243,9.728424e-07,0,1,0,1
6372000,6291976,6292000,0,1.6327528,0.0,-0.011217356,0.09529183,0.00019533437,0,1,0,1
6444000,6362525,6364000,0,1.6181242,0.0,0.0040391684,0.09530797,2.5322586e-05,0,1,0,1
6516000,6431980,6436000,0,1.6283423,0.0,-0.006406307,0.09532066,6.369156e-05,0,1,0,1
6588000,6500783,6508000,0,1.6251651,0.0,-0.002748847,0.095329806,1.17253485e-05,0,1,0,1
6652000,6567983,6572000,0,1.6238586,0.0,-0.0012135506,0.09530096,2.285977e-06,0,1,0,1
6724000,6639622,6644000,0,1.619461,0.0,0.0032297373,0.095305316,1.6190887e-05,0,1,0,1
6796000,6711986,6716000,0,1.6442984,0.0,-0.021772504,0.09530609,0.00073578244,0,1,0,1
6868000,6783260,6788000,0,1.6190814,0.0,0.0047842264,0.09530343,3.5527795e-05,0,1,0,1
6940000,6855988,6860000,0,1.6669989,0.0,-0.04330647,0.09529742,0.0029112387,0,1,0,1
7012000,6927626,6932000,0,1.6221534,0.0,0.004088044,0.09528811,2.5944528e-05,0,1,0,1
7076000,6995990,6996000,0,1.6418428,0.0,-0.015723705,0.09524397,0.0003839951,0,1,0,1
7148000,7065592,7068000,0,1.6158184,0.0,0.011293054,0.09523099,0.00019810609,0,1,0,1
7220000,7137992,7140000,0,1.6308712,0.0,-0.0042188168,0.09521521,2.7652113e-05,0,1,0,1
7292000,7208793,7212000,0,1.6189592,0.0,0.00801754,0.09519674,9.988805e-05,0,1,0,1
7356000,7275993,7276000,0,1.6216846,0.0,0.004912138,0.09514611,3.751487e-05,0,1,0,1
7428000,7346539,7348000,0,1.6232121,0.0,0.003099203,0.09512499,1.4936842e-05,0,1,0,1
7500000,7419995,7420000,0,1.629178,0.0,-0.0029227734,0.09510166,1.3287875e-05,0,1,0,1
7572000,7491631,7492000,0,1.6247665,0.0,0.0017353296,0.095076285,4.6853834e-06,0,1,0,1
7644000,7559996,7564000,0,1.6236409,0.0,0.0029115677,0.09504899,1.31934885e-05,0,1,0,1
7716000,7629196,7636000,0,1.6261935,0.0,0.00029957294,0.09502003,1.397151e-07,0,1,0,1
7780000,7695996,7700000,0,1.6114322,0.0,0.015088081,0.09496307,0.0003546228,0,1,0,1
7852000,7767633,7772000,0,1.6138581,0.0,0.011822462,0.09493307,0.0002177969,0,1,0,1
7924000,7839997,7844000,0,1.5787207,0.0,0.046337366,0.09490179,0.0033468911,0,1,0,1
7996000,7911270,7916000,0,1.6237351,0.0,-0.0010145903,0.094869345,1.6051248e-06,0,1,0,1
8068000,7983998,7988000,0,1.6231003,0.0,-0.0003361702,0.09483575,1.7627863e-07,0,1,0,1
8140000,8055270,8060000,0,1.6183212,0.0,0.0044635534,0.094801255,3.108857e-05,0,1,0,1
8212000,8127998,8132000,0,1.6320008,0.0,-0.009549022,0.094765946,0.00014233733,0,1,0,1
8284000,8199634,8204000,0,1.61896,0.0,0.00398314,0.094729915,2.4775209e-05,0,1,0,1
8356000,8271998,8276000,0,1.5964487,0.0,0.026255608,0.0946933,0.0010769072,0,1,0,1
8428000,8342544,8348000,0,1.6345462,0.0,-0.013214111,0.09465619,0.00027288537,0,1,0,1
8500000,8415999,8420000,0,1.6471685,0.0,-0.025162578,0.094618656,0.0009898897,0,1,0,1
8572000,8486544,8492000,0,1.6211504,0.0,0.0020439625,0.09458078,6.5342583e-06,0,1,0,1
8644000,8559999,8564000,0,1.6035478,0.0,0.019533277,0.09454267,0.00059700187,0,1,0,1
8716000,8631999,8636000,0,1.6290336,0.0,-0.006933689,0.09450442,7.525406e-05,0,1,0,1
8788000,8703999,8708000,0,1.6330419,0.0,-0.010592222,0.09446602,0.00017569195,0,1,0,1
8860000,8775636,8780000,0,1.6208862,0.0,0.0020908117,0.09442757,6.8483255e-06,0,1,0,1
8932000,8848000,8852000,0,1.6403975,0.0,-0.017481685,0.09438914,0.0004789585,0,1,0,1
9004000,8919272,8924000,0,1.6215482,0.0,0.0022091866,0.094350725,7.651964e-06,0,1,0,1
9076000,8992000,8996000,0,1.6059601,0.0,0.017688632,0.09431243,0.0004907643,0,1,0,1
9148000,9063636,9068000,0,1.6309717,0.0,-0.008160472,0.09427428,0.00010449384,0,1,0,1
9220000,9136000,9140000,0,1.6378732,0.0,-0.014686704,0.09423627,0.00033859766,0,1,0,1
9292000,9207272,9212000,0,1.6245831,0.0,-0.00068748,0.09419846,7.4221487e-07,0,1,0,1
9364000,9280000,9284000,0,1.6079998,0.0,0.015958548,0.09416089,0.00040010092,0,1,0,1
9436000,9351636,9356000,0,1.6258376,0.0,-0.0025937557,0.0941236,1.0573359e-05,0,1,0,1
9508000,9424000,9428000,0,1.5953286,0.0,0.027971148,0.09408657,0.0012301166,0,1,0,1
9580000,9494545,9500000,0,1.6283182,0.0,-0.0061392784,0.09404987,5.9282953e-05,0,1,0,1
9652000,9568000,9572000,0,1.6337374,0.0,-0.011258483,0.094013445,0.00019944498,0,1,0,1
9724000,9639636,9644000,0,1.6265051,0.0,-0.0034267902,0.093977354,1.8484392e-05,0,1,0,1
9796000,9712000,9716000,0,1.6156678,0.0,0.007529974,0.09394162,8.928577e-05,0,1,0,1
9868000,9783272,9788000,0,1.6274118,0.0,-0.004539013,0.09390626,3.2455002e-05,0,1,0,1
9940000,9856000,9860000,0,1.6202528,0.0,0.0028734207,0.09387124,1.3011256e-05,0,1,0,1
10012000,9927272,9932000,0,1.6195858,0.0,0.003404379,0.093836606,1.827077e-05,0,1,0,1
10084000,10000000,10004000,0,1.6350142,0.0,-0.012230992,0.09380237,0.000235919,0,1,0,1
10156000,10070909,10076000,0,1.6270541,0.0,-0.0037308931,0.09376851,2.1959477e-05,0,1,0,1
10228000,10144000,10148000,0,1.5976797,0.0,0.025818825,0.093735054,0.0010520207,0,1,0,1
10300000,10215272,10220000,0,1.625871,0.0,-0.003413558,0.09370202,1.8395811e-05,0,1,0,1
10372000,10288000,10292000,0,1.6170408,0.0,0.0055019855,0.09366937,4.780735e-05,0,1,0,1
10444000,10359636,10364000,0,1.6200591,0.0,0.0022033453,0.09363712,7.669559e-06,0,1,0,1
10516000,10432000,10436000,0,1.6300299,0.0,-0.007851243,0.09360527,9.7415905e-05,0,1,0,1
10588000,10503272,10508000,0,1.6196659,0.0,0.0027341843,0.09357382,1.1818287e-05,0,1,0,1
10660000,10576000,10580000,0,1.585333,0.0,0.036960125,0.093542784,0.0021602793,0,1,0,1
10732000,10646909,10652000,0,1.6268567,0.0,-0.0059376955,0.093512185,5.5772613e-05,0,1,0,1
10804000,10720000,10724000,0,1.6062276,0.0,0.014864206,0.09348193,0.00034963037,0,1,0,1
10876000,10790545,10796000,0,1.6257555,0.0,-0.0052517653,0.0934521,4.365911e-05,0,1,0,1
10948000,10864000,10868000,0,1.6163443,0.0,0.0042819977,0.09342265,2.9033139e-05,0,1,0,1
11020000,10934909,10940000,0,1.6221421,0.0,-0.0017315149,0.09339361,4.7488525e-06,0,1,0,1
11092000,11008000,11012000,0,1.6179283,0.0,0.0025963783,0.093364954,1.0680839e-05,0,1,0,1
11164000,11079636,11084000,0,1.6253468,0.0,-0.004959464,0.09333668,3.8982573e-05,0,1,0,1
11236000,11152000,11156000,0,1.608691,0.0,0.01182878,0.09330877,0.00022182516,0,1,0,1
11308000,11223636,11228000,0,1.6282148,0.0,-0.008153319,0.09328128,0.00010542116,0,1,0,1
11380000,11296000,11300000,0,1.6338006,0.0,-0.013438702,0.093254134,0.00028648367,0,1,0,1
11452000,11366181,11372000,0,1.6210485,0.0,-0.00028276443,0.09322735,1.2687018e-07,0,1,0,1
11524000,11440000,11444000,0,1.6205192,0.0,0.00014722347,0.09320096,3.4402266e-08,0,1,0,1
11596000,11510909,11516000,0,1.6194541,0.0,0.0012779236,0.09317493,2.5927704e-06,0,1,0,1
11668000,11584000,11588000,0,1.6186829,0.0,0.0019888878,0.09314924,6.2819513e-06,0,1,0,1
11740000,11655272,11660000,0,1.627762,0.0,-0.0071390867,0.09312391,8.09613e-05,0,1,0,1
11812000,11728000,11732000,0,1.6181396,0.0,0.0026741028,0.09309893,1.1362264e-05,0,1,0,1
11884000,11799636,11804000,0,1.6270568,0.0,-0.006341219,0.09307431,6.391003e-05,0,1,0,1
11956000,11872000,11876000,0,1.6221445,0.0,-0.0012533665,0.093049996,2.4974288e-06,0,1,0,1
12028000,11943636,11948000,0,1.6218317,0.0,-0.000926733,0.09302601,1.3657092e-06,0,1,0,1
12100000,12016000,12020000,0,1.606333,0.0,0.014565587,0.09300239,0.00033745452,0,1,0,1
12172000,12086545,12092000,0,1.6183331,0.0,0.0020126104,0.09297908,6.4444744e-06,0,1,0,1
12244000,12160000,12164000,0,1.643663,0.0,-0.02345717,0.09295609,0.0008756423,0,1,0,1
12316000,12232000,12236000,0,1.6253879,0.0,-0.0044287443,0.09293339,3.1220712e-05,0,1,0,1
12388000,12304000,12308000,0,1.6243725,0.0,-0.0032215118,0.09291101,1.6523636e-05,0,1,0,1
12460000,12375272,12380000,0,1.618623,0.0,0.0025945902,0.09288893,1.0720793e-05,0,1,0,1
12532000,12448000,12452000,0,1.6323267,0.0,-0.011228085,0.09286716,0.00020081794,0,1,0,1
12604000,12519272,12524000,0,1.6158702,0.0,0.00557065,0.09284567,4.9442842e-05,0,1,0,1
12676000,12592000,12596000,0,1.6507365,0.0,-0.029385805,0.09282449,0.0013761506,0,1,0,1
12748000,12662909,12668000,0,1.6208332,0.0,0.0013836622,0.09280357,3.0517492e-06,0,1,0,1
12820000,12736000,12740000,0,1.5900021,0.0,0.032231808,0.09278293,0.0016563594,0,1,0,1
12892000,12807272,12812000,0,1.6164081,0.0,0.0048053265,0.0927626,3.6823603e-05,0,1,0,1
12964000,12880000,12884000,0,1.634409,0.0,-0.013388038,0.09274253,0.0002858961,0,1,0,1
13036000,12951636,12956000,0,1.6226742,0.0,-0.0012853146,0.092722714,2.6356397e-06,0,1,0,1
13108000,13024000,13028000,0,1.5994666,0.0,0.02196443,0.092703156,0.0007698369,0,1,0,1
13180000,13094909,13100000,0,1.6267697,0.0,-0.0059912205,0.09268388,5.729012e-05,0,1,0,1
13252000,13168000,13172000,0,1.6476852,0.0,-0.026774526,0.09266484,0.0011444108,0,1,0,1
13324000,13238909,13244000,0,1.6226982,0.0,-0.0010294914,0.09264604,1.6922789e-06,0,1,0,1
13396000,13312000,13316000,0,1.6106472,0.0,0.011077166,0.092627496,0.00019596149,0,1,0,1
13468000,13384000,13388000,0,1.6190902,0.0,0.0023362637,0.0926092,8.7185235e-06,0,1,0,1
13540000,13456000,13460000,0,1.6503702,0.0,-0.029000282,0.09259114,0.0013436569,0,1,0,1
13612000,13527636,13532000,0,1.6240112,0.0,-0.0018862486,0.09257325,5.6854615e-06,0,1,0,1
13684000,13600000,13604000,0,1.5972676,0.0,0.02493906,0.09255564,0.0009940554,0,1,0,1
13756000,13671272,13676000,0,1.6201426,0.0,0.0013511181,0.09253828,2.9182233e-06,0,1,0,1
13828000,13744000,13748000,0,1.6342751,0.0,-0.012773871,0.092521116,0.00026089008,0,1,0,1
13900000,13815636,13820000,0,1.6275045,0.0,-0.0055969954,0.092504166,5.0095867e-05,0,1,0,1
13972000,13888000,13892000,0,1.6233797,0.0,-0.001368165,0.09248743,2.9939708e-06,0,1,0,1
14044000,13959636,13964000,0,1.6142148,0.0,0.007835507,0.0924709,9.821606e-05,0,1,0,1
14116000,14032000,14036000,0,1.6525322,0.0,-0.030751228,0.09245459,0.001513038,0,1,0,1
14188000,14103636,14108000,0,1.6147227,0.0,0.007876277,0.09243847,9.927562e-05,0,1,0,1
14260000,14176000,14180000,0,1.6186923,0.0,0.0037676096,0.09242256,2.271994e-05,0,1,0,1
14332000,14247272,14252000,0,1.6180544,0.0,0.004355192,0.09240685,3.0364341e-05,0,1,0,1
14404000,14320000,14324000,0,1.6663076,0.0,-0.044006824,0.09239133,0.0031007177,0,1,0,1
14476000,14391636,14396000,0,1.6079699,0.0,0.015467882,0.09237597,0.00038313871,0,1,0,1
14548000,14464000,14468000,0,1.613495,0.0,0.009518266,0.09236083,0.0001451046,0,1,0,1
14620000,14535636,14540000,0,1.6281822,0.0,-0.0054625273,0.09234587,4.7799473e-05,0,1,0,1
14692000,14608000,14612000,0,1.5815793,0.0,0.041269064,0.09233109,0.0027286927,0,1,0,1
14764000,14678181,14684000,0,1.6227076,0.0,-0.0009739399,0.0923165,1.5199815e-06,0,1,0,1
14836000,14752000,14756000,0,1.619233,0.0,0.0025697947,0.09230207,1.058373e-05,0,1,0,1
14908000,14823272,14828000,0,1.6168193,0.0,0.0049194098,0.092287816,3.8791357e-05,0,1,0,1
14980000,14896000,14900000,0,1.6198732,0.0,0.001809597,0.09227373,5.249755e-06,0,1,0,1
15052000,14967272,14972000,0,1.6087844,0.0,0.012853503,0.0922598,0.00026490117,0,1,0,1
15124000,15040000,15044000,0,1.6180087,0.0,0.0033371449,0.09224605,1.7858942e-05,0,1,0,1
15196000,15111636,15116000,0,1.6278901,0.0,-0.0066611767,0.09223245,7.116583e-05,0,1,0,1
15268000,15184000,15188000,0,1.6098698,0.0,0.0114917755,0.092218995,0.00021183964,0,1,0,1
15340000,15254909,15260000,0,1.6188596,0.0,0.002252221,0.09220572,8.137998e-06,0,1,0,1
15404000,15324000,15324000,0,1.6076573,0.0,0.013426781,0.09218816,0.00028928238,0,1,0,1
15476000,15393200,15396000,0,1.6182865,0.0,0.0024433136,0.09217534,9.580695e-06,0,1,0,1
15540000,15460000,15460000,0,1.5924058,0.0,0.028216243,0.09215834,0.0012779594,0,1,0,1
15612000,15531272,15532000,0,1.6045882,0.0,0.01535821,0.09214594,0.00037866773,0,1,0,1
15684000,15604000,15604000,0,1.613,0.0,0.0066109896,0.092133686,7.0172646e-05,0,1,0,1
15756000,15675636,15676000,0,1.6144434,0.0,0.0050274134,0.092121564,4.0586467e-05,0,1,0,1
15828000,15744000,15748000,0,1.5967252,0.0,0.022618651,0.09210957,0.0008216408,0,1,0,1
15900000,15813200,15820000,0,1.6148908,0.0,0.0039668083,0.0920977,2.5274756e-05,0,1,0,1
15964000,15880000,15884000,0,1.6075904,0.0,0.011168599,0.092081934,0.00020039012,0,1,0,1
16036000,15951636,15956000,0,1.6156949,0.0,0.0028364658,0.09207045,1.29267155e-05,0,1,0,1
16108000,16024000,16028000,0,1.6311243,0.0,-0.012683153,0.09205908,0.00025848846,0,1,0,1
16180000,16095272,16100000,0,1.6112329,0.0,0.007504463,0.09204783,9.050635e-05,0,1,0,1
16252000,16168000,16172000,0,1.6050196,0.0,0.013495803,0.092036694,0.0002927452,0,1,0,1
16324000,16239272,16244000,0,1.6099076,0.0,0.008287072,0.09202566,0.00011039431,0,1,0,1
16396000,16312000,16316000,0,1.6028609,0.0,0.015082121,0.09201476,0.0003656964,0,1,0,1
16468000,16383636,16388000,0,1.610153,0.0,0.0074294806,0.09200394,8.8749075e-05,0,1,0,1
16540000,16456000,16460000,0,1.6464759,0.0,-0.029156566,0.09199326,0.0013670049,0,1,0,1
16612000,16527636,16532000,0,1.6160142,0.0,0.0019694567,0.091982655,6.237927e-06,0,1,0,1
16684000,16600000,16604000,0,1.5937613,0.0,0.024147749,0.09197217,0.0009378863,0,1,0,1
16756000,16670181,16676000,0,1.6184824,0.0,-0.001090169,0.09196181,1.9117604e-06,0,1,0,1
16828000,16744000,16748000,0,1.6308845,0.0,-0.0134932995,0.09195152,0.00029290767,0,1,0,1
16900000,16815636,16820000,0,1.6172103,0.0,0.00044596195,0.09194135,3.1999124e-07,0,1,0,1
16972000,16888000,16892000,0,1.6242151,0.0,-0.0066068172,0.09193127,7.023841e-05,0,1,0,1
17044000,16959272,16964000,0,1.6183394,0.0,-0.00059199333,0.0919213,5.6398926e-07,0,1,0,1
17116000,17032000,17036000,0,1.6121356,0.0,0.0056090355,0.09191142,5.0636103e-05,0,1,0,1
17188000,17104000,17108000,0,1.6125532,0.0,0.0051100254,0.091901645,4.203163e-05,0,1,0,1
17260000,17176000,17180000,0,1.6048942,0.0,0.012651563,0.09189195,0.0002576702,0,1,0,1
17332000,17246909,17252000,0,1.6213776,0.0,-0.00408864,0.09188236,2.6914046e-05,0,1,0,1
17396000,17316000,17316000,0,1.6256005,0.0,-0.00821209,0.09186962,0.00010858974,0,1,0,1
17468000,17385200,17388000,0,1.6113144,0.0,0.0062042475,0.0918603,6.198744e-05,0,1,0,1
17540000,17456000,17460000,0,1.6272475,0.0,-0.009919286,0.09185109,0.0001584637,0,1,0,1
17604000,17523555,17524000,0,1.6135359,0.0,0.0040017366,0.0918388,2.5794325e-05,0,1,0,1
17676000,17596000,17596000,0,1.629763,0.0,-0.012336135,0.09182984,0.00024514765,0,1,0,1
17748000,17667111,17668000,0,1.6167309,0.0,0.00089395046,0.09182096,1.2874738e-06,0,1,0,1
17820000,17734000,17740000,0,1.6335436,0.0,-0.016030073,0.09181216,0.00041402268,0,1,0,1
17892000,17805200,17812000,0,1.6135812,0.0,0.0042101145,0.09180345,2.8561577e-05,0,1,0,1
17956000,17872000,17876000,0,1.6093334,0.0,0.008332014,0.091791816,0.000111879206,0,1,0,1
18028000,17943636,17948000,0,1.6158365,0.0,0.0016906261,0.091783345,4.606644e-06,0,1,0,1
18100000,18016000,18020000,0,1.6152518,0.0,0.0022659302,0.09177495,8.276033e-06,0,1,0,1
18172000,18087636,18092000,0,1.613864,0.0,0.003602624,0.091766626,2.0922158e-05,0,1,0,1
18244000,18160000,18164000,0,1.6315589,0.0,-0.014212489,0.09175838,0.00032564762,0,1,0,1
18316000,18231636,18236000,0,1.6204699,0.0,-0.0028685331,0.09175019,1.3266798e-05,0,1,0,1
18388000,18304000,18308000,0,1.6189017,0.0,-0.0012793541,0.091742076,2.6391635e-06,0,1,0,1
18460000,18375272,18380000,0,1.6139189,0.0,0.0037580729,0.09173403,2.2774731e-05,0,1,0,1
18532000,18448000,18452000,0,1.5947279,0.0,0.022844791,0.09172605,0.0008416568,0,1,0,1
18604000,18519272,18524000,0,1.6130708,0.0,0.0040133,0.09171816,2.5977735e-05,0,1,0,1
18676000,18592000,18596000,0,1.5972482,0.0,0.019713998,0.09171033,0.00062688015,0,1,0,1
18748000,18663636,18668000,0,1.6239084,0.0,-0.0072698593,0.091702566,8.5255786e-05,0,1,0,1
18820000,18736000,18740000,0,1.5973827,0.0,0.019379139,0.09169484,0.0006058671,0,1,0,1
18892000,18807636,18812000,0,1.6146247,0.0,0.0017917156,0.09168722,5.179439e-06,0,1,0,1
18964000,18880000,18884000,0,1.6053708,0.0,0.011036158,0.09167965,0.00019652427,0,1,0,1
19036000,18952000,18956000,0,1.6089579,0.0,0.0072643757,0.09167214,8.515547e-05,0,1,0,1
19108000,19024000,19028000,0,1.6453207,0.0,-0.029308677,0.091664694,0.0013862567,0,1,0,1
19180000,19095272,19100000,0,1.6130574,0.0,0.0033897161,0.09165731,1.8544406e-05,0,1,0,1
19252000,19168000,19172000,0,1.5955046,0.0,0.020854235,0.09164997,0.0007019554,0,1,0,1
19324000,19238181,19244000,0,1.613799,0.0,0.0021630526,0.091642715,7.5524795e-06,0,1,0,1
19396000,19312000,19316000,0,1.5913208,0.0,0.024544477,0.09163552,0.0009725167,0,1,0,1
19468000,19383636,19388000,0,1.6078527,0.0,0.007467389,0.09162839,9.002453e-05,0,1,0,1
19540000,19456000,19460000,0,1.6183993,0.0,-0.0033524036,0.09162132,1.8145522e-05,0,1,0,1
19612000,19527272,19532000,0,1.6150777,0.0,-6.723404e-05,0.091614276,7.2990876e-09,0,1,0,1
19684000,19600000,19604000,0,1.634953,0.0,-0.01996851,0.09160731,0.0006438942,0,1,0,1
19756000,19671636,19676000,0,1.6162748,0.0,-0.0010001659,0.091600396,1.6154745e-06,0,1,0,1
19828000,19744000,19748000,0,1.6042387,0.0,0.011015058,0.09159355,0.00019595755,0,1,0,1
19900000,19814909,19820000,0,1.6101975,0.0,0.004869938,0.09158676,3.830606e-05,0,1,0,1
19964000,19884000,19884000,0,1.6226383,0.0,-0.007712126,0.0915777,9.607532e-05,0,1,0,1
20036000,19954000,19956000,0,1.6130267,0.0,0.002311945,0.091571234,8.63474e-06,0,1,0,1
20108000,20026000,20028000,0,1.6290629,0.0,-0.013997793,0.09156449,0.00031655226,0,1,0,1
20180000,20097200,20100000,0,1.6202831,0.0,-0.004690051,0.091558136,3.5539517e-05,0,1,0,1
20252000,20168000,20172000,0,1.6235416,0.0,-0.007884145,0.09155166,0.00010043759,0,1,0,1
20316000,20234666,20236000,0,1.6155443,0.0,0.00025725365,0.09154301,1.0694272e-07,0,1,0,1
20388000,20305333,20308000,0,1.6121566,0.0,0.0036456585,0.0915367,2.1478803e-05,0,1,0,1
20460000,20373000,20380000,0,1.6105206,0.0,0.0049413443,0.09153028,3.946197e-05,0,1,0,1
20524000,20440000,20444000,0,1.6194869,0.0,-0.004085183,0.091521904,2.6974376e-05,0,1,0,1
20596000,20511555,20516000,0,1.6056617,0.0,0.009760618,0.0915158,0.00015399688,0,1,0,1
20668000,20584000,20588000,0,1.6181921,0.0,-0.002978325,0.09150974,1.43393745e-05,0,1,0,1
20740000,20656000,20660000,0,1.62196,0.0,-0.0066928864,0.09150371,7.241717e-05,0,1,0,1
20812000,20728000,20732000,0,1.6223135,0.0,-0.00692153,0.09149772,7.745461e-05,0,1,0,1
20884000,20799555,20804000,0,1.6182287,0.0,-0.002744794,0.09149178,1.2181219e-05,0,1,0,1
20956000,20870666,20876000,0,1.6051213,0.0,0.010406017,0.0914859,0.00017509279,0,1,0,1
21028000,20943111,20948000,0,1.6110523,0.0,0.0042659044,0.09148006,2.9427214e-05,0,1,0,1
21092000,21010000,21012000,0,1.6045036,0.0,0.010716081,0.09147223,0.00018571032,0,1,0,1
21164000,21082000,21084000,0,1.6078666,0.0,0.0073570013,0.09146664,8.753712e-05,0,1,0,1
21236000,21154000,21156000,0,1.5952339,0.0,0.019875526,0.091460966,0.00063893234,0,1,0,1
21308000,21225200,21228000,0,1.6117282,0.0,0.0030937195,0.09145534,1.5481255e-05,0,1,0,1
21372000,21292000,21292000,0,1.5986195,0.0,0.016158342,0.09144779,0.0004223512,0,1,0,1
21444000,21362545,21364000,0,1.615423,0.0,-0.001216054,0.09144219,2.392282e-06,0,1,0,1
21516000,21432000,21436000,0,1.6216531,0.0,-0.007203579,0.091436826,8.395158e-05,0,1,0,1
21588000,21502000,21508000,0,1.6118166,0.0,0.0026615858,0.091431394,1.1461434e-05,0,1,0,1
21660000,21574000,21580000,0,1.6074342,0.0,0.006784439,0.09142592,7.447524e-05,0,1,0,1
21732000,21645200,21652000,0,1.6149178,0.0,-0.00092995167,0.091420576,1.3993623e-06,0,1,0,1
21796000,21712000,21716000,0,1.634181,0.0,-0.020194411,0.09141339,0.0006599422,0,1,0,1
21868000,21783636,21788000,0,1.6159533,0.0,-0.001758337,0.091408156,5.003485e-06,0,1,0,1
21940000,21856000,21860000,0,1.5999863,0.0,0.01423347,0.09140296,0.00032787977,0,1,0,1
22012000,21927272,21932000,0,1.6166939,0.0,-0.00274086,0.0913978,1.2158816e-05,0,1,0,1
22084000,22000000,22004000,0,1.589314,0.0,0.024603367,0.09139267,0.0009797856,0,1,0,1
22156000,22071636,22076000,0,1.6207924,0.0,-0.0072165728,0.091387585,8.43001e-05,0,1,0,1
22228000,22144000,22148000,0,1.587249,0.0,0.026332498,0.09138253,0.0011224687,0,1,0,1
22300000,22214909,22220000,0,1.6098684,0.0,0.0032461882,0.09137751,1.7059308e-05,0,1,0,1
22372000,22288000,22292000,0,1.6382082,0.0,-0.025203705,0.091372535,0.0010284103,0,1,0,1
22444000,22358909,22364000,0,1.6151389,0.0,-0.0018177032,0.091367565,5.349427e-06,0,1,0,1
22516000,22432000,22436000,0,1.5598376,0.0,0.053420067,0.09136265,0.0046205483,0,1,0,1
22588000,22503636,22508000,0,1.6142809,0.0,-0.0018635988,0.09135777,5.623578e-06,0,1,0,1
22660000,22576000,22580000,0,1.6208274,0.0,-0.008373976,0.09135291,0.00011355188,0,1,0,1
22732000,22646909,22652000,0,1.6073016,0.0,0.0051618814,0.0913481,4.3148917e-05,0,1,0,1
22804000,22720000,22724000,0,1.6506072,0.0,-0.03822446,0.0913433,0.0023662432,0,1,0,1
22876000,22790545,22796000,0,1.6107535,0.0,0.0021612644,0.09133853,7.5651083e-06,0,1,0,1
22948000,22864000,22868000,0,1.6016164,0.0,0.0112730265,0.09133381,0.00020582724,0,1,0,1
23020000,22935272,22940000,0,1.6162577,0.0,-0.0035879612,0.09132911,2.085161e-05,0,1,0,1
23092000,23008000,23012000,0,1.6417133,0.0,-0.029107213,0.091324456,0.0013723583,0,1,0,1
23164000,23079272,23084000,0,1.6133995,0.0,-0.0004221201,0.09131982,2.8864255e-07,0,1,0,1
23236000,23152000,23156000,0,1.6019772,0.0,0.011003256,0.09131521,0.0001961339,0,1,0,1
23308000,23222909,23228000,0,1.6226386,0.0,-0.009916663,0.091310635,0.00015931737,0,1,0,1
23380000,23296000,23300000,0,1.6185015,0.0,-0.005656481,0.0913061,5.183776e-05,0,1,0,1
23452000,23366545,23372000,0,1.6123352,0.0,0.0005854368,0.09130158,5.553095e-07,0,1,0,1
23524000,23440000,23444000,0,1.6269962,0.0,-0.014120936,0.091297105,0.00032308986,0,1,0,1
23596000,23511272,23516000,0,1.6166869,0.0,-0.0036164522,0.09129264,2.1192542e-05,0,1,0,1
23668000,23584000,23588000,0,1.6259023,0.0,-0.012827635,0.09128822,0.000266644,0,1,0,1
23740000,23655272,23660000,0,1.6272626,0.0,-0.0140872,0.09128382,0.00032159474,0,1,0,1
23812000,23728000,23732000,0,1.6053914,0.0,0.008000612,0.09127945,0.00010373535,0,1,0,1
23884000,23798545,23804000,0,1.6169574,0.0,-0.003701806,0.09127511,2.2208964e-05,0,1,0,1
23956000,23872000,23876000,0,1.6100099,0.0,0.0032622814,0.091270804,1.7249016e-05,0,1,0,1
24028000,23943636,23948000,0,1.6134818,0.0,-0.0003732443,0.09126651,2.2580224e-07,0,1,0,1
24100000,24016000,24020000,0,1.6005229,0.0,0.01257515,0.09126226,0.00025632352,0,1,0,1
24172000,24087636,24092000,0,1.6135536,0.0,-0.0006585121,0.091258034,7.029263e-07,0,1,0,1
24244000,24160000,24164000,0,1.6293802,0.0,-0.016556144,0.09125384,0.0004443453,0,1,0,1
24316000,24230545,24236000,0,1.6169498,0.0,-0.0039767027,0.09124966,2.5637068e-05,0,1,0,1
24388000,24304000,24308000,0,1.5966018,0.0,0.016381264,0.09124551,0.00043504752,0,1,0,1
24460000,24375272,24380000,0,1.6120893,0.0,0.0006762743,0.09124139,7.414933e-07,0,1,0,1
24532000,24448000,24452000,0,1.5839999,0.0,0.02870059,0.09123729,0.0013355576,0,1,0,1
24604000,24519272,24524000,0,1.6043568,0.0,0.007905245,0.09123322,0.00010132835,0,1,0,1
24676000,24592000,24596000,0,1.6356744,0.0,-0.023560047,0.091229185,0.0009000608,0,1,0,1
24748000,24663272,24668000,0,1.6089036,0.0,0.0034925938,0.09122517,1.978039e-05,0,1,0,1
24820000,24736000,24740000,0,1.5980514,0.0,0.014303923,0.09122117,0.0003317936,0,1,0,1
24892000,24806909,24812000,0,1.6118752,0.0,0.0002580881,0.0912172,1.0802211e-07,0,1,0,1
24964000,24880000,24884000,0,1.619296,0.0,-0.0072027445,0.091213256,8.413785e-05,0,1,0,1
25036000,24951636,24956000,0,1.6071757,0.0,0.0050354004,0.091209345,4.1122737e-05,0,1,0,1
25108000,25024000,25028000,0,1.6187724,0.0,-0.0066109896,0.091205455,7.088681e-05,0,1,0,1
25180000,25095636,25100000,0,1.6122464,0.0,-3.4570694e-05,0.09120157,1.9385062e-09,0,1,0,1
25252000,25168000,25172000,0,1.608294,0.0,0.003955841,0.09119773,2.5383237e-05,0,1,0,1
25324000,25239272,25244000,0,1.6152301,0.0,-0.003106594,0.091193914,1.5655123e-05,0,1,0,1
25396000,25312000,25316000,0,1.602312,0.0,0.009814739,0.091190115,0.00015626551,0,1,0,1
25468000,25383636,25388000,0,1.6084452,0.0,0.0035552979,0.091186345,2.0505744e-05,0,1,0,1
25540000,25456000,25460000,0,1.5991825,0.0,0.012808919,0.09118259,0.00026617447,0,1,0,1
25612000,25526909,25532000,0,1.6162246,0.0,-0.0043570995,0.09117886,3.0800245e-05,0,1,0,1
25684000,25600000,25604000,0,1.5932566,0.0,0.018684626,0.091175154,0.0005664292,0,1,0,1
25756000,25670545,25676000,0,1.6137578,0.0,-0.0020711422,0.09117147,6.960079e-06,0,1,0,1
25828000,25744000,25748000,0,1.6052797,0.0,0.0063859224,0.091167815,6.616969e-05,0,1,0,1
25900000,25815272,25820000,0,1.6136107,0.0,-0.0020599365,0.09116418,6.885521e-06,0,1,0,1
25972000,25888000,25892000,0,1.6085303,0.0,0.0030753613,0.091160566,1.5347536e-05,0,1,0,1
26044000,25959272,25964000,0,1.6162943,0.0,-0.004771352,0.09115697,3.694421e-05,0,1,0,1
26116000,26032000,26036000,0,1.6271662,0.0,-0.01569295,0.09115339,0.00039965907,0,1,0,1
26188000,26103272,26108000,0,1.6142455,0.0,-0.0026673079,0.091149844,1.1546323e-05,0,1,0,1
26260000,26176000,26180000,0,1.606318,0.0,0.005214095,0.09114631,4.4123724e-05,0,1,0,1
26332000,26248000,26252000,0,1.6140021,0.0,-0.0025131702,0.0911428,1.0251202e-05,0,1,0,1
26404000,26320000,26324000,0,1.5945874,0.0,0.016898751,0.091139324,0.00046350755,0,1,0,1
26476000,26392000,26396000,0,1.6120294,0.0,-0.00075531006,0.09113586,9.260077e-07,0,1,0,1
26548000,26464000,26468000,0,1.6254282,0.0,-0.014220595,0.09113242,0.00032825852,0,1,0,1
26620000,26535636,26540000,0,1.6129993,0.0,-0.0016940832,0.09112899,4.6587165e-06,0,1,0,1
26692000,26608000,26612000,0,1.6061026,0.0,0.00522089,0.091125585,4.4248864e-05,0,1,0,1
26764000,26679636,26684000,0,1.6083719,0.0,0.0028237104,0.091122195,1.294403e-05,0,1,0,1
26836000,26752000,26756000,0,1.6002104,0.0,0.0108498335,0.091118835,0.00019111349,0,1,0,1
26908000,26823636,26828000,0,1.6152548,0.0,-0.004403472,0.09111548,3.1481228e-05,0,1,0,1
26980000,26896000,26900000,0,1.642124,0.0,-0.031253338,0.09111217,0.0015858781,0,1,0,1
27052000,26967636,26972000,0,1.613927,0.0,-0.002640009,0.09110886,1.1316276e-05,0,1,0,1
27124000,27040000,27044000,0,1.5947006,0.0,0.01657629,0.09110557,0.00044615223,0,1,0,1
27196000,27111636,27116000,0,1.6211687,0.0,-0.01013875,0.09110231,0.00016691402,0,1,0,1
27268000,27184000,27188000,0,1.6305883,0.0,-0.019506574,0.09109906,0.0006178762,0,1,0,1
27340000,27256000,27260000,0,1.6108992,0.0,0.00040006638,0.09109583,2.599076e-07,0,1,0,1
27412000,27328000,27332000,0,1.5907034,0.0,0.020577192,0.09109262,0.00068761036,0,1,0,1
27484000,27399272,27404000,0,1.6198988,0.0,-0.008955359,0.091089435,0.0001302421,0,1,0,1
27556000,27472000,27476000,0,1.644744,0.0,-0.03374839,0.09108626,0.0018497225,0,1,0,1
27628000,27542545,27548000,0,1.612783,0.0,-0.0013976097,0.0910831,3.1723957e-06,0,1,0,1
27700000,27616000,27620000,0,1.6000504,0.0,0.0113021135,0.091079965,0.0002074674,0,1,0,1
27772000,27686181,27692000,0,1.6169853,0.0,-0.0058037043,0.09107684,5.4708642e-05,0,1,0,1
27844000,27760000,27764000,0,1.6056745,0.0,0.005530715,0.091073744,4.9684706e-05,0,1,0,1
27916000,27831272,27836000,0,1.6098272,0.0,0.0013011694,0.09107066,2.7500623e-06,0,1,0,1
27988000,27904000,27908000,0,1.5964172,0.0,0.014734507,0.0910676,0.0003526636,0,1,0,1
28060000,27975636,27980000,0,1.6104783,0.0,0.0005147457,0.09106455,4.3041706e-07,0,1,0,1
28132000,28048000,28052000,0,1.6357958,0.0,-0.024875045,0.091061525,0.0010051854,0,1,0,1
28204000,28119272,28124000,0,1.6104714,0.0,0.0007324219,0.09105851,8.71476e-07,0,1,0,1
28276000,28192000,28196000,0,1.6006589,0.0,0.010519028,0.09105551,0.00017976217,0,1,0,1
28348000,28262909,28268000,0,1.6059208,0.0,0.005162716,0.09105253,4.3302978e-05,0,1,0,1
28420000,28336000,28340000,0,1.5889378,0.0,0.022093177,0.09104957,0.000793034,0,1,0,1
28492000,28408000,28412000,0,1.6093041,0.0,0.0013986826,0.09104663,3.178541e-06,0,1,0,1
28564000,28480000,28484000,0,1.5932709,0.0,0.017326117,0.091043696,0.0004877597,0,1,0,1
28636000,28550545,28556000,0,1.6181432,0.0,-0.0077991486,0.09104079,9.883522e-05,0,1,0,1
28708000,28624000,28628000,0,1.6164849,0.0,-0.00609529,0.09103789,6.0369828e-05,0,1,0,1
28780000,28695636,28700000,0,1.6002018,0.0,0.010233998,0.091035016,0.0001701906,0,1,0,1
28844000,28764000,28764000,0,1.5910702,0.0,0.019261003,0.091031164,0.0006028663,0,1,0,1
28916000,28832800,28836000,0,1.6195648,0.0,-0.009469867,0.09102833,0.00014573522,0,1,0,1
28988000,28904000,28908000,0,1.6143193,0.0,-0.004168391,0.09102552,2.8237559e-05,0,1,0,1
29060000,28976000,28980000,0,1.613833,0.0,-0.0036959648,0.091022715,2.220032e-05,0,1,0,1
29124000,29044000,29044000,0,1.6227087,0.0,-0.012607336,0.09101896,0.00025832604,0,1,0,1
29196000,29114909,29116000,0,1.6117669,0.0,-0.0015588999,0.091016196,3.949764e-06,0,1,0,1
29268000,29188000,29188000,0,1.588184,0.0,0.02202928,0.09101346,0.0007887663,0,1,0,1
29340000,29259636,29260000,0,1.6149281,0.0,-0.00500679,0.091010734,4.0745486e-05,0,1,0,1
29412000,29332000,29332000,0,1.5849991,0.0,0.024894,0.09100802,0.0010073096,0,1,0,1
29484000,29403272,29404000,0,1.6077114,0.0,0.0018776655,0.091005325,5.7309026e-06,0,1,0,1
29556000,29476000,29476000,0,1.6119479,0.0,-0.0024420023,0.09100264,9.693743e-06,0,1,0,1
29628000,29546909,29548000,0,1.6157098,0.0,-0.0062732697,0.09099998,6.397348e-05,0,1,0,1
29700000,29620000,29620000,0,1.5842963,0.0,0.02521801,0.09099733,0.0010338234,0,1,0,1
29772000,29691272,29692000,0,1.6125803,0.0,-0.0033888817,0.09099469,1.867025e-05,0,1,0,1
29844000,29764000,29764000,0,1.6524012,0.0,-0.043186307,0.09099207,0.003032089,0,1,0,1
29916000,29835636,29836000,0,1.6116186,0.0,-0.0019774437,0.09098945,6.357269e-06,0,1,0,1
29988000,29904000,29908000,0,1.6316832,0.0,-0.022072792,0.09098685,0.000792117,0,1,0,1
30060000,29974000,29980000,0,1.6134685,0.0,-0.003643155,0.09098427,2.1579548e-05,0,1,0,1
30124000,30044000,30044000,0,1.6335922,0.0,-0.02369368,0.0909808,0.00091278536,0,1,0,1
30196000,30110666,30116000,0,1.6220508,0.0,-0.011864424,0.09097825,0.00022888064,0,1,0,1
30268000,30182666,30188000,0,1.6266289,0.0,-0.016304135,0.09097572,0.00043223848,0,1,0,1
30340000,30255111,30260000,0,1.6091528,0.0,0.0013049841,0.0909732,2.7691747e-06,0,1,0,1
30404000,30322000,30324000,0,1.6365458,0.0,-0.026136994,0.09096982,0.0011108803,0,1,0,1
30476000,30393600,30396000,0,1.6134458,0.0,-0.0027019978,0.090967335,1.1872382e-05,0,1,0,1
30548000,30466000,30468000,0,1.6137096,0.0,-0.0029520988,0.09096487,1.4172336e-05,0,1,0,1
30620000,30536400,30540000,0,1.6156167,0.0,-0.004896879,0.090962425,3.89969e-05,0,1,0,1
30684000,30604000,30604000,0,1.6144717,0.0,-0.003719449,0.090959124,2.2499056e-05,0,1,0,1
30756000,30675636,30676000,0,1.6214364,0.0,-0.010597229,0.0909567,0.0001826431,0,1,0,1
30828000,30748000,30748000,0,1.5951343,0.0,0.015859008,0.090954304,0.00040905544,0,1,0,1
30900000,30819272,30820000,0,1.6100712,0.0,0.0006570816,0.09095191,7.0223126e-07,0,1,0,1
30972000,30888000,30892000,0,1.6348749,0.0,-0.02425313,0.09094954,0.00095672783,0,1,0,1
31044000,30957600,30964000,0,1.6111237,0.0,-0.00024974346,0.090947166,1.0145009e-07,0,1,0,1
31116000,31030000,31036000,0,1.5890009,0.0,0.021863103,0.09094481,0.00077749754,0,1,0,1
31188000,31102000,31108000,0,1.6139003,0.0,-0.0032633543,0.090942465,1.732268e-05,0,1,0,1
31252000,31172000,31172000,0,1.6247171,0.0,-0.014052868,0.090939306,0.00032124147,0,1,0,1
31324000,31239555,31244000,0,1.6188991,0.0,-0.008105755,0.090936996,0.0001068808,0,1,0,1
31396000,31312000,31316000,0,1.6268181,0.0,-0.016008854,0.0909347,0.00041691182,0,1,0,1
31468000,31383555,31388000,0,1.6116965,0.0,-0.0007762909,0.09093241,9.803556e-07,0,1,0,1
31540000,31454666,31460000,0,1.6121787,0.0,-0.0013341904,0.090930134,2.8958839e-06,0,1,0,1
31604000,31521500,31524000,0,1.6228492,0.0,-0.011990666,0.090927064,0.00023390894,0,1,0,1
31676000,31594000,31596000,0,1.6139531,0.0,-0.00303936,0.09092482,1.5029176e-05,0,1,0,1
31748000,31665500,31668000,0,1.6114707,0.0,-0.00057423115,0.090922594,5.364818e-07,0,1,0,1
31820000,31738000,31740000,0,1.6057857,0.0,0.005034685,0.090920374,4.124172e-05,0,1,0,1
31892000,31808500,31812000,0,1.612256,0.0,-0.0015958548,0.09091816,4.143711e-06,0,1,0,1
31956000,31876000,31876000,0,1.6057379,0.0,0.0048675537,0.09091518,3.855125e-05,0,1,0,1
32028000,31948000,31948000,0,1.621311,0.0,-0.010785103,0.090913,0.00018926745,0,1,0,1
32100000,32020000,32020000,0,1.6252878,0.0,-0.0146045685,0.09091083,0.00034706848,0,1,0,1
32172000,32090666,32092000,0,1.610116,0.0,0.0007175207,0.09090867,8.377548e-07,0,1,0,1
32244000,32158000,32164000,0,1.621884,0.0,-0.011057258,0.09090653,0.00019895422,0,1,0,1
32316000,32229200,32236000,0,1.612249,0.0,-0.0013358593,0.0909044,2.9039547e-06,0,1,0,1
32380000,32296000,32300000,0,1.6121148,0.0,-0.001185298,0.0909015,2.286322e-06,0,1,0,1
32452000,32367636,32372000,0,1.612202,0.0,-0.0013492107,0.09089939,2.9624562e-06,0,1,0,1
32524000,32440000,32444000,0,1.5957863,0.0,0.015017509,0.0908973,0.00036702718,0,1,0,1
32596000,32511272,32516000,0,1.6107833,0.0,-0.00022351742,0.09089521,8.1308336e-08,0,1,0,1
32668000,32584000,32588000,0,1.6373695,0.0,-0.026884675,0.09089314,0.0011763371,0,1,0,1
32740000,32656000,32660000,0,1.6240345,0.0,-0.01328969,0.09089107,0.0002874497,0,1,0,1
32812000,32728000,32732000,0,1.5797726,0.0,0.031106114,0.09088901,0.0015748295,0,1,0,1
32884000,32799636,32804000,0,1.6137362,0.0,-0.003127098,0.090886965,1.591603e-05,0,1,0,1
32956000,32872000,32876000,0,1.6346817,0.0,-0.023993611,0.090884924,0.0009370284,0,1,0,1
33028000,32943272,32948000,0,1.625485,0.0,-0.014542818,0.09088289,0.00034424558,0,1,0,1
33100000,33016000,33020000,0,1.617496,0.0,-0.0064462423,0.09088086,6.763853e-05,0,1,0,1
33172000,33087636,33092000,0,1.6210951,0.0,-0.0100489855,0.09087886,0.00016437468,0,1,0,1
33244000,33160000,33164000,0,1.6088617,0.0,0.0023255348,0.090876855,8.803305e-06,0,1,0,1
33316000,33231636,33236000,0,1.616192,0.0,-0.004994154,0.09087486,4.0600695e-05,0,1,0,1
33388000,33304000,33308000,0,1.6215066,0.0,-0.0103138685,0.09087287,0.00017316586,0,1,0,1
33460000,33375636,33380000,0,1.6199903,0.0,-0.0087378025,0.0908709,0.00012428907,0,1,0,1
33532000,33448000,33452000,0,1.618496,0.0,-0.0072442293,0.09086893,8.5432344e-05,0,1,0,1
33604000,33518181,33524000,0,1.6175528,0.0,-0.0062707663,0.09086696,6.4016e-05,0,1,0,1
33676000,33592000,33596000,0,1.624258,0.0,-0.012914419,0.09086501,0.00027152288,0,1,0,1
33748000,33663272,33668000,0,1.6112356,0.0,0.00028276443,0.090863064,1.3017139e-07,0,1,0,1
33820000,33736000,33740000,0,1.6109762,0.0,0.0005173683,0.09086114,4.3578754e-07,0,1,0,1
33892000,33806909,33812000,0,1.6219062,0.0,-0.0103930235,0.09085921,0.00017586045,0,1,0,1
33964000,33880000,33884000,0,1.6206273,0.0,-0.009027481,0.0908573,0.00013268649,0,1,0,1
34036000,33951636,33956000,0,1.6214582,0.0,-0.009867549,0.090855375,0.00015853358,0,1,0,1
34108000,34024000,34028000,0,1.5848922,0.0,0.026756048,0.09085348,0.0011656166,0,1,0,1
34180000,34094909,34100000,0,1.6204165,0.0,-0.009030819,0.09085159,0.00013279298,0,1,0,1
34244000,34164000,34164000,0,1.6122962,0.0,-0.0008442402,0.09084903,1.1605533e-06,0,1,0,1
34316000,34233600,34236000,0,1.610394,0.0,0.0009925365,0.090847164,1.6041131e-06,0,1,0,1
34388000,34306000,34308000,0,1.5912613,0.0,0.020149946,0.09084532,0.0006611478,0,1,0,1
34460000,34377200,34380000,0,1.6093371,0.0,0.0018626451,0.090843454,5.649629e-06,0,1,0,1
34524000,34444000,34444000,0,1.6194122,0.0,-0.008218288,0.09084095,0.00010998524,0,1,0,1
34596000,34514545,34516000,0,1.6159858,0.0,-0.0047336817,0.090839125,3.649039e-05,0,1,0,1
34668000,34588000,34588000,0,1.5922145,0.0,0.019033432,0.090837315,0.00058996095,0,1,0,1
34740000,34659272,34660000,0,1.6196922,0.0,-0.00859344,0.09083551,0.000120262936,0,1,0,1
34812000,34728000,34732000,0,1.5986341,0.0,0.012517214,0.0908337,0.00025516536,0,1,0,1
34884000,34798000,34804000,0,1.6155708,0.0,-0.004494548,0.090831906,3.289932e-05,0,1,0,1
34948000,34868000,34868000,0,1.6209022,0.0,-0.009714484,0.0908295,0.00015369718,0,1,0,1
35020000,34934666,34940000,0,1.6315664,0.0,-0.0200634,0.09082788,0.00065560645,0,1,0,1
35084000,35002000,35004000,0,1.631818,0.0,-0.02025354,0.090825446,0.00066810957,0,1,0,1
35156000,35073200,35076000,0,1.6193553,0.0,-0.0056864023,0.09082369,5.2665884e-05,0,1,0,1
35228000,35144000,35148000,0,1.6279227,0.0,-0.011711478,0.090821885,0.00022340161,0,1,0,1
35292000,35211111,35212000,0,1.6232219,0.0,-0.005711913,0.0908195,5.314194e-05,0,1,0,1
35364000,35282666,35284000,0,1.6301513,0.0,-0.0121353865,0.09081779,0.00023987758,0,1,0,1
35436000,35349500,35356000,0,1.6231436,0.0,-0.0049721003,0.090816066,4.0268962e-05,0,1,0,1
35508000,35422000,35428000,0,1.6127107,0.0,0.005345106,0.09081436,4.6538404e-05,0,1,0,1
35580000,35494000,35500000,0,1.6237966,0.0,-0.0058995485,0.090812676,5.669496e-05,0,1,0,1
35652000,35565000,35572000,0,1.6245404,0.0,-0.006860256,0.09081057,7.6665085e-05,0,1,0,1
35724000,35636500,35644000,0,1.6296098,0.0,-0.012101769,0.09080887,0.00023857385,0,1,0,1
35788000,35704000,35708000,0,1.6319352,0.0,-0.013999224,0.09080679,0.00031925886,0,1,0,1
35860000,35775555,35780000,0,1.613802,0.0,0.0040791035,0.09080514,2.7106431e-05,0,1,0,1
35932000,35846666,35852000,0,1.6248463,0.0,-0.0071080923,0.09080349,8.231082e-05,0,1,0,1
35996000,35913500,35916000,0,1.61526,0.0,0.002485156,0.09080125,1.0061642e-05,0,1,0,1
36068000,35986000,35988000,0,1.6394268,0.0,-0.021921515,0.09079953,0.0007829083,0,1,0,1
36140000,36057000,36060000,0,1.6209009,0.0,-0.0033980608,0.09079792,1.8812207e-05,0,1,0,1
36204000,36124000,36124000,0,1.6339635,0.0,-0.016541362,0.09079571,0.00044579024,0,1,0,1
36276000,36195111,36196000,0,1.6310375,0.0,-0.0135525465,0.09079411,0.0002992523,0,1,0,1
36348000,36266666,36268000,0,1.6138413,0.0,0.003527522,0.09079251,2.027416e-05,0,1,0,1
36420000,36339111,36340000,0,1.6203399,0.0,-0.0031979084,0.09079089,1.6662614e-05,0,1,0,1
36492000,36406000,36412000,0,1.6138883,0.0,0.0031284094,0.09078932,1.5946513e-05,0,1,0,1
36564000,36477200,36484000,0,1.6324756,0.0,-0.015613437,0.09078774,0.00039721272,0,1,0,1
36628000,36544000,36548000,0,1.6307857,0.0,-0.013860822,0.09078559,0.0003130505,0,1,0,1
36700000,36614181,36620000,0,1.6244527,0.0,-0.0074384212,0.09078403,9.015824e-05,0,1,0,1
36772000,36688000,36692000,0,1.5918896,0.0,0.02507782,0.09078248,0.0010247806,0,1,0,1
36844000,36759272,36764000,0,1.6237001,0.0,-0.007090926,0.09078081,8.1934195e-05,0,1,0,1
36916000,36832000,36836000,0,1.6318562,0.0,-0.0153256655,0.090779275,0.00038274127,0,1,0,1
36988000,36903272,36908000,0,1.6208893,0.0,-0.004403472,0.09077775,3.159835e-05,0,1,0,1
37060000,36976000,36980000,0,1.5993575,0.0,0.017095208,0.09077622,0.0004762446,0,1,0,1
37132000,37047636,37052000,0,1.6281041,0.0,-0.011811495,0.0907747,0.00022735172,0,1,0,1
37196000,37116000,37116000,0,1.6515385,0.0,-0.03523445,0.090772375,0.002023181,0,1,0,1
37268000,37185600,37188000,0,1.6244243,0.0,0.001904726,0.1007708,5.3257854e-06,0,1,0,1
37340000,37258000,37260000,0,1.6252574,0.0,0.0007611513,0.09961972,8.6030025e-07,0,1,0,1
37412000,37329200,37332000,0,1.622816,0.0,0.0030105114,0.09869095,1.3584905e-05,0,1,0,1
37476000,37396000,37396000,0,1.6196868,0.0,0.005895853,0.09792577,5.2510924e-05,0,1,0,1
37548000,37467636,37468000,0,1.6202013,0.0,0.004869342,0.09728447,3.6053745e-05,0,1,0,1
37620000,37540000,37540000,0,1.6187303,0.0,0.005928755,0.09673872,5.3750187e-05,0,1,0,1
37692000,37611636,37612000,0,1.6153105,0.0,0.008908272,0.096269526,0.00012194147,0,1,0,1
37764000,37680000,37684000,0,1.5984846,0.0,0.025172234,0.09586147,0.000977806,0,1,0,1
37836000,37749200,37756000,0,1.6265475,0.0,-0.004485965,0.095503315,3.1170704e-05,0,1,0,1
37900000,37820000,37820000,0,1.6237957,0.0,-0.001532793,0.095186435,3.6512815e-06,0,1,0,1
37972000,37887555,37892000,0,1.6255864,0.0,-0.003260374,0.09490412,1.6569262e-05,0,1,0,1
38044000,37960000,37964000,0,1.6111664,0.0,0.0109483,0.09465094,0.00018733625,0,1,0,1
38116000,38032000,38036000,0,1.623327,0.0,-0.0018084049,0.09442269,5.123519e-06,0,1,0,1
38188000,38102666,38108000,0,1.6360654,0.0,-0.014494419,0.09421585,0.00032986104,0,1,0,1
38260000,38174666,38180000,0,1.6171204,0.0,0.0050578117,0.09402753,4.0246086e-05,0,1,0,1
38324000,38242000,38244000,0,1.6191725,0.0,0.0027843714,0.09385533,1.2219368e-05,0,1,0,1
38396000,38313600,38316000,0,1.6199356,0.0,0.002155304,0.09369722,7.3340466e-06,0,1,0,1
38468000,38386000,38388000,0,1.6261642,0.0,-0.0044822693,0.093551725,3.1768555e-05,0,1,0,1
38540000,38456400,38460000,0,1.6220132,0.0,-9.119511e-05,0.093417265,1.3169499e-08,0,1,0,1
38604000,38524000,38524000,0,1.5839608,0.0,0.03803563,0.09329262,0.0022939679,0,1,0,1
38676000,38594909,38596000,0,1.6192176,0.0,0.0017015934,0.0931768,4.5968163e-06,0,1,0,1
38748000,38668000,38668000,0,1.5933307,0.0,0.027575254,0.093068905,0.0012086146,0,1,0,1
38820000,38739272,38740000,0,1.6276084,0.0,-0.0076574087,0.0929681,9.33003e-05,0,1,0,1
38892000,38808000,38812000,0,1.6275549,0.0,-0.007304311,0.09287379,8.4980384e-05,0,1,0,1
38964000,38876400,38884000,0,1.6195182,0.0,0.0011755228,0.09278533,2.20311e-06,0,1,0,1
39028000,38944000,38948000,0,1.6283016,0.0,-0.0074760914,0.09270212,8.918933e-05,0,1,0,1
39100000,39015636,39020000,0,1.6253825,0.0,-0.004086137,0.092623845,2.6665906e-05,0,1,0,1
39172000,39088000,39092000,0,1.6356374,0.0,-0.014279008,0.09255006,0.00032589125,0,1,0,1
39244000,39159272,39164000,0,1.6219436,0.0,2.4199486e-05,0.09248025,9.367348e-10,0,1,0,1
39316000,39232000,39236000,0,1.619258,0.0,0.0028351545,0.092414245,1.28667225e-05,0,1,0,1
39388000,39304000,39308000,0,1.6298838,0.0,-0.007751584,0.09235171,9.624747e-05,0,1,0,1
39460000,39376000,39380000,0,1.6467338,0.0,-0.024348497,0.09229235,0.00095023704,0,1,0,1
39532000,39446545,39452000,0,1.61761,0.0,0.0054261684,0.092235975,4.7221478e-05,0,1,0,1
39604000,39520000,39524000,0,1.6325475,0.0,-0.009740233,0.092182286,0.00015224556,0,1,0,1
39676000,39591636,39596000,0,1.6169661,0.0,0.0059974194,0.09213119,5.7753125e-05,0,1,0,1
39748000,39664000,39668000,0,1.6423037,0.0,-0.019606829,0.092082486,0.0006175769,0,1,0,1
39820000,39735636,39740000,0,1.6183443,0.0,0.0046257973,0.092035994,3.4392902e-05,0,1,0,1
39892000,39808000,39812000,0,1.603731,0.0,0.019045115,0.091991566,0.0005832738,0,1,0,1
39964000,39879272,39884000,0,1.625381,0.0,-0.0031859875,0.091949075,1.6330298e-05,0,1,0,1
40036000,39952000,39956000,0,1.6272324,0.0,-0.0051392317,0.091908336,4.2510368e-05,0,1,0,1
40108000,40023636,40028000,0,1.6320964,0.0,-0.009976387,0.091869354,0.00016026152,0,1,0,1
40180000,40096000,40100000,0,1.5981884,0.0,0.024079323,0.09183198,0.0009340023,0,1,0,1
40252000,40167636,40172000,0,1.6207606,0.0,0.00092351437,0.09179611,1.3744102e-06,0,1,0,1
40324000,40240000,40244000,0,1.6158901,0.0,0.0057423115,0.091761656,5.3157626e-05,0,1,0,1
40396000,40310181,40316000,0,1.6244168,0.0,-0.0028603077,0.09172853,1.3193938e-05,0,1,0,1
40468000,40384000,40388000,0,1.620759,0.0,0.0009063482,0.091696605,1.325227e-06,0,1,0,1
40540000,40455636,40460000,0,1.6268,0.0,-0.0051413774,0.09166593,4.265838e-05,0,1,0,1
40612000,40528000,40532000,0,1.6147243,0.0,0.0070780516,0.09163639,8.087472e-05,0,1,0,1
40684000,40599272,40604000,0,1.629501,0.0,-0.007847071,0.09160791,9.943413e-05,0,1,0,1
40756000,40672000,40676000,0,1.6031137,0.0,0.018674135,0.091580436,0.00056328945,0,1,0,1
40828000,40743636,40748000,0,1.6236244,0.0,-0.0021461248,0.09155388,7.4419463e-06,0,1,0,1
40900000,40816000,40820000,0,1.6028663,0.0,0.018592596,0.09152829,0.00055869925,0,1,0,1
40972000,40886909,40892000,0,1.6260879,0.0,-0.004904628,0.09150356,3.8889062e-05,0,1,0,1
41044000,40960000,40964000,0,1.6272651,0.0,-0.005977273,0.09147965,5.777435e-05,0,1,0,1
41116000,41031272,41036000,0,1.6252909,0.0,-0.0038368702,0.09145654,2.3811832e-05,0,1,0,1
41188000,41104000,41108000,0,1.6099267,0.0,0.011664629,0.091434166,0.00022013376,0,1,0,1
41260000,41175636,41180000,0,1.6130974,0.0,0.008428574,0.09141247,0.00011496246,0,1,0,1
41332000,41248000,41252000,0,1.6192831,0.0,0.0020731688,0.09139149,6.9569187e-06,0,1,0,1
41404000,41319636,41324000,0,1.6196069,0.0,0.0018416643,0.091371164,5.4911734e-06,0,1,0,1
41476000,41392000,41396000,0,1.6425962,0.0,-0.02113831,0.09135146,0.00072356645,0,1,0,1
41548000,41462545,41468000,0,1.6306012,0.0,-0.008724451,0.09133235,0.00012328349,0,1,0,1
41620000,41536000,41540000,0,1.6071392,0.0,0.014924049,0.09131379,0.00036081977,0,1,0,1
41692000,41607272,41612000,0,1.6363733,0.0,-0.014547467,0.091295786,0.00034290785,0,1,0,1
41764000,41680000,41684000,0,1.6211561,0.0,0.0008791685,0.091278315,1.2526507e-06,0,1,0,1
41836000,41750909,41756000,0,1.6281799,0.0,-0.0061267614,0.09126134,6.0845498e-05,0,1,0,1
41908000,41824000,41828000,0,1.6264331,0.0,-0.004253626,0.09124485,2.933348e-05,0,1,0,1
41980000,41894909,41900000,0,1.6235645,0.0,-0.0014141798,0.09122881,3.2428777e-06,0,1,0,1
42052000,41968000,41972000,0,1.6266779,0.0,-0.004569769,0.091213204,3.3867578e-05,0,1,0,1
42124000,42039636,42044000,0,1.6192708,0.0,0.0028945208,0.09119805,1.3590053e-05,0,1,0,1
42196000,42112000,42116000,0,1.6257919,0.0,-0.00378263,0.0911833,2.3212706e-05,0,1,0,1
42268000,42182909,42188000,0,1.627785,0.0,-0.0057566166,0.09116894,5.377013e-05,0,1,0,1
42340000,42256000,42260000,0,1.6077955,0.0,0.01425302,0.091154955,0.00032967568,0,1,0,1
42412000,42327272,42332000,0,1.6181777,0.0,0.0036064386,0.091141336,2.111033e-05,0,1,0,1
42484000,42400000,42404000,0,1.6333667,0.0,-0.011575341,0.09112808,0.00021750474,0,1,0,1
42556000,42469818,42476000,0,1.632626,0.0,-0.010686994,0.09111516,0.00018542736,0,1,0,1
42628000,42544000,42548000,0,1.6248437,0.0,-0.00282228,0.09110256,1.2933704e-05,0,1,0,1
42700000,42616000,42620000,0,1.6157024,0.0,0.0064240694,0.09109029,6.701958e-05,0,1,0,1
42772000,42688000,42692000,0,1.6432959,0.0,-0.021295905,0.09107832,0.000736598,0,1,0,1
42844000,42758909,42764000,0,1.615847,0.0,0.006363511,0.091066636,6.577906e-05,0,1,0,1
42916000,42832000,42836000,0,1.6048235,0.0,0.017322183,0.091055244,0.0004874764,0,1,0,1
42988000,42903636,42908000,0,1.622401,0.0,-0.00054216385,0.09104413,4.77598e-07,0,1,0,1
43060000,42976000,42980000,0,1.6052679,0.0,0.016532063,0.09103328,0.00044412713,0,1,0,1
43132000,43046909,43052000,0,1.6140958,0.0,0.0071823597,0.091022685,8.383744e-05,0,1,0,1
43204000,43120000,43124000,0,1.601968,0.0,0.013292551,0.09101247,0.00028718988,0,1,0,1
43276000,43190545,43196000,0,1.5903983,0.0,0.002835393,0.091002606,1.30685075e-05,0,1,0,1
43348000,43264000,43196000,0,1.5252507,0.0,0.028562188,0.0,inf,0,0,1,0
43420000,43335636,43196000,0,1.5076945,0.0,-0.008124828,0.0,inf,0,0,1,0
43492000,43408000,43196000,0,1.3978947,0.0,0.019166112,0.0,inf,0,0,1,0
43564000,43479272,43196000,0,1.3597108,0.0,-0.02114904,0.0,inf,0,0,1,0
43636000,43552000,43196000,0,1.2628756,0.0,-0.005701065,0.0,inf,0,0,1,0
43708000,43623636,43196000,0,1.1802726,0.0,-0.0047266483,0.0,inf,0,0,1,0
43772000,43692000,43196000,0,1.0811992,0.0,0.023228645,0.0,inf,0,0,1,0
43844000,43761600,43196000,0,1.0248481,0.0,0.0017383099,0.0,inf,0,0,1,0
43916000,43834000,43196000,0,0.935139,0.0,0.01621759,0.0,inf,0,0,1,0
43988000,43905600,43196000,0,0.8794823,0.0,0.00051498413,0.0,inf,0,0,1,0
44060000,43978000,43196000,0,0.8086295,0.0,0.004561484,0.0,inf,0,0,1,0
44132000,44050000,43196000,0,0.76077485,0.0,-0.008371532,0.0,inf,0,0,1,0
44204000,44122000,43196000,0,0.68795776,0.0,0.007673502,0.0,inf,0,0,1,0
44276000,44192800,43196000,0,0.6529074,0.0,-0.0106242895,0.0,inf,0,0,1,0
44340000,44260000,43196000,0,0.6032153,0.0,-0.007028222,0.0,inf,0,0,1,0
44412000,44331636,43196000,0,0.55309033,0.0,-0.01139164,0.0,inf,0,0,1,0
44484000,44404000,43196000,0,0.47678596,0.0,0.014877349,0.0,inf,0,0,1,0
44556000,44475272,43196000,0,0.4292034,0.0,0.0125103295,0.0,inf,0,0,1,0
44628000,44548000,43196000,0,0.43228355,0.0,-0.03940597,0.0,inf,0,0,1,0
44700000,44618909,43196000,0,0.33847028,0.0,0.0073679388,0.0,inf,0,0,1,0
44772000,44692000,43196000,0,0.3320297,0.0,-0.02730307,0.0,inf,0,0,1,0
44844000,44763636,43196000,0,0.26667124,0.0,0.003653258,0.0,inf,0,0,1,0
44916000,44832000,43196000,0,0.2527079,0.0,0.004583299,0.0,inf,0,0,1,0
44988000,44900400,43196000,0,0.25455186,0.0,0.0029566884,0.0,inf,0,0,1,0
45052000,44968000,43196000,0,0.26310357,0.0,0.0035195053,0.0,inf,0,0,1,0
45124000,45039636,43196000,0,0.29284194,0.0,-0.009771615,0.0,inf,0,0,1,0
45196000,45112000,43196000,0,0.29629445,0.0,0.0061772466,0.0,inf,0,0,1,0
45268000,45184000,43196000,0,0.32468268,0.0,-0.009820998,0.0,inf,0,0,1,0
45340000,45256000,43196000,0,0.329232,0.0,0.003463924,0.0,inf,0,0,1,0
45412000,45326909,43196000,0,0.34991395,0.0,-0.00020614266,0.0,inf,0,0,1,0
45484000,45400000,43196000,0,0.35612556,0.0,0.009241551,0.0,inf,0,0,1,0
45556000,45472000,43196000,0,0.38533452,0.0,-0.0078044236,0.0,inf,0,0,1,0
45628000,45544000,43196000,0,0.3886924,0.0,-0.007733226,0.0,inf,0,0,1,0
45700000,45615272,43196000,0,0.39188248,0.0,-0.0063539445,0.0,inf,0,0,1,0
45772000,45688000,43196000,0,0.40967923,0.0,-0.021340847,0.0,inf,0,0,1,0
45844000,45758909,43196000,0,0.39183006,0.0,-0.0008791387,0.0,inf,0,0,1,0
45916000,45832000,43196000,0,0.4043493,0.0,-0.010680854,0.0,inf,0,0,1,0
45988000,45903272,43196000,0,0.4022324,0.0,-0.005858332,0.0,inf,0,0,1,0
46052000,45972000,43196000,0,0.4263828,0.0,-0.029708445,0.0,inf,0,0,1,0
46124000,46041600,43196000,0,0.39921972,0.0,-0.0011097193,0.0,inf,0,0,1,0
46196000,46114000,43196000,0,0.3912391,0.0,0.0077845454,0.0,inf,0,0,1,0
46268000,46185200,43196000,0,0.39500806,0.0,0.004650563,0.0,inf,0,0,1,0
46332000,46252000,43196000,0,0.41917557,0.0,-0.01887843,0.0,inf,0,0,1,0
46404000,46323272,43196000,0,0.3979216,0.0,0.0023868978,0.0,inf,0,0,1,0
46476000,46396000,43196000,0,0.4104024,0.0,-0.010110736,0.0,inf,0,0,1,0
46548000,46467272,43196000,0,0.400218,0.0,-0.00012892485,0.0,inf,0,0,1,0
46620000,46540000,43196000,0,0.42590818,0.0,-0.026097387,0.0,inf,0,0,1,0
46692000,46612000,43196000,0,0.39136863,0.0,0.008622885,0.0,inf,0,0,1,0
46764000,46680000,43196000,0,0.37321255,0.0,0.026729316,0.0,inf,0,0,1,0
46836000,46749200,43196000,0,0.39702567,0.0,0.002895087,0.0,inf,0,0,1,0
46900000,46816000,43196000,0,0.40241298,0.0,-0.0029566884,0.0,inf,0,0,1,0
46972000,46887272,43196000,0,0.4011187,0.0,-0.002275467,0.0,inf,0,0,1,0
47044000,46960000,43196000,0,0.36931652,0.0,0.029072076,0.0,inf,0,0,1,0
47116000,47032000,43196000,0,0.3976556,0.0,0.00030305982,0.0,inf,0,0,1,0
47180000,47100000,43196000,0,0.41348836,0.0,-0.015969902,0.0,inf,0,0,1,0
47252000,47169600,43196000,0,0.39553648,0.0,0.0016922057,0.0,inf,0,0,1,0
47324000,47242000,43196000,0,0.39834312,0.0,-0.0018578172,0.0,inf,0,0,1,0
47396000,47313600,43196000,0,0.40403268,0.0,-0.008323312,0.0,inf,0,0,1,0
47468000,47386000,43196000,0,0.39848617,0.0,-0.0034361482,0.0,inf,0,0,1,0
47540000,47457200,43196000,0,0.39402977,0.0,0.00035339594,0.0,inf,0,0,1,0
47612000,47528000,43196000,0,0.3847682,0.0,0.009237856,0.0,inf,0,0,1,0
47676000,47595111,43196000,0,0.3992051,0.0,-0.0059102774,0.0,inf,0,0,1,0
47748000,47665333,43196000,0,0.38517708,0.0,0.007356763,0.0,inf,0,0,1,0
47820000,47733000,43196000,0,0.4024384,0.0,-0.010432214,0.0,inf,0,0,1,0
47892000,47805000,43196000,0,0.40193695,0.0,-0.010335207,0.0,inf,0,0,1,0
47964000,47877000,43196000,0,0.40383494,0.0,-0.01263085,0.0,inf,0,0,1,0
48036000,47949000,43196000,0,0.3902267,0.0,0.0007480383,0.0,inf,0,0,1,0
48108000,48021000,43196000,0,0.39095655,0.0,-0.00043860078,0.0,inf,0,0,1,0
48172000,48092000,43196000,0,0.37825155,0.0,0.011873841,0.0,inf,0,0,1,0
48244000,48159428,43196000,0,0.39210394,0.0,-0.0024412572,0.0,inf,0,0,1,0
48316000,48230400,43196000,0,0.39220223,0.0,-0.0029855669,0.0,inf,0,0,1,0
48380000,48298000,43196000,0,0.39658767,0.0,-0.0075924993,0.0,inf,0,0,1,0
48452000,48369333,43196000,0,0.401432,0.0,-0.012513727,0.0,inf,0,0,1,0
48524000,48441333,43196000,0,0.3840751,0.0,0.0045082867,0.0,inf,0,0,1,0
48588000,48508000,43196000,0,0.38532472,0.0,0.0029614866,0.0,inf,0,0,1,0
48660000,48580000,43196000,0,0.39318025,0.0,-0.0050457716,0.0,inf,0,0,1,0
48732000,48650400,43196000,0,0.38271397,0.0,0.0053389966,0.0,inf,0,0,1,0
48804000,48717333,43196000,0,0.38299587,0.0,0.0052220225,0.0,inf,0,0,1,0
48868000,48784000,43196000,0,0.39008597,0.0,-0.0019012988,0.0,inf,0,0,1,0
48940000,48855428,48860000,0,0.38559252,0.0,0.0025452971,0.090805665,1.05540075e-05,0,1,0,1
49012000,48928000,48932000,0,0.38717127,0.0,0.0008133948,0.09080085,1.0778695e-06,0,1,0,1
49084000,48999428,49004000,0,0.39053372,0.0,-0.002550453,0.09079612,1.0597922e-05,0,1,0,1
49156000,49070400,49076000,0,0.37504,0.0,0.012916446,0.09079148,0.00027182806,0,1,0,1
49220000,49137333,49140000,0,0.38480017,0.0,0.003372997,0.09077776,1.8539833e-05,0,1,0,1
49292000,49208666,49212000,0,0.39484254,0.0,-0.006667435,0.090773426,7.244564e-05,0,1,0,1
49364000,49280666,49284000,0,0.39186838,0.0,-0.0037154853,0.090769164,2.2498116e-05,0,1,0,1
49436000,49353333,49356000,0,0.38606092,0.0,0.0021407306,0.09076496,7.4689433e-06,0,1,0,1
49500000,49420000,49420000,0,0.37346163,0.0,0.014862657,0.09076056,0.00036003863,0,1,0,1
49572000,49492000,49492000,0,0.38470465,0.0,0.0036319494,0.09075648,2.1500831e-05,0,1,0,1
49644000,49563200,49564000,0,0.3896851,0.0,-0.0010858774,0.09074393,1.9221948e-06,0,1,0,1
49716000,49635428,49636000,0,0.3898324,0.0,-0.0011458397,0.090740144,2.1404328e-06,0,1,0,1
49788000,49707200,49708000,0,0.387118,0.0,0.0015894175,0.09073644,4.118581e-06,0,1,0,1
49860000,49777714,49780000,0,0.38598058,0.0,0.0027682781,0.09073278,1.24942035e-05,0,1,0,1
49932000,49846000,49852000,0,0.3869881,0.0,0.0018646121,0.09072919,5.6686977e-06,0,1,0,1
50004000,49917500,49924000,0,0.3843036,0.0,0.0049223006,0.0907174,3.9509272e-05,0,1,0,1
50068000,49988000,49988000,0,0.40828305,0.0,-0.01897958,0.09071378,0.0005874261,0,1,0,1
50140000,50056000,50060000,0,0.38012692,0.0,0.009358704,0.090710476,0.0001428326,0,1,0,1
50212000,50126400,50132000,0,0.38329723,0.0,0.0062295794,0.09070724,6.328909e-05,0,1,0,1
50276000,50193333,50196000,0,0.40512705,0.0,-0.015497088,0.090703785,0.00039167708,0,1,0,1
50348000,50264000,50268000,0,0.4034931,0.0,-0.013611972,0.090700634,0.0003021935,0,1,0,1
50412000,50331200,50332000,0,0.3792678,0.0,0.011033028,0.090689585,0.00019855709,0,1,0,1
50484000,50398000,50404000,0,0.38870096,0.0,0.0016282499,0.09068666,4.324661e-06,0,1,0,1
50556000,50469333,50476000,0,0.40038246,0.0,-0.010086,0.09068377,0.00016594405,0,1,0,1
50620000,50536000,50540000,0,0.3840676,0.0,0.0064231157,0.09068067,6.730233e-05,0,1,0,1
50692000,50606285,50612000,0,0.38734013,0.0,0.0031860769,0.09067789,1.6560158e-05,0,1,0,1
50756000,50673000,50676000,0,0.38399163,0.0,0.0065044463,0.09067489,6.902191e-05,0,1,0,1
50828000,50745000,50748000,0,0.38890442,0.0,0.0017808378,0.09066526,5.1744137e-06,0,1,0,1
50892000,50812000,50812000,0,0.4114766,0.0,-0.020753473,0.09066244,0.0007027608,0,1,0,1
50964000,50883555,50884000,0,0.38160807,0.0,0.009259194,0.090659924,0.00013988925,0,1,0,1
51036000,50956000,50956000,0,0.39134756,0.0,-0.0004375279,0.09065743,3.1236434e-07,0,1,0,1
51108000,51028000,51028000,0,0.37818336,0.0,0.012860268,0.09065497,0.00026987446,0,1,0,1
51180000,51100000,51100000,0,0.38335007,0.0,0.007769257,0.09065257,9.849908e-05,0,1,0,1
51252000,51171111,51172000,0,0.39069238,0.0,0.0005867779,0.090643905,5.6190424e-07,0,1,0,1
51324000,51238000,51244000,0,0.37560397,0.0,0.015672892,0.090641655,0.0004008887,0,1,0,1
51396000,51308800,51316000,0,0.3834237,0.0,0.0077774823,0.09063945,9.872204e-05,0,1,0,1
51460000,51376000,51380000,0,0.37263077,0.0,0.01859051,0.090637006,0.00056406663,0,1,0,1
51532000,51447272,51452000,0,0.39796904,0.0,-0.006869346,0.090634875,7.701739e-05,0,1,0,1
51604000,51520000,51524000,0,0.38125923,0.0,0.01001358,0.090627134,0.00016367181,0,1,0,1
51676000,51590909,51596000,0,0.38803434,0.0,0.003230393,0.09062512,1.7033954e-05,0,1,0,1
51748000,51664000,51668000,0,0.36161566,0.0,0.02971235,0.090623125,0.0014410807,0,1,0,1
51820000,51734909,51740000,0,0.39412987,0.0,-0.0030009449,0.090621196,1.4700754e-05,0,1,0,1
51892000,51808000,51812000,0,0.3876453,0.0,0.0035095513,0.09061928,2.0106474e-05,0,1,0,1
51964000,51879272,51884000,0,0.3907712,0.0,0.00030368567,0.090617396,1.5055333e-07,0,1,0,1
52036000,51952000,51956000,0,0.3968262,0.0,-0.005649656,0.09061053,5.210972e-05,0,1,0,1
52108000,52022909,52028000,0,0.38706973,0.0,0.00419119,0.09060874,2.86786e-05,0,1,0,1
52180000,52096000,52100000,0,0.39341682,0.0,-0.002146393,0.090607,7.521597e-06,0,1,0,1
52252000,52168000,52172000,0,0.39448097,0.0,-0.0031779706,0.09060528,1.64892e-05,0,1,0,1
52324000,52240000,52244000,0,0.39588174,0.0,-0.0045754313,0.0906036,3.4179993e-05,0,1,0,1
52396000,52311636,52316000,0,0.40218726,0.0,-0.010718554,0.090601936,0.00018758076,0,1,0,1
52468000,52384000,52388000,0,0.40289474,0.0,-0.011415005,0.090595774,0.00021276374,0,1,0,1
52540000,52455636,52460000,0,0.38317624,0.0,0.0083988905,0.0905942,0.00011518523,0,1,0,1
52612000,52528000,52532000,0,0.37823245,0.0,0.01323092,0.09059266,0.00028585148,0,1,0,1
52684000,52599636,52604000,0,0.38983846,0.0,0.0015451312,0.09059115,3.8985067e-06,0,1,0,1
52756000,52672000,52676000,0,0.3526241,0.0,0.038663745,0.090589665,0.002441083,0,1,0,1
