timestamp,timestamp_sample,time_last_fuse,device_id,observation[0],observation[1],observation[2],observation_variance[0],observation_variance[1],observation_variance[2],innovation[0],innovation[1],innovation[2],innovation_variance[0],innovation_variance[1],innovation_variance[2],test_ratio[0],test_ratio[1],test_ratio[2],estimator_instance,fusion_enabled,innovation_rejected,fused
3596000,3473268,0,0,0.0,0.0,0.02,0.09,0.09,0.20250002,0.0012072969,-0.0032024286,-0.05313043,25.1528,25.15281,10.202984,2.3179378e-09,1.6309189e-08,1.1066732e-05,3,1,0,0
3988000,3873553,0,0,0.0,0.0,-0.02,0.09,0.09,0.20250002,0.0021149465,-0.0017038311,0.010223608,0.10023292,0.10023488,0.20299897,1.7850416e-06,1.1584951e-06,2.0595608e-05,3,1,0,0
4388000,4273730,0,0,0.0,0.0,-0.04,0.09,0.09,0.20250002,0.00092815096,0.00058472785,0.03204854,0.094430394,0.09443138,0.20320658,3.6490968e-07,1.4482755e-07,0.00020218022,3,1,0,0
4788000,4673837,0,0,0.02,0.01,-0.04,0.09,0.09,0.20250002,-0.017776677,-0.012101291,0.02399464,0.09595832,0.0959584,0.20537086,0.00013172814,6.104364e-05,0.00011213718,3,1,0,0
5188000,5073901,0,0,0.0,0.0,-0.01,0.09,0.09,0.20250002,0.001060333,-0.002174127,-0.010213865,0.09330625,0.0933063,0.20782135,4.819853e-07,2.02637e-06,2.007937e-05,3,1,0,0
5596000,5473941,0,0,-0.01,0.01,0.03,0.09,0.09,0.20250002,0.011318655,-0.0076921806,-0.050567083,0.092443824,0.092443906,0.20947182,5.5433422e-05,2.5602398e-05,0.0004882814,3,1,0,0
5988000,5873964,0,0,0.0,0.01,-0.02,0.09,0.09,0.20250002,0.0007634676,-0.009214897,-0.0040569566,0.09172823,0.09172826,0.21163167,2.541781e-07,3.702864e-05,3.1108568e-06,3,1,0,0
6396000,6273979,0,0,0.0,0.0,0.0,0.09,0.09,0.20250002,0.0004895714,-0.00025593094,-0.021123536,0.091325305,0.091325305,0.2115838,1.0497866e-07,2.8688936e-08,8.4355e-05,3,1,0,0
6796000,6673987,0,0,-0.01,-0.01,-0.01,0.09,0.09,0.20250002,0.0074255746,0.010332471,-0.0064070877,0.09106639,0.09106638,0.21104403,2.4219322e-05,4.6893245e-05,7.780513e-06,3,1,0,0
7188000,7073992,0,0,-0.01,-0.01,-0.01,0.09,0.09,0.20250002,0.009115489,0.013795471,-0.0022579264,0.09088152,0.09088149,0.21035734,3.6571633e-05,8.376403e-05,9.694421e-07,3,1,0,0
7588000,7473996,0,0,0.01,0.0,0.049999997,0.09,0.09,0.20250002,-0.008508594,0.006884454,-0.05885972,0.091466144,0.091466084,0.20974445,3.1660315e-05,2.0727117e-05,0.0006607024,3,1,0,0
7988000,7873998,0,0,0.01,0.0,0.02,0.09,0.09,0.20250002,-0.009100218,0.002265976,-0.02597015,0.09129175,0.0912917,0.2091985,3.6285415e-05,2.2497761e-06,0.00012895859,3,1,0,0
8396000,8273999,0,0,0.02,0.0,0.0,0.09,0.09,0.20250002,-0.02156552,0.00079838815,-0.0070159137,0.09118711,0.09118709,0.2087737,0.0002040076,2.7961136e-07,9.43089e-06,3,1,0,0
8788000,8673999,0,0,-0.02,0.0,0.049999997,0.09,0.09,0.20250002,0.019583574,0.00038857287,-0.055074483,0.09106146,0.09106145,0.20838067,0.00016846485,6.632395e-08,0.00058224186,3,1,0,0
9188000,9074000,0,0,0.0,0.0,-0.01,0.09,0.09,0.20250002,0.0024296832,0.002358595,0.005843723,0.090979286,0.090979286,0.20812772,2.5954744e-06,2.4458182e-06,6.5631043e-06,3,1,0,0
9588000,9474000,0,0,0.0,-0.02,0.0,0.09,0.09,0.20250002,0.003069074,0.022144262,-0.00325758,0.09091064,0.09091061,0.20792727,4.1443836e-06,0.00021575845,2.04145e-06,3,1,0,0
9988000,9874000,0,0,-0.02,0.01,-0.03,0.09,0.09,0.20250002,0.02350876,-0.0075968658,0.029147891,0.09085152,0.09085147,0.20776618,0.00024332525,2.5409548e-05,0.0001635684,3,1,0,0
10388000,10274000,0,0,0.02,0.01,0.0,0.09,0.09,0.20250002,-0.019838009,-0.010183882,0.0021495223,0.090799734,0.09079967,0.20763485,0.00017336906,4.568803e-05,8.9011e-07,3,1,0,0
10788000,10674000,0,0,0.0,0.0,0.02,0.09,0.09,0.20250002,-0.0015359469,-0.0017549964,-0.017035138,0.09075384,0.09075377,0.2075252,1.039794e-06,1.3575246e-06,5.593459e-05,3,1,0,0
11188000,11074000,0,0,0.01,-0.02,0.01,0.09,0.09,0.20250002,-0.010407079,0.016877396,-0.0029147286,0.09072493,0.09072488,0.20812498,4.7751946e-05,0.00012558694,1.6327964e-06,3,1,0,0
11596000,11474000,0,0,0.01,0.0,0.02,0.09,0.09,0.20250002,-0.012261638,-0.003687036,-0.009622086,0.090700865,0.09070084,0.20805612,6.630489e-05,5.9951963e-06,1.7799915e-05,3,1,0,0
11996000,11874000,0,0,0.0,0.0,0.0,0.09,0.09,0.20250002,-0.0031122318,-0.002487963,0.013907239,0.09066449,0.09066452,0.20797043,4.273332e-06,2.7309293e-06,3.719977e-05,3,1,0,0
12396000,12274000,0,0,0.0,0.0,0.0,0.09,0.09,0.20250002,-0.0026107458,-0.0006010704,0.012134828,0.090630874,0.09063091,0.20789585,3.0082438e-06,1.5945359e-07,2.8332272e-05,3,1,0,0
12796000,12674000,0,0,-0.01,0.01,-0.03,0.09,0.09,0.20250002,0.010258977,-0.008410365,0.042394362,0.09059892,0.09059892,0.20782427,4.6467052e-05,3.122962e-05,0.0003459234,3,1,0,0
13188000,13074000,0,0,0.01,0.0,0.01,0.09,0.09,0.20250002,-0.009499899,0.004926224,0.0024970528,0.09091896,0.09091887,0.20773049,3.9704846e-05,1.0676632e-05,1.2006466e-06,3,1,0,0
13588000,13474000,0,0,-0.03,0.0,-0.02,0.09,0.09,0.20250002,0.0317255,0.0036510536,0.032365683,0.090880066,0.09087995,0.20766817,0.00044300465,5.867166e-06,0.0002017714,3,1,0,0
13988000,13874000,0,0,-0.01,0.0,-0.01,0.09,0.09,0.20250002,0.013189178,0.0012678507,0.020176547,0.090843506,0.09084338,0.20761232,7.65952e-05,7.077876e-07,7.843331e-05,3,1,0,0
14388000,14274000,0,0,0.01,0.0,-0.01,0.09,0.09,0.20250002,-0.008407559,-0.0016677708,0.020002918,0.09080856,0.090808414,0.2075548,3.1136737e-05,1.2251991e-06,7.711058e-05,3,1,0,0
14796000,14674000,0,0,0.01,-0.01,0.0,0.09,0.09,0.20250002,-0.0076653413,0.008715641,0.008842275,0.09078966,0.09078949,0.20752515,2.588729e-05,3.3467484e-05,1.5070138e-05,3,1,0,0
15188000,15074000,0,0,0.02,0.0,-0.02,0.09,0.09,0.20250002,-0.018269947,0.00017648807,0.026351068,0.09074364,0.09074346,0.20744497,0.00014713581,1.3730154e-08,0.00013389166,3,1,0,0
15596000,15474000,0,0,-0.01,-0.01,0.0,0.09,0.09,0.20250002,0.011324945,0.010116148,0.0068987757,0.09072648,0.090726286,0.20742232,5.6545512e-05,4.5118763e-05,9.17801e-06,3,1,0,0
15988000,15874000,0,0,0.0,0.0,-0.01,0.09,0.09,0.20250002,-0.00053364405,-0.0007305244,0.017873058,0.090683185,0.09068299,0.20734525,1.2561358e-07,2.3539846e-07,6.162596e-05,3,1,0,0
16388000,16274000,0,0,0.0,0.01,-0.01,0.09,0.09,0.20250002,0.00039361627,-0.011889956,0.01909084,0.09066554,0.09066533,0.207949,6.8353984e-08,6.2370505e-05,7.010569e-05,3,1,0,0
16796000,16674000,0,0,0.0,0.0,-0.01,0.09,0.09,0.20250002,-0.00026598622,-0.0032795337,0.02238595,0.09065038,0.09065015,0.20792376,3.1218256e-08,4.7458684e-06,9.640663e-05,3,1,0,0
17188000,17074000,0,0,0.0,0.0,0.0,0.09,0.09,0.20250002,-0.0004900914,-0.0028259172,0.013426542,0.090610385,0.09061018,0.20784363,1.060318e-07,3.525347e-06,3.469378e-05,3,1,0,0
17588000,17474000,0,0,0.0,0.0,0.01,0.09,0.09,0.20250002,-0.0014238348,-0.0029039816,0.0034605917,0.09058408,0.09058388,0.20779693,8.9521495e-07,3.7238894e-06,2.3052687e-06,3,1,0,0
17996000,17874000,0,0,-0.01,-0.01,-0.049999997,0.09,0.09,0.20250002,0.008413359,0.010184666,0.0601959,0.090570755,0.09057057,0.20777269,3.1261574e-05,4.581066e-05,0.0006975982,3,1,0,0
18388000,18274000,0,0,0.0,0.0,0.0,0.09,0.09,0.20250002,0.002172953,-0.0022069872,0.0123666,0.090863675,0.09086331,0.20769477,2.0785972e-06,2.1442283e-06,2.9453375e-05,3,1,0,0
18796000,18674000,0,0,0.0,0.0,-0.01,0.09,0.09,0.20250002,0.0033735489,-0.0051038796,0.022995437,0.09084732,0.09084697,0.20767182,5.0109707e-06,1.1469656e-05,0.00010185111,3,1,0,0
19196000,19074000,0,0,-0.01,0.0,0.0,0.09,0.09,0.20250002,0.009706573,-0.006482364,0.013460845,0.090817556,0.09081724,0.20762166,4.1497507e-05,1.8507959e-05,3.490856e-05,3,1,0,0
19596000,19474000,0,0,0.02,0.0,0.0,0.09,0.09,0.20250002,-0.019824581,-0.0042986195,0.012424961,0.090788625,0.09078839,0.2075767,0.00017315563,8.141186e-06,2.9748935e-05,3,1,0,0
19988000,19874000,0,0,0.02,0.0,-0.03,0.09,0.09,0.20250002,-0.019484753,-0.0022081344,0.041036136,0.0907469,0.09074673,0.20750101,0.00016734703,2.1492158e-06,0.00032461807,3,1,0,0
20396000,20274000,0,0,-0.01,0.0,-0.01,0.09,0.09,0.20250002,0.011412888,-0.0014677246,0.019754114,0.090732515,0.09073241,0.20747897,5.7423294e-05,9.4970045e-07,7.523172e-05,3,1,0,0
20796000,20674000,0,0,0.01,-0.01,-0.03,0.09,0.09,0.20250002,-0.012512601,0.010342965,0.03978803,0.09070522,0.09070514,0.20742986,6.904351e-05,4.7175683e-05,0.00030527668,3,1,0,0
21188000,21074000,0,0,0.0,0.0,-0.03,0.09,0.09,0.20250002,-0.005345797,0.0028176687,0.041308135,0.09066567,0.090665594,0.20735948,1.2607881e-05,3.5026544e-06,0.00032916016,3,1,0,0
21588000,21474000,0,0,-0.01,0.0,0.0,0.09,0.09,0.20250002,0.0035631773,0.0037378615,0.012700707,0.09065015,0.090650074,0.20796953,5.6022996e-06,6.1650735e-06,3.1025305e-05,3,1,0,0
21988000,21874000,0,0,0.0,0.0,-0.01,0.09,0.09,0.20250002,-0.0040921313,0.0010617207,0.02127506,0.09062458,0.09062452,0.20791811,7.3911683e-06,4.975478e-07,8.7078166e-05,3,1,0,0
22388000,22274000,0,0,0.0,0.0,0.01,0.09,0.09,0.20250002,-0.0052755247,-1.9548519e-05,0.002139939,0.0905993,0.090599254,0.20786674,1.2287583e-05,1.6871865e-10,8.812067e-07,3,1,0,0
22796000,22674000,0,0,0.0,0.02,0.049999997,0.09,0.09,0.20250002,-0.0041077496,-0.019852428,-0.036123358,0.09058655,0.090586506,0.20784286,7.450822e-06,0.00017402983,0.00025113145,3,1,0,0
23196000,23074000,0,0,0.02,0.01,0.0,0.09,0.09,0.20250002,-0.021158313,-0.01141214,0.01703392,0.09056197,0.09056192,0.20779608,0.00019773166,5.7523932e-05,5.5853685e-05,3,1,0,0
23588000,23474000,0,0,0.01,0.01,0.0,0.09,0.09,0.20250002,-0.009805809,-0.01045498,0.017513447,0.090846784,0.090846635,0.20771728,4.2336724e-05,4.812797e-05,5.9065052e-05,3,1,0,0
23988000,23874000,0,0,0.01,0.02,-0.01,0.09,0.09,0.20250002,-0.008188415,-0.018894851,0.026136236,0.090818875,0.090818666,0.20766662,2.9531371e-05,0.0001572432,0.00013157682,3,1,0,0
24388000,24274000,0,0,-0.01,-0.01,-0.049999997,0.09,0.09,0.20250002,0.009193131,0.009640283,0.0640842,0.090791434,0.09079118,0.20761617,3.7234196e-05,4.094453e-05,0.0007912265,3,1,0,0
24788000,24674000,0,0,0.0,-0.01,0.0,0.09,0.09,0.20250002,-0.004979716,0.007214379,0.014123201,0.09076414,0.0907639,0.20756589,1.09283565e-05,2.2937431e-05,3.8438844e-05,3,1,0,0
25196000,25074000,0,0,0.0,-0.01,0.03,0.09,0.09,0.20250002,-0.0049674166,0.007956503,-0.014711341,0.0907503,0.0907501,0.20754221,1.0876097e-05,2.7903412e-05,4.1711715e-05,3,1,0,0
25596000,25474000,0,0,0.0,0.01,0.01,0.09,0.09,0.20250002,-0.004296894,-0.0091401655,0.0056812,0.09072378,0.09072363,0.20749602,8.140445e-06,3.68339e-05,6.222005e-06,3,1,0,0
25988000,25874000,0,0,0.0,-0.01,-0.02,0.09,0.09,0.20250002,-0.00442837,0.013149421,0.034381133,0.090685055,0.09068492,0.2074194,8.64992e-06,7.6267264e-05,0.00022795598,3,1,0,0
26396000,26274000,0,0,0.02,0.0,-0.02,0.09,0.09,0.20250002,-0.023276284,0.0059665097,0.037615247,0.090671875,0.09067176,0.20739558,0.00023900927,1.5704663e-05,0.00027289044,3,1,0,0
26796000,26674000,0,0,0.0,0.02,-0.02,0.09,0.09,0.20250002,-0.0046150074,-0.016350864,0.03872806,0.09064654,0.09064646,0.2073496,9.398392e-06,0.00011797515,0.00028933983,3,1,0,0
27196000,27074000,0,0,0.0,0.0,0.04,0.09,0.09,0.20250002,-0.0054751453,0.0051812036,-0.016831852,0.090631746,0.09063165,0.20795925,1.32303385e-05,1.1847902e-05,5.4493612e-05,3,1,0,0
27588000,27474000,0,0,0.0,0.01,0.0,0.09,0.09,0.20250002,-0.0042958437,-0.0034548156,0.024775103,0.09059496,0.09059485,0.20788246,8.148036e-06,5.2699465e-06,0.000118106305,3,1,0,0
27988000,27874000,0,0,0.0,0.02,0.01,0.09,0.09,0.20250002,-0.0042784065,-0.013621613,0.020445464,0.09057062,0.090570524,0.2078295,8.084194e-06,8.194646e-05,8.045383e-05,3,1,0,0
28388000,28274000,0,0,-0.01,-0.01,-0.02,0.09,0.09,0.20250002,0.005604077,0.016906813,0.051418502,0.09086789,0.0908677,0.20777687,1.3824765e-05,0.00012582703,0.00050898106,3,1,0,0
28788000,28674000,0,0,0.01,0.0,-0.01,0.09,0.09,0.20250002,-0.016166821,0.0035788398,0.040693477,0.09084037,0.09084019,0.20772524,0.000115088085,5.639836e-06,0.0003188749,3,1,0,0
29188000,29074000,0,0,0.0,0.0,-0.04,0.09,0.09,0.20250002,-0.0064744283,0.002083584,0.07332286,0.09081288,0.09081271,0.20767388,1.846356e-05,1.912209e-06,0.0010355163,3,1,0,0
29588000,29474000,0,0,-0.02,0.0,0.07,0.09,0.09,0.20250002,0.015820596,-0.001051216,-0.03848216,0.09078608,0.090785936,0.20762251,0.00011027739,4.868839e-07,0.00028530174,3,1,0,0
29996000,29874000,0,0,0.0,0.0,0.01,0.09,0.09,0.20250002,-0.004542674,-0.00281031,0.019939432,0.09077274,0.09077262,0.20759757,9.093429e-06,3.4802754e-06,7.660609e-05,3,1,0,0
30388000,30274000,0,0,0.0,0.02,0.0,0.09,0.09,0.20250002,-0.005448469,-0.023181219,0.026934825,0.0907335,0.090733394,0.20752329,1.3087036e-05,0.00023690016,0.0001398368,3,1,0,0
30788000,30670000,0,0,-0.01,-0.01,-0.01,0.09,0.09,0.20250002,0.005410695,0.0031796768,0.035176814,0.0907076,0.0907075,0.20747206,1.2909886e-05,4.4584385e-06,0.00023856865,3,1,0,0
31188000,31074000,0,0,0.0,0.01,0.06,0.09,0.09,0.20250002,-0.0025026556,-0.014264446,-0.036571156,0.09068206,0.09068199,0.20742115,2.762745e-06,8.975295e-05,0.00025791957,3,1,0,0
31596000,31474000,0,0,0.0,-0.01,0.02,0.09,0.09,0.20250002,-0.003702296,0.0049819313,0.0027627647,0.090669334,0.09066926,0.20739631,6.047026e-06,1.0949528e-05,1.472132e-06,3,1,0,0
31988000,31874000,0,0,0.0,0.01,0.02,0.09,0.09,0.20250002,-0.0036127772,-0.014232019,0.0037205182,0.09064226,0.09064218,0.20798513,5.759856e-06,8.93846e-05,2.6621624e-06,3,1,0,0
32396000,32274000,0,0,0.03,0.0,0.0,0.09,0.09,0.20250002,-0.035908602,-0.0052972925,0.023035914,0.092702985,0.09270348,0.20795465,0.0005563695,1.2107985e-05,0.00010207098,3,1,0,0
32788000,32674000,0,0,0.0,-0.01,0.0,0.09,0.09,0.20250002,-0.007401861,-0.0030708266,0.027539387,0.11042695,0.11043453,0.2093446,1.9845715e-05,3.4155898e-06,0.00014491282,3,1,0,0
33188000,33074000,0,0,0.01,0.0,0.04,0.09,0.09,0.20250002,-0.020080123,-0.019232886,-0.0074693337,0.14729908,0.14732228,0.21092315,0.0001094946,0.00010043393,1.0580336e-05,3,1,0,0
33596000,33474000,0,0,-0.01,-0.01,0.0,0.09,0.09,0.20250002,-0.006171411,-0.01559497,0.03455456,0.20447281,0.20452005,0.21265446,7.450636e-06,4.7565623e-05,0.00022459301,3,1,0,0
33996000,33874000,0,0,0.0,-0.02,-0.099999994,0.09,0.09,0.20250002,-0.019486392,-0.0113471225,0.13695268,0.27966207,0.27973986,0.2144189,5.4311186e-05,1.841099e-05,0.0034989521,3,1,0,0
34388000,34274000,0,0,0.01,0.0,-0.01,0.09,0.09,0.20250002,-0.035156652,-0.037628353,0.04743108,0.3709326,0.37104246,0.21606748,0.0001332846,0.00015263946,0.00041648236,3,1,0,0
34796000,34674000,0,0,-0.01,0.0,-0.01,0.09,0.09,0.20250002,-0.023281803,-0.042971678,0.045245446,0.4828988,0.48303998,0.21768883,4.4899047e-05,0.00015291199,0.00037616087,3,1,0,0
35188000,35074000,0,0,-0.03,0.0,-0.04,0.09,0.09,0.20250002,-0.0068371613,0.022723876,-0.021946594,0.6063132,0.6065453,0.21895675,3.0840015e-06,3.4053483e-05,8.799053e-05,3,1,0,0
35588000,35474000,0,0,-0.26999998,-0.06,-0.32999998,0.09,0.09,0.20250002,0.17004246,0.28856674,-0.03264168,0.7476243,0.74803555,0.21993405,0.0015470036,0.00445277,0.0001937816,3,1,0,0
35996000,35874000,0,0,-0.21,-0.02,-0.76,0.09,0.09,0.20250002,0.120581634,0.1879051,0.031013012,0.89431,0.89475596,0.22077717,0.0006503307,0.0015784563,0.0001742584,3,1,0,0
36388000,36274000,0,0,-0.14,-0.03,-0.87,0.09,0.09,0.20250002,0.067458875,0.07863863,0.021171689,1.009811,1.0102439,0.22137593,0.00018025948,0.00024485312,8.099172e-05,3,1,0,0
36788000,36674000,0,0,-0.02,-0.02,-0.95,0.09,0.09,0.20250002,-0.03961858,-0.046585735,-0.01385051,1.1007618,1.101169,0.22151156,5.7038025e-05,7.8833706e-05,3.4641376e-05,3,1,0,0
37188000,37074000,0,0,0.049999997,0.0,-1.0799999,0.09,0.09,0.20250002,-0.09544182,-0.1563592,0.015659928,1.1539106,1.1542525,0.2217249,0.00031576588,0.0008472391,4.4241016e-05,3,1,0,0
37588000,37474000,0,0,0.12,0.01,-1.16,0.09,0.09,0.20250002,-0.15161447,-0.21718861,0.011959672,1.1658796,1.166127,0.22160357,0.000788656,0.0016180363,2.5817952e-05,3,1,0,0
37988000,37874000,0,0,0.13,0.049999997,-1.25,0.09,0.09,0.20250002,-0.15435858,-0.2733819,0.036533475,1.1403825,1.1405095,0.22136652,0.0008357396,0.0026212025,0.00024117374,3,1,0,0
38388000,38274000,0,0,0.08,0.02,-1.3299999,0.09,0.09,0.20250002,-0.10437725,-0.2280406,0.06245601,1.0864474,1.0864652,0.22124343,0.00040110952,0.0019145581,0.0007052419,3,1,0,0
38788000,38674000,0,0,0.08,0.0,-1.3299999,0.09,0.09,0.20250002,-0.12833229,-0.19255695,0.01732254,1.1136903,1.1136044,0.22096716,0.00059151725,0.0013318259,5.4319455e-05,3,1,0,0
39196000,39074000,0,0,0.099999994,-0.01,-1.41,0.09,0.09,0.20250002,-0.16325542,-0.1731835,0.061858296,1.0305306,1.030354,0.2207642,0.0010345092,0.0011643581,0.0006933097,3,1,0,0
39588000,39474000,0,0,0.06,0.0,-1.4599999,0.09,0.09,0.20250002,-0.12757283,-0.16528438,0.08242619,0.9393573,0.9391464,0.22065954,0.0006930197,0.001163564,0.0012315945,3,1,0,0
39996000,39874000,0,0,0.06,-0.02,-1.48,0.09,0.09,0.20250002,-0.129603,-0.11150442,0.08059263,0.8542385,0.85402715,0.22056901,0.0007865221,0.0005823344,0.0011778938,3,1,0,0
40396000,40274000,0,0,0.02,-0.02,-1.4699999,0.09,0.09,0.20250002,-0.09306614,-0.08584501,0.053158164,0.7733489,0.7731526,0.22047408,0.0004479896,0.00038126318,0.0005126753,3,1,0,0
40788000,40674000,0,0,0.02,-0.03,-1.56,0.09,0.09,0.20250002,-0.08988331,-0.052151635,0.1324836,0.6990588,0.6988896,0.22038373,0.0004622793,0.00015566367,0.0031856988,3,1,0,0
41196000,41074000,0,0,0.01,0.0,-1.54,0.09,0.09,0.20250002,-0.07621699,-0.06494643,0.101700544,0.63547397,0.6353333,0.22045422,0.00036565016,0.00026556384,0.0018766709,3,1,0,0
41588000,41474000,0,0,0.0,0.01,-1.55,0.09,0.09,0.20250002,-0.056621347,-0.06058778,0.117704034,0.57778823,0.5776758,0.22058374,0.00022194823,0.00025418264,0.0025122864,3,1,0,0
41988000,41874000,0,0,0.0,0.01,-1.3399999,0.09,0.09,0.20250002,-0.058447264,-0.04645601,0.1296475,0.5265721,0.52648234,0.22064966,0.0002594959,0.00016396833,0.003047088,3,1,0,0
42388000,42274000,0,0,0.0,0.0,-1.1899999,0.09,0.09,0.20250002,-0.060036194,-0.029098038,0.15811229,0.48305994,0.48298758,0.22073258,0.0002984594,7.012153e-05,0.004530277,3,1,0,0
42796000,42674000,0,0,-0.03,0.0,-1.04,0.09,0.09,0.20250002,-0.036457285,-0.023891076,0.197204,0.44644082,0.4463821,0.22086988,0.00011908711,5.1147526e-05,0.0070429547,3,1,0,0
43188000,43074000,0,0,0.0,0.0,-0.78,0.09,0.09,0.20250002,-0.06815913,-0.021909524,0.15869379,0.41390514,0.41385734,0.22103658,0.00044895962,4.6395427e-05,0.0045573846,3,1,0,0
43588000,43474000,0,0,0.24,0.16,-0.48,0.09,0.09,0.20250002,-0.104576856,-0.46886027,0.15982473,0.3863644,0.38629904,0.2211125,0.0011322284,0.02276267,0.004620986,3,1,0,0
43988000,43874000,0,0,1.09,0.39999998,-0.22,0.09,0.09,0.20250002,-0.69125974,-1.5264946,0.17919552,0.3864941,0.3859043,0.21987861,0.0494538,0.24152991,0.005841593,3,1,0,0
44396000,44274000,0,0,2.25,0.63,-0.14,0.09,0.09,0.20250002,-1.5462667,-2.9007282,0.16880879,0.36817047,0.36568877,0.21816279,0.25976452,0.92037,0.005224797,3,1,0,0
44796000,44674000,0,0,3.32,0.88,-0.06,0.09,0.09,0.20250002,-2.285481,-4.1218653,0.13600898,0.35358804,0.34856254,0.21673436,0.590905,1.9496957,0.00341403,3,1,1,0
45196000,45074000,0,0,4.13,1.25,0.03,0.09,0.09,0.20250002,-2.6247532,-5.1708035,0.1478146,0.34123868,0.334314,0.21552955,0.80756724,3.1990535,0.0040549724,3,1,1,0
45596000,45474000,0,0,4.38,1.63,0.12,0.09,0.09,0.20250002,-2.4217744,-5.6478977,0.08420459,0.32939827,0.32311827,0.2143822,0.71220666,3.9488633,0.0013229481,3,1,1,0
45988000,45874000,0,0,4.24,1.77,0.03,0.09,0.09,0.20250002,-2.110476,-5.48566,0.12577118,0.31790563,0.31346765,0.21343184,0.5604316,3.8399453,0.002964579,3,1,1,0
46388000,46274000,0,0,4.17,1.88,0.06,0.09,0.09,0.20250002,-1.8814521,-5.3438044,0.0656499,0.30889964,0.30595562,0.21292931,0.4583834,3.7333841,0.00080964126,3,1,1,0
46796000,46678000,0,0,4.13,1.9599999,-0.02,0.09,0.09,0.20250002,-1.7294762,-5.208939,0.119338155,0.3021267,0.3003168,0.2128193,0.39600444,3.613923,0.002676749,3,1,1,0
47188000,47074000,0,0,4.13,2.04,0.02,0.09,0.09,0.20250002,-1.6771843,-5.0987115,0.06491701,0.29618144,0.2951758,0.21303241,0.37989512,3.5228987,0.0007912821,3,1,1,0
47588000,47474000,0,0,4.18,2.03,0.0,0.09,0.09,0.20250002,-1.7165918,-4.9270406,0.08116431,0.29201648,0.29154265,0.21347651,0.40363306,3.330659,0.001234355,3,1,1,0
47988000,47874000,0,0,4.21,2.01,-0.049999997,0.09,0.09,0.20250002,-1.7854002,-4.7474475,0.123563126,0.28911114,0.28897646,0.21419252,0.44102815,3.1197362,0.002851238,3,1,1,0
48396000,48274000,0,0,4.2799997,1.9499999,0.01,0.09,0.09,0.20250002,-1.9169438,-4.534906,0.064433604,0.2876637,0.2877413,0.21499917,0.510968,2.8588698,0.00077241036,3,1,1,0
48796000,48674000,0,0,4.3399997,1.9,-0.01,0.09,0.09,0.20250002,-2.0411718,-4.3433194,0.086242,0.28689218,0.28712815,0.21601059,0.5808987,2.6280146,0.001377281,3,1,1,0
49188000,49074000,0,0,4.44,1.87,0.0,0.09,0.09,0.20250002,-2.1506681,-4.220681,0.07608485,0.29606372,0.2964317,0.2169804,0.6249159,2.4038117,0.0010671755,3,1,1,0
49596000,49474000,0,0,4.46,1.8399999,0.03,0.09,0.09,0.20250002,-2.2281902,-3.9983919,0.0485088,0.2971593,0.2976963,0.21806677,0.6683057,2.1481137,0.00043162997,3,1,1,0
49988000,49874000,0,0,4.48,1.81,-0.01,0.09,0.09,0.20250002,-2.2986422,-3.7464495,0.082110025,0.29834944,0.2990151,0.21901193,0.7083983,1.8776153,0.0012313586,3,1,1,0
50388000,50274000,0,0,4.49,1.81,-0.04,0.09,0.09,0.20250002,-2.3476756,-3.5263264,0.1124519,0.3007415,0.30144346,0.22003776,0.7330655,1.6500577,0.0022987747,3,1,1,0
50788000,50674000,0,0,4.5,1.8,-0.01,0.09,0.09,0.20250002,-2.3920207,-3.292962,0.09062928,0.30384916,0.30447277,0.22085829,0.7532373,1.4245739,0.0014875904,3,1,1,0
51196000,51074000,0,0,4.5299997,1.8299999,0.02,0.09,0.09,0.20250002,-2.4575152,-3.095922,0.0699697,0.3080833,0.30848092,0.22158457,0.7841231,1.2428299,0.0008837725,3,1,1,0
51588000,51474000,0,0,4.54,1.8499999,0.0,0.09,0.09,0.20250002,-2.505598,-2.8939228,0.08857231,0.31210524,0.31213978,0.2221647,0.8046032,1.0732101,0.0014124752,3,1,1,0
51988000,51874000,0,0,4.54,1.86,-0.01,0.09,0.09,0.20250002,-2.5473607,-2.6765947,0.09908117,0.31710947,0.31660953,0.22251894,0.8185244,0.9051097,0.0017647179,3,1,0,0
52396000,52274000,0,0,4.5499997,1.88,-0.02,0.09,0.09,0.20250002,-2.608412,-2.4642844,0.11558126,0.32304978,0.321819,0.22277972,0.8424477,0.7547967,0.0023986076,3,1,0,0
52796000,52674000,0,0,4.56,1.86,0.0,0.09,0.09,0.20250002,-2.6798172,-2.2223063,0.100644745,0.32890564,0.3268025,0.22283338,0.8733715,0.6044807,0.001818285,3,1,0,0
53188000,53074000,0,0,4.5699997,1.87,0.02,0.09,0.09,0.20250002,-2.7562819,-2.0149283,0.085265666,0.3345611,0.33146027,0.22288585,0.90830517,0.48994544,0.0013047457,3,1,0,0
53596000,53474000,0,0,4.58,1.87,0.0,0.09,0.09,0.20250002,-2.8335934,-1.7946409,0.106520765,0.34151286,0.33723152,0.22282988,0.9404332,0.38202077,0.0020368316,3,1,0,0
53996000,53874000,0,0,4.61,1.88,-0.01,0.09,0.09,0.20250002,-2.9396005,-1.5862887,0.11892994,0.34810495,0.34251758,0.22264741,0.99294776,0.29386076,0.0025411174,3,1,0,0
54396000,54274000,0,0,4.61,1.91,-0.01,0.09,0.09,0.20250002,-3.0163198,-1.4032708,0.124050245,0.35475218,0.34776112,0.22243202,1.0258636,0.22649674,0.002767311,3,1,1,0
54796000,54674000,0,0,4.6,1.91,-0.02,0.09,0.09,0.20250002,-3.0281272,-1.215474,0.13939379,0.37267768,0.3639409,0.22221279,0.9841807,0.1623755,0.0034976618,3,1,0,0
55196000,55078000,0,0,4.61,1.9,-0.049999997,0.09,0.09,0.20250002,-3.1330006,-0.996645,0.17567854,0.3796486,0.36927253,0.22198616,1.0341872,0.10759546,0.005561238,3,1,1,0
55588000,55474000,0,0,4.5899997,1.87,-0.03,0.09,0.09,0.20250002,-3.215743,-0.7678096,0.16504106,0.38583127,0.37384012,0.22188489,1.0720752,0.06307847,0.004910393,3,1,1,0
55996000,55874000,0,0,4.58,1.89,-0.01,0.09,0.09,0.20250002,-3.3083973,-0.5949489,0.15226969,0.39301726,0.3793484,0.22174922,1.1139961,0.037323385,0.004182393,3,1,1,0
56396000,56274000,0,0,4.62,1.92,0.04,0.09,0.09,0.20250002,-3.4490256,-0.44657683,0.10128691,0.39930528,0.38405523,0.2215657,1.1916474,0.020771062,0.0018520987,3,1,1,0
56796000,56678000,0,0,4.64,1.9,-0.03,0.09,0.09,0.20250002,-3.5753584,-0.26142824,0.16910169,0.4051995,0.38848737,0.22156566,1.2619154,0.007037008,0.0051624207,3,1,1,0
57188000,57074000,0,0,4.66,1.89,-0.02,0.09,0.09,0.20250002,-3.7051785,-0.09788871,0.15489726,0.41001272,0.3919752,0.221378,1.3393093,0.0009778372,0.0043352386,3,1,1,0
57596000,57474000,0,0,4.64,1.88,-0.02,0.09,0.09,0.20250002,-3.7966247,0.06908381,0.1583091,0.41567016,0.3962666,0.22133619,1.3870958,0.00048175373,0.004529177,3,1,1,0
57996000,57874000,0,0,4.6,1.91,0.02,0.09,0.09,0.20250002,-3.8652325,0.18719184,0.12138204,0.4201874,0.39956388,0.22126395,1.4222246,0.0035079033,0.002663534,3,1,1,0
58388000,58274000,0,0,4.5699997,1.89,0.0,0.09,0.09,0.20250002,-3.942854,0.33185852,0.13732761,0.42343357,0.4018965,0.22116283,1.4685748,0.010961038,0.0034108574,3,1,1,0
58796000,58674000,0,0,4.5699997,1.88,-0.03,0.09,0.09,0.20250002,-4.0546184,0.44934022,0.16398382,0.4273484,0.4051085,0.22118932,1.5387847,0.019936053,0.004862928,3,1,1,0
59188000,59074000,0,0,4.6,1.92,0.02,0.09,0.09,0.20250002,-4.1918845,0.4895476,0.11163716,0.4291803,0.4066533,0.22126931,1.6377169,0.02357358,0.002252975,3,1,1,0
59596000,59474000,0,0,4.63,1.9,-0.01,0.09,0.09,0.20250002,-4.3304834,0.5752162,0.13927619,0.43169743,0.40907764,0.22131252,1.7376139,0.032353137,0.0035059664,3,1,1,0
59996000,59878000,0,0,4.64,1.89,0.0,0.09,0.09,0.20250002,-4.4098845,0.69270813,0.12444544,0.4501024,0.42611605,0.22129598,1.7282362,0.045043554,0.0027992676,3,1,1,0
60396000,60274000,0,0,4.6,1.91,0.0,0.09,0.09,0.20250002,-4.4800344,0.72845113,0.121943824,0.4511581,0.42740703,0.22128174,1.7794832,0.049661428,0.0026880295,3,1,1,0
60788000,60674000,0,0,4.6,1.9,-0.02,0.09,0.09,0.20250002,-4.584427,0.7792715,0.13971847,0.45091337,0.42766625,0.221364,1.864391,0.05679794,0.0035274483,3,1,1,0
61196000,61074000,0,0,4.58,1.93,0.03,0.09,0.09,0.20250002,-4.665384,0.7785944,0.08627415,0.45149764,0.42891926,0.22140296,1.9283206,0.056533646,0.0013447388,3,1,1,0
61588000,61474000,0,0,4.61,1.9,-0.01,0.09,0.09,0.20250002,-4.798484,0.81420195,0.11621114,0.4501225,0.428599,0.22146995,2.0461495,0.061869003,0.0024391622,3,1,1,0
61996000,61874000,0,0,4.58,1.9,0.01,0.09,0.09,0.20250002,-4.871255,0.80910194,0.08951119,0.4496073,0.42929834,0.22149454,2.1110976,0.06099683,0.0014469438,3,1,1,0
62388000,62274000,0,0,4.46,1.86,0.02,0.09,0.09,0.20250002,-4.9134426,1.0095099,0.09701285,0.4489843,0.42852893,0.22142808,2.1508029,0.0951264,0.0017001443,3,1,1,0
62796000,62674000,0,0,3.83,1.6899999,0.01,0.09,0.09,0.20250002,-4.5756197,1.7431813,0.11538821,0.4545416,0.42976552,0.22156642,1.8424097,0.28282225,0.0024036923,3,1,1,0
63196000,63074000,0,0,3.32,1.4699999,0.0,0.09,0.09,0.20250002,-4.3875613,2.4578114,0.14452903,0.45877948,0.4304339,0.22182307,1.6784267,0.56137186,0.0037667209,3,1,1,0
63596000,63474000,0,0,2.76,1.23,0.0,0.09,0.09,0.20250002,-4.155364,3.1486535,0.16098051,0.46260947,0.43118182,0.22193255,1.493013,0.9197065,0.0046707387,3,1,1,0
63996000,63878000,0,0,2.24,0.94,-0.02,0.09,0.09,0.20250002,-3.9611683,3.8269334,0.1953939,0.46558884,0.43196893,0.22203979,1.3480438,1.3561549,0.0068778265,3,1,1,0
64388000,64274000,0,0,1.79,0.71999997,0.0,0.09,0.09,0.20250002,-3.7828932,4.340069,0.18337071,0.46638295,0.43168604,0.22206374,1.2273417,1.7453607,0.0060567865,3,1,1,0
64788000,64674000,0,0,1.37,0.65999997,-0.06,0.09,0.09,0.20250002,-3.4396448,4.783914,0.2076119,0.4875461,0.44802877,0.22227427,0.9706698,2.043247,0.00775667,3,1,1,0
65188000,65074000,0,0,0.5,1.12,-0.01,0.09,0.09,0.20250002,-2.1961112,5.0796924,0.19073574,0.49709234,0.44171175,0.22142656,0.38808924,2.3366616,0.0065719527,3,1,1,0
65596000,65474000,0,0,-0.17999999,1.63,-0.01,0.09,0.09,0.20250002,-1.1287662,4.9808183,0.23918442,0.50098896,0.43597785,0.21961561,0.101727836,2.2761292,0.010419876,3,1,1,0
65996000,65874000,0,0,-0.35,1.63,0.02,0.09,0.09,0.20250002,-1.0379801,4.850149,0.17673813,0.49347106,0.43383038,0.2180716,0.087332584,2.1689534,0.0057295617,3,1,1,0
66388000,66274000,0,0,-0.66999996,1.9699999,-0.02,0.09,0.09,0.20250002,-0.4809916,4.509187,0.17466025,0.48754334,0.4284985,0.2171504,0.018981118,1.8980482,0.0056193685,3,1,1,0
66788000,66674000,0,0,-1.0,2.74,-0.04,0.09,0.09,0.20250002,0.5314218,3.6688411,0.11477074,0.48068798,0.4214207,0.21604072,0.023500409,1.2776207,0.0024388595,3,1,1,0
67196000,67074000,0,0,-1.22,3.6799998,0.01,0.09,0.09,0.20250002,1.6154933,2.542694,0.07445442,0.47103164,0.4148539,0.21488547,0.22162576,0.6233803,0.0010318911,3,1,0,0
67596000,67474000,0,0,-1.48,4.2599998,0.06,0.09,0.09,0.20250002,2.2716486,1.7811112,0.01472443,0.46107623,0.40987617,0.21389067,0.44768193,0.30959177,4.054573e-05,3,1,0,0
67996000,67874000,0,0,-1.63,4.3199997,0.04,0.09,0.09,0.20250002,2.3420377,1.3768234,0.018444892,0.44886744,0.40528595,0.21311533,0.48879823,0.18709189,6.385538e-05,3,1,0,0
68396000,68274000,0,0,-1.56,4.25,0.07,0.09,0.09,0.20250002,2.108081,0.88960695,-0.031113874,0.43411815,0.40064585,0.21265294,0.4094743,0.079012476,0.00018209449,3,1,0,0
68788000,68674000,0,0,-1.56,4.23,0.049999997,0.09,0.09,0.20250002,1.9960948,0.41226387,-0.02727189,0.42093062,0.39532614,0.21261105,0.37862718,0.017197091,0.000139928,3,1,0,0
69188000,69074000,0,0,-1.5999999,4.27,0.04,0.09,0.09,0.20250002,1.9384305,-0.12533951,-0.02082324,0.4093304,0.39039335,0.21284403,0.3671863,0.0016096579,8.148828e-05,3,1,0,0
69588000,69474000,0,0,-1.5699999,4.2599998,0.0,0.09,0.09,0.20250002,1.8220038,-0.613271,0.016777758,0.39892617,0.38547048,0.21334156,0.33286342,0.03902777,5.277793e-05,3,1,0,0
69988000,69874000,0,0,-1.5799999,4.31,0.03,0.09,0.09,0.20250002,1.7485577,-0.9968076,-0.006650975,0.40595648,0.39555904,0.21406075,0.30125928,0.10047808,8.265965e-06,3,1,0,0
70396000,70274000,0,0,-1.5799999,4.3199997,0.03,0.09,0.09,0.20250002,1.6757585,-1.5117595,0.00072860904,0.39783636,0.39098457,0.21498592,0.2823439,0.23381145,9.877319e-08,3,1,0,0
70796000,70674000,0,0,-1.56,4.37,0.089999996,0.09,0.09,0.20250002,1.5894874,-2.0549557,-0.054989982,0.390599,0.38608336,0.21598706,0.25872776,0.43750584,0.00056001474,3,1,0,0
71196000,71074000,0,0,-1.55,4.3399997,0.049999997,0.09,0.09,0.20250002,1.459452,-2.531064,0.00096259266,0.38458252,0.38145962,0.21713012,0.22153896,0.6717655,1.7069665e-07,3,1,0,0
71596000,71474000,0,0,-1.4499999,3.9199998,0.03,0.09,0.09,0.20250002,0.791614,-2.7299395,0.032095477,0.38008296,0.37880036,0.21826316,0.065949045,0.7869654,0.00018878488,3,1,0,0
71996000,71874000,0,0,-1.25,3.3999999,0.02,0.09,0.09,0.20250002,0.04298675,-2.8558834,0.07540175,0.3773324,0.3771128,0.21939628,0.0001958868,0.86510664,0.001036558,3,1,0,0
72388000,72274000,0,0,-1.11,2.9299998,0.01,0.09,0.09,0.20250002,-0.6080936,-3.0142307,0.119270705,0.37586388,0.3758024,0.22041918,0.039352316,0.96706,0.0025815358,3,1,0,0
72796000,72674000,0,0,-0.91999996,2.46,0.02,0.09,0.09,0.20250002,-1.2793871,-3.1681907,0.14207911,0.37709814,0.37615368,0.22146395,0.1736239,1.0673758,0.0036460063,3,1,1,0
73188000,73074000,0,0,-0.74,2.06,0.03,0.09,0.09,0.20250002,-1.8702061,-3.3617227,0.16400325,0.37875667,0.37575468,0.22224069,0.36938447,1.203038,0.00484107,3,1,1,0
73596000,73474000,0,0,-0.56,1.6999999,0.01,0.09,0.09,0.20250002,-2.416711,-3.527523,0.19981094,0.38217396,0.37652013,0.2229502,0.6112915,1.3219393,0.007162928,3,1,1,0
73996000,73874000,0,0,-0.64,1.51,-0.049999997,0.09,0.09,0.20250002,-2.5002708,-3.562851,0.21514283,0.38243818,0.374994,0.22329298,0.65384203,1.3540384,0.008291607,3,1,1,0
74388000,74274000,0,0,-1.09,0.72999996,-0.02,0.09,0.09,0.20250002,-2.8205457,-2.75869,0.18656805,0.3783157,0.3813084,0.22347398,0.841147,0.7983429,0.00623028,3,1,0,0
74788000,74670000,0,0,-1.48,-0.14,0.02,0.09,0.09,0.20250002,-3.1809778,-1.8661007,0.18203515,0.37458086,0.38964456,0.22376625,1.0805272,0.35748807,0.0059234663,3,1,1,0
75188000,75074000,0,0,-1.65,-0.48,-0.01,0.09,0.09,0.20250002,-3.258625,-1.742662,0.19687526,0.38772476,0.40274414,0.22370555,1.095482,0.30161786,0.0069305156,3,1,1,0
75588000,75474000,0,0,-1.9499999,-0.77,-0.03,0.09,0.09,0.20250002,-3.0511909,-1.4743435,0.16270399,0.38502666,0.40034127,0.22346883,0.9671814,0.21718359,0.0047384845,3,1,0,0
75996000,75874000,0,0,-2.71,-1.02,-0.049999997,0.09,0.09,0.20250002,-2.353253,-0.71625113,0.08503445,0.3754275,0.39770895,0.22232607,0.59002596,0.051597096,0.0013009466,3,1,0,0
76388000,76274000,0,0,-3.6299999,-1.1899999,0.02,0.09,0.09,0.20250002,-1.4169805,0.079327226,-0.009762939,0.3641036,0.3922629,0.21989954,0.2205783,0.00064169295,1.7337914e-05,3,1,0,0
76788000,76674000,0,0,-4.17,-1.4499999,0.04,0.09,0.09,0.20250002,-0.8668709,0.5395959,-0.060489967,0.35866967,0.38763446,0.21794477,0.08380582,0.030045185,0.0006715529,3,1,0,0
77188000,77074000,0,0,-4.21,-1.54,0.01,0.09,0.09,0.20250002,-0.6197796,0.39461553,-0.047075458,0.35759035,0.3800066,0.21650024,0.042968355,0.016391443,0.00040944043,3,1,0,0
77596000,77474000,0,0,-4.17,-1.51,0.0,0.09,0.09,0.20250002,-0.30208492,0.07365692,-0.048499443,0.35783342,0.37069654,0.21567047,0.01020087,0.0005854213,0.0004362574,3,1,0,0
77996000,77874000,0,0,-4.14,-1.53,-0.03,0.09,0.09,0.20250002,-0.023093224,-0.1292274,-0.021453077,0.35701004,0.36250162,0.2151737,5.975148e-05,0.0018427196,8.5555905e-05,3,1,0,0
78396000,78274000,0,0,-4.19,-1.56,-0.02,0.09,0.09,0.20250002,0.33623123,-0.29018116,-0.030871663,0.3559528,0.3549974,0.21507348,0.012704094,0.009487969,0.00017725282,3,1,0,0
78788000,78674000,0,0,-4.19,-1.5899999,0.01,0.09,0.09,0.20250002,0.6509087,-0.41969776,-0.054432563,0.35424474,0.34776646,0.21525888,0.047840618,0.020260287,0.00055057503,3,1,0,0
79196000,79074000,0,0,-4.23,-1.5899999,-0.02,0.09,0.09,0.20250002,1.0151932,-0.57022095,-0.020992663,0.35341686,0.3419474,0.21577823,0.116646074,0.038035315,8.1693484e-05,3,1,0,0
79596000,79478000,0,0,-4.25,-1.5999999,0.0,0.09,0.09,0.20250002,1.362875,-0.6831007,-0.03586808,0.3520122,0.3365097,0.21644357,0.21106409,0.055466637,0.00023775603,3,1,0,0
79988000,79874000,0,0,-4.31,-1.5999999,0.0,0.09,0.09,0.20250002,1.7474778,-0.78518534,-0.030340448,0.35015383,0.33151925,0.2171935,0.3488385,0.07438675,0.00016953413,3,1,0,0
80388000,80274000,0,0,-4.3199997,-1.63,-0.04,0.09,0.09,0.20250002,1.9746385,-0.9039103,0.020316944,0.36056206,0.33850583,0.21816194,0.43256876,0.096548274,7.5682896e-05,3,1,0,0
80788000,80674000,0,0,-4.33,-1.65,-0.06,0.09,0.09,0.20250002,2.3082058,-0.96552217,0.052399304,0.35912123,0.33516073,0.21906944,0.5934279,0.11125802,0.00050133636,3,1,0,0
81196000,81074000,0,0,-4.36,-1.63,-0.03,0.09,0.09,0.20250002,2.6592283,-1.0523804,0.04174166,0.35811323,0.33296615,0.21999669,0.7898614,0.1330471,0.00031679866,3,1,0,0
81588000,81474000,0,0,-4.38,-1.67,-0.01,0.09,0.09,0.20250002,2.992076,-1.0557123,0.036687434,0.3563032,0.3308162,0.22084859,1.005045,0.13476107,0.00024378108,3,1,1,0
81988000,81874000,0,0,-4.46,-1.6899999,0.0,0.09,0.09,0.20250002,3.3729765,-1.0658425,0.035193842,0.3550393,0.32982108,0.22154638,1.2817702,0.13777412,0.0002236293,3,1,1,0
82388000,82274000,0,0,-4.47,-1.6899999,-0.01,0.09,0.09,0.20250002,3.6771345,-1.0811175,0.05368969,0.35389283,0.32953358,0.22211514,1.5282953,0.14187507,0.000519115,3,1,1,0
82796000,82674000,0,0,-4.5099998,-1.6899999,0.0,0.09,0.09,0.20250002,4.0061665,-1.0897528,0.05084483,0.3534082,0.33033854,0.22259967,1.8165249,0.14379928,0.00046454635,3,1,1,0
83196000,83074000,0,0,-4.5099998,-1.6899999,-0.03,0.09,0.09,0.20250002,4.2786984,-1.0792159,0.08755932,0.3526044,0.331347,0.22286983,2.0768046,0.1406027,0.0013759842,3,1,1,0
83588000,83474000,0,0,-4.5299997,-1.66,0.0,0.09,0.09,0.20250002,4.555376,-1.0872844,0.06698989,0.35158142,0.33246344,0.22295728,2.3609269,0.14223367,0.000805113,3,1,1,0
83988000,83874000,0,0,-4.36,-1.62,-0.01,0.09,0.09,0.20250002,4.73372,-1.3309201,0.107017025,0.3542863,0.33502066,0.22305237,2.529943,0.21149123,0.0020538035,3,1,1,0
84396000,84274000,0,0,-3.77,-1.4599999,-0.01,0.09,0.09,0.20250002,4.615843,-2.0143452,0.13636135,0.36312795,0.33977532,0.22334549,2.346942,0.4776788,0.0033301618,3,1,1,0
84788000,84674000,0,0,-3.26,-1.27,-0.03,0.09,0.09,0.20250002,4.5710173,-2.6342394,0.18443722,0.37060353,0.34468493,0.223267,2.255154,0.80528235,0.0060944227,3,1,1,0
85196000,85074000,0,0,-2.77,-1.06,0.02,0.09,0.09,0.20250002,4.55173,-3.2577996,0.1661819,0.379405,0.35153234,0.22326611,2.1842883,1.2076566,0.004947715,3,1,1,0
85588000,85474000,0,0,-2.28,-0.84,-0.02,0.09,0.09,0.20250002,4.4858756,-3.9130833,0.22744276,0.39925638,0.36875108,0.22328338,2.016056,1.6609818,0.009267185,3,1,1,0
85996000,85874000,0,0,-1.8399999,-0.63,0.0,0.09,0.09,0.20250002,4.457171,-4.422284,0.22303566,0.40694568,0.37672347,0.2230382,1.9527297,2.0764935,0.008921325,3,1,1,0
86388000,86274000,0,0,-1.55,-0.62,-0.02,0.09,0.09,0.20250002,4.3238564,-4.5531154,0.20583366,0.40991482,0.38046792,0.22291955,1.8243531,2.179512,0.007602293,3,1,1,0
86788000,86674000,0,0,-0.91999996,-1.01,-0.07,0.09,0.09,0.20250002,3.4914227,-4.715954,0.24721935,0.4230645,0.3783966,0.22271484,1.1525459,2.3509958,0.010976801,3,1,1,0
87188000,87074000,0,0,0.0,-1.4499999,-0.02,0.09,0.09,0.20250002,2.3895009,-4.9992514,0.24303369,0.4419886,0.37654692,0.22104578,0.51672953,2.654916,0.0106883515,3,1,1,0
87588000,87474000,0,0,0.39,-1.66,0.01,0.09,0.09,0.20250002,1.986072,-4.9000072,0.21268563,0.44472829,0.37764534,0.21924968,0.3547768,2.5431345,0.008252723,3,1,1,0
87988000,87874000,0,0,0.63,-1.8399999,-0.02,0.09,0.09,0.20250002,1.6481286,-4.6662874,0.19607453,0.44255534,0.37803647,0.21803771,0.24551305,2.30393,0.0070529496,3,1,1,0
88388000,88274000,0,0,0.9,-2.56,-0.04,0.09,0.09,0.20250002,0.74150443,-3.9178882,0.13659112,0.44066545,0.37269843,0.21680531,0.04990896,1.6474282,0.0034421915,3,1,1,0
88788000,88674000,0,0,1.04,-3.54,0.0,0.09,0.09,0.20250002,-0.28625208,-2.8423586,0.09653664,0.43612444,0.36771208,0.21544877,0.0075153094,0.87883997,0.001730216,3,1,0,0
89188000,89074000,0,0,1.22,-4.15,0.0,0.09,0.09,0.20250002,-0.98439574,-2.102634,0.091488406,0.43128842,0.36711752,0.21432975,0.0898735,0.48170617,0.0015621029,3,1,0,0
89596000,89474000,0,0,1.43,-4.31,0.0,0.09,0.09,0.20250002,-1.2497917,-1.6902833,0.08729299,0.42477593,0.36811203,0.2134935,0.14708738,0.31045523,0.0014276906,3,1,0,0
89988000,89874000,0,0,1.37,-4.2599998,0.03,0.09,0.09,0.20250002,-1.1119624,-1.2271233,0.038700536,0.41241682,0.3679457,0.21293636,0.11992338,0.16370149,0.00028134818,3,1,0,0
90396000,90274000,0,0,1.38,-4.2599998,0.01,0.09,0.09,0.20250002,-1.1079733,-0.7714834,0.05007031,0.4032878,0.36826628,0.21281613,0.12175968,0.06464742,0.0004712116,3,1,0,0
90796000,90674000,0,0,1.4,-4.2799997,0.01,0.09,0.09,0.20250002,-1.1337713,-0.29547644,0.040976517,0.39477384,0.36777952,0.21305214,0.13024545,0.009495507,0.00031524207,3,1,0,0
91196000,91074000,0,0,1.4399999,-4.29,0.01,0.09,0.09,0.20250002,-1.1551611,-0.009757042,0.043561198,0.40190393,0.37931502,0.21350306,0.1328076,1.0039134e-05,0.00035551304,3,1,0,0
91588000,91474000,0,0,1.4499999,-4.33,0.02,0.09,0.09,0.20250002,-1.2017028,0.48915005,0.034437854,0.3944953,0.3778095,0.21413286,0.14642401,0.025332108,0.0002215383,3,1,0,0
91988000,91874000,0,0,1.4499999,-4.36,0.0,0.09,0.09,0.20250002,-1.2512734,0.98134756,0.058065753,0.38852274,0.37664375,0.21497472,0.16119367,0.10227628,0.00062735414,3,1,0,0
92396000,92274000,0,0,1.4599999,-4.39,0.02,0.09,0.09,0.20250002,-1.3206291,1.4785714,0.04445142,0.38399425,0.37588033,0.21598366,0.18167576,0.23264569,0.0003659404,3,1,0,0
92796000,92674000,0,0,1.4599999,-4.43,0.0,0.09,0.09,0.20250002,-1.3808289,1.9738872,0.0700994,0.3800685,0.37460595,0.21701452,0.20066786,0.41603512,0.00090573216,3,1,0,0
93188000,93074000,0,0,1.4399999,-4.3399997,0.06,0.09,0.09,0.20250002,-1.291784,2.3885393,0.03790879,0.3764451,0.37246957,0.21810548,0.17731202,0.61268044,0.0002635562,3,1,0,0
93588000,93474000,0,0,1.3,-3.8,0.04,0.09,0.09,0.20250002,-0.6968415,2.5018249,0.06518211,0.37477314,0.37059233,0.21918778,0.051827412,0.675581,0.00077535486,3,1,0,0
93996000,93874000,0,0,1.15,-3.33,0.0,0.09,0.09,0.20250002,-0.1508025,2.6957138,0.11674516,0.37558728,0.36997843,0.22028218,0.0024219556,0.7856537,0.0024749043,3,1,0,0
94396000,94274000,0,0,0.98999995,-2.86,0.06,0.09,0.09,0.20250002,0.36653656,2.8587587,0.07395762,0.37769413,0.36944026,0.22121921,0.014228344,0.8848523,0.0009890153,3,1,0,0
94796000,94674000,0,0,0.78999996,-2.45,-0.03,0.09,0.09,0.20250002,0.8851265,3.0593843,0.17860621,0.3814748,0.3693386,0.2220154,0.082149476,1.0136858,0.005747381,3,1,1,0
95196000,95074000,0,0,0.61,-2.0,0.02,0.09,0.09,0.20250002,1.3362107,3.1917324,0.14537178,0.3866587,0.36943877,0.22265258,0.18470648,1.1029872,0.003796579,3,1,1,0
95588000,95474000,0,0,0.48,-1.64,0.06,0.09,0.09,0.20250002,1.6939011,3.3014736,0.11949617,0.39116216,0.36915788,0.22318795,0.29341292,1.1810371,0.0025591585,3,1,1,0
95996000,95874000,0,0,0.35999998,-1.29,0.01,0.09,0.09,0.20250002,1.9931568,3.3713493,0.095812485,0.39738122,0.3702373,0.22351414,0.39988542,1.2279689,0.001642855,3,1,1,0
96388000,96270000,0,0,0.26,-0.91999996,-0.66999996,0.09,0.09,0.20250002,2.30397,3.3964567,0.063949764,0.4210118,0.38719764,0.22374201,0.5043353,1.1917343,0.00073112285,3,1,1,0
96788000,96674000,0,0,0.12,-0.5,-1.9399999,0.09,0.09,0.20250002,2.584975,3.3953464,0.08479166,0.43636337,0.39515537,0.22372624,0.6125258,1.1669716,0.0012854327,3,1,1,0
97188000,97074000,0,0,0.049999997,-0.14999999,-2.61,0.09,0.09,0.20250002,2.7588608,3.3862805,0.10221386,0.44654065,0.39925224,0.22358745,0.68180245,1.1488372,0.0018690983,3,1,1,0
97596000,97474000,0,0,-0.07,0.17,-2.75,0.09,0.09,0.20250002,2.9561498,3.3464088,0.1731534,0.45206264,0.4000389,0.22342734,0.7732399,1.1197363,0.005367669,3,1,1,0
97996000,97874000,0,0,-0.08,0.14999999,-2.56,0.09,0.09,0.20250002,2.6747124,3.4315329,0.13564253,0.45048058,0.39559466,0.22303928,0.6352404,1.1906548,0.0032996691,3,1,1,0
98388000,98274000,0,0,-0.07,0.14,-2.52,0.09,0.09,0.20250002,2.412063,3.4668736,0.11004615,0.44812983,0.39251742,0.2227835,0.519318,1.2248335,0.002174336,3,1,1,0
98796000,98674000,0,0,-0.089999996,0.14,-2.57,0.09,0.09,0.20250002,2.1576102,3.4658306,0.15876532,0.44638726,0.39116853,0.22250274,0.41715184,1.2283179,0.0045314366,3,1,1,0
99188000,99074000,0,0,-0.11,0.13,-2.52,0.09,0.09,0.20250002,1.9068043,3.440536,0.10869551,0.44279498,0.38954186,0.22213545,0.3284502,1.2155087,0.002127479,3,1,1,0
99596000,99474000,0,0,-0.089999996,0.14,-2.61,0.09,0.09,0.20250002,1.6049463,3.362921,0.19407392,0.43975294,0.38981146,0.22193846,0.23429997,1.1604829,0.0067883115,3,1,1,0
99988000,99874000,0,0,-0.089999996,0.13,-2.54,0.09,0.09,0.20250002,1.328846,3.2660918,0.12375498,0.4349327,0.3897831,0.22182779,0.16240044,1.0946965,0.0027616548,3,1,1,0
100396000,100278000,0,0,-0.07,0.14999999,-2.57,0.09,0.09,0.20250002,1.0254331,3.1164265,0.14605498,0.4311158,0.39175302,0.22171952,0.097562,0.9916569,0.0038484763,3,1,0,0
100788000,100670000,0,0,-0.07,0.14,-2.59,0.09,0.09,0.20250002,0.7504017,2.9717517,0.15613174,0.42609298,0.39335382,0.22153679,0.05286195,0.8980524,0.004401458,3,1,0,0
101188000,101074000,0,0,-0.03,0.16,-2.58,0.09,0.09,0.20250002,0.4782126,2.8704877,0.13802195,0.43823242,0.41050822,0.22146332,0.020873608,0.80287784,0.0034407608,3,1,0,0
101596000,101474000,0,0,-0.049999997,0.12,-2.58,0.09,0.09,0.20250002,0.2107841,2.7197125,0.12721181,0.43452495,0.41508344,0.22148031,0.004089978,0.7128048,0.0029226695,3,1,0,0
101996000,101874000,0,0,-0.07,0.12,-2.44,0.09,0.09,0.20250002,-0.039502405,2.5176005,0.14093661,0.42941284,0.41828766,0.22146222,0.00014535569,0.60612,0.0035876331,3,1,0,0
102388000,102270000,0,0,-0.049999997,0.12,-2.1,0.09,0.09,0.20250002,-0.30593586,2.2973235,0.16330063,0.42251778,0.41949713,0.22155674,0.008860858,0.50324017,0.0048144953,3,1,0,0
102796000,102674000,0,0,-0.04,0.099999994,-1.81,0.09,0.09,0.20250002,-0.56650716,2.0743523,0.13942039,0.41791666,0.42338857,0.22162485,0.030717164,0.40652373,0.0035082789,3,1,0,0
103188000,103074000,0,0,-0.04,0.11,-1.5999999,0.09,0.09,0.20250002,-0.8044827,1.8149266,0.16784775,0.41303858,0.4265238,0.22157939,0.06267621,0.30891204,0.0050858282,3,1,0,0
103596000,103474000,0,0,0.0,0.099999994,-1.41,0.09,0.09,0.20250002,-1.0788261,1.5672321,0.20723295,0.41016114,0.4314757,0.22166272,0.11350326,0.22770381,0.0077497014,3,1,0,0
103996000,103874000,0,0,0.0,0.04,-1.1,0.09,0.09,0.20250002,-1.3076922,1.3635457,0.10795188,0.40763083,0.43625367,0.22168858,0.16780466,0.17047483,0.002102699,3,1,0,0
104396000,104274000,0,0,0.0,0.049999997,-0.94,0.09,0.09,0.20250002,-1.5212587,1.0982602,0.12229079,0.40625542,0.44138518,0.22171775,0.22785942,0.10930819,0.0026980317,3,1,0,0
104788000,104674000,0,0,0.0,0.03,-0.83,0.09,0.09,0.20250002,-1.7141494,0.85969335,0.150626,0.40531787,0.4459606,0.22168899,0.28997567,0.0662904,0.0040936978,3,1,0,0
105188000,105074000,0,0,0.01,0.01,-0.69,0.09,0.09,0.20250002,-1.9112408,0.6197985,0.14198887,0.40586203,0.45134124,0.22172074,0.3600082,0.034045205,0.0036371592,3,1,0,0
105588000,105474000,0,0,0.01,0.0,-0.59,0.09,0.09,0.20250002,-2.0756536,0.37398958,0.1576204,0.40730998,0.45641464,0.22173615,0.4231016,0.012257995,0.0044817575,3,1,0,0
105996000,105874000,0,0,0.0,0.03,-0.45999998,0.09,0.09,0.20250002,-2.2242756,0.08744752,0.12627932,0.4103166,0.4622262,0.22194712,0.48230097,0.0006617598,0.0028739222,3,1,0,0
106388000,106274000,0,0,0.0,0.03,-0.35999998,0.09,0.09,0.20250002,-2.3967297,-0.111141376,0.102814734,0.42821714,0.48457524,0.22187868,0.5365795,0.001019648,0.0019057026,3,1,0,0
106796000,106674000,0,0,-0.049999997,-0.03,-0.31,0.09,0.09,0.20250002,-2.5945163,-0.2537421,0.07345232,0.4328569,0.4935809,0.22192474,0.6220545,0.005217791,0.00097244565,3,1,0,0
107188000,107074000,0,0,-0.65999997,-0.39999998,-0.28,0.09,0.09,0.20250002,-2.6212478,0.3510913,0.081564546,0.4317114,0.51298666,0.22136554,0.63662344,0.009611563,0.0012021338,3,1,0,0
107588000,107474000,0,0,-1.74,-0.74,-0.24,0.09,0.09,0.20250002,-2.2648904,1.3677802,0.08968796,0.42825246,0.5372783,0.21945325,0.4791313,0.13928147,0.0014661766,3,1,0,0
107988000,107874000,0,0,-2.86,-1.1,-0.11,0.09,0.09,0.20250002,-1.9005735,2.3569098,0.011341311,0.42699194,0.5652405,0.21799035,0.33838385,0.39310867,2.3602024e-05,3,1,0,0
108388000,108274000,0,0,-3.84,-1.4499999,-0.02,0.09,0.09,0.20250002,-1.6331403,3.1878276,-0.0011317618,0.42679885,0.5931047,0.21686208,0.24996762,0.68535924,2.3625795e-07,3,1,0,0
108788000,108674000,0,0,-4.29,-1.93,0.0,0.09,0.09,0.20250002,-1.837584,3.5833776,0.075132884,0.4253497,0.62062895,0.215967,0.31754714,0.82758594,0.0010455209,3,1,0,0
109188000,109074000,0,0,-4.2599998,-2.09,-0.04,0.09,0.09,0.20250002,-2.0181866,3.2897277,0.09343319,0.4246605,0.6247957,0.21484663,0.38365492,0.6928542,0.0016253009,3,1,0,0
109588000,109474000,0,0,-4.2,-2.08,-0.02,0.09,0.09,0.20250002,-2.0876179,2.8529234,0.058210276,0.42491004,0.61987936,0.21408154,0.41026554,0.52521,0.00063311134,3,1,0,0
109996000,109874000,0,0,-4.22,-2.06,-0.07,0.09,0.09,0.20250002,-2.0477037,2.462251,0.087544285,0.42624798,0.61311674,0.21374531,0.39348835,0.39553183,0.0014342307,3,1,0,0
110396000,110274000,0,0,-4.25,-2.03,-0.02,0.09,0.09,0.20250002,-1.9606462,2.0982583,0.024315361,0.42697853,0.60284114,0.2137311,0.3601243,0.2921292,0.00011065058,3,1,0,0
110788000,110674000,0,0,-4.2599998,-2.03,-0.03,0.09,0.09,0.20250002,-1.861278,1.7730584,0.016783526,0.42735192,0.5898416,0.2139776,0.3242626,0.21319188,5.265724e-05,3,1,0,0
111188000,111074000,0,0,-4.2999997,-1.9699999,0.01,0.09,0.09,0.20250002,-1.7200842,1.387078,-0.041567698,0.42883155,0.5767228,0.21456732,0.27597687,0.13344266,0.0003221131,3,1,0,0
111596000,111474000,0,0,-4.3199997,-1.9599999,-0.04,0.09,0.09,0.20250002,-1.5907407,1.0516446,-0.012645856,0.43121305,0.5637149,0.21526778,0.23472907,0.07847629,2.9715115e-05,3,1,0,0
111996000,111878000,0,0,-4.3399997,-1.9599999,0.0,0.09,0.09,0.20250002,-1.6422462,0.7543018,-0.06223596,0.45047125,0.57779014,0.21623603,0.23948012,0.03938947,0.00071649754,3,1,0,0
112396000,112274000,0,0,-4.3399997,-1.9799999,-0.049999997,0.09,0.09,0.20250002,-1.5267825,0.46193016,-0.024582349,0.4527679,0.563283,0.21720357,0.20593905,0.015152558,0.0001112858,3,1,0,0
112788000,112674000,0,0,-4.37,-1.9799999,-0.07,0.09,0.09,0.20250002,-1.3704019,0.16794431,-0.011359543,0.4544125,0.5479243,0.21816099,0.16531245,0.002059065,2.3659448e-05,3,1,0,0
113196000,113074000,0,0,-4.39,-1.99,-0.06,0.09,0.09,0.20250002,-1.2237644,-0.10570979,-0.018654238,0.45747304,0.53403056,0.21921124,0.13094537,0.00083699776,6.349686e-05,3,1,0,0
113596000,113474000,0,0,-4.4,-2.03,-0.08,0.09,0.09,0.20250002,-1.0778475,-0.32786918,0.0054645017,0.4597467,0.5196198,0.22014,0.10107785,0.008275142,5.42578e-06,3,1,0,0
113996000,113874000,0,0,-4.45,-2.02,-0.07,0.09,0.09,0.20250002,-0.8825884,-0.583827,0.004583299,0.46195126,0.5054116,0.2209668,0.06744973,0.026976349,3.8026767e-06,3,1,0,0
114388000,114274000,0,0,-4.45,-2.05,-0.11,0.09,0.09,0.20250002,-0.7183738,-0.78269124,0.053081818,0.46351093,0.4907089,0.22173765,0.044534948,0.049936377,0.00050829066,3,1,0,0
114796000,114674000,0,0,-4.43,-2.08,-0.049999997,0.09,0.09,0.20250002,-0.5773554,-0.97857094,0.009179957,0.46652547,0.4778498,0.22235692,0.028580584,0.080159165,1.5159701e-05,3,1,0,0
115188000,115074000,0,0,-4.44,-2.07,-0.049999997,0.09,0.09,0.20250002,-0.3848586,-1.1821871,0.019171305,0.46771553,0.4640959,0.2226767,0.012667199,0.12045497,6.602199e-05,3,1,0,0
115588000,115474000,0,0,-4.42,-2.03,-0.06,0.09,0.09,0.20250002,-0.15157938,-1.4698219,0.06214643,0.4713983,0.44994435,0.22292253,0.0019496303,0.19205722,0.0006930082,3,1,0,0
115988000,115874000,0,0,-3.87,-1.8199999,-0.089999996,0.09,0.09,0.20250002,-0.14001894,-2.2699177,0.10999135,0.48821867,0.4304853,0.22325645,0.0016062724,0.47876444,0.0021675695,3,1,0,0
116396000,116274000,0,0,-3.36,-1.5899999,-0.03,0.09,0.09,0.20250002,-0.04775262,-3.0549304,0.08926529,0.50591093,0.41332594,0.22339994,0.00018029359,0.903171,0.0014267311,3,1,0,0
116796000,116674000,0,0,-2.86,-1.31,-0.03,0.09,0.09,0.20250002,0.0444746,-3.8344464,0.12862708,0.52185744,0.39878386,0.22340411,0.00015161153,1.4747818,0.0029623315,3,1,1,0
117196000,117074000,0,0,-2.37,-1.1,-0.04,0.09,0.09,0.20250002,-0.032346725,-4.5868754,0.17205173,0.55892384,0.4037078,0.22335802,7.488037e-05,2.0846193,0.0053012283,3,1,1,0
117596000,117474000,0,0,-1.93,-0.85999995,-0.01,0.09,0.09,0.20250002,0.065211296,-5.2186255,0.17369056,0.5714238,0.39415786,0.22324401,0.00029767837,2.763771,0.005405459,3,1,1,0
117988000,117874000,0,0,-1.53,-0.69,0.0,0.09,0.09,0.20250002,0.09421039,-5.713581,0.19273335,0.57989794,0.3870692,0.22320709,0.0006122179,3.3735578,0.0066568037,3,1,1,0
118396000,118274000,0,0,-1.1899999,-0.51,0.0,0.09,0.09,0.20250002,0.15823376,-6.152425,0.28828886,0.5856814,0.3822234,0.22307727,0.001710003,3.9612782,0.014902544,3,1,1,0
118796000,118674000,0,0,-0.78999996,-0.35999998,0.82,0.09,0.09,0.20250002,0.16274983,-6.538826,0.35340208,0.58349824,0.37320822,0.22286594,0.001815773,4.582562,0.022415813,3,1,1,0
119196000,119078000,0,0,-0.34,-0.19999999,1.61,0.09,0.09,0.20250002,0.07868588,-6.967685,0.21723628,0.584072,0.36708635,0.22284319,0.00042402087,5.29016,0.0084708175,3,1,1,0
119596000,119474000,0,0,0.04,-0.03,1.4599999,0.09,0.09,0.20250002,-0.034625117,-7.2699685,0.2496767,0.5831,0.36657766,0.22261253,8.224309e-05,5.7671213,0.0112012485,3,1,1,0
119988000,119874000,0,0,0.08,0.04,1.4599999,0.09,0.09,0.20250002,-0.09862256,-7.1698694,0.25975358,0.5644767,0.3643729,0.22222537,0.0006892337,5.6433425,0.012144774,3,1,1,0
120388000,120274000,0,0,0.099999994,0.03,1.48,0.09,0.09,0.20250002,-0.18239658,-6.9476757,0.27033997,0.5448497,0.36240366,0.22194046,0.0024423993,5.3277826,0.013171767,3,1,1,0
120796000,120674000,0,0,0.07,0.0,1.49,0.09,0.09,0.20250002,-0.2752728,-6.6236033,0.26274967,0.52300256,0.36080205,0.2217413,0.0057953913,4.863844,0.012453683,3,1,1,0
121196000,121074000,0,0,0.02,0.01,1.52,0.09,0.09,0.20250002,-0.36294922,-6.2796884,0.2615211,0.4992209,0.35832223,0.22153133,0.010555017,4.402126,0.012349185,3,1,1,0
121588000,121474000,0,0,0.01,-0.01,1.5699999,0.09,0.09,0.20250002,-0.48275128,-5.929145,0.2155981,0.47751823,0.35540313,0.22148895,0.019521667,3.9566064,0.008394558,3,1,1,0
121996000,121874000,0,0,-0.01,-0.049999997,1.52,0.09,0.09,0.20250002,-0.60222363,-5.5378304,0.25506473,0.45754537,0.35331506,0.22145018,0.031705998,3.4719794,0.011751269,3,1,1,0
122388000,122270000,0,0,-0.02,-0.049999997,1.52,0.09,0.09,0.20250002,-0.7729465,-5.363202,0.24787569,0.45814303,0.36246985,0.22133462,0.05216242,3.1742156,0.011103976,3,1,1,0
122796000,122674000,0,0,-0.04,-0.07,1.54,0.09,0.09,0.20250002,-0.87341064,-4.9666038,0.22324502,0.43953592,0.3600405,0.22135817,0.06942288,2.7404866,0.009005919,3,1,1,0
123188000,123074000,0,0,-0.049999997,-0.06,1.52,0.09,0.09,0.20250002,-0.96765834,-4.594403,0.23927772,0.421676,0.35668272,0.22128552,0.088822946,2.367206,0.010349313,3,1,1,0
123596000,123474000,0,0,-0.089999996,-0.04,1.4699999,0.09,0.09,0.20250002,-1.0286283,-4.2288814,0.28586566,0.4062748,0.35416925,0.22135472,0.10417346,2.0197618,0.014767099,3,1,1,0
123988000,123874000,0,0,-0.089999996,-0.03,1.54,0.09,0.09,0.20250002,-1.116326,-3.8581738,0.21848595,0.39178327,0.35078877,0.22147112,0.12723194,1.6973754,0.008621641,3,1,1,0
124396000,124274000,0,0,-0.089999996,-0.03,1.56,0.09,0.09,0.20250002,-1.2015616,-3.4868362,0.19741106,0.37983447,0.34831098,0.2215638,0.15203993,1.3962266,0.007035649,3,1,1,0
124788000,124674000,0,0,-0.06,-0.02,1.54,0.09,0.09,0.20250002,-1.3065286,-3.1356556,0.20722985,0.36875954,0.34513348,0.22152907,0.18516316,1.1395402,0.0077541447,3,1,1,0
125188000,125074000,0,0,-0.099999994,-0.01,1.5,0.09,0.09,0.20250002,-1.3399749,-2.791843,0.23262227,0.3595713,0.3425016,0.22155263,0.19974148,0.9102891,0.0097698,3,1,0,0
125588000,125474000,0,0,-0.08,0.0,1.51,0.09,0.09,0.20250002,-1.4298198,-2.4530995,0.21793509,0.35169074,0.33995885,0.221575,0.23252073,0.70805013,0.008574198,3,1,0,0
125996000,125874000,0,0,-0.08,0.0,1.51,0.09,0.09,0.20250002,-1.5012716,-2.117592,0.2143923,0.3455621,0.33799177,0.22164756,0.260887,0.530687,0.008294981,3,1,0,0
126396000,126274000,0,0,-0.08,0.0,1.51,0.09,0.09,0.20250002,-1.5621539,-1.7920932,0.20927668,0.34030607,0.33584744,0.22165293,0.28683883,0.38250676,0.007903659,3,1,0,0
126788000,126674000,0,0,-0.049999997,0.01,1.56,0.09,0.09,0.20250002,-1.6462322,-1.489926,0.15240598,0.33585143,0.33355552,0.22159252,0.32277137,0.26620808,0.004192846,3,1,0,0
127188000,127074000,0,0,-0.06,-0.01,1.5,0.09,0.09,0.20250002,-1.7362603,-1.2693208,0.19566381,0.3441106,0.3428565,0.2217423,0.3504222,0.18797083,0.0069060936,3,1,0,0
127596000,127474000,0,0,-0.03,-0.04,1.5,0.09,0.09,0.20250002,-1.8164972,-0.927416,0.18066716,0.34229517,0.3418744,0.22163802,0.3855926,0.10063351,0.0058907988,3,1,0,0
127988000,127874000,0,0,-0.06,-0.01,1.52,0.09,0.09,0.20250002,-1.8209738,-0.6562513,0.15468287,0.3406923,0.34036937,0.22172351,0.38931847,0.050611578,0.0043165092,3,1,0,0
128388000,128274000,0,0,-0.03,-0.03,1.51,0.09,0.09,0.20250002,-1.8784527,-0.34153712,0.15255189,0.34053713,0.33966103,0.22171208,0.4144728,0.013736943,0.0041986126,3,1,0,0
128796000,128674000,0,0,-0.06,-0.03,1.52,0.09,0.09,0.20250002,-1.8738819,-0.056301184,0.12800884,0.34176707,0.339756,0.22174066,0.41097388,0.00037318817,0.0029559329,3,1,0,0
129188000,129074000,0,0,-0.099999994,-0.03,1.49,0.09,0.09,0.20250002,-1.8459477,0.21646748,0.14415574,0.34298694,0.33936995,0.22163829,0.3973939,0.0055229603,0.003750413,3,1,0,0
129588000,129474000,0,0,-0.089999996,-0.049999997,1.4599999,0.09,0.09,0.20250002,-1.8616595,0.49430978,0.16144168,0.34539157,0.33979315,0.22175242,0.40137357,0.028763639,0.0047013545,3,1,0,0
129996000,129874000,0,0,-0.049999997,-0.06,1.4699999,0.09,0.09,0.20250002,-1.8977586,0.74440885,0.14507782,0.34883893,0.34100315,0.22175376,0.41296855,0.06500169,0.003796567,3,1,0,0
130396000,130274000,0,0,-0.049999997,-0.03,1.52,0.09,0.09,0.20250002,-1.8755668,0.9458568,0.088199496,0.35245338,0.34215966,0.22169653,0.3992302,0.10458803,0.0014035675,3,1,0,0
130796000,130674000,0,0,-0.06,-0.02,1.26,0.09,0.09,0.20250002,-1.8361077,1.16955,0.032850385,0.35856616,0.34546936,0.22164857,0.37608585,0.1583755,0.00019474933,3,1,0,0
131196000,131074000,0,0,-0.04,-0.03,0.97999996,0.09,0.09,0.20250002,-1.810622,1.389549,0.04799944,0.3647139,0.3488866,0.22159892,0.35955328,0.22137238,0.0004158768,3,1,0,0
131588000,131474000,0,0,-0.01,0.0,0.78,0.09,0.09,0.20250002,-1.7883041,1.5457617,0.04093653,0.37019417,0.35181823,0.22165714,0.3455518,0.27166066,0.0003024129,3,1,0,0
131988000,131874000,0,0,-0.04,0.0,0.56,0.09,0.09,0.20250002,-1.7024928,1.7256618,0.083372295,0.37628487,0.35534012,0.22161958,0.3081157,0.3352178,0.0012545715,3,1,0,0
132388000,132274000,0,0,-0.02,0.0,0.51,0.09,0.09,0.20250002,-1.7271146,1.8986588,0.017319918,0.39416382,0.3702538,0.22173746,0.30270913,0.38945234,5.4114367e-05,3,1,0,0
132796000,132674000,0,0,-0.01,0.0,0.96999997,0.09,0.09,0.20250002,-1.6831384,2.0315328,0.099915564,0.3959744,0.37013417,0.22174168,0.28617558,0.446014,0.0018008557,3,1,0,0
133196000,133074000,0,0,0.0,0.01,1.55,0.09,0.09,0.20250002,-1.6340346,2.1313221,0.0548023,0.39700815,0.36966926,0.22167814,0.2690191,0.4915241,0.0005419194,3,1,0,0
133588000,133474000,0,0,0.02,0.04,1.3,0.09,0.09,0.20250002,-1.5752668,2.2286158,0.0070667267,0.40361694,0.37454826,0.22172351,0.24592283,0.5304233,9.009171e-06,3,1,0,0
133988000,133874000,0,0,0.0,0.03,1.1999999,0.09,0.09,0.20250002,-1.4862751,2.3498135,0.03968084,0.40900174,0.37851322,0.22168325,0.21603954,0.5835065,0.00028411148,3,1,0,0
134396000,134274000,0,0,0.0,0.02,1.1899999,0.09,0.09,0.20250002,-1.421775,2.4592535,-0.009756923,0.41472697,0.3830784,0.22170517,0.19496624,0.6315081,1.717552e-05,3,1,0,0
134788000,134674000,0,0,0.01,0.0,1.06,0.09,0.09,0.20250002,-1.35625,2.5543723,0.04720974,0.41886836,0.38665918,0.22160764,0.17565559,0.6749943,0.00040228927,3,1,0,0
135188000,135074000,0,0,0.0,0.02,1.01,0.09,0.09,0.20250002,-1.268028,2.5989914,0.028886199,0.42324886,0.39079988,0.2215771,0.15195741,0.6913776,0.00015063155,3,1,0,0
135596000,135474000,0,0,0.0,0.01,0.97999996,0.09,0.09,0.20250002,-1.1844273,2.6629977,-0.0039248466,0.42782563,0.39548472,0.22160223,0.13116258,0.71725214,2.7805534e-06,3,1,0,0
135988000,135874000,0,0,-0.03,0.02,0.90999997,0.09,0.09,0.20250002,-1.0673494,2.6866493,0.0050203204,0.43058404,0.39883804,0.22151653,0.105831586,0.72391135,4.5511038e-06,3,1,0,0
136396000,136274000,0,0,-0.01,0.0,0.85999995,0.09,0.09,0.20250002,-1.0008078,2.7317638,-0.00856781,0.4342,0.4033167,0.22155778,0.092272334,0.74011654,1.3252952e-05,3,1,0,0
136796000,136674000,0,0,-0.03,0.03,0.78999996,0.09,0.09,0.20250002,-0.89229053,2.6965134,0.004257202,0.43629748,0.40693942,0.22153597,0.07299445,0.71471906,3.2723842e-06,3,1,0,0
137196000,137074000,0,0,0.0,0.0,0.72999996,0.09,0.09,0.20250002,-0.8282473,2.7130497,0.013019145,0.43793753,0.41033033,0.22166811,0.06265675,0.717533,3.058593e-05,3,1,0,0
137596000,137474000,0,0,0.01,0.0,0.72999996,0.09,0.09,0.20250002,-0.7482579,2.6835651,-0.028819382,0.43894738,0.41337034,0.22163601,0.051021136,0.6968591,0.00014989564,3,1,0,0
137988000,137874000,0,0,0.0,-0.02,0.66999996,0.09,0.09,0.20250002,-0.6917462,2.750155,-0.013892174,0.45619252,0.43102282,0.22155607,0.04195709,0.7018981,3.4843095e-05,3,1,0,0
138388000,138274000,0,0,0.0,-0.04,0.68,0.09,0.09,0.20250002,-0.59820455,2.7293468,-0.026352406,0.4563302,0.43346298,0.22153635,0.031367518,0.68742514,0.00012538787,3,1,0,0
138788000,138674000,0,0,0.0,-0.04,0.65,0.09,0.09,0.20250002,-0.50407475,2.6812558,0.0018851757,0.45606077,0.43557778,0.22166304,0.022285746,0.6601928,6.413135e-07,3,1,0,0
139188000,139074000,0,0,0.02,-0.03,0.59999996,0.09,0.09,0.20250002,-0.42197117,2.6129603,0.05351925,0.4553387,0.437384,0.22163351,0.015641954,0.6243998,0.0005169453,3,1,0,0
139588000,139474000,0,0,0.0,0.01,0.59999996,0.09,0.09,0.20250002,-0.3031038,2.509399,0.068463504,0.45419642,0.43873012,0.22160068,0.008090941,0.57411903,0.0008460717,3,1,0,0
139996000,139874000,0,0,0.0,0.0,0.69,0.09,0.09,0.20250002,-0.21083695,2.4501884,0.0009765625,0.4533802,0.4403414,0.2216283,0.0039218487,0.54534256,1.721214e-07,3,1,0,0
140396000,140274000,0,0,0.04,0.0,0.66999996,0.09,0.09,0.20250002,-0.1687687,2.3698792,0.025301874,0.45172948,0.44102713,0.221592,0.002522118,0.5093861,0.000115561,3,1,0,0
140788000,140674000,0,0,-0.01,-0.01,0.63,0.09,0.09,0.20250002,-0.037248485,2.288186,0.0621444,0.4491852,0.44076344,0.22149839,0.00012355257,0.47515696,0.00069741835,3,1,0,0
141188000,141074000,0,0,-0.02,0.0,0.63,0.09,0.09,0.20250002,0.04683392,2.1878004,0.06992602,0.44713503,0.4407542,0.22162858,0.00019621958,0.43438908,0.0008824943,3,1,0,0
