timestamp,timestamp_sample,device_id,x,y,z,temperature,error_count,clip_counter[0],clip_counter[1],clip_counter[2],samples
4116000,4116000,1310988,0.0010652645,-0.007456851,0.0,11.832727,0,0,0,0,1
5116000,5116000,1310988,0.0015978967,-0.0058589545,0.0005326322,11.832727,0,0,0,0,1
6116000,6116000,1310988,-0.0005326322,-0.0037284256,0.0005326322,11.832727,0,0,0,0,1
7116000,7116000,1310988,0.0,-0.0031957934,-0.0010652645,11.832727,0,0,0,0,1
8116000,8116000,1310988,0.0,-0.0063915867,-0.0015978967,11.832727,0,0,0,0,1
9116000,9116000,1310988,-0.0026631611,-0.0053263223,-0.0015978967,11.832727,0,0,0,0,1
10116000,10116000,1310988,0.0010652645,-0.007456851,0.0,11.832727,0,0,0,0,1
11116000,11116000,1310988,-0.0015978967,-0.00479369,0.002130529,11.832727,0,0,0,0,1
12116000,12116000,1310988,-0.0010652645,-0.007456851,0.0005326322,11.832727,0,0,0,0,1
13116000,13116000,1310988,0.0,-0.0005326322,0.0005326322,11.832727,0,0,0,0,1
14116000,14116000,1310988,0.0005326322,-0.0053263223,-0.0015978967,11.832727,0,0,0,0,1
15116000,15116000,1310988,0.0,-0.007456851,-0.0015978967,11.832727,0,0,0,0,1
16116000,16116000,1310988,-0.0005326322,-0.00479369,0.0010652645,11.832727,0,0,0,0,1
17116000,17116000,1310988,-0.002130529,-0.00479369,0.0015978967,11.832727,0,0,0,0,1
18116000,18116000,1310988,-0.0010652645,-0.002130529,-0.0037284256,11.832727,0,0,0,0,1
19116000,19116000,1310988,-0.0026631611,-0.0026631611,-0.0005326322,11.832727,0,0,0,0,1
20116000,20116000,1310988,-0.0063915867,-0.00479369,-0.0005326322,11.832727,0,0,0,0,1
21116000,21116000,1310988,-0.0005326322,-0.0053263223,0.0,11.832727,0,0,0,0,1
22116000,22116000,1310988,-0.0015978967,-0.0031957934,-0.0010652645,11.832727,0,0,0,0,1
23116000,23116000,1310988,0.0010652645,-0.0058589545,0.0,11.832727,0,0,0,0,1
24116000,24116000,1310988,-0.0010652645,-0.0026631611,-0.0026631611,11.832727,0,0,0,0,1
25116000,25116000,1310988,-0.0005326322,-0.0015978967,-0.0005326322,11.832727,0,0,0,0,1
26116000,26116000,1310988,-0.002130529,-0.007989483,0.0015978967,11.832727,0,0,0,0,1
27116000,27116000,1310988,0.0,-0.0053263223,-0.0010652645,11.832727,0,0,0,0,1
28116000,28116000,1310988,0.002130529,-0.0031957934,0.0005326322,11.832727,0,0,0,0,1
29116000,29116000,1310988,-0.0026631611,-0.007989483,0.0031957934,11.832727,0,0,0,0,1
30116000,30116000,1310988,-0.0005326322,-0.00479369,-0.0010652645,11.832727,0,0,0,0,1
31116000,31116000,1310988,-0.0010652645,-0.00479369,-0.0005326322,11.832727,0,0,0,0,1
32116000,32116000,1310988,0.0005326322,-0.0053263223,0.0010652645,11.832727,0,0,0,0,1
33116000,33116000,1310988,-0.0031957934,-0.007456851,0.0010652645,11.832727,0,0,0,0,1
34116000,34116000,1310988,0.0010652645,-0.007456851,0.0,11.832727,0,0,0,0,1
35116000,35116000,1310988,0.21518342,0.12836437,0.02876214,11.832605,0,0,0,0,1
36116000,36116000,1310988,-0.023435818,-0.004261058,0.0015978967,11.829462,0,0,0,0,1
37116000,37116000,1310988,0.01438107,-0.0037284256,0.0,11.823145,0,0,0,0,1
38116000,38116000,1310988,0.0063915867,0.010652645,-0.0010652645,11.8155155,0,0,0,0,1
39116000,39116000,1310988,0.0053263223,-0.00958738,0.0037284256,11.806726,0,0,0,0,1
40116000,40116000,1310988,0.00958738,-0.010120012,0.0005326322,11.797205,0,0,0,0,1
41116000,41116000,1310988,0.0005326322,-0.013315806,0.0010652645,11.78747,0,0,0,0,1
42116000,42116000,1310988,-0.0015978967,-0.0010652645,0.0005326322,11.777918,0,0,0,0,1
43116000,43116000,1310988,-0.19973709,-0.12357068,-0.15978967,11.7711735,0,0,0,0,1
44116000,44116000,1310988,0.03195793,-0.05006743,-0.81439465,11.76861,0,0,0,0,1
45116000,45116000,1310988,0.08042747,0.30679616,0.2593919,11.768274,0,0,0,0,1
46116000,46116000,1310988,-0.02130529,-0.02396845,0.015446335,11.768671,0,0,0,0,1
47116000,47116000,1310988,-0.024501082,-0.022903185,-0.0005326322,11.7686405,0,0,0,0,1
48116000,48116000,1310988,-0.011717909,-0.018642128,-0.00479369,11.768518,0,0,0,0,1
49116000,49116000,1310988,0.00479369,0.0053263223,0.0015978967,11.768457,0,0,0,0,1
50116000,50116000,1310988,0.009054748,-0.0058589545,0.0005326322,11.768366,0,0,0,0,1
51116000,51116000,1310988,0.0053263223,-0.0037284256,-0.0005326322,11.768274,0,0,0,0,1
52116000,52116000,1310988,-0.0031957934,0.0,0.0015978967,11.768152,0,0,0,0,1
53116000,53116000,1310988,0.002130529,-0.0015978967,0.0026631611,11.768061,0,0,0,0,1
54116000,54116000,1310988,-0.0026631611,0.002130529,-0.0010652645,11.767939,0,0,0,0,1
55116000,55116000,1310988,-0.0037284256,-0.007456851,-0.0031957934,11.767786,0,0,0,0,1
56116000,56116000,1310988,0.0005326322,-0.006924219,0.0,11.767725,0,0,0,0,1
57116000,57116000,1310988,0.0010652645,0.0031957934,0.0005326322,11.767664,0,0,0,0,1
58116000,58116000,1310988,-0.006924219,-0.0053263223,0.0026631611,11.767572,0,0,0,0,1
59116000,59116000,1310988,0.0005326322,-0.0127831735,0.0015978967,11.767542,0,0,0,0,1
60116000,60116000,1310988,-0.0005326322,0.002130529,-0.0005326322,11.767572,0,0,0,0,1
61116000,61116000,1310988,-0.0063915867,-0.0063915867,-0.0005326322,11.767633,0,0,0,0,1
62116000,62116000,1310988,0.036751624,0.4426174,-0.004261058,11.767664,0,0,0,0,1
63116000,63116000,1310988,-0.017576864,0.034088463,-0.020240024,11.767694,0,0,0,0,1
64116000,64116000,1310988,0.07669904,-0.03355583,-0.044208474,11.767603,0,0,0,0,1
65116000,65116000,1310988,-0.17417073,-0.30999196,0.99921805,11.767328,0,0,0,0,1
66116000,66116000,1310988,0.07563378,-0.31691617,0.80800307,11.767389,0,0,0,0,1
67116000,67116000,1310988,0.15126756,0.20772657,-0.22423817,11.767267,0,0,0,0,1
68116000,68116000,1310988,0.111852765,-0.16405073,-0.017044231,11.767572,0,0,0,0,1
69116000,69116000,1310988,0.0,-0.007456851,-0.0037284256,11.767786,0,0,0,0,1
70116000,70116000,1310988,-0.0031957934,-0.007989483,0.004261058,11.76803,0,0,0,0,1
71116000,71116000,1310988,0.072970614,0.47351006,0.004261058,11.768335,0,0,0,0,1
72116000,72116000,1310988,-0.0005326322,0.013315806,0.0005326322,11.7685795,0,0,0,0,1
73116000,73116000,1310988,0.0,0.0010652645,0.007456851,11.768763,0,0,0,0,1
74116000,74116000,1310988,0.18855181,0.34780884,1.0135992,11.768763,0,0,0,0,1
75116000,75116000,1310988,0.094808534,-0.32490566,0.8048073,11.768854,0,0,0,0,1
76116000,76116000,1310988,0.076166406,0.018109497,-0.25726137,11.768824,0,0,0,0,1
77116000,77116000,1310988,-0.03195793,-0.034088463,-0.020240024,11.769007,0,0,0,0,1
78116000,78116000,1310988,-0.002130529,-0.020772656,0.0058589545,11.769007,0,0,0,0,1
79116000,79116000,1310988,-0.0058589545,-0.007456851,0.0010652645,11.768854,0,0,0,0,1
80116000,80116000,1310988,0.0005326322,-0.008522116,0.0037284256,11.7686405,0,0,0,0,1
81116000,81116000,1310988,-0.0026631611,-0.00479369,0.0015978967,11.768427,0,0,0,0,1
82116000,82116000,1310988,-0.002130529,-0.0005326322,0.0015978967,11.768305,0,0,0,0,1
83116000,83116000,1310988,0.0026631611,0.0031957934,0.00479369,11.768183,0,0,0,0,1
84116000,84116000,1310988,-0.06178534,-0.037284255,0.0063915867,11.768152,0,0,0,0,1
85116000,85116000,1310988,-0.017576864,0.030360037,-0.0058589545,11.768091,0,0,0,0,1
86116000,86116000,1310988,0.05912218,-0.38615838,0.09853696,11.76803,0,0,0,0,1
87116000,87116000,1310988,-0.35633096,0.027164243,0.86179894,11.7677555,0,0,0,0,1
88116000,88116000,1310988,-0.21837921,-0.330232,0.56885123,11.767725,0,0,0,0,1
89116000,89116000,1310988,0.10439592,0.21198763,-0.053263225,11.767603,0,0,0,0,1
90116000,90116000,1310988,-0.0010652645,0.011185277,0.0,11.767725,0,0,0,0,1
91116000,91116000,1310988,0.0005326322,-0.007989483,-0.0010652645,11.767725,0,0,0,0,1
92116000,92116000,1310988,-0.0005326322,-0.0063915867,-0.0010652645,11.767786,0,0,0,0,1
93116000,93116000,1310988,0.07882957,0.44474792,-0.002130529,11.767969,0,0,0,0,1
94116000,94116000,1310988,-0.009054748,0.022370555,-0.008522116,11.768183,0,0,0,0,1
95116000,95116000,1310988,0.06498113,-0.0026631611,-0.0053263223,11.768366,0,0,0,0,1
96116000,96116000,1310988,0.00958738,0.0058589545,-0.00958738,11.768305,0,0,0,0,1
97116000,97116000,1310988,0.004261058,0.05219796,-0.00479369,11.757746,0,0,0,0,1
98116000,98116000,1310988,-0.015978966,0.0005326322,0.0010652645,11.740686,0,0,0,0,1
99116000,99116000,1310988,0.004261058,-0.0053263223,0.0,11.723902,0,0,0,0,1
100116000,100116000,1310988,0.0,-0.0010652645,0.0005326322,11.707087,0,0,0,0,1
101116000,101116000,1310988,-0.0031957934,-0.00958738,0.0026631611,11.690607,0,0,0,0,1
102116000,102116000,1310988,0.002130529,-0.010120012,-0.0005326322,11.674067,0,0,0,0,1
103116000,103116000,1310988,0.0005326322,-0.00479369,0.0,11.661737,0,0,0,0,1
104116000,104116000,1310988,-0.0015978967,-0.009054748,-0.0015978967,11.653498,0,0,0,0,1
105116000,105116000,1310988,0.009054748,0.0063915867,0.0005326322,11.6479435,0,0,0,0,1
106116000,106116000,1310988,0.0010652645,-0.0053263223,-0.0005326322,11.644434,0,0,0,0,1
107116000,107116000,1310988,-0.42290998,-0.08841695,-0.99548966,11.642176,0,0,0,0,1
108116000,108116000,1310988,0.080960095,0.034621093,-0.74728304,11.640741,0,0,0,0,1
109116000,109116000,1310988,0.03568636,-0.12836437,0.13262543,11.64065,0,0,0,0,1
110116000,110116000,1310988,-0.009054748,0.0005326322,0.0015978967,11.640589,0,0,0,0,1
111116000,111116000,1310988,-0.007989483,0.0031957934,-0.0037284256,11.640497,0,0,0,0,1
112116000,112116000,1310988,0.0063915867,-0.011717909,-0.0010652645,11.640253,0,0,0,0,1
113116000,113116000,1310988,0.0010652645,-0.007989483,-0.0015978967,11.639856,0,0,0,0,1
114116000,114116000,1310988,0.0,-0.0005326322,-0.0005326322,11.639429,0,0,0,0,1
115116000,115116000,1310988,-0.0010652645,-0.008522116,-0.0005326322,11.638971,0,0,0,0,1
116116000,116116000,1310988,-0.004261058,0.05912218,-0.0053263223,11.638544,0,0,0,0,1
117116000,117116000,1310988,-0.016511599,0.025033714,-0.0010652645,11.638178,0,0,0,0,1
118116000,118116000,1310988,-0.056459017,-0.010120012,-0.094808534,11.637995,0,0,0,0,1
119116000,119116000,1310988,-0.03195793,-0.0031957934,-0.82344943,11.642481,0,0,0,0,1
120116000,120116000,1310988,0.05219796,0.0,-0.7861652,11.652246,0,0,0,0,1
121116000,121116000,1310988,-0.036751624,-0.0053263223,0.26897928,11.662134,0,0,0,0,1
122116000,122116000,1310988,-0.006924219,-0.017576864,0.011185277,11.6722355,0,0,0,0,1
123116000,123116000,1310988,-0.0037284256,-0.015446335,0.004261058,11.682001,0,0,0,0,1
124116000,124116000,1310988,-0.0063915867,-0.0031957934,0.0015978967,11.692072,0,0,0,0,1
125116000,125116000,1310988,0.0063915867,-0.0063915867,0.0005326322,11.701899,0,0,0,0,1
126116000,126116000,1310988,-0.0015978967,0.0,0.004261058,11.711939,0,0,0,0,1
127116000,127116000,1310988,0.002130529,-0.004261058,-0.0010652645,11.721979,0,0,0,0,1
128116000,128116000,1310988,-0.004261058,-0.0026631611,0.002130529,11.731714,0,0,0,0,1
129116000,129116000,1310988,-0.0026631611,-0.0026631611,0.0015978967,11.741602,0,0,0,0,1
130116000,130116000,1310988,0.004261058,-0.0058589545,0.0010652645,11.751429,0,0,0,0,1
131116000,131116000,1310988,-0.0005326322,-0.004261058,0.0058589545,11.759668,0,0,0,0,1
132116000,132116000,1310988,-0.013848438,-0.0058589545,-0.004261058,11.764338,0,0,0,0,1
133116000,133116000,1310988,-0.008522116,-0.010652645,0.0005326322,11.77038,0,0,0,0,1
134116000,134116000,1310988,0.0015978967,-0.0031957934,-0.0010652645,11.778772,0,0,0,0,1
135116000,135116000,1310988,0.0058589545,-0.0031957934,-0.0037284256,11.786036,0,0,0,0,1
136116000,136116000,1310988,-0.009054748,-0.0015978967,-0.0015978967,11.792322,0,0,0,0,1
137116000,137116000,1310988,-0.0015978967,0.004261058,-0.0037284256,11.797541,0,0,0,0,1
138116000,138116000,1310988,-0.0005326322,-0.011185277,0.0037284256,11.802118,0,0,0,0,1
139116000,139116000,1310988,0.0026631611,-0.004261058,0.0,11.806391,0,0,0,0,1
140116000,140116000,1310988,0.0005326322,-0.0053263223,-0.0010652645,11.810633,0,0,0,0,1
141116000,141116000,1310988,-0.0026631611,-0.00479369,0.0037284256,11.814966,0,0,0,0,1
142116000,142116000,1310988,0.0,-0.004261058,-0.002130529,11.819269,0,0,0,0,1
143116000,143116000,1310988,-0.004261058,-0.0005326322,0.0010652645,11.823481,0,0,0,0,1
144116000,144116000,1310988,0.0,-0.010120012,0.0,11.827631,0,0,0,0,1
145116000,145116000,1310988,-0.0015978967,0.002130529,0.0,11.831995,0,0,0,0,1
146116000,146116000,1310988,-0.0005326322,-0.00958738,0.0,11.832727,0,0,0,0,1
147116000,147116000,1310988,-0.0015978967,-0.0031957934,0.0,11.832727,0,0,0,0,1
148116000,148116000,1310988,-0.0010652645,-0.0026631611,0.004261058,11.832727,0,0,0,0,1
149116000,149116000,1310988,-0.0010652645,-0.004261058,-0.002130529,11.832727,0,0,0,0,1
