timestamp,accel_device_id,gyro_device_id,accel_clipping[0],accel_clipping[1],accel_clipping[2],gyro_clipping[0],gyro_clipping[1],gyro_clipping[2],accel_error_count,gyro_error_count,accel_rate_hz,gyro_rate_hz,accel_raw_rate_hz,gyro_raw_rate_hz,accel_vibration_metric,gyro_vibration_metric,delta_angle_coning_metric,mean_accel[0],mean_accel[1],mean_accel[2],mean_gyro[0],mean_gyro[1],mean_gyro[2],var_accel[0],var_accel[1],var_accel[2],var_gyro[0],var_gyro[1],var_gyro[2],temperature_accel,temperature_gyro
4040000,1310988,1310988,0,0,0,0,0,0,0,0,250.0,250.0,250.0,250.0,0.036584508,0.0018323101,1.8616107e-11,-0.20848708,0.19134478,-9.920327,-0.0016618125,-0.0055393754,-0.00053263234,0.0004881543,0.0002564778,0.000439045,4.4285116e-06,4.822851e-06,3.9717597e-06,11.832729,11.832729
5040000,1310988,1310988,0,0,0,0,0,0,0,0,250.0,250.0,250.0,250.0,0.025203424,0.0022072662,1.4292683e-11,-0.21720198,0.19440936,-9.932106,0.0003834953,-0.0049641323,-0.0008948222,0.00077075197,0.00042657135,0.00054694654,4.6460127e-06,5.8564538e-06,4.6743826e-06,11.832729,11.832729
6040000,1310988,1310988,0,0,0,0,0,0,0,0,250.0,250.0,250.0,250.0,0.022517715,0.002027975,1.3347358e-11,-0.20896593,0.17736264,-9.945514,-0.0010439592,-0.0058589545,-0.00017044246,0.00043541804,0.00029039336,0.00028899685,3.2265814e-06,5.4848106e-06,3.3031797e-06,11.832729,11.832729
7040000,1310988,1310988,0,0,0,0,0,0,0,0,250.0,250.0,250.0,250.0,0.023784619,0.0022260828,1.1504725e-11,-0.2054225,0.1909617,-9.926456,-0.00051132694,-0.0048149955,-0.00029827416,0.0005904167,0.0004529778,0.00043061154,2.020869e-06,2.3991315e-06,4.4228377e-06,11.832729,11.832729
8040000,1310988,1310988,0,0,0,0,0,0,0,0,250.0,250.0,250.0,250.0,0.024078408,0.0022576314,1.1416762e-11,-0.21097705,0.18818443,-9.944173,-0.00010652641,-0.0049002166,-0.0004261059,0.00035984855,0.00038740126,0.00026706356,3.6644205e-06,5.9339977e-06,2.4114254e-06,11.832729,11.832729
9040000,1310988,1310988,0,0,0,0,0,0,0,0,250.0,250.0,250.0,250.0,0.022761222,0.0020147439,1.2268807e-11,-0.19450495,0.18780136,-9.939768,-0.0008735169,-0.005006743,-0.0009161275,0.00031206105,0.00027136243,0.00021830233,2.4085884e-06,4.4918706e-06,2.8965476e-06,11.832729,11.832729
10040000,1310988,1310988,0,0,0,0,0,0,0,0,250.0,250.0,250.0,250.0,0.024376927,0.0021284856,1.4885813e-11,-0.20111294,0.17439383,-9.937565,-0.0010013486,-0.005901565,-0.0005326323,0.0006114349,0.00046033406,0.00022007825,2.4189906e-06,4.1117164e-06,4.160891e-06,11.832729,11.832729
11040000,1310988,1310988,0,0,0,0,0,0,0,0,250.0,250.0,250.0,250.0,0.024535798,0.002152853,1.0847652e-11,-0.19699492,0.17018004,-9.918508,-6.391587e-05,-0.004921522,0.00057524274,0.0003078765,0.0006567766,0.0003704502,1.8515964e-06,5.5623545e-06,3.1897011e-06,11.832729,11.832729
12040000,1310988,1310988,0,0,0,0,0,0,0,0,250.0,250.0,250.0,250.0,0.023737969,0.0021450387,9.754371e-12,-0.19632454,0.16663662,-9.932202,-0.00080960104,-0.0041758367,-0.00042610586,0.0006635023,0.00032004784,0.00038743712,2.887091e-06,7.5340495e-06,1.6785411e-06,11.832729,11.832729
13040000,1310988,1310988,0,0,0,0,0,0,0,0,250.0,250.0,250.0,250.0,0.023596156,0.0022684992,1.30176e-11,-0.19460072,0.16807313,-9.927222,-0.00021305289,-0.005113269,-0.00031957944,0.00029497914,0.00036924932,0.00037970018,2.222294e-06,5.224755e-06,6.0285633e-06,11.832729,11.832729
14040000,1310988,1310988,0,0,0,0,0,0,0,0,250.0,250.0,250.0,250.0,0.023126801,0.0021373199,9.945633e-12,-0.1934515,0.16242282,-9.924829,-0.0015978967,-0.0053263223,-0.0012783174,0.0005555458,0.00022244768,0.00056169456,2.5296324e-06,2.884254e-06,2.4350666e-06,11.832729,11.832729
15040000,1310988,1310988,0,0,0,0,0,0,0,0,250.0,250.0,250.0,250.0,0.024447216,0.0020705608,1.1407876e-11,-0.17726669,0.16615778,-9.938427,-0.0010226539,-0.005368933,-8.64296e-11,0.00040100573,0.00048198257,0.0005194689,3.8753024e-06,4.6318282e-06,2.1986525e-06,11.832729,11.832729
16040000,1310988,1310988,0,0,0,0,0,0,0,0,250.0,250.0,250.0,250.0,0.023190664,0.00212606,9.954861e-12,-0.16184804,0.14441842,-9.937182,-0.00072437985,-0.004644553,-0.00040480055,0.0005211527,0.00021577918,0.00036500517,2.4322298e-06,2.376436e-06,2.1579892e-06,11.832729,11.832729
17040000,1310988,1310988,0,0,0,0,0,0,0,0,250.0,250.0,250.0,250.0,0.023406519,0.0021811458,1.2235241e-11,-0.16903064,0.15428254,-9.914293,-0.0020453078,-0.0051771854,0.00031957924,0.00039838802,0.00024843364,0.00045355211,3.9169113e-06,4.2913916e-06,2.2459353e-06,11.832729,11.832729
18040000,1310988,1310988,0,0,0,0,0,0,0,0,250.0,250.0,250.0,250.0,0.02496079,0.0021636614,1.0946756e-11,-0.16050728,0.1546656,-9.921763,-0.0003834952,-0.0046871635,0.0004048004,0.0007277413,0.00024075246,0.0004504104,2.2818704e-06,3.6407796e-06,4.1911517e-06,11.832729,11.832729
19040000,1310988,1310988,0,0,0,0,0,0,0,0,250.0,250.0,250.0,250.0,0.023746261,0.002126639,1.5912358e-11,-0.17123331,0.13924696,-9.916401,-0.0007882957,-0.0056245965,-2.1305405e-05,0.00057709904,0.00025588553,0.00047467148,2.225131e-06,5.344853e-06,5.4488755e-06,11.832729,11.832729
20040000,1310988,1310988,0,0,0,0,0,0,0,0,250.0,250.0,250.0,250.0,0.023854319,0.0021314363,1.40477265e-11,-0.15667656,0.14623801,-9.9245405,-0.0010226539,-0.0054967646,0.00061785325,0.00044380617,0.0002975586,0.00052558165,4.537262e-06,3.4213872e-06,2.7111987e-06,11.832729,11.832729
21040000,1310988,1310988,0,0,0,0,0,0,0,0,250.0,250.0,250.0,250.0,0.022952678,0.0021413013,1.04373715e-11,-0.15868768,0.16041169,-9.900982,-0.0012570121,-0.0043249736,-0.00070307456,0.0005266556,0.0001958502,0.00046812714,3.7797909e-06,5.988846e-06,4.154271e-06,11.832729,11.832729
22040000,1310988,1310988,0,0,0,0,0,0,0,0,250.0,250.0,250.0,250.0,0.024025993,0.002080194,1.7165255e-11,-0.17822437,0.14834492,-9.91257,-0.0012996227,-0.0051771854,-0.00027696884,0.0006363125,0.00026008906,0.00045822863,6.054096e-06,5.42618e-06,4.305576e-06,11.832729,11.832729
23040000,1310988,1310988,0,0,0,0,0,0,0,0,250.0,250.0,250.0,250.0,0.02343914,0.0022295574,1.2052218e-11,-0.16117766,0.14250307,-9.90261,-0.0014913703,-0.004346279,-0.00095873803,0.0004001651,0.00026517163,0.00030663496,3.6171382e-06,6.139205e-06,1.6548997e-06,11.832729,11.832729
24040000,1310988,1310988,0,0,0,0,0,0,0,0,250.0,250.0,250.0,250.0,0.023073012,0.0020975997,1.1018969e-11,-0.15830462,0.14853646,-9.906632,-0.00091612746,-0.004474111,-0.00021305296,0.00025810185,0.00064128055,0.0002829226,3.6767142e-06,1.7967484e-06,3.4280065e-06,11.832729,11.832729
25040000,1310988,1310988,0,0,0,0,0,0,0,0,250.0,250.0,250.0,250.0,0.023824984,0.002130409,1.463286e-11,-0.16098613,0.13867234,-9.902706,-0.0012357067,-0.0054115434,0.00074568496,0.0004247944,0.00035440293,0.00044200907,1.8374116e-06,2.1910873e-06,4.6100777e-06,11.832729,11.832729
26040000,1310988,1310988,0,0,0,0,0,0,0,0,250.0,250.0,250.0,250.0,0.024185454,0.0020909598,1.0148552e-11,-0.17161638,0.1466211,-9.889202,-0.0012996226,-0.005454154,-0.0010652646,0.0002888647,0.00051507656,0.00041038432,2.4133167e-06,3.0090805e-06,4.113608e-06,11.832729,11.832729
27040000,1310988,1310988,0,0,0,0,0,0,0,0,250.0,250.0,250.0,250.0,0.024551686,0.002135143,8.849325e-12,-0.17209522,0.16060323,-9.887191,-0.0014487597,-0.0047510797,0.00021305279,0.00031112478,0.00043751995,0.00041601132,2.2345876e-06,3.3315496e-06,1.9858799e-06,11.832729,11.832729
28040000,1310988,1310988,0,0,0,0,0,0,0,0,250.0,250.0,250.0,250.0,0.02476888,0.0022457314,1.1803343e-11,-0.17171215,0.16242282,-9.882882,-0.001619202,-0.0051771854,-1.1946276e-10,0.00068715727,0.0003155959,0.00030365516,2.3991317e-06,3.3693757e-06,3.4989307e-06,11.832729,11.832729
29040000,1310988,1310988,0,0,0,0,0,0,0,0,250.0,250.0,250.0,250.0,0.023508111,0.0022069789,1.2126181e-11,-0.1754471,0.1471957,-9.878094,-0.0012996227,-0.005603291,-0.0006604641,0.0004526146,0.0011015955,0.00055252976,1.9168467e-06,5.298517e-06,2.9617977e-06,11.832729,11.832729
30040000,1310988,1310988,0,0,0,0,0,0,0,0,250.0,250.0,250.0,250.0,0.02644412,0.002217932,1.2519766e-11,-0.18885463,0.15073912,-9.881253,-0.0016831178,-0.0042397524,0.0008096009,0.000221798,0.0010024095,0.00052290794,2.1201631e-06,4.503219e-06,2.8870907e-06,11.832729,11.832729
31040000,1310988,1310988,0,0,0,0,0,0,0,0,250.0,250.0,250.0,250.0,0.025421856,0.002191487,1.4535401e-11,-0.17822437,0.15456983,-9.876848,-0.0022370555,-0.0060933125,0.00038349506,0.000466735,0.00070748746,0.00024253133,4.7282847e-06,7.0233946e-06,2.2109461e-06,11.832729,11.832729
32040000,1310988,1310988,0,0,0,0,0,0,0,0,250.0,250.0,250.0,250.0,0.025052208,0.0021749986,1.23964675e-11,-0.18703504,0.13934271,-9.881733,-0.0017044231,-0.0051345746,0.0005539374,0.0004912116,0.00089613436,0.00017381714,3.1443094e-06,3.850715e-06,5.3779513e-06,11.832729,11.832729
33040000,1310988,1310988,0,0,0,0,0,0,0,0,250.0,250.0,250.0,250.0,0.02522087,0.0021043736,1.31182825e-11,-0.18454507,0.13522469,-9.864303,-0.0014913703,-0.005837649,-0.00053263234,0.00048672123,0.00052121014,0.0006295508,2.8606123e-06,3.2975058e-06,2.0804455e-06,11.832729,11.832729
34040000,1310988,1310988,0,0,0,0,0,0,0,0,250.0,250.0,250.0,250.0,0.025956865,0.002303293,1.6754157e-11,-0.18598159,0.15083489,-9.881828,-0.0020879183,-0.0046871635,-0.0003834953,0.00039491052,0.0005684434,0.00058659987,3.9462266e-06,3.451648e-06,4.8824268e-06,11.832729,11.832729
35040000,1310988,1310988,0,0,0,0,0,0,0,0,250.0,250.0,250.0,250.0,0.025749816,0.0036222793,7.3201406e-10,-0.14106636,-0.05870565,-10.13274,0.29676136,-0.0034088464,0.007137272,0.0026659134,0.0012893251,0.0018051553,0.0008418399,9.787548e-06,9.487304e-05,11.832664,11.832664
36040000,1310988,1310988,0,0,0,0,0,0,0,0,250.0,250.0,250.0,250.0,0.025433712,0.0033103093,1.07759364e-10,-0.17621325,0.07852999,-10.310199,-0.034450654,-0.014892397,-0.003089267,0.0005273626,0.0003745039,0.025499566,2.3682085e-05,1.0271728e-05,3.451648e-06,11.830114,11.830114
37040000,1310988,1310988,0,0,0,0,0,0,0,0,250.0,250.0,250.0,250.0,0.023809066,0.0023068583,2.4462548e-11,-0.20398599,0.18521562,-10.118375,0.011291803,-0.00515588,-0.0003408847,0.000532617,0.0004355901,0.00050061743,5.8867145e-06,3.7996497e-06,3.6852252e-06,11.824048,11.824048
38040000,1310988,1310988,0,0,0,0,0,0,0,0,250.0,250.0,250.0,250.0,0.025393134,0.0022917937,4.0112535e-11,-0.1967076,0.20360309,-10.033046,0.015936356,-0.005454154,-0.0009800434,0.00039441377,0.0005710611,0.00063058076,9.1237e-06,3.8365306e-06,2.5220672e-06,11.81647,11.81647
39040000,1310988,1310988,0,0,0,0,0,0,0,0,250.0,250.0,250.0,250.0,0.026197858,0.002356553,2.3632906e-11,-0.20140025,0.18808867,-9.954038,0.003174488,-0.008543421,0.00334493,0.00032784368,0.00027279553,0.0008923507,4.3850114e-06,4.7396325e-06,5.024275e-06,11.807826,11.807826
40040000,1310988,1310988,0,0,0,0,0,0,0,0,250.0,250.0,250.0,250.0,0.02722056,0.0023451871,1.10967294e-11,-0.18703504,0.17132926,-9.908452,-0.0047297743,-0.0008948222,-0.0006817693,0.00061732,0.00039317168,0.0011632151,4.0738905e-06,9.662723e-06,1.7617589e-06,11.79845,11.79845
41040000,1310988,1310988,0,0,0,0,0,0,0,0,250.0,250.0,250.0,250.0,0.02752946,0.002202401,2.6430892e-11,-0.2078167,0.16213551,-9.89514,0.00034088467,-0.012399678,0.00040480032,0.00034249906,0.0006207593,0.0010129154,2.006684e-06,4.196825e-06,5.136809e-06,11.788617,11.788617
42040000,1310988,1310988,0,0,0,0,0,0,0,0,250.0,250.0,250.0,250.0,0.028887978,0.0022195952,1.4333371e-11,-0.19642031,0.15715556,-9.432198,-0.0044315,-0.0014274543,-0.0002556635,0.0002629552,0.00046472868,0.001166981,3.9178567e-06,4.934438e-06,5.8422693e-06,11.778925,11.778925
43040000,1310988,1310988,0,0,0,0,0,0,0,0,250.0,250.0,250.0,250.0,0.025115184,0.002284108,1.8260808e-11,-0.20446482,0.16931811,-9.23932,-0.007691209,-0.004261058,-0.0018109498,0.00042179445,0.00039338192,0.017210705,2.0499006e-05,1.0354945e-05,6.1467704e-06,11.771867,11.771867
44040000,1310988,1310988,0,0,0,0,0,0,0,0,250.0,250.0,250.0,250.0,0.025215115,0.0072518336,7.803416e-09,-0.62613165,0.37837982,-9.622871,-0.08287758,-0.13923004,-0.86778575,0.0015267341,0.0003441614,0.030112315,0.0012765897,0.0010832737,0.00014639414,11.768693,11.768693
45040000,1310988,1310988,0,0,0,0,0,0,0,0,250.0,250.0,250.0,250.0,0.025963321,0.008151037,3.330237e-09,-1.64338,0.090596765,-9.6607,0.18184064,0.31881234,0.15497467,0.0008975681,0.0004579456,0.00058252603,0.00020218146,5.8845417e-05,0.0015489738,11.768257,11.768257
46040000,1310988,1310988,0,0,0,0,0,0,0,0,250.0,250.0,250.0,250.0,0.02325225,0.0069921575,7.340544e-10,-1.8585709,0.09155444,-9.7803135,-0.0040693106,-0.12536032,0.023052322,0.00052235613,0.0003880127,0.0005359682,0.0007469007,0.00029740628,4.6696546e-06,11.768652,11.768652
47040000,1310988,1310988,0,0,0,0,0,0,0,0,250.0,250.0,250.0,250.0,0.024100183,0.0028473104,3.335938e-11,-1.860582,0.003160515,-9.679087,-0.013102753,-0.013933659,-0.0028975196,0.00036032562,0.00039013367,0.0005897123,1.9693305e-05,4.413381e-06,2.649731e-06,11.768673,11.768673
48040000,1310988,1310988,0,0,0,0,0,0,0,0,250.0,250.0,250.0,250.0,0.02385953,0.0024551637,6.340503e-11,-1.8891209,0.009098136,-9.701497,-0.020026973,-0.012911005,-0.0023009714,0.0003527604,0.00068786426,0.00025026884,7.896236e-06,1.6295562e-05,2.4284473e-06,11.768551,11.768551
49040000,1310988,1310988,0,0,0,0,0,0,0,0,250.0,250.0,250.0,250.0,0.023835398,0.0023195534,1.6320756e-11,-1.932887,0.07843422,-9.632448,0.006114618,0.0026205506,-0.001107875,0.00049617956,0.0006373635,0.0007773191,4.7074805e-06,3.3315496e-06,3.757095e-06,11.768459,11.768459
50040000,1310988,1310988,0,0,0,0,0,0,0,0,250.0,250.0,250.0,250.0,0.025141034,0.0022164,3.967828e-11,-1.9423679,0.11779489,-9.683493,0.0019813918,-0.015701998,0.00034088438,0.0002672729,0.00048771483,0.00045002217,6.3245543e-06,5.464007e-06,4.3235436e-06,11.768368,11.768368
51040000,1310988,1310988,0,0,0,0,0,0,0,0,250.0,250.0,250.0,250.0,0.02303392,0.0021029306,2.4906894e-11,-1.9571162,0.114826076,-9.600653,0.009395633,-0.008436895,0.00021305273,0.00034540283,0.00031932187,0.00040291803,5.93116e-06,3.845987e-06,1.678541e-06,11.768276,11.768276
52040000,1310988,1310988,0,0,0,0,0,0,0,0,250.0,250.0,250.0,250.0,0.023016127,0.002131332,1.3633772e-11,-1.9752164,0.0995032,-9.663285,-0.0033662356,-0.005965481,0.0012996225,0.0005216293,0.00038075197,0.0006187483,3.7760083e-06,7.163352e-06,2.4133167e-06,11.768185,11.768185
53040000,1310988,1310988,0,0,0,0,0,0,0,0,250.0,250.0,250.0,250.0,0.0238924,0.0021367308,1.3423142e-11,-1.9759825,0.095480934,-9.615497,0.0015765914,-0.005667207,0.001406149,0.00034761906,0.0008437419,0.0003796036,2.2100003e-06,1.0919501e-05,2.3376642e-06,11.7680855,11.7680855
54040000,1310988,1310988,0,0,0,0,0,0,0,0,250.0,250.0,250.0,250.0,0.027048467,0.0023076255,1.7081635e-11,-2.0023186,0.10773925,-9.661657,0.00025566347,-0.0084582,-0.00070307474,0.00023393093,0.00080011983,0.0005890224,2.9107323e-06,2.8708255e-05,3.6578012e-06,11.767944,11.767944
55040000,1310988,1310988,0,0,0,0,0,0,0,0,250.0,250.0,250.0,250.0,0.025326805,0.002273569,8.667107e-12,-1.9968599,0.09739629,-9.590789,-0.0015339808,0.0016831178,-0.0003621898,0.00043109898,0.00034761985,0.0008883339,2.7736119e-06,9.283514e-06,7.6059196e-06,11.767818,11.767818
56040000,1310988,1310988,0,0,0,0,0,0,0,0,250.0,250.0,250.0,250.0,0.023512132,0.0021877263,1.3513666e-11,-2.010842,0.090500996,-9.644323,0.0015339808,-0.0073290193,-0.0015552862,0.00066652,0.00028947627,0.000523539,3.175516e-06,5.1131674e-06,3.0242109e-06,11.767727,11.767727
57040000,1310988,1310988,0,0,0,0,0,0,0,0,250.0,250.0,250.0,250.0,0.02439559,0.0022976012,2.5154911e-11,-2.0194612,0.09912011,-9.594523,0.0015126755,0.009715212,-0.00042610563,0.00047248602,0.00053070637,0.00038262468,3.3495169e-06,3.4346263e-06,4.6100777e-06,11.767666,11.767666
58040000,1310988,1310988,0,0,0,0,0,0,0,0,250.0,250.0,250.0,250.0,0.023259018,0.0021077772,2.650833e-11,-2.0167797,0.07996651,-9.642312,-0.0006817692,-0.0124849,-0.00014913725,0.0004384549,0.00046048695,0.00025645833,1.9272488e-06,3.2407665e-06,4.315033e-06,11.767574,11.767574
59040000,1310988,1310988,0,0,0,0,0,0,0,0,250.0,250.0,250.0,250.0,0.022180183,0.0022383202,2.8208507e-11,-2.0133321,0.092416346,-9.57853,0.0004474111,-0.011291803,-0.0018748657,0.0002880042,0.0002861324,0.00043302326,3.2549513e-06,3.6644203e-06,4.612915e-06,11.767544,11.767544
60040000,1310988,1310988,0,0,0,0,0,0,0,0,250.0,250.0,250.0,250.0,0.023403728,0.0021293706,9.160905e-12,-2.0114167,0.076806165,-9.629191,0.0030466563,0.0020879183,0.0004900217,0.00012530579,0.00043274305,0.0006364215,7.884887e-06,7.799779e-06,1.7239327e-06,11.767574,11.767574
61040000,1310988,1310988,0,0,0,0,0,0,0,0,250.0,250.0,250.0,250.0,0.023169158,0.002310145,1.536396e-11,-1.9932208,0.08341415,-9.60458,-0.0035153728,-0.0065407236,0.0003195792,0.00033968943,0.00027642588,0.0004112884,8.912817e-06,6.1590636e-06,2.0804455e-06,11.767635,11.767635
62040000,1310988,1310988,0,0,0,0,0,0,0,0,250.0,250.0,250.0,250.0,0.022864716,0.0042570424,4.6061255e-10,-2.0004034,0.04290426,-9.5406065,-0.010993529,0.1619202,-0.0012570093,0.0004189851,0.00041411334,0.0006908876,3.347342e-05,0.0061894907,3.9452793e-06,11.767666,11.767666
63040000,1310988,1310988,0,0,0,0,0,0,0,0,250.0,250.0,250.0,250.0,0.024634298,0.0037707363,1.746435e-10,-1.5613068,0.02585755,-9.782038,-0.022540996,0.053241916,-0.01953695,0.00062066445,0.00029090926,0.0003007104,3.9178567e-06,3.478788e-05,8.551575e-06,11.767696,11.767696
64040000,1310988,1310988,0,0,0,0,0,0,0,0,250.0,250.0,250.0,250.0,0.022813726,0.002812228,1.9071417e-10,-1.049618,0.047022294,-9.846203,0.001235707,0.007968179,-0.048043426,0.0006721013,0.0006290518,0.0005718381,0.00028172822,5.1076822e-05,7.3997644e-06,11.767612,11.767612
65040000,1310988,1310988,0,0,0,0,0,0,0,0,250.0,250.0,250.0,250.0,0.027092919,0.012173339,2.691796e-08,-0.64767945,0.019824166,-9.995505,0.107186906,-0.025182871,1.038015,0.00024176562,0.0008108773,0.002128703,0.011698942,0.008354301,0.000113400514,11.767364,11.767364
66040000,1310988,1310988,0,0,0,0,0,0,0,0,250.0,250.0,250.0,250.0,0.025317088,0.010756999,8.435243e-09,-0.8364383,-0.04616004,-9.876274,0.39860064,-0.43974116,0.8008871,0.00045374196,0.00076119823,0.0011234754,0.002217681,0.00032497497,2.0045121e-05,11.767391,11.767391
67040000,1310988,1310988,0,0,0,0,0,0,0,0,250.0,250.0,250.0,250.0,0.02686969,0.0082492335,2.0775126e-09,-1.4858415,0.21183912,-9.78539,0.09536248,0.07420633,-0.25547174,0.0010518578,0.00019734056,0.0018086683,0.00030768084,0.0014504658,1.0683117e-05,11.767269,11.767269
68040000,1310988,1310988,0,0,0,0,0,0,0,0,250.0,250.0,250.0,250.0,0.024506904,0.0089888945,1.2442858e-09,-1.8588582,0.046543453,-9.765853,0.028229509,-0.11781825,-0.030146986,0.0005436029,0.00055367337,0.00069143786,0.0038620157,0.003009317,3.5462153e-06,11.767551,11.767551
69040000,1310988,1310988,0,0,0,0,0,0,0,0,250.0,250.0,250.0,250.0,0.023313137,0.0030048524,5.3874304e-11,-1.8298405,0.05784408,-9.653517,-0.01180313,-0.018194716,0.0015978963,0.0005319094,0.00043262838,0.00030068934,1.3137067e-05,2.36575e-05,3.3334409e-06,11.767761,11.767761
70040000,1310988,1310988,0,0,0,0,0,0,0,0,250.0,250.0,250.0,250.0,0.023655081,0.0023565285,2.4116119e-11,-1.8515798,0.07192199,-9.650548,0.0027909928,-0.008863,0.0014487596,0.0005535766,0.0003876306,0.00032482238,1.0928957e-05,1.02339e-05,4.5278057e-06,11.767987,11.767987
71040000,1310988,1310988,0,0,0,0,0,0,0,0,250.0,250.0,250.0,250.0,0.02102115,0.004795669,9.684386e-10,-1.8536867,0.08331838,-9.601131,0.011249193,0.32609877,0.005262412,0.00038896687,0.00026033755,0.00041734113,0.00017556878,0.00343338,6.083407e-06,11.76829,11.76829
72040000,1310988,1310988,0,0,0,0,0,0,0,0,250.0,250.0,250.0,250.0,0.023644218,0.0033603145,7.021366e-11,-1.4615165,0.06751666,-9.800808,-0.0018109495,0.030189594,0.00034088513,0.0005016046,0.00078435626,0.00014048025,1.1016904e-05,3.224028e-05,3.3778867e-06,11.768569,11.768569
73040000,1310988,1310988,0,0,0,0,0,0,0,0,250.0,250.0,250.0,250.0,0.025063569,0.002532376,9.2083174e-11,-1.0164822,0.09672592,-9.824559,-0.030722227,0.01216532,0.0072224927,0.0007843934,0.0003219587,0.00041564842,1.3989107e-05,3.467724e-06,6.148662e-06,11.768743,11.768743
74040000,1310988,1310988,0,0,0,0,0,0,0,0,250.0,250.0,250.0,250.0,0.025638526,0.012486991,1.949904e-08,-0.7830955,0.13905542,-9.875412,0.42082208,0.4489024,1.0124487,0.00024979017,0.00037876476,0.0007268131,0.0075775003,5.8843503e-05,0.0003282298,11.768767,11.768767
75040000,1310988,1310988,0,0,0,0,0,0,0,0,250.0,250.0,250.0,250.0,0.02416704,0.010810428,1.9837747e-08,-0.78836274,-0.1356074,-9.902514,-0.09514942,0.09738646,0.79539037,0.0007487789,0.00041887115,0.0006169193,0.006127074,0.014519396,5.9982935e-06,11.768837,11.768837
76040000,1310988,1310988,0,0,0,0,0,0,0,0,250.0,250.0,250.0,250.0,0.027151868,0.009426202,1.4285019e-09,-1.2951673,0.22122441,-9.910846,0.024756746,-0.021411812,-0.2094949,0.0019405804,0.00044567857,0.0007228006,0.00072536897,0.0003690899,0.00060994213,11.768826,11.768826
77040000,1310988,1310988,0,0,0,0,0,0,0,0,250.0,250.0,250.0,250.0,0.024380296,0.0064426726,2.607988e-09,-1.8287871,0.07987074,-9.757904,-0.25892317,0.32842103,-0.015361108,0.0006643041,0.0006763425,0.0013680345,0.00033235882,0.0033480506,6.1864916e-06,11.768999,11.768999
78040000,1310988,1310988,0,0,0,0,0,0,0,0,250.0,250.0,250.0,250.0,0.023540163,0.0032792063,2.0958374e-11,-1.7899052,0.10639849,-9.670277,0.004111921,-0.009097358,0.0014274543,0.0005822965,0.000258465,0.00035323144,3.2984515e-06,1.8060156e-05,2.4520887e-06,11.769009,11.769009
79040000,1310988,1310988,0,0,0,0,0,0,0,0,250.0,250.0,250.0,250.0,0.02415656,0.0024732044,3.3034006e-11,-1.8185399,0.08044535,-9.660125,-0.0063063656,-0.010546118,0.0011504854,0.00029811214,0.00046144222,0.00071843143,4.200608e-06,1.3877516e-05,3.4913655e-06,11.768887,11.768887
80040000,1310988,1310988,0,0,0,0,0,0,0,0,250.0,250.0,250.0,250.0,0.022755617,0.0022675768,1.3789982e-11,-1.8532078,0.08724488,-9.62268,-0.0007882957,-0.005752428,0.0012144014,0.00034702668,0.00038361803,0.0008553795,5.653137e-06,3.7353448e-06,2.2345876e-06,11.768667,11.768667
81040000,1310988,1310988,0,0,0,0,0,0,0,0,250.0,250.0,250.0,250.0,0.024441147,0.0023988227,3.046543e-11,-1.8805017,0.05746101,-9.593471,-0.0038775627,-0.010503507,0.00089482195,0.00058997795,0.00037928065,0.0004793401,8.712338e-06,9.279733e-06,1.6719216e-06,11.768459,11.768459
82040000,1310988,1310988,0,0,0,0,0,0,0,0,250.0,250.0,250.0,250.0,0.02596538,0.002333464,1.7317214e-11,-1.9168937,0.06665475,-9.625936,-0.005688512,-0.0033662356,0.0002556634,0.00037826895,0.00053915184,0.00067501835,8.835274e-06,5.9983026e-06,2.1542066e-06,11.768329,11.768329
83040000,1310988,1310988,0,0,0,0,0,0,0,0,250.0,250.0,250.0,250.0,0.023083847,0.002358264,1.1206512e-11,-1.9393034,0.07335851,-9.610805,0.0026205506,-0.004942827,0.0010865696,0.0003176589,0.00046377335,0.00016766685,3.591605e-06,1.2565891e-05,2.2809247e-06,11.768209,11.768209
84040000,1310988,1310988,0,0,0,0,0,0,0,0,250.0,250.0,250.0,250.0,0.024288159,0.006548559,7.672817e-10,-1.8337669,0.079583436,-9.800426,-0.02030394,0.10929613,0.007819043,0.0005865557,0.00030776195,0.00028518762,0.0005326016,0.0040701074,2.428446e-06,11.768154,11.768154
85040000,1310988,1310988,0,0,0,0,0,0,0,0,250.0,250.0,250.0,250.0,0.0245847,0.0028352311,8.969449e-11,-1.3292608,0.06359017,-9.774089,-0.014785871,0.034386735,-0.005858954,0.0004537978,0.00059236574,0.00046717245,6.271598e-06,7.0470373e-06,3.0970266e-06,11.768093,11.768093
86040000,1310988,1310988,0,0,0,0,0,0,0,0,250.0,250.0,250.0,250.0,0.023143664,0.0047756447,6.8391537e-10,-0.8812578,0.10639849,-9.83404,0.050749198,-0.16522251,0.032937974,0.00038306415,0.00028903672,0.00037215312,0.00023205287,0.006038185,5.217188e-06,11.768049,11.768049
87040000,1310988,1310988,0,0,0,0,0,0,0,0,250.0,250.0,250.0,250.0,0.025802288,0.010021851,8.6476e-09,-0.66865265,-0.0732624,-9.858173,-0.2287549,-0.29137117,0.8938421,0.00048700752,0.00090091105,0.00095780584,0.0008514961,0.001461028,3.3255932e-05,11.767757,11.767757
88040000,1310988,1310988,0,0,0,0,0,0,0,0,250.0,250.0,250.0,250.0,0.023221457,0.0065430114,3.1788219e-09,-0.9543288,0.057556782,-9.988131,-0.091122724,-0.30345124,0.7745964,0.000652038,0.001014829,0.0019928948,0.0002305493,5.709867e-06,0.0002009879,11.767756,11.767756
89040000,1310988,1310988,0,0,0,0,0,0,0,0,250.0,250.0,250.0,250.0,0.022498986,0.0051525417,8.5416374e-10,-1.718558,0.14413111,-9.682247,0.11114969,0.23354858,-0.09291235,0.0007819674,0.00036208407,0.00030021515,1.0135547e-05,5.7995258e-05,0.00012423759,11.767581,11.767581
90040000,1310988,1310988,0,0,0,0,0,0,0,0,250.0,250.0,250.0,250.0,0.023948174,0.0054079667,5.0010867e-11,-1.8182526,0.053055678,-9.633597,0.011952267,-0.009203885,-0.0025779402,0.00026658506,0.00026878295,0.000779829,2.6078382e-05,0.00017687379,5.784585e-06,11.767722,11.767722
91040000,1310988,1310988,0,0,0,0,0,0,0,0,250.0,250.0,250.0,250.0,0.022529533,0.002615134,4.187266e-11,-1.8314686,0.038690466,-9.6083145,-0.010418287,-0.013571469,0.0015126753,0.00025722221,0.0003647973,0.00034760483,5.533985e-06,6.1023247e-06,3.7041382e-06,11.767727,11.767727
92040000,1310988,1310988,0,0,0,0,0,0,0,0,250.0,250.0,250.0,250.0,0.02411834,0.0022446217,2.2391642e-11,-1.8623059,0.015993435,-9.62833,0.00027696876,-0.00922519,-0.002109224,0.0004230743,0.00043790202,0.00043427246,1.24145845e-05,4.4379676e-06,4.0303903e-06,11.767788,11.767788
93040000,1310988,1310988,0,0,0,0,0,0,0,0,250.0,250.0,250.0,250.0,0.023036856,0.0044153817,1.324197e-09,-1.8679562,0.02164375,-9.5777645,0.038051248,0.4466441,0.0012996304,0.00043469277,0.00031072355,0.0012453225,0.000101707294,0.00029150062,2.271468e-06,11.76793,11.76793
94040000,1310988,1310988,0,0,0,0,0,0,0,0,250.0,250.0,250.0,250.0,0.021814175,0.0032104244,4.4290124e-11,-1.4281892,0.008331994,-9.799563,0.0018535603,0.015893746,-0.011057445,0.000593342,0.0001858762,0.00036375056,1.3714863e-05,5.3353974e-06,3.8128892e-06,11.76817,11.76817
95040000,1310988,1310988,0,0,0,0,0,0,0,0,250.0,250.0,250.0,250.0,0.02473277,0.002674323,7.06315e-11,-1.0002974,0.03763702,-9.772078,-0.021667479,0.020538298,-0.0060720067,0.00042895923,0.00051375816,0.0007313737,8.858915e-06,1.7040738e-06,2.8133295e-06,11.768337,11.768337
96040000,1310988,1310988,0,0,0,0,0,0,0,0,250.0,250.0,250.0,250.0,0.030236011,0.003090786,1.2040215e-10,-0.67861253,0.051906493,-11.20745,-0.008351673,0.044570666,-0.0033875403,0.00034397008,0.00057356415,0.01674182,8.890877e-05,0.00011377955,5.6947474e-06,11.76848,11.76848
97040000,1310988,1310988,0,0,0,0,0,0,0,0,250.0,250.0,250.0,250.0,0.035192057,0.002346159,1.1237262e-10,-0.37617698,0.06397326,-11.06667,0.003621899,0.046658583,-0.00029827323,0.00035459406,0.00059591973,0.0064799925,5.0356234e-06,5.981279e-06,2.6260896e-06,11.759921,11.759921
98040000,1310988,1310988,0,0,0,0,0,0,0,0,250.0,250.0,250.0,250.0,0.027217267,0.005486093,2.581793e-10,-0.14863205,0.08341416,-9.715862,-0.0141893225,0.09638513,-0.00029827235,0.00025934397,0.00048899505,0.0007924392,1.6758933e-05,0.0004684189,3.8554435e-06,11.742579,11.742579
99040000,1310988,1310988,0,0,0,0,0,0,0,0,250.0,250.0,250.0,250.0,0.027403096,0.0024689515,2.407832e-11,-0.13953407,0.08264802,-9.755127,0.00515588,-0.00999218,-0.00042610598,0.0002730057,0.0006277334,0.0013504683,2.428447e-06,3.6946817e-06,4.326381e-06,11.725919,11.725919
100040000,1310988,1310988,0,0,0,0,0,0,0,0,250.0,250.0,250.0,250.0,0.026811814,0.0021979343,1.2934362e-11,-0.132543,0.0859999,-9.756659,-0.0040480047,-0.0043675844,0.00012783166,0.0002258869,0.00053592265,0.00058387715,4.8228503e-06,4.988341e-06,4.8294705e-06,11.709246,11.709246
101040000,1310988,1310988,0,0,0,0,0,0,0,0,250.0,250.0,250.0,250.0,0.026088728,0.002112215,1.6644387e-11,-0.13924676,0.08073265,-9.789795,0.00773382,-0.0020879183,0.00027696873,0.00020907247,0.00024338927,0.0014046305,1.1043382e-05,6.1448786e-06,2.272414e-06,11.692531,11.692531
102040000,1310988,1310988,0,0,0,0,0,0,0,0,250.0,250.0,250.0,250.0,0.02853588,0.0020389685,3.2270426e-11,-0.13962984,0.082552224,-8.598632,-0.0028122982,-0.013592775,-0.0007243801,0.0004617863,0.0005589471,0.0046440787,1.1620232e-05,4.116445e-06,2.8341337e-06,11.675854,11.675854
103040000,1310988,1310988,0,0,0,0,0,0,0,0,250.0,250.0,250.0,250.0,0.025159787,0.0021882586,2.1319977e-11,-0.14604631,0.0691447,-9.176975,0.006796387,-0.0044315,6.39158e-05,0.0003979103,0.00047735864,0.00024600147,1.0810751e-05,1.4201875e-05,4.40487e-06,11.6630945,11.6630945
104040000,1310988,1310988,0,0,0,0,0,0,0,0,250.0,250.0,250.0,250.0,0.02404137,0.002430906,3.133771e-11,-0.177554,0.06665474,-9.299558,-0.010546118,0.00031957918,-0.0015126755,0.0002730821,0.00033804704,0.00019919744,1.2175335e-05,4.3098316e-05,2.9239714e-06,11.6542845,11.6542845
105040000,1310988,1310988,0,0,0,0,0,0,0,0,250.0,250.0,250.0,250.0,0.023645956,0.0022159338,1.3219522e-11,-0.1913446,0.066750504,-9.4525,0.0046658586,0.0032170988,-0.00034088455,0.00043656456,0.00070664677,0.0004389519,1.0266998e-05,4.7632743e-06,3.9216393e-06,11.648493,11.648493
106040000,1310988,1310988,0,0,0,0,0,0,0,0,250.0,250.0,250.0,250.0,0.02340061,0.0021917317,2.465899e-11,-0.20561405,0.0844676,-9.544916,-0.0033449305,-0.00773382,-0.0002769689,0.00023517318,0.00047936494,0.00029029133,1.0509087e-05,4.9933526e-05,4.8729703e-06,11.644809,11.644809
107040000,1310988,1310988,0,0,0,0,0,0,0,0,250.0,250.0,250.0,250.0,0.025301617,0.007808856,5.9958016e-09,-0.33911473,0.24621989,-9.949249,-0.4016473,0.041396197,-1.0406568,0.00072697684,0.00078802503,0.0010982237,0.00010475336,0.00018361161,8.335989e-05,11.642417,11.642417
108040000,1310988,1310988,0,0,0,0,0,0,0,0,250.0,250.0,250.0,250.0,0.02595066,0.0036512145,2.1473698e-09,-1.3260046,0.36363155,-9.89083,0.0022370555,-0.06297842,-0.76507294,0.0012542438,0.001415529,0.0010985075,5.933997e-05,4.2857178e-06,2.0000585e-05,11.640847,11.640847
109040000,1310988,1310988,0,0,0,0,0,0,0,0,250.0,250.0,250.0,250.0,0.026272783,0.009562162,3.0721834e-09,-1.9615215,-0.06933591,-9.926647,-0.12365589,0.14696388,0.180051,0.00013591023,0.00032792016,0.0037552116,0.0032690815,0.0077565364,0.00015356246,11.640652,11.640652
110040000,1310988,1310988,0,0,0,0,0,0,0,0,250.0,250.0,250.0,250.0,0.02346028,0.0032766827,3.7976528e-11,-1.9009004,0.036775105,-9.61655,-0.008117315,-0.018258633,0.0016192016,0.00038381026,0.00045565277,0.0005402615,9.510473e-06,3.9604115e-06,3.0138087e-06,11.6406,11.6406
111040000,1310988,1310988,0,0,0,0,0,0,0,0,250.0,250.0,250.0,250.0,0.024567673,0.0023630494,1.8202297e-11,-1.9141164,0.08101995,-9.624691,-0.0063063656,0.00294013,0.00040480058,0.00041229842,0.0005783218,0.00041940375,6.801165e-06,1.1137948e-05,2.6781006e-06,11.640504,11.640504
112040000,1310988,1310988,0,0,0,0,0,0,0,0,250.0,250.0,250.0,250.0,0.02241377,0.0022923755,1.9517271e-11,-1.9269493,0.09538517,-9.615018,0.005432849,-0.008181231,0.0003408845,0.0003155964,0.00054870546,0.00044877533,7.896237e-06,1.42529425e-05,3.5433766e-06,11.640301,11.640301
113040000,1310988,1310988,0,0,0,0,0,0,0,0,250.0,250.0,250.0,250.0,0.022700297,0.0022929076,1.1632834e-11,-1.9466776,0.10189739,-9.592513,0.0048149955,0.0011291803,-0.00085221155,0.00033242838,0.00031722,0.00018537755,4.1249555e-06,1.5915407e-06,5.224755e-06,11.639915,11.639915
114040000,1310988,1310988,0,0,0,0,0,0,0,0,250.0,250.0,250.0,250.0,0.022837374,0.0021981806,1.8463966e-11,-1.953094,0.10180162,-9.602472,-0.0057311226,-0.0052624065,0.00014913693,0.0005356161,0.0007361676,0.0003269831,6.48437e-06,1.0386151e-05,2.376436e-06,11.639492,11.639492
115040000,1310988,1310988,0,0,0,0,0,0,0,0,250.0,250.0,250.0,250.0,0.024603195,0.0021224434,2.0839018e-11,-1.9679381,0.07431619,-9.602185,-0.005603291,-0.0070307455,0.00021305279,0.00033842848,0.00054717687,0.00040746352,3.8327476e-06,2.269577e-06,2.4114252e-06,11.639048,11.639048
116040000,1310988,1310988,0,0,0,0,0,0,0,0,250.0,250.0,250.0,250.0,0.023528121,0.004716472,1.2549974e-10,-1.7079277,0.07862575,-9.715192,-0.030146984,0.026439864,-0.0016831174,0.00028225328,0.0005195668,0.00038644252,2.4374312e-05,0.0001158165,2.9948958e-06,11.638586,11.638586
117040000,1310988,1310988,0,0,0,0,0,0,0,0,250.0,250.0,250.0,250.0,0.023612577,0.0025361811,6.914484e-11,-1.1832144,0.09701322,-9.755031,-0.009864349,0.023904534,-0.0020026967,0.00093482726,0.00024176516,0.00042183453,3.4072018e-06,2.489915e-06,4.0729446e-06,11.638215,11.638215
118040000,1310988,1310988,0,0,0,0,0,0,0,0,250.0,250.0,250.0,250.0,0.023014186,0.0026181582,6.875836e-11,-0.75292856,0.12478596,-9.789699,-0.027079022,0.0027909926,-0.0010652645,0.0004667542,0.00034981716,0.00025218684,4.200608e-06,1.3600437e-05,1.7967482e-06,11.637997,11.637997
119040000,1310988,1310988,0,0,0,0,0,0,0,0,250.0,250.0,250.0,250.0,0.03442924,0.004652252,2.7275444e-09,-0.2542642,0.02853904,-8.844564,-0.06787865,0.064341985,-0.8655274,0.00047768347,0.00037924253,0.03878485,3.4943914e-05,3.9623024e-05,0.00013728572,11.641348,11.641348
120040000,1310988,1310988,0,0,0,0,0,0,0,0,250.0,250.0,250.0,250.0,0.025542986,0.006143769,1.9380662e-09,-0.18148048,0.14307766,-9.681577,0.05773733,-0.014807162,-0.7879548,0.00033676688,0.00030823963,0.00075296237,8.629122e-06,7.967161e-06,6.002094e-06,11.65109,11.65109
121040000,1310988,1310988,0,0,0,0,0,0,0,0,250.0,250.0,250.0,250.0,0.026027165,0.006957218,6.51049e-10,-0.17563863,0.112719186,-9.651602,-0.06455503,0.005496761,0.21972145,0.0006663111,0.00053401204,0.0012191753,1.5106871e-05,1.1270342e-05,0.00057992706,11.660849,11.660849
122040000,1310988,1310988,0,0,0,0,0,0,0,0,250.0,250.0,250.0,250.0,0.025069548,0.0028425604,3.4642553e-11,-0.16117766,0.10534505,-9.77543,0.00017044223,-0.0022157503,0.01433846,0.00045175487,0.00083833456,0.00083045696,1.6235039e-05,4.0587597e-06,4.584546e-06,11.670856,11.670856
123040000,1310988,1310988,0,0,0,0,0,0,0,0,250.0,250.0,250.0,250.0,0.024708696,0.0021854965,3.376937e-11,-0.17113754,0.070677005,-9.775908,0.0005326322,-0.018791266,0.0014274541,0.00039175776,0.00052312075,0.0006561857,2.2695767e-06,3.960412e-06,1.7664873e-06,11.680808,11.680808
124040000,1310988,1310988,0,0,0,0,0,0,0,0,250.0,250.0,250.0,250.0,0.024654727,0.0021841128,8.56451e-12,-0.19709069,0.05908907,-9.738942,-0.0030040457,-0.00021305289,0.0006178534,0.00021052465,0.00037054866,0.00031456968,3.5433768e-06,8.0617265e-06,1.3872789e-06,11.69078,11.69078
125040000,1310988,1310988,0,0,0,0,0,0,0,0,250.0,250.0,250.0,250.0,0.025039883,0.0022309462,1.5946739e-11,-0.18588582,0.059376374,-9.815557,0.003685815,-0.006796387,0.001043959,0.00048096996,0.000312405,0.000933173,3.6861707e-06,3.8838134e-06,2.3045661e-06,11.700769,11.700769
126040000,1310988,1310988,0,0,0,0,0,0,0,0,250.0,250.0,250.0,250.0,0.025772052,0.002210079,1.2889886e-11,-0.19469649,0.076231554,-9.761639,0.0011930962,-0.0039627836,-0.00010652653,0.00060318055,0.00037052957,0.0005426468,5.5623545e-06,4.068216e-06,3.5462135e-06,11.71072,11.71072
127040000,1310988,1310988,0,0,0,0,0,0,0,0,250.0,250.0,250.0,250.0,0.027430784,0.0022721381,1.8548062e-11,-0.18349162,0.08360569,-9.8089485,0.008181231,0.00021305289,0.00027696879,0.00035438378,0.0006113967,0.0006427164,6.2148583e-06,1.4894098e-06,4.3765003e-06,11.720703,11.720703
128040000,1310988,1310988,0,0,0,0,0,0,0,0,250.0,250.0,250.0,250.0,0.024573658,0.002169354,2.1016407e-11,-0.14729129,0.09461902,-9.757234,-0.0041545313,-0.0076272935,0.001193096,0.00032583746,0.00029096653,0.00061233225,6.9505786e-06,3.3504627e-06,2.7963076e-06,11.730588,11.730588
129040000,1310988,1310988,0,0,0,0,0,0,0,0,250.0,250.0,250.0,250.0,0.025409063,0.0022313395,1.0665144e-11,-0.1487278,0.087627955,-9.807034,-0.0010652645,-0.0046658586,0.001342233,0.00026240112,0.00050443376,0.00086206954,2.4350668e-06,2.6544592e-06,3.2653534e-06,11.740406,11.740406
130040000,1310988,1310988,0,0,0,0,0,0,0,0,250.0,250.0,250.0,250.0,0.025421264,0.0023148588,2.946301e-11,-0.151122,0.08714911,-9.737218,-0.007946873,-0.010460896,0.00066046376,0.00041287136,0.00036399483,0.0008598239,4.9864493e-06,4.323543e-06,4.1911517e-06,11.750177,11.750177
131040000,1310988,1310988,0,0,0,0,0,0,0,0,250.0,250.0,250.0,250.0,0.026458316,0.00223365,6.7705086e-12,-0.17621325,0.104770444,-10.37513,0.0017683391,-0.0015339808,0.0003621899,0.00026654731,0.00030871728,0.0010628763,3.4686698e-06,2.8681777e-06,4.367044e-06,11.758946,11.758946
132040000,1310988,1310988,0,0,0,0,0,0,0,0,250.0,250.0,250.0,250.0,0.02304358,0.002384268,3.8692778e-11,-0.1781286,0.11798644,-10.106787,-0.016745957,-0.010269149,0.0013422329,0.00028995384,0.0004932178,0.0010513213,4.544071e-05,3.9367696e-06,2.4379037e-06,11.763917,11.763917
133040000,1310988,1310988,0,0,0,0,0,0,0,0,250.0,250.0,250.0,250.0,0.032234065,0.0023584187,2.5003562e-11,-0.18837579,0.13378815,-8.98745,0.0036645096,-0.007882957,0.0001278316,0.00036529414,0.00031685695,0.0435517,8.613044e-06,8.321781e-06,4.0729446e-06,11.769078,11.769078
134040000,1310988,1310988,0,0,0,0,0,0,0,0,250.0,250.0,250.0,250.0,0.028301477,0.002170909,2.1447991e-11,-0.19268535,0.1294786,-9.885755,-0.0068176924,-0.006924219,0.0007669903,0.0007571857,0.00063193706,0.0010463533,1.513051e-05,4.0663253e-06,3.0279934e-06,11.777879,11.777879
135040000,1310988,1310988,0,0,0,0,0,0,0,0,250.0,250.0,250.0,250.0,0.025983017,0.0021105155,1.4757334e-11,-0.18598159,0.12181716,-9.923008,0.0044315,-0.0043888893,0.0003621898,0.00072021305,0.00042959035,0.00040937352,8.717066e-06,3.1036461e-06,5.3599842e-06,11.78522,11.78522
136040000,1310988,1310988,0,0,0,0,0,0,0,0,250.0,250.0,250.0,250.0,0.0243192,0.0022203634,2.2987598e-11,-0.1838747,0.13302203,-9.909026,-0.0044315,-0.007499462,-0.00025566362,0.00034584288,0.00035256858,0.0005566396,1.3185296e-05,1.0140279e-05,4.4237836e-06,11.791568,11.791568
137040000,1310988,1310988,0,0,0,0,0,0,0,0,250.0,250.0,250.0,250.0,0.02480946,0.0023195616,2.669848e-11,-0.17927782,0.13426702,-9.899162,0.000958738,0.010993529,0.0006604641,0.00029870507,0.00037828722,0.00055548537,4.846492e-06,2.6499198e-05,2.7726662e-06,11.796971,11.796971
138040000,1310988,1310988,0,0,0,0,0,0,0,0,250.0,250.0,250.0,250.0,0.024598807,0.0022674336,2.1100401e-11,-0.1616565,0.13043629,-9.884031,-0.0015765914,-0.008607337,-0.00044741124,0.0003960569,0.0003215383,0.00068867736,3.6521276e-06,1.3278916e-05,3.72778e-06,11.801617,11.801617
139040000,1310988,1310988,0,0,0,0,0,0,0,0,250.0,250.0,250.0,250.0,0.02420719,0.0022293064,1.8369329e-11,-0.17247829,0.13254318,-9.760394,0.004197142,-0.0042184475,-0.0007456852,0.00020372248,0.00040692894,0.00039634202,6.6980883e-06,5.932106e-06,3.1206682e-06,11.805853,11.805853
140040000,1310988,1310988,0,0,0,0,0,0,0,0,250.0,250.0,250.0,250.0,0.023269137,0.0022359702,1.4099269e-11,-0.17659631,0.14001308,-9.734824,-0.005241101,-0.0036432045,-6.391592e-05,0.00021222522,0.00035831996,0.0007098342,2.7111987e-06,1.2947936e-05,2.5135564e-06,11.810134,11.810134
141040000,1310988,1310988,0,0,0,0,0,0,0,0,250.0,250.0,250.0,250.0,0.023631388,0.002180435,1.0958464e-11,-0.18090588,0.12650979,-9.7280245,0.0004900217,-0.0026631611,-0.0008522116,0.00032151927,0.0005458393,0.00090744876,9.289188e-06,8.79461e-06,4.9646997e-06,11.8144655,11.8144655
142040000,1310988,1310988,0,0,0,0,0,0,0,0,250.0,250.0,250.0,250.0,0.023576964,0.0020305652,2.039737e-11,-0.19412187,0.11482608,-9.759915,-0.004495416,-0.009608685,-0.00017044248,0.00046713624,0.00034225069,0.0002498892,4.186423e-06,1.3794299e-05,1.199093e-06,11.818725,11.818725
143040000,1310988,1310988,0,0,0,0,0,0,0,0,250.0,250.0,250.0,250.0,0.023837505,0.0021704808,6.0556833e-12,-0.19440918,0.10908,-9.699581,0.0005965481,0.0011291804,-0.00051132694,0.0007786242,0.00042326574,0.00027825992,3.057309e-06,4.050249e-06,3.2738644e-06,11.822901,11.822901
144040000,1310988,1310988,0,0,0,0,0,0,0,0,250.0,250.0,250.0,250.0,0.025219455,0.0021893769,2.3525246e-11,-0.19546263,0.10764348,-9.754265,-0.00074568513,-0.010503507,0.00040480035,0.00053542585,0.0004282337,0.0003598478,4.893775e-06,1.4622694e-05,3.363702e-06,11.827122,11.827122
145040000,1310988,1310988,0,0,0,0,0,0,0,0,250.0,250.0,250.0,250.0,0.026728524,0.0023071049,1.8831627e-11,-0.20197485,0.11482608,-9.725343,-0.0063915867,0.0004687164,-0.0007882957,0.00048909057,0.0004420865,0.00044064876,8.818251e-06,8.258423e-06,3.2889948e-06,11.831427,11.831427
146040000,1310988,1310988,0,0,0,0,0,0,0,0,250.0,250.0,250.0,250.0,0.26372316,0.005597442,1.2081421e-11,-0.18875886,0.13579929,-9.755989,-0.0011291803,-0.005603291,-0.000213053,0.0004230747,0.001042076,0.00040539686,2.0643693e-06,3.3599197e-06,3.6880624e-06,11.832729,11.832729
147040000,1310988,1310988,0,0,0,0,0,0,0,0,250.0,250.0,250.0,250.0,0.043573704,0.0023419154,7.9228455e-12,-0.18703504,0.12756324,-9.7629795,-0.0006817692,-0.0042397524,-0.00010652653,0.0003383528,0.0005968751,0.00033594307,2.8492645e-06,1.6189649e-06,2.8606123e-06,11.832729,11.832729
148040000,1310988,1310988,0,0,0,0,0,0,0,0,250.0,250.0,250.0,250.0,0.025214143,0.0021445388,1.4794051e-11,-0.19967642,0.14192843,-9.774376,-0.0007030745,-0.0052624065,0.00036218984,0.00019871634,0.00023192485,0.0004500339,3.7523669e-06,3.104592e-06,3.2322557e-06,11.832729,11.832729
149040000,1310988,1310988,0,0,0,0,0,0,0,0,250.0,250.0,250.0,250.0,0.026487602,0.0020957727,8.998478e-12,-0.18511967,0.12162562,-9.769971,0.00027696876,-0.005113269,0.00017044223,0.0006275423,0.0007150922,0.000700623,2.0123582e-06,4.3736636e-06,1.199093e-06,11.832729,11.832729
