timestamp,timestamp_sample,q[0],q[1],q[2],q[3],delta_q_reset[0],delta_q_reset[1],delta_q_reset[2],delta_q_reset[3],quat_reset_counter
4128000,4128000,0.68999857,0.0017789264,-0.016478216,0.72362095,1.0,0.0,0.0,0.0,0
4428000,4428000,0.6894535,0.0015512682,-0.015007165,0.72417283,0.99999964,0.0,-1.2223609e-09,0.00088754296,1
4928000,4928000,0.68885165,0.0016167732,-0.01520974,0.724741,0.99999964,0.0,-1.2223609e-09,0.00088754296,1
5428000,5428000,0.68860483,0.0018493156,-0.013705579,0.7250049,0.99999964,0.0,-1.2223609e-09,0.00088754296,1
5928000,5928000,0.68887556,0.0013811953,-0.01375302,0.72474784,0.99999964,0.0,-1.2223609e-09,0.00088754296,1
6428000,6428000,0.68873507,0.0012284288,-0.013808821,0.7248806,0.99999964,0.0,-1.2223609e-09,0.00088754296,1
6928000,6928000,0.6880387,0.0015338154,-0.0136590395,0.7255439,0.99999964,0.0,-1.2223609e-09,0.00088754296,1
7428000,7428000,0.68694454,0.0016508357,-0.013752626,0.72657794,0.99999964,0.0,-1.2223609e-09,0.00088754296,1
7928000,7928000,0.6873445,0.0014397798,-0.013934816,0.72619647,0.99999964,0.0,-1.2223609e-09,0.00088754296,1
8428000,8428000,0.6886022,0.0012843538,-0.013820544,0.72500646,0.99999964,0.0,-1.2223609e-09,0.00088754296,1
8928000,8928000,0.68833256,0.0013633927,-0.013679661,0.725265,0.99999964,0.0,-1.2223609e-09,0.00088754296,1
9428000,9428000,0.68806636,0.0013311221,-0.013605015,0.72551906,0.99999964,0.0,-1.2223609e-09,0.00088754296,1
9928000,9928000,0.68825674,0.0012704781,-0.013443261,0.7253416,0.99999964,0.0,-1.2223609e-09,0.00088754296,1
10428000,10428000,0.6884986,0.00133658,-0.013437664,0.7251119,0.99999964,0.0,-1.2223609e-09,0.00088754296,1
10928000,10928000,0.6891942,0.0012565333,-0.013363093,0.72445244,0.99999964,0.0,-1.2223609e-09,0.00088754296,1
11428000,11428000,0.68927926,0.0011667745,-0.013247925,0.7243737,0.99999964,0.0,-1.2223609e-09,0.00088754296,1
11928000,11928000,0.6891124,0.0011290594,-0.01323058,0.72453284,0.99999964,0.0,-1.2223609e-09,0.00088754296,1
12428000,12428000,0.6890242,0.001172491,-0.013015905,0.7246206,0.99999964,0.0,-1.2223609e-09,0.00088754296,1
12928000,12928000,0.68884534,0.0012928369,-0.013020177,0.72479033,0.99999964,0.0,-1.2223609e-09,0.00088754296,1
13428000,13428000,0.68880093,0.0012600726,-0.0129233105,0.72483426,0.99999964,0.0,-1.2223609e-09,0.00088754296,1
13928000,13928000,0.6887388,0.0013703472,-0.012761215,0.72489595,0.99999964,0.0,-1.2223609e-09,0.00088754296,1
14428000,14428000,0.6884662,0.0013021751,-0.01268253,0.7251564,0.99999964,0.0,-1.2223609e-09,0.00088754296,1
14928000,14928000,0.6887566,0.0010496387,-0.012522291,0.7248838,0.99999964,0.0,-1.2223609e-09,0.00088754296,1
15428000,15428000,0.6890193,0.0009596884,-0.01247183,0.7246351,0.99999964,0.0,-1.2223609e-09,0.00088754296,1
15928000,15928000,0.6897466,0.0008096428,-0.012151494,0.7239485,0.99999964,0.0,-1.2223609e-09,0.00088754296,1
16428000,16428000,0.69017017,0.0006347098,-0.012065644,0.72354627,0.99999964,0.0,-1.2223609e-09,0.00088754296,1
16928000,16928000,0.690314,0.0006160824,-0.012034024,0.7234096,0.99999964,0.0,-1.2223609e-09,0.00088754296,1
17428000,17428000,0.6903604,0.0005587506,-0.012000805,0.72336584,0.99999964,0.0,-1.2223609e-09,0.00088754296,1
17928000,17928000,0.690257,0.0005712493,-0.011826694,0.72346747,0.99999964,0.0,-1.2223609e-09,0.00088754296,1
18428000,18428000,0.6902707,0.0005088035,-0.01164893,0.7234573,0.99999964,0.0,-1.2223609e-09,0.00088754296,1
18928000,18928000,0.6906765,0.0004214769,-0.0115440795,0.72307163,0.99999964,0.0,-1.2223609e-09,0.00088754296,1
19428000,19428000,0.69099164,0.00036353173,-0.011410385,0.72277266,0.99999964,0.0,-1.2223609e-09,0.00088754296,1
19928000,19928000,0.69118696,0.0002561094,-0.011383247,0.7225864,0.99999964,0.0,-1.2223609e-09,0.00088754296,1
20428000,20428000,0.6910362,0.00024224809,-0.011163593,0.7227339,0.99999964,0.0,-1.2223609e-09,0.00088754296,1
20928000,20928000,0.69107175,0.00030198132,-0.011036982,0.7227019,0.99999964,0.0,-1.2223609e-09,0.00088754296,1
21428000,21428000,0.69145346,0.00021046704,-0.010908288,0.7223387,0.99999964,0.0,-1.2223609e-09,0.00088754296,1
21928000,21928000,0.6915585,0.00031322765,-0.010976487,0.72223705,0.99999964,0.0,-1.2223609e-09,0.00088754296,1
22428000,22428000,0.6919559,0.00036957653,-0.010879247,0.7218577,0.99999964,0.0,-1.2223609e-09,0.00088754296,1
22928000,22928000,0.6920599,0.0003486272,-0.010799989,0.72175926,0.99999964,0.0,-1.2223609e-09,0.00088754296,1
23428000,23428000,0.69202155,0.00035463032,-0.010826567,0.7217957,0.99999964,0.0,-1.2223609e-09,0.00088754296,1
23928000,23928000,0.69187516,0.00032508923,-0.010747832,0.7219372,0.99999964,0.0,-1.2223609e-09,0.00088754296,1
24428000,24428000,0.6919991,0.00028462676,-0.01062881,0.7218201,0.99999964,0.0,-1.2223609e-09,0.00088754296,1
24928000,24928000,0.6922558,0.00036748897,-0.010511045,0.72157556,0.99999964,0.0,-1.2223609e-09,0.00088754296,1
25428000,25428000,0.6922648,0.0004553232,-0.010533738,0.72156656,0.99999964,0.0,-1.2223609e-09,0.00088754296,1
25928000,25928000,0.6924701,0.0006059471,-0.010580056,0.7213688,0.99999964,0.0,-1.2223609e-09,0.00088754296,1
26428000,26428000,0.6925269,0.0005779095,-0.010506023,0.7213153,0.99999964,0.0,-1.2223609e-09,0.00088754296,1
26928000,26928000,0.692725,0.00057857175,-0.010517932,0.7211249,0.99999964,0.0,-1.2223609e-09,0.00088754296,1
27428000,27428000,0.6926312,0.00062717823,-0.010503757,0.7212152,0.99999964,0.0,-1.2223609e-09,0.00088754296,1
27928000,27928000,0.6925968,0.0006831755,-0.010523597,0.72124785,0.99999964,0.0,-1.2223609e-09,0.00088754296,1
28428000,28428000,0.69268763,0.0007085899,-0.0106090475,0.7211594,0.99999964,0.0,-1.2223609e-09,0.00088754296,1
28928000,28928000,0.6929671,0.0007409267,-0.010672705,0.7208898,0.99999964,0.0,-1.2223609e-09,0.00088754296,1
29428000,29428000,0.6930902,0.0007176833,-0.010808101,0.72076946,0.99999964,0.0,-1.2223609e-09,0.00088754296,1
29928000,29928000,0.6932611,0.000771131,-0.010885183,0.720604,0.99999964,0.0,-1.2223609e-09,0.00088754296,1
30428000,30428000,0.69285035,0.00071247184,-0.01101895,0.72099686,0.99999964,0.0,-1.2223609e-09,0.00088754296,1
30928000,30928000,0.6927897,0.00075804914,-0.011110244,0.7210537,0.99999964,0.0,-1.2223609e-09,0.00088754296,1
31428000,31428000,0.6927644,0.00075444195,-0.011262011,0.72107565,0.99999964,0.0,-1.2223609e-09,0.00088754296,1
31928000,31928000,0.6928165,0.00071104825,-0.01127487,0.72102547,0.99999964,0.0,-1.2223609e-09,0.00088754296,1
32428000,32428000,0.69273835,0.00082753156,-0.011415539,0.72109824,0.99999964,0.0,-1.2223609e-09,0.00088754296,1
32928000,32928000,0.6927367,0.0008409413,-0.011524041,0.721098,0.99999964,0.0,-1.2223609e-09,0.00088754296,1
33428000,33428000,0.69261426,0.0008655338,-0.011620748,0.7212141,0.99999964,0.0,-1.2223609e-09,0.00088754296,1
33928000,33928000,0.6924855,0.0009278835,-0.011665915,0.72133684,0.99999964,0.0,-1.2223609e-09,0.00088754296,1
34428000,34428000,0.6925343,0.00085161056,-0.011594661,0.72129124,0.99999964,0.0,-1.2223609e-09,0.00088754296,1
34928000,34928000,0.6926021,0.0077735246,-0.0045229546,0.7212638,0.99999964,0.0,-1.2223609e-09,0.00088754296,1
35428000,35428000,0.6902065,0.0071253413,0.0028693837,0.72357166,0.99999964,0.0,-1.2223609e-09,0.00088754296,1
35928000,35928000,0.6903402,-0.0038531169,-0.018885275,0.72322816,0.99999964,0.0,-1.2223609e-09,0.00088754296,1
36428000,36428000,0.6905814,-0.006152611,-0.022128224,0.72289,0.99999964,0.0,-1.2223609e-09,0.00088754296,1
36928000,36928000,0.6908068,-0.0047459123,-0.021140954,0.7227148,0.99999964,0.0,-1.2223609e-09,0.00088754296,1
37428000,37428000,0.6873783,-0.0018709785,-0.017959965,0.7260751,0.99998796,-1.8626451e-09,1.1641532e-09,0.0049054027,2
37928000,37928000,0.68870246,0.00044256242,-0.014457954,0.7248998,0.99998796,-1.8626451e-09,1.1641532e-09,0.0049054027,2
38428000,38428000,0.6887561,0.00012820515,-0.010617925,0.72491544,0.99998796,-1.8626451e-09,1.1641532e-09,0.0049054027,2
38928000,38928000,0.6893194,-4.981086e-05,-0.012016192,0.72435796,0.99998796,-1.8626451e-09,1.1641532e-09,0.0049054027,2
39428000,39428000,0.6885656,0.0017961985,-0.011330192,0.72508335,0.99998796,-1.8626451e-09,1.1641532e-09,0.0049054027,2
39928000,39928000,0.6885519,0.0021677255,-0.010810887,0.7251033,0.99998796,-1.8626451e-09,1.1641532e-09,0.0049054027,2
40428000,40428000,0.6888196,0.0032568027,-0.0109863095,0.7248423,0.99998796,-1.8626451e-09,1.1641532e-09,0.0049054027,2
40928000,40928000,0.68886125,0.0030000657,-0.012112587,0.7247858,0.99998796,-1.8626451e-09,1.1641532e-09,0.0049054027,2
41428000,41428000,0.6888156,0.0033557746,-0.0125233,0.7248207,0.99998796,-1.8626451e-09,1.1641532e-09,0.0049054027,2
41928000,41928000,0.6886351,0.002293299,-0.012714014,0.724993,0.99998796,-1.8626451e-09,1.1641532e-09,0.0049054027,2
42428000,42428000,0.6886851,0.0015151949,-0.0123290615,0.7249542,0.99998796,-1.8626451e-09,1.1641532e-09,0.0049054027,2
42928000,42928000,0.68864673,0.0016807459,-0.013086133,0.72497696,0.99998796,-1.8626451e-09,1.1641532e-09,0.0049054027,2
43428000,43428000,0.7583304,-0.0049083214,-0.095450155,0.64482576,0.99998796,-1.8626451e-09,1.1641532e-09,0.0049054027,2
43928000,43928000,0.8870471,-0.028286522,-0.1793609,0.42447254,0.99998796,-1.8626451e-09,1.1641532e-09,0.0049054027,2
44428000,44428000,0.95193976,0.013188328,-0.19184265,0.2383974,0.99998796,-1.8626451e-09,1.1641532e-09,0.0049054027,2
44928000,44928000,0.97434187,0.06102572,-0.1797921,0.12086631,0.99998796,-1.8626451e-09,1.1641532e-09,0.0049054027,2
45428000,45428000,0.97627413,0.06648601,-0.10536001,0.17710972,0.99998796,-1.8626451e-09,1.1641532e-09,0.0049054027,2
45928000,45928000,0.9775412,0.0395798,-0.07074165,0.19453058,0.99998796,-1.8626451e-09,1.1641532e-09,0.0049054027,2
46428000,46428000,0.9764488,0.035925183,-0.08153177,0.19649383,0.99998796,-1.8626451e-09,1.1641532e-09,0.0049054027,2
46928000,46928000,0.976456,0.02832349,-0.08504937,0.19620922,0.99998796,-1.8626451e-09,1.1641532e-09,0.0049054027,2
47428000,47428000,0.9764598,0.021868449,-0.08993897,0.19483094,0.99998796,-1.8626451e-09,1.1641532e-09,0.0049054027,2
47928000,47928000,0.9767655,0.016236762,-0.090609945,0.19353396,0.99998796,-1.8626451e-09,1.1641532e-09,0.0049054027,2
48428000,48428000,0.9765654,0.014253588,-0.095233396,0.1924769,0.99998796,-1.8626451e-09,1.1641532e-09,0.0049054027,2
48928000,48928000,0.97668093,0.014581162,-0.094475284,0.19223975,0.99998796,-1.8626451e-09,1.1641532e-09,0.0049054027,2
49428000,49428000,0.9769842,0.015495104,-0.09091884,0.19234233,0.99998796,-1.8626451e-09,1.1641532e-09,0.0049054027,2
49928000,49928000,0.9770299,0.017115174,-0.089784004,0.1925057,0.99998796,-1.8626451e-09,1.1641532e-09,0.0049054027,2
50428000,50428000,0.97683424,0.01875184,-0.09065777,0.19293627,0.99998796,-1.8626451e-09,1.1641532e-09,0.0049054027,2
50928000,50928000,0.9767234,0.019686664,-0.091207705,0.1931456,0.99998796,-1.8626451e-09,1.1641532e-09,0.0049054027,2
51428000,51428000,0.9766402,0.020774877,-0.09147656,0.19332474,0.99998796,-1.8626451e-09,1.1641532e-09,0.0049054027,2
51928000,51928000,0.97669804,0.020702962,-0.09109083,0.19322255,0.99998796,-1.8626451e-09,1.1641532e-09,0.0049054027,2
52428000,52428000,0.9765787,0.020361863,-0.09207157,0.19339675,0.99998796,-1.8626451e-09,1.1641532e-09,0.0049054027,2
52928000,52928000,0.9766149,0.020202557,-0.09222202,0.19315892,0.99998796,-1.8626451e-09,1.1641532e-09,0.0049054027,2
53428000,53428000,0.9765712,0.020444093,-0.0920246,0.19344862,0.99998796,-1.8626451e-09,1.1641532e-09,0.0049054027,2
53928000,53928000,0.97655326,0.020867873,-0.09188444,0.19356017,0.99998796,-1.8626451e-09,1.1641532e-09,0.0049054027,2
54428000,54428000,0.97656745,0.020982647,-0.091273375,0.1937652,0.99998796,-1.8626451e-09,1.1641532e-09,0.0049054027,2
54928000,54928000,0.9766312,0.020030504,-0.09136592,0.19350106,0.99998796,-1.8626451e-09,1.1641532e-09,0.0049054027,2
55428000,55428000,0.9766464,0.019623104,-0.091373906,0.19346249,0.99998796,-1.8626451e-09,1.1641532e-09,0.0049054027,2
55928000,55928000,0.9765513,0.02081252,-0.092014894,0.19351432,0.99998796,-1.8626451e-09,1.1641532e-09,0.0049054027,2
56428000,56428000,0.97647387,0.020902386,-0.09290545,0.19346938,0.99998796,-1.8626451e-09,1.1641532e-09,0.0049054027,2
56928000,56928000,0.97652096,0.02042781,-0.092444725,0.19350328,0.99998796,-1.8626451e-09,1.1641532e-09,0.0049054027,2
57428000,57428000,0.97666246,0.020979118,-0.09066818,0.19357093,0.99998796,-1.8626451e-09,1.1641532e-09,0.0049054027,2
57928000,57928000,0.97667533,0.021523027,-0.08991953,0.19379526,0.99998796,-1.8626451e-09,1.1641532e-09,0.0049054027,2
58428000,58428000,0.97659963,0.020702958,-0.09089961,0.19380863,0.99998796,-1.8626451e-09,1.1641532e-09,0.0049054027,2
58928000,58928000,0.9764922,0.020793121,-0.09247086,0.19359699,0.99998796,-1.8626451e-09,1.1641532e-09,0.0049054027,2
59428000,59428000,0.9764229,0.020878484,-0.09328129,0.19354871,0.99998796,-1.8626451e-09,1.1641532e-09,0.0049054027,2
59928000,59928000,0.97659856,0.02097504,-0.09173996,0.19338883,0.99998796,-1.8626451e-09,1.1641532e-09,0.0049054027,2
60428000,60428000,0.9766244,0.021873461,-0.09053498,0.19372588,0.99998796,-1.8626451e-09,1.1641532e-09,0.0049054027,2
60928000,60928000,0.97657573,0.021622548,-0.09119091,0.19369206,0.99998796,-1.8626451e-09,1.1641532e-09,0.0049054027,2
61428000,61428000,0.9765663,0.021016384,-0.09199722,0.19342493,0.99998796,-1.8626451e-09,1.1641532e-09,0.0049054027,2
61928000,61928000,0.97671443,0.021216547,-0.091950595,0.1926759,0.99998796,-1.8626451e-09,1.1641532e-09,0.0049054027,2
62428000,62428000,0.98099566,0.013081943,-0.0038111082,0.19355087,0.99998796,-1.8626451e-09,1.1641532e-09,0.0049054027,2
62928000,62928000,0.9815143,0.0022929802,0.003937659,0.19133477,0.99998796,-1.8626451e-09,1.1641532e-09,0.0049054027,2
63428000,63428000,0.9826396,-0.004094592,0.013335772,0.18499957,0.99998796,-1.8626451e-09,1.1641532e-09,0.0049054027,2
63928000,63928000,0.984229,-0.011591758,0.01921295,0.17546998,0.99998796,-1.8626451e-09,1.1641532e-09,0.0049054027,2
64428000,64428000,0.9863058,-0.0007199798,0.015889794,0.16415855,0.99998796,-1.8626451e-09,1.1641532e-09,0.0049054027,2
64928000,64928000,0.93352264,0.11200953,0.0810532,0.33078656,0.99998796,-1.8626451e-09,1.1641532e-09,0.0049054027,2
65428000,65428000,0.83337885,0.09843023,0.0067260526,0.5438252,0.99998796,-1.8626451e-09,1.1641532e-09,0.0049054027,2
65928000,65928000,0.70896924,0.052847803,-0.010681549,0.7031755,0.99998796,-1.8626451e-09,1.1641532e-09,0.0049054027,2
66428000,66428000,0.55384254,0.118942596,-0.07119877,0.8210005,0.99998796,-1.8626451e-09,1.1641532e-09,0.0049054027,2
66928000,66928000,0.51755697,0.13807946,-0.12766524,0.8347278,0.99998796,-1.8626451e-09,1.1641532e-09,0.0049054027,2
67428000,67428000,0.5558142,0.120788015,-0.06830139,0.8196436,0.99998796,-1.8626451e-09,1.1641532e-09,0.0049054027,2
67928000,67928000,0.5674123,0.04954723,-0.04506235,0.8207056,0.99998796,-1.8626451e-09,1.1641532e-09,0.0049054027,2
68428000,68428000,0.5686677,0.07084518,-0.047207963,0.81815,0.99998796,-1.8626451e-09,1.1641532e-09,0.0049054027,2
68928000,68928000,0.5689005,0.07315884,-0.048470322,0.8177105,0.99998796,-1.8626451e-09,1.1641532e-09,0.0049054027,2
69428000,69428000,0.56913555,0.07351453,-0.050118726,0.8174158,0.99998796,-1.8626451e-09,1.1641532e-09,0.0049054027,2
69928000,69928000,0.56954354,0.07397583,-0.05193061,0.8169767,0.99998796,-1.8626451e-09,1.1641532e-09,0.0049054027,2
70428000,70428000,0.5695588,0.07391841,-0.052049782,0.8169638,0.99998796,-1.8626451e-09,1.1641532e-09,0.0049054027,2
70928000,70928000,0.5694565,0.07126764,-0.050595354,0.81736183,0.99998796,-1.8626451e-09,1.1641532e-09,0.0049054027,2
71428000,71428000,0.5701199,0.009436307,0.0036857533,0.8214991,0.99998796,-1.8626451e-09,1.1641532e-09,0.0049054027,2
71928000,71928000,0.56945455,0.0018443424,0.00016460297,0.82202077,0.99998796,-1.8626451e-09,1.1641532e-09,0.0049054027,2
72428000,72428000,0.5693312,-0.0045319996,0.0033962864,0.82208884,0.99998796,-1.8626451e-09,1.1641532e-09,0.0049054027,2
72928000,72928000,0.56875736,-0.013715262,0.0048464066,0.8223768,0.99998796,-1.8626451e-09,1.1641532e-09,0.0049054027,2
73428000,73428000,0.56638736,-0.007955547,0.01076203,0.8240306,0.99998796,-1.8626451e-09,1.1641532e-09,0.0049054027,2
73928000,73928000,0.488623,0.040872723,0.063935906,0.8691889,0.99998796,-1.8626451e-09,1.1641532e-09,0.0049054027,2
74428000,74428000,0.2601238,0.039694045,0.13186741,0.95570445,0.99998796,-1.8626451e-09,1.1641532e-09,0.0049054027,2
74928000,74928000,0.058109384,0.035622142,0.045093715,0.9966549,0.99998796,-1.8626451e-09,1.1641532e-09,0.0049054027,2
75428000,75428000,-0.1387367,0.100578055,0.03704899,0.98451185,0.99998796,-1.8626451e-09,1.1641532e-09,0.0049054027,2
75928000,75928000,-0.24083322,0.1825843,-0.002066428,0.9532356,0.99998796,-1.8626451e-09,1.1641532e-09,0.0049054027,2
76428000,76428000,-0.19390334,0.15094432,0.02583728,0.9689942,0.99998796,-1.8626451e-09,1.1641532e-09,0.0049054027,2
76928000,76928000,-0.18344949,0.08314419,0.027428482,0.97912264,0.99998796,-1.8626451e-09,1.1641532e-09,0.0049054027,2
77428000,77428000,-0.17946295,0.08099552,0.017543584,0.9802679,0.99998796,-1.8626451e-09,1.1641532e-09,0.0049054027,2
77928000,77928000,-0.17942575,0.08386654,0.018705226,0.98001176,0.99998796,-1.8626451e-09,1.1641532e-09,0.0049054027,2
78428000,78428000,-0.17947823,0.08568321,0.01893663,0.9798405,0.99998796,-1.8626451e-09,1.1641532e-09,0.0049054027,2
78928000,78928000,-0.17931668,0.08659118,0.018662328,0.9797955,0.99998796,-1.8626451e-09,1.1641532e-09,0.0049054027,2
79428000,79428000,-0.17904833,0.08754398,0.018064577,0.97977114,0.99998796,-1.8626451e-09,1.1641532e-09,0.0049054027,2
79928000,79928000,-0.1789766,0.08797839,0.018274426,0.97974145,0.99998796,-1.8626451e-09,1.1641532e-09,0.0049054027,2
80428000,80428000,-0.17920916,0.088548794,0.019220876,0.97962946,0.99998796,-1.8626451e-09,1.1641532e-09,0.0049054027,2
80928000,80928000,-0.1792037,0.08914627,0.019134218,0.9795779,0.99998796,-1.8626451e-09,1.1641532e-09,0.0049054027,2
81428000,81428000,-0.1790936,0.089982316,0.019046135,0.97952336,0.99998796,-1.8626451e-09,1.1641532e-09,0.0049054027,2
81928000,81928000,-0.1793009,0.09080483,0.01904069,0.9794096,0.99998796,-1.8626451e-09,1.1641532e-09,0.0049054027,2
82428000,82428000,-0.17914993,0.09019733,0.0183,0.97950745,0.99998796,-1.8626451e-09,1.1641532e-09,0.0049054027,2
82928000,82928000,-0.17910211,0.090727024,0.017952207,0.9794737,0.99998796,-1.8626451e-09,1.1641532e-09,0.0049054027,2
83428000,83428000,-0.17934091,0.09088858,0.018244313,0.97940964,0.99998796,-1.8626451e-09,1.1641532e-09,0.0049054027,2
83928000,83928000,-0.18134671,0.008932867,0.013064942,0.9832919,0.99998796,-1.8626451e-09,1.1641532e-09,0.0049054027,2
84428000,84428000,-0.18246359,0.0006349164,0.003386605,0.9832067,0.99998796,-1.8626451e-09,1.1641532e-09,0.0049054027,2
84928000,84928000,-0.18116213,-0.009553974,-0.0012194306,0.98340607,0.99998796,-1.8626451e-09,1.1641532e-09,0.0049054027,2
85428000,85428000,-0.17963582,-0.016802019,-0.006619084,0.9835675,0.99998796,-1.8626451e-09,1.1641532e-09,0.0049054027,2
85928000,85928000,-0.1812606,-0.018053435,0.0019554,0.98326755,0.99998796,-1.8626451e-09,1.1641532e-09,0.0049054027,2
86428000,86428000,-0.2703605,-0.023048664,0.07708596,0.9593914,0.99998796,-1.8626451e-09,1.1641532e-09,0.0049054027,2
86928000,86928000,-0.4930837,-0.05511791,0.12300112,0.8594773,0.99998796,-1.8626451e-09,1.1641532e-09,0.0049054027,2
87428000,87428000,-0.6655172,-0.0058710743,0.04690904,0.74488384,0.99998796,-1.8626451e-09,1.1641532e-09,0.0049054027,2
87928000,87928000,-0.79384893,0.0533172,0.09991712,0.5974761,0.99998796,-1.8626451e-09,1.1641532e-09,0.0049054027,2
88428000,88428000,-0.83157146,0.13111539,0.12760578,0.5244182,0.99998796,-1.8626451e-09,1.1641532e-09,0.0049054027,2
88928000,88928000,-0.80872715,0.09001534,0.12339885,0.5680058,0.99998796,-1.8626451e-09,1.1641532e-09,0.0049054027,2
89428000,89428000,-0.80978477,0.040426962,0.07991782,0.5798513,0.99998796,-1.8626451e-09,1.1641532e-09,0.0049054027,2
89928000,89928000,-0.80783945,0.04942599,0.07018757,0.58311754,0.99998796,-1.8626451e-09,1.1641532e-09,0.0049054027,2
90428000,90428000,-0.8077373,0.048854437,0.0717629,0.5831156,0.99998796,-1.8626451e-09,1.1641532e-09,0.0049054027,2
90928000,90928000,-0.80783415,0.049323715,0.074133694,0.5826452,0.99998796,-1.8626451e-09,1.1641532e-09,0.0049054027,2
91428000,91428000,-0.8077826,0.050748672,0.07429529,0.5825736,0.99998796,-1.8626451e-09,1.1641532e-09,0.0049054027,2
91928000,91928000,-0.80739224,0.052126657,0.073860206,0.5830484,0.99998796,-1.8626451e-09,1.1641532e-09,0.0049054027,2
92428000,92428000,-0.8071445,0.05192888,0.073993236,0.5833919,0.99998796,-1.8626451e-09,1.1641532e-09,0.0049054027,2
92928000,92928000,-0.80819947,0.041880295,0.059992924,0.58434635,0.99998796,-1.8626451e-09,1.1641532e-09,0.0049054027,2
93428000,93428000,-0.8106696,-0.00032149474,0.009578478,0.5854254,0.99998796,-1.8626451e-09,1.1641532e-09,0.0049054027,2
93928000,93928000,-0.80943376,-0.00047280907,0.0007201196,0.58721066,0.99998796,-1.8626451e-09,1.1641532e-09,0.0049054027,2
94428000,94428000,-0.80771303,-0.0033528656,-0.0066184476,0.5895293,0.99998796,-1.8626451e-09,1.1641532e-09,0.0049054027,2
94928000,94928000,-0.8055711,-0.004965831,-0.014386438,0.59230375,0.99998796,-1.8626451e-09,1.1641532e-09,0.0049054027,2
95428000,95428000,-0.80596775,-0.012209475,-0.010104311,0.5917474,0.99998796,-1.8626451e-09,1.1641532e-09,0.0049054027,2
95928000,95928000,-0.8083316,-0.013741496,-0.014809392,0.5883807,0.99998796,-1.8626451e-09,1.1641532e-09,0.0049054027,2
96428000,96428000,-0.80745935,-0.017908383,-0.018400483,0.5893643,0.99998796,-1.8626451e-09,1.1641532e-09,0.0049054027,2
96928000,96928000,-0.8072698,-0.021582667,-0.023745341,0.5893096,0.99998796,-1.8626451e-09,1.1641532e-09,0.0049054027,2
97428000,97428000,-0.8070112,-0.022761604,-0.028587887,0.58940446,0.99998796,-1.8626451e-09,1.1641532e-09,0.0049054027,2
97928000,97928000,-0.8077471,-0.0011296775,0.0049609765,0.5895072,0.99998796,-1.8626451e-09,1.1641532e-09,0.0049054027,2
98428000,98428000,-0.80771136,-0.0026304824,2.4446848e-05,0.5895723,0.99998796,-1.8626451e-09,1.1641532e-09,0.0049054027,2
98928000,98928000,-0.8077429,-0.0038130959,-0.0015030196,0.5895207,0.99998796,-1.8626451e-09,1.1641532e-09,0.0049054027,2
99428000,99428000,-0.8077032,-0.0049433587,-0.00089971384,0.58956796,0.99998796,-1.8626451e-09,1.1641532e-09,0.0049054027,2
99928000,99928000,-0.80768144,-0.005529854,-0.0006346917,0.58959293,0.99998796,-1.8626451e-09,1.1641532e-09,0.0049054027,2
100428000,100428000,-0.8076646,-0.005971024,-0.000746,0.58961165,0.99998796,-1.8626451e-09,1.1641532e-09,0.0049054027,2
100928000,100928000,-0.80764353,-0.0051894966,-0.0009581401,0.5896475,0.99998796,-1.8626451e-09,1.1641532e-09,0.0049054027,2
101428000,101428000,-0.8076981,-0.0049594445,-0.0011756652,0.5895744,0.99998796,-1.8626451e-09,1.1641532e-09,0.0049054027,2
101928000,101928000,-0.8076981,-0.004735767,-0.0009006179,0.5895768,0.99998796,-1.8626451e-09,1.1641532e-09,0.0049054027,2
102428000,102428000,-0.80762905,-0.0049242433,0.00061335746,0.58967,0.99998796,-1.8626451e-09,1.1641532e-09,0.0049054027,2
102928000,102928000,-0.80765396,-0.003963975,0.0008470983,0.58964276,0.99998796,-1.8626451e-09,1.1641532e-09,0.0049054027,2
103428000,103428000,-0.8076278,-0.0038982714,0.0015253674,0.5896777,0.99998796,-1.8626451e-09,1.1641532e-09,0.0049054027,2
103928000,103928000,-0.8078012,-0.0036245892,0.000902346,0.5894432,0.99998796,-1.8626451e-09,1.1641532e-09,0.0049054027,2
104428000,104428000,-0.80770415,-0.0034412672,0.00062402256,0.5895777,0.99998796,-1.8626451e-09,1.1641532e-09,0.0049054027,2
104928000,104928000,-0.80772334,-0.0025353378,0.0002969461,0.58955616,0.99998796,-1.8626451e-09,1.1641532e-09,0.0049054027,2
105428000,105428000,-0.8076697,-0.0034272298,-0.0005538649,0.5896251,0.99998796,-1.8626451e-09,1.1641532e-09,0.0049054027,2
105928000,105928000,-0.8076981,-0.0038193294,-0.0011417295,0.5895828,0.99998796,-1.8626451e-09,1.1641532e-09,0.0049054027,2
106428000,106428000,-0.8077163,-0.0029467116,-0.0007379441,0.5895634,0.99998796,-1.8626451e-09,1.1641532e-09,0.0049054027,2
106928000,106928000,-0.6938589,0.10075351,-0.025410974,0.71257484,0.99998796,-1.8626451e-09,1.1641532e-09,0.0049054027,2
107428000,107428000,-0.4949425,0.1743951,-0.03953059,0.85032684,0.99998796,-1.8626451e-09,1.1641532e-09,0.0049054027,2
107928000,107928000,-0.3155628,0.1916341,0.0011232498,0.9293521,0.99998796,-1.8626451e-09,1.1641532e-09,0.0049054027,2
108428000,108428000,-0.15550652,0.1518348,0.0608624,0.974197,0.99998796,-1.8626451e-09,1.1641532e-09,0.0049054027,2
108928000,108928000,-0.18026122,0.07229975,0.0288429,0.98053396,0.99998796,-1.8626451e-09,1.1641532e-09,0.0049054027,2
109428000,109428000,-0.20874104,0.081917115,0.022409776,0.9742764,0.99998796,-1.8626451e-09,1.1641532e-09,0.0049054027,2
109928000,109928000,-0.21272536,0.08589726,0.01686672,0.973183,0.99998796,-1.8626451e-09,1.1641532e-09,0.0049054027,2
110428000,110428000,-0.21289507,0.086695306,0.015573513,0.9730967,0.99998796,-1.8626451e-09,1.1641532e-09,0.0049054027,2
110928000,110928000,-0.2131329,0.08679498,0.016233599,0.97302496,0.99998796,-1.8626451e-09,1.1641532e-09,0.0049054027,2
111428000,111428000,-0.21330075,0.08627254,0.01647779,0.9730305,0.99998796,-1.8626451e-09,1.1641532e-09,0.0049054027,2
111928000,111928000,-0.21359378,0.08660349,0.018699422,0.97289675,0.99998796,-1.8626451e-09,1.1641532e-09,0.0049054027,2
112428000,112428000,-0.21379197,0.08721252,0.01982501,0.9727765,0.99998796,-1.8626451e-09,1.1641532e-09,0.0049054027,2
112928000,112928000,-0.21381222,0.08919042,0.019797027,0.97259325,0.99998796,-1.8626451e-09,1.1641532e-09,0.0049054027,2
113428000,113428000,-0.21392402,0.089413255,0.020640638,0.97253066,0.99998796,-1.8626451e-09,1.1641532e-09,0.0049054027,2
113928000,113928000,-0.21393634,0.088892214,0.020296656,0.97258294,0.99998796,-1.8626451e-09,1.1641532e-09,0.0049054027,2
114428000,114428000,-0.21397421,0.0885865,0.020502789,0.97259814,0.99998796,-1.8626451e-09,1.1641532e-09,0.0049054027,2
114928000,114928000,-0.21396501,0.08843708,0.019863902,0.97262704,0.99998796,-1.8626451e-09,1.1641532e-09,0.0049054027,2
115428000,115428000,-0.21440771,0.06026997,0.013359347,0.97479147,0.99998796,-1.8626451e-09,1.1641532e-09,0.0049054027,2
115928000,115928000,-0.21520878,0.0030160702,0.0028866797,0.9765591,0.99998796,-1.8626451e-09,1.1641532e-09,0.0049054027,2
116428000,116428000,-0.21480808,-0.008321927,-0.0023674432,0.97661805,0.99998796,-1.8626451e-09,1.1641532e-09,0.0049054027,2
116928000,116928000,-0.21501411,-0.016599845,-0.007776976,0.976439,0.99998796,-1.8626451e-09,1.1641532e-09,0.0049054027,2
117428000,117428000,-0.21483742,-0.020482754,-0.006641571,0.97641253,0.99998796,-1.8626451e-09,1.1641532e-09,0.0049054027,2
117928000,117928000,-0.21493468,-0.020502225,-0.0034950408,0.97640693,0.99998796,-1.8626451e-09,1.1641532e-09,0.0049054027,2
118428000,118428000,-0.124513246,-0.044188514,-0.0141705675,0.9911322,0.99998796,-1.8626451e-09,1.1641532e-09,0.0049054027,2
118928000,118928000,0.12348837,-0.0600806,-0.027786639,0.99013585,0.99998796,-1.8626451e-09,1.1641532e-09,0.0049054027,2
119428000,119428000,0.32341012,-0.01382964,-0.024685528,0.9458358,0.99998796,-1.8626451e-09,1.1641532e-09,0.0049054027,2
119928000,119928000,0.50463843,-0.0062273974,-0.009199252,0.8632594,0.99998796,-1.8626451e-09,1.1641532e-09,0.0049054027,2
120428000,120428000,0.6639061,-0.001168616,-0.0008605275,0.74781454,0.99998796,-1.8626451e-09,1.1641532e-09,0.0049054027,2
120928000,120928000,0.74176836,0.0015808766,0.005588628,0.67063105,0.99998796,-1.8626451e-09,1.1641532e-09,0.0049054027,2
121428000,121428000,0.7032585,-0.0020967536,0.002755756,0.71092576,0.99998796,-1.8626451e-09,1.1641532e-09,0.0049054027,2
121928000,121928000,0.6911973,-0.00039567344,0.004216472,0.7226538,0.99998796,-1.8626451e-09,1.1641532e-09,0.0049054027,2
122428000,122428000,0.6899894,0.0005154528,0.0030464318,0.72381294,0.99998796,-1.8626451e-09,1.1641532e-09,0.0049054027,2
122928000,122928000,0.68971705,0.0010850864,0.0027511152,0.72407293,0.99998796,-1.8626451e-09,1.1641532e-09,0.0049054027,2
123428000,123428000,0.6895527,0.0021439472,0.0014090977,0.724231,0.99998796,-1.8626451e-09,1.1641532e-09,0.0049054027,2
123928000,123928000,0.68953925,0.0014935723,0.0003279804,0.72424674,0.99998796,-1.8626451e-09,1.1641532e-09,0.0049054027,2
124428000,124428000,0.6894995,0.0003742639,0.00030504452,0.724286,0.99998796,-1.8626451e-09,1.1641532e-09,0.0049054027,2
124928000,124928000,0.68940383,-0.00025849394,0.00041575384,0.72437704,0.99998796,-1.8626451e-09,1.1641532e-09,0.0049054027,2
125428000,125428000,0.6892714,-0.00042025826,0.00092261407,0.72450256,0.99998796,-1.8626451e-09,1.1641532e-09,0.0049054027,2
125928000,125928000,0.68937415,-0.0013133081,0.0009340666,0.7244037,0.99998796,-1.8626451e-09,1.1641532e-09,0.0049054027,2
126428000,126428000,0.68930143,-0.0019355387,0.0014665171,0.7244707,0.99998796,-1.8626451e-09,1.1641532e-09,0.0049054027,2
126928000,126928000,0.68928534,-0.0020723569,0.0018972944,0.7244845,0.99998796,-1.8626451e-09,1.1641532e-09,0.0049054027,2
127428000,127428000,0.68924063,-0.0019430978,0.003006166,0.7245237,0.99998796,-1.8626451e-09,1.1641532e-09,0.0049054027,2
127928000,127928000,0.68930006,-0.0010477074,0.0037559418,0.7244655,0.99998796,-1.8626451e-09,1.1641532e-09,0.0049054027,2
128428000,128428000,0.68921024,-0.0015087089,0.0041839867,0.72454786,0.99998796,-1.8626451e-09,1.1641532e-09,0.0049054027,2
128928000,128928000,0.6893039,-0.0008554002,0.004687317,0.7244567,0.99998796,-1.8626451e-09,1.1641532e-09,0.0049054027,2
129428000,129428000,0.68928385,-0.001720575,0.0039553447,0.72447854,0.99998796,-1.8626451e-09,1.1641532e-09,0.0049054027,2
129928000,129928000,0.6892752,-0.0016309255,0.0028225405,0.7244923,0.99998796,-1.8626451e-09,1.1641532e-09,0.0049054027,2
130428000,130428000,0.6892373,-0.00084033253,0.002573969,0.72453064,0.99998796,-1.8626451e-09,1.1641532e-09,0.0049054027,2
130928000,130928000,0.68923694,-0.00197992,0.0001327112,0.7245334,0.99998796,-1.8626451e-09,1.1641532e-09,0.0049054027,2
131428000,131428000,0.6892542,-0.0020152505,-0.00014139195,0.72451675,0.99998796,-1.8626451e-09,1.1641532e-09,0.0049054027,2
131928000,131928000,0.6893393,-0.00097531336,0.002174163,0.72443473,0.99998796,-1.8626451e-09,1.1641532e-09,0.0049054027,2
132428000,132428000,0.6892241,-0.0020110027,0.00093341054,0.72454494,0.99998796,-1.8626451e-09,1.1641532e-09,0.0049054027,2
132928000,132928000,0.68921757,-0.0028265605,0.0006436419,0.72454876,0.99998796,-1.8626451e-09,1.1641532e-09,0.0049054027,2
133428000,133428000,0.6892356,-0.002397082,-0.00031069177,0.7245333,0.99998796,-1.8626451e-09,1.1641532e-09,0.0049054027,2
133928000,133928000,0.6892847,-0.0021482238,0.0023476009,0.7244837,0.99998796,-1.8626451e-09,1.1641532e-09,0.0049054027,2
134428000,134428000,0.68925774,-0.00257581,0.0019355117,0.7245091,0.99998796,-1.8626451e-09,1.1641532e-09,0.0049054027,2
134928000,134928000,0.6892164,-0.0026209208,0.0016191975,0.72454906,0.99998796,-1.8626451e-09,1.1641532e-09,0.0049054027,2
135428000,135428000,0.68926173,-0.0020862364,0.0019074538,0.724507,0.99998796,-1.8626451e-09,1.1641532e-09,0.0049054027,2
135928000,135928000,0.6892573,-0.002851484,0.0021368994,0.72450787,0.99998796,-1.8626451e-09,1.1641532e-09,0.0049054027,2
136428000,136428000,0.689257,-0.004388719,0.0013114389,0.7245025,0.99998796,-1.8626451e-09,1.1641532e-09,0.0049054027,2
136928000,136928000,0.6892554,-0.0035543703,0.0006025873,0.7245095,0.99998796,-1.8626451e-09,1.1641532e-09,0.0049054027,2
137428000,137428000,0.6892446,-0.004508271,0.0012462003,0.72451365,0.99998796,-1.8626451e-09,1.1641532e-09,0.0049054027,2
137928000,137928000,0.68915004,-0.003825291,0.0017818247,0.7246064,0.99998796,-1.8626451e-09,1.1641532e-09,0.0049054027,2
138428000,138428000,0.689234,-0.0033474434,0.0013016185,0.72452986,0.99998796,-1.8626451e-09,1.1641532e-09,0.0049054027,2
138928000,138928000,0.6892055,-0.0026581632,-0.00020505454,0.72456104,0.99998796,-1.8626451e-09,1.1641532e-09,0.0049054027,2
139428000,139428000,0.6891833,-0.001858687,-0.0002227335,0.72458464,0.99998796,-1.8626451e-09,1.1641532e-09,0.0049054027,2
139928000,139928000,0.68921155,-0.0022224782,0.0009695212,0.7245562,0.99998796,-1.8626451e-09,1.1641532e-09,0.0049054027,2
140428000,140428000,0.6892095,-0.0027089794,0.00048529982,0.72455686,0.99998796,-1.8626451e-09,1.1641532e-09,0.0049054027,2
140928000,140928000,0.6892151,-0.001758158,0.0015041148,0.72455317,0.99998796,-1.8626451e-09,1.1641532e-09,0.0049054027,2
141428000,141428000,0.68920094,-0.002372921,0.00088253256,0.72456586,0.99998796,-1.8626451e-09,1.1641532e-09,0.0049054027,2
141928000,141928000,0.6892202,-0.002864981,0.00029119384,0.7245463,0.99998796,-1.8626451e-09,1.1641532e-09,0.0049054027,2
142428000,142428000,0.68923515,-0.0025201032,0.0005003933,0.7245332,0.99998796,-1.8626451e-09,1.1641532e-09,0.0049054027,2
142928000,142928000,0.68923396,-0.0017543512,0.00041237363,0.72453666,0.99998796,-1.8626451e-09,1.1641532e-09,0.0049054027,2
143428000,143428000,0.6892342,-0.0021038114,0.0011864926,0.72453463,0.99998796,-1.8626451e-09,1.1641532e-09,0.0049054027,2
143928000,143928000,0.6892475,-0.0026555883,0.0017312873,0.724519,0.99998796,-1.8626451e-09,1.1641532e-09,0.0049054027,2
144428000,144428000,0.6891683,-0.002169344,0.001169048,0.7245972,0.99998796,-1.8626451e-09,1.1641532e-09,0.0049054027,2
144928000,144928000,0.6891926,-0.0027355172,-0.00019271352,0.7245731,0.99998796,-1.8626451e-09,1.1641532e-09,0.0049054027,2
145428000,145428000,0.6891866,-0.0011149381,0.0016149139,0.72458124,0.99998796,-1.8626451e-09,1.1641532e-09,0.0049054027,2
145928000,145928000,0.6891316,-0.0010843956,0.0015293421,0.7246339,0.99998796,-1.8626451e-09,1.1641532e-09,0.0049054027,2
146428000,146428000,0.6890512,-0.0009020252,0.0014136767,0.7247107,0.99998796,-1.8626451e-09,1.1641532e-09,0.0049054027,2
146928000,146928000,0.68898076,-0.00091345527,0.0011625468,0.72477823,0.99998796,-1.8626451e-09,1.1641532e-09,0.0049054027,2
147428000,147428000,0.68894696,-0.0009108531,0.0010388311,0.72481054,0.99998796,-1.8626451e-09,1.1641532e-09,0.0049054027,2
147928000,147928000,0.68892825,-0.0008645243,0.0008630534,0.72482854,0.99998796,-1.8626451e-09,1.1641532e-09,0.0049054027,2
148428000,148428000,0.68874943,-0.000900034,0.00070336263,0.7249986,0.99998796,-1.8626451e-09,1.1641532e-09,0.0049054027,2
148928000,148928000,0.68860084,-0.0009901522,0.0005009978,0.72513986,0.99998796,-1.8626451e-09,1.1641532e-09,0.0049054027,2
149428000,149428000,0.6885338,-0.0010139153,0.0003470655,0.7252035,0.99998796,-1.8626451e-09,1.1641532e-09,0.0049054027,2
