timestamp,timestamp_sample,accel_device_id,gyro_device_id,delta_angle[0],delta_angle[1],delta_angle[2],delta_velocity[0],delta_velocity[1],delta_velocity[2],delta_angle_dt,delta_velocity_dt,delta_angle_clipping,delta_velocity_clipping,accel_calibration_count,gyro_calibration_count
3612000,3612000,1310988,1310988,-7.456857e-06,-2.9827406e-05,1.065266e-06,-0.0009002199,0.00069431926,-0.039753333,4000,4000,0,0,0,1
4112000,4112000,1310988,1310988,-1.0652593e-06,-3.3023203e-05,7.4568493e-06,-0.0009050083,0.00091937423,-0.03973417,4000,4000,0,0,0,1
4612000,4612000,1310988,1310988,-3.1957888e-06,-2.8762142e-05,5.326327e-06,-0.00084754743,0.0007086845,-0.039576158,4000,4000,0,0,0,1
5112000,5112000,1310988,1310988,-2.1305293e-06,-2.130529e-05,-1.7582807e-11,-0.0008044519,0.0007709337,-0.039839517,4000,4000,0,0,0,1
5612000,5612000,1310988,1310988,-4.261059e-06,-2.1305288e-05,-3.1958034e-06,-0.0008954315,0.0006799541,-0.039839517,4000,4000,0,0,0,1
6112000,6112000,1310988,1310988,-4.2610554e-06,-2.3435821e-05,1.0652703e-06,-0.0009002199,0.0007182613,-0.039796427,4000,4000,0,0,0,1
6612000,6612000,1310988,1310988,1.98588e-12,-2.2370557e-05,7.5530806e-12,-0.0008858547,0.0007805105,-0.03973896,4000,4000,0,0,0,1
7112000,7112000,1310988,1310988,-3.195808e-06,-4.048005e-05,2.1305036e-06,-0.0008714895,0.0007757221,-0.039782062,4000,4000,0,0,0,1
7612000,7612000,1310988,1310988,-1.0652783e-06,-3.1957938e-05,-1.0652572e-06,-0.00084275904,0.0007086845,-0.039681505,4000,4000,0,0,0,1
8112000,8112000,1310988,1310988,-2.0142495e-11,-2.556635e-05,-7.45685e-06,-0.0008858547,0.00059855124,-0.039868254,4000,4000,0,0,0,1
8612000,8612000,1310988,1310988,-2.1305377e-06,-3.1957938e-05,-7.4568516e-06,-0.0007900867,0.0006368584,-0.0396432,4000,4000,0,0,0,1
9112000,9112000,1310988,1310988,-1.5978974e-05,-2.7696873e-05,-3.1958132e-06,-0.00062728085,0.00059855124,-0.039576158,4000,4000,0,0,0,1
9612000,9612000,1310988,1310988,-3.7826296e-13,-4.261057e-06,7.456853e-06,-0.00073262583,0.0006368584,-0.039609674,4000,4000,0,0,0,1
10112000,10112000,1310988,1310988,1.3239201e-12,-2.982741e-05,-1.4913702e-05,-0.0008236055,0.0006416468,-0.03974376,4000,4000,0,0,0,1
10612000,10612000,1310988,1310988,-3.1957952e-06,-2.2370557e-05,1.0652603e-06,-0.00092895044,0.0006751657,-0.03963841,4000,4000,0,0,0,1
11112000,11112000,1310988,1310988,-1.0652657e-05,-1.8109495e-05,5.3263207e-06,-0.00084275904,0.0006464352,-0.03973896,4000,4000,0,0,0,1
11612000,11612000,1310988,1310988,2.3263164e-11,-2.663161e-05,8.522125e-06,-0.0007613562,0.0005506671,-0.039681505,4000,4000,0,0,0,1
12112000,12112000,1310988,1310988,-4.261076e-06,-1.8109495e-05,4.2610627e-06,-0.00070389535,0.00062249316,-0.03970545,4000,4000,0,0,0,1
12612000,12612000,1310988,1310988,-1.0652631e-05,-1.3848431e-05,-1.9174777e-05,-0.0007852981,0.00062249316,-0.039566584,4000,4000,0,0,0,1
13112000,13112000,1310988,1310988,4.261059e-06,-3.1957925e-06,3.1957943e-06,-0.00081402867,0.00056982075,-0.039705448,4000,4000,0,0,0,1
13612000,13612000,1310988,1310988,-1.704421e-05,-2.7696879e-05,-1.3848462e-05,-0.0007422026,0.0006655889,-0.039729387,4000,4000,0,0,0,1
14112000,14112000,1310988,1310988,-7.4568607e-06,-3.089267e-05,-2.13051e-06,-0.0008044519,0.00081881776,-0.039609674,4000,4000,0,0,0,1
14612000,14612000,1310988,1310988,-4.261061e-06,-3.1957938e-05,-1.0652703e-06,-0.0008810663,0.0007565685,-0.039700653,4000,4000,0,0,0,1
15112000,15112000,1310988,1310988,5.326325e-06,-1.5978967e-05,-8.3169695e-12,-0.00058897375,0.0007613569,-0.039705448,4000,4000,0,0,0,1
15612000,15612000,1310988,1310988,3.195793e-06,-1.7044234e-05,8.522118e-06,-0.00063685764,0.00062728155,-0.039777268,4000,4000,0,0,0,1
16112000,16112000,1310988,1310988,-4.26105e-06,-2.6631613e-05,5.3263266e-06,-0.00068953016,0.00059376284,-0.03955222,4000,4000,0,0,0,1
16612000,16612000,1310988,1310988,-1.1717921e-05,-1.9174753e-05,8.52212e-06,-0.00064643443,0.00063206995,-0.039557006,4000,4000,0,0,0,1
17112000,17112000,1310988,1310988,-4.2610577e-06,-1.171791e-05,1.1717912e-05,-0.00071826053,0.00062249316,-0.03964798,4000,4000,0,0,0,1
17612000,17612000,1310988,1310988,6.391589e-06,-1.81095e-05,1.0652686e-06,-0.00066079973,0.0006129164,-0.03980121,4000,4000,0,0,0,1
18112000,18112000,1310988,1310988,-1.0652363e-06,-1.8109507e-05,-1.7044229e-05,-0.0006512228,0.00052193674,-0.039748542,4000,4000,0,0,0,1
18612000,18612000,1310988,1310988,-4.261055e-06,-2.3435823e-05,-3.1957804e-06,-0.0006943185,0.0005554555,-0.039671928,4000,4000,0,0,0,1
19112000,19112000,1310988,1310988,-9.587373e-06,-2.4501083e-05,-8.52213e-06,-0.00068953016,0.0006512236,-0.03963841,4000,4000,0,0,0,1
19612000,19612000,1310988,1310988,-1.3848429e-05,-1.3848445e-05,-5.3263334e-06,-0.00059376215,0.0006464352,-0.03974376,4000,4000,0,0,0,1
20112000,20112000,1310988,1310988,-6.3915923e-06,-1.7044233e-05,-1.1077968e-11,-0.0005410897,0.00048841786,-0.03980121,4000,4000,0,0,0,1
20612000,20612000,1310988,1310988,-6.3915822e-06,-2.556635e-05,3.1958095e-06,-0.00062249246,0.0006608005,-0.039724596,4000,4000,0,0,0,1
21112000,21112000,1310988,1310988,8.321783e-12,-1.81095e-05,-1.0652568e-06,-0.00062249246,0.00063206995,-0.039700653,4000,4000,0,0,0,1
21612000,21612000,1310988,1310988,2.1305364e-06,-2.0240028e-05,-1.3848433e-05,-0.0006943185,0.00060812803,-0.03960489,4000,4000,0,0,0,1
22112000,22112000,1310988,1310988,-1.6549002e-11,-1.4913703e-05,7.456853e-06,-0.00084754743,0.0007038961,-0.039600104,4000,4000,0,0,0,1
22612000,22612000,1310988,1310988,-1.0652682e-06,-1.3848437e-05,-3.195795e-06,-0.00068953016,0.00045489904,-0.03958094,4000,4000,0,0,0,1
23112000,23112000,1310988,1310988,-1.17179125e-05,-1.1717909e-05,-2.1305295e-06,-0.0006129157,0.0005410904,-0.039614465,4000,4000,0,0,0,1
23612000,23612000,1310988,1310988,-5.32632e-06,-1.5978969e-05,-2.1305295e-06,-0.0005602432,0.0005698208,-0.03963841,4000,4000,0,0,0,1
24112000,24112000,1310988,1310988,-4.2554575e-12,-1.5978969e-05,-5.326323e-06,-0.00073262583,0.0005554555,-0.03963362,4000,4000,0,0,0,1
24612000,24612000,1310988,1310988,1.0652851e-06,-2.1305292e-05,-1.1717907e-05,-0.0006799534,0.000536302,-0.039671928,4000,4000,0,0,0,1
25112000,25112000,1310988,1310988,4.2610504e-06,-1.8109497e-05,6.3916027e-06,-0.00068474177,0.00053151353,-0.039609674,4000,4000,0,0,0,1
25612000,25612000,1310988,1310988,-2.1305243e-06,-1.81095e-05,1.66981e-12,-0.00059855054,0.00056503236,-0.03947081,4000,4000,0,0,0,1
26112000,26112000,1310988,1310988,8.522111e-06,-2.6631615e-05,1.0652706e-06,-0.00065601134,0.00060333963,-0.03963362,4000,4000,0,0,0,1
26612000,26612000,1310988,1310988,-1.2783169e-05,-2.1305294e-05,1.0652692e-06,-0.0007422026,0.00049799465,-0.039446875,4000,4000,0,0,0,1
27112000,27112000,1310988,1310988,-6.3915804e-06,-2.5566353e-05,1.7143006e-11,-0.00073262583,0.0007517801,-0.039600104,4000,4000,0,0,0,1
27612000,27612000,1310988,1310988,-7.45685e-06,-2.6631615e-05,1.0652483e-06,-0.000545878,0.0005698208,-0.039513905,4000,4000,0,0,0,1
28112000,28112000,1310988,1310988,1.0652565e-06,-2.6631613e-05,2.1305389e-06,-0.00071826053,0.00067995413,-0.039566584,4000,4000,0,0,0,1
28612000,28612000,1310988,1310988,-6.39159e-06,-1.4913705e-05,2.1305148e-06,-0.00077572133,0.0005793976,-0.03947081,4000,4000,0,0,0,1
29112000,29112000,1310988,1310988,-5.3263293e-06,-2.343582e-05,1.0652748e-06,-0.00069910695,0.00058897445,-0.039442085,4000,4000,0,0,0,1
29612000,29612000,1310988,1310988,-8.5109177e-13,-2.8762142e-05,3.1957934e-06,-0.0007517794,0.0007038961,-0.03947561,4000,4000,0,0,0,1
30112000,30112000,1310988,1310988,-3.1957939e-06,-1.1717911e-05,1.0652686e-06,-0.00084275904,0.00070389605,-0.039509118,4000,4000,0,0,0,1
30612000,30612000,1310988,1310988,-8.522113e-06,-2.4501087e-05,-7.1417924e-12,-0.00072304904,0.0006703773,-0.039427716,4000,4000,0,0,0,1
31112000,31112000,1310988,1310988,-1.171791e-05,-1.9174762e-05,3.1957882e-06,-0.0007565678,0.00048841786,-0.039609674,4000,4000,0,0,0,1
31612000,31612000,1310988,1310988,-4.2610677e-06,-6.3915795e-06,1.1717912e-05,-0.0008188171,0.0005746092,-0.03953306,4000,4000,0,0,0,1
32112000,32112000,1310988,1310988,-4.261069e-06,-3.0892672e-05,1.5536994e-11,-0.00071826053,0.00060333963,-0.039432503,4000,4000,0,0,0,1
32612000,32612000,1310988,1310988,-1.0652584e-06,-9.587383e-06,-4.2610536e-06,-0.0007805097,0.000536302,-0.039485183,4000,4000,0,0,0,1
33112000,33112000,1310988,1310988,-1.8109506e-05,-1.9174755e-05,2.1305202e-06,-0.0007900867,0.00040701503,-0.039475597,4000,4000,0,0,0,1
33612000,33612000,1310988,1310988,4.2610554e-06,-7.456859e-06,7.4568466e-06,-0.00069431856,0.00051714835,-0.039542634,4000,4000,0,0,0,1
34112000,34112000,1310988,1310988,2.1305361e-06,-1.5978967e-05,5.0167947e-12,-0.0007613562,0.00048841786,-0.0395187,4000,4000,0,0,0,1
34612000,34612000,1310988,1310988,-7.456852e-06,-2.7696875e-05,-2.1305273e-06,-0.0007613562,0.00053151353,-0.03979164,4000,4000,0,0,0,1
35112000,35112000,1310988,1310988,0.0009395633,0.00049002114,0.00011185569,-0.0007422026,0.00053630193,-0.040921703,4000,4000,0,0,0,1
35612000,35612000,1310988,1310988,-0.00036538581,-0.00018855167,-3.1962156e-06,-0.00064164604,0.00018196012,-0.043268014,4000,4000,0,0,0,1
36112000,36112000,1310988,1310988,-0.00010120013,-2.876214e-05,-7.4568716e-06,-0.0007996635,0.000335189,-0.040265687,4000,4000,0,0,0,1
36612000,36612000,1310988,1310988,-1.7044233e-05,-6.391594e-06,3.1957936e-06,-0.000675165,0.00062728155,-0.04061045,4000,4000,0,0,0,1
37112000,37112000,1310988,1310988,4.580638e-05,-2.1305284e-05,2.1305004e-06,-0.00070868374,0.00073262653,-0.040452432,4000,4000,0,0,0,1
37612000,37612000,1310988,1310988,8.4155894e-05,-1.3848463e-05,-2.130618e-06,-0.0007805098,0.0007709337,-0.040198654,4000,4000,0,0,0,1
38112000,38112000,1310988,1310988,3.515374e-05,2.9827395e-05,6.3916123e-06,-0.00072783744,0.0009959886,-0.04002627,4000,4000,0,0,0,1
38612000,38612000,1310988,1310988,-7.989486e-05,-3.195793e-05,2.130455e-06,-0.00082360546,0.0008858554,-0.039949656,4000,4000,0,0,0,1
39112000,39112000,1310988,1310988,8.522119e-06,-3.1957945e-05,1.597895e-05,-0.00072783744,0.0008283946,-0.039806,4000,4000,0,0,0,1
39612000,39612000,1310988,1310988,7.4568525e-06,-3.0892665e-05,-7.456874e-06,-0.00076614454,0.0008379714,-0.039868254,4000,4000,0,0,0,1
40112000,40112000,1310988,1310988,2.2370554e-05,-4.0480063e-05,-1.0652591e-05,-0.00084754743,0.00063206995,-0.039671928,4000,4000,0,0,0,1
40612000,40612000,1310988,1310988,-2.769686e-05,-3.3023214e-05,6.3915973e-06,-0.000746991,0.0007134729,-0.039403778,4000,4000,0,0,0,1
41112000,41112000,1310988,1310988,5.3263166e-06,-5.1132694e-05,9.587417e-06,-0.00092416187,0.00059855124,-0.039432503,4000,4000,0,0,0,1
41612000,41612000,1310988,1310988,-1.4913705e-05,-2.1305348e-06,-3.1957877e-06,-0.0007517794,0.000656012,-0.036841977,4000,4000,0,0,0,1
42112000,42112000,1310988,1310988,-1.5978963e-05,4.261071e-06,6.391592e-06,-0.00071826053,0.000679954,-0.03769432,4000,4000,0,0,0,1
42612000,42612000,1310988,1310988,-6.39158e-06,-5.3263226e-05,3.195779e-06,-0.0009097967,0.00064164674,-0.03741659,4000,4000,0,0,0,1
43112000,43112000,1310988,1310988,-0.00071905396,-0.0004399544,-0.0005592634,-0.00072304904,0.0005889744,-0.036162023,4000,4000,0,0,0,1
43612000,43612000,1310988,1310988,-0.0015904369,-0.0001885486,-0.00424082,-0.0012880805,0.0012066785,-0.037450105,4000,4000,0,0,0,1
44112000,44112000,1310988,1310988,0.00010333021,-0.00018536247,-0.0032788839,-0.0031603468,0.0017142493,-0.041290406,4000,4000,0,0,0,1
44612000,44612000,1310988,1310988,0.00023648808,-0.0002972121,-0.0028687571,-0.0051235915,0.0008427598,-0.039882615,4000,4000,0,0,0,1
45112000,45112000,1310988,1310988,0.00032703573,0.0012378357,0.0010141341,-0.006981493,0.00049799465,-0.038800437,4000,4000,0,0,0,1
45612000,45612000,1310988,1310988,-0.0010737878,0.0014530199,0.0003717773,-0.0075896205,0.0005985512,-0.03905422,4000,4000,0,0,0,1
46112000,46112000,1310988,1310988,-0.00011185282,-0.000105461164,6.2850566e-05,-0.0073885066,0.00017238322,-0.039025497,4000,4000,0,0,0,1
46612000,46612000,1310988,1310988,3.195787e-06,-2.7696888e-05,1.1717886e-05,-0.00746991,4.3096315e-05,-0.039006334,4000,4000,0,0,0,1
47112000,47112000,1310988,1310988,-8.841699e-05,-7.9894824e-05,7.331259e-11,-0.00746991,8.140354e-05,-0.038790856,4000,4000,0,0,0,1
47612000,47612000,1310988,1310988,-0.0001512676,-1.0652663e-05,-2.6631536e-05,-0.007517794,3.3519507e-05,-0.039054215,4000,4000,0,0,0,1
48112000,48112000,1310988,1310988,-5.2198022e-05,-7.243798e-05,-1.2783035e-05,-0.0076375045,1.9154291e-05,-0.03859932,4000,4000,0,0,0,1
48612000,48612000,1310988,1310988,2.1305292e-05,-2.1305332e-06,-6.3915827e-06,-0.0077093304,0.00014365277,-0.038527504,4000,4000,0,0,0,1
49112000,49112000,1310988,1310988,1.5978974e-05,1.7044229e-05,2.1305402e-06,-0.007704542,0.00026815129,-0.03871424,4000,4000,0,0,0,1
49612000,49612000,1310988,1310988,1.9174755e-05,-1.38484465e-05,1.1767841e-12,-0.00780031,0.00048841786,-0.038905777,4000,4000,0,0,0,1
50112000,50112000,1310988,1310988,3.8349528e-05,-2.024001e-05,3.1958052e-06,-0.0077715795,0.00049320626,-0.03859932,4000,4000,0,0,0,1
50612000,50612000,1310988,1310988,8.52214e-06,-3.9414783e-05,2.1305314e-06,-0.007862559,0.00043095704,-0.03859453,4000,4000,0,0,0,1
51112000,51112000,1310988,1310988,3.6219008e-05,-2.1305279e-05,-1.0652213e-06,-0.0077811563,0.00044532225,-0.03856581,4000,4000,0,0,0,1
51612000,51612000,1310988,1310988,-1.1717921e-05,-3.1957934e-05,5.326321e-06,-0.007963115,0.00050278305,-0.038829163,4000,4000,0,0,0,1
52112000,52112000,1310988,1310988,-7.456858e-06,-2.1305268e-06,8.522113e-06,-0.007920019,0.00027293965,-0.03834075,4000,4000,0,0,0,1
52612000,52612000,1310988,1310988,-2.237056e-05,-8.522115e-06,-7.4568497e-06,-0.007848194,0.00037349618,-0.038436517,4000,4000,0,0,0,1
53112000,53112000,1310988,1310988,-3.4043653e-12,9.587378e-06,3.195799e-06,-0.008039731,0.00046926425,-0.03850834,4000,4000,0,0,0,1
53612000,53612000,1310988,1310988,-3.1958057e-06,-1.9174759e-05,2.13053e-06,-0.007910443,0.00029688174,-0.038699877,4000,4000,0,0,0,1
54112000,54112000,1310988,1310988,3.195794e-06,7.4568507e-06,-2.1305334e-06,-0.007939173,0.0003208237,-0.03837906,4000,4000,0,0,0,1
54612000,54612000,1310988,1310988,-1.9174764e-05,-3.3023203e-05,-7.4568343e-06,-0.007996634,0.00050757144,-0.038326383,4000,4000,0,0,0,1
55112000,55112000,1310988,1310988,-2.663161e-05,-2.6631618e-05,-2.1304895e-06,-0.007929596,0.0005410903,-0.03839821,4000,4000,0,0,0,1
55612000,55612000,1310988,1310988,1.1717914e-05,-2.4501083e-05,-2.1305275e-06,-0.008054094,0.00030645856,-0.03871424,4000,4000,0,0,0,1
56112000,56112000,1310988,1310988,8.522111e-06,-2.9827408e-05,6.3915963e-06,-0.008097191,0.00034476578,-0.038426943,4000,4000,0,0,0,1
56612000,56612000,1310988,1310988,-1.0652641e-05,2.3435823e-05,2.6786095e-12,-0.008092402,0.0003256121,-0.03859453,4000,4000,0,0,0,1
57112000,57112000,1310988,1310988,2.3435816e-05,1.4913712e-05,-5.326327e-06,-0.008078038,0.00034955418,-0.038489196,4000,4000,0,0,0,1
57612000,57612000,1310988,1310988,5.3263243e-06,-2.9827412e-05,6.3915704e-06,-0.008121132,0.0002873049,-0.038474824,4000,4000,0,0,0,1
58112000,58112000,1310988,1310988,-1.0652642e-05,-2.237056e-05,-4.2610627e-06,-0.007953539,0.00034955415,-0.038503557,4000,4000,0,0,0,1
58612000,58612000,1310988,1310988,1.0652655e-06,-3.941479e-05,-7.4568247e-06,-0.007900866,0.00021547885,-0.038273714,4000,4000,0,0,0,1
59112000,59112000,1310988,1310988,6.391568e-06,-3.728426e-05,5.326311e-06,-0.008020577,0.00020590205,-0.03846525,4000,4000,0,0,0,1
59612000,59612000,1310988,1310988,3.19579e-06,-1.0652627e-06,-9.587382e-06,-0.008073248,0.00029209335,-0.03861848,4000,4000,0,0,0,1
60112000,60112000,1310988,1310988,1.0652626e-06,5.326322e-06,5.3263234e-06,-0.008164228,0.00037349618,-0.03855144,4000,4000,0,0,0,1
60612000,60612000,1310988,1310988,-4.0480052e-05,-5.0067436e-05,1.06527e-06,-0.007924808,0.00020590205,-0.0382785,4000,4000,0,0,0,1
61112000,61112000,1310988,1310988,-2.5566327e-05,-2.5566364e-05,-1.1717928e-05,-0.007905655,0.0002633629,-0.038561013,4000,4000,0,0,0,1
61612000,61612000,1310988,1310988,2.1305245e-06,-4.154532e-05,-1.49136995e-05,-0.0081354985,0.00024899765,-0.038675934,4000,4000,0,0,0,1
62112000,62112000,1310988,1310988,0.00015765733,0.0017225328,-2.0243706e-05,-0.007943962,0.00025378604,-0.038307235,4000,4000,0,0,0,1
62612000,62612000,1310988,1310988,-0.00023968452,-2.9827312e-05,-2.4501158e-05,-0.007206548,0.00010055717,-0.039068587,4000,4000,0,0,0,1
63112000,63112000,1310988,1310988,-7.4568496e-05,0.00013954967,-9.587383e-05,-0.005947198,0.00019153682,-0.039293647,4000,4000,0,0,0,1
63612000,63612000,1310988,1310988,-4.580638e-05,0.000100134836,-0.00013848442,-0.00500867,0.00022505566,-0.039427713,4000,4000,0,0,0,1
64112000,64112000,1310988,1310988,0.0002833603,-0.00012037492,-0.00016298557,-0.00398874,0.00028730492,-0.039164353,4000,4000,0,0,0,1
64612000,64612000,1310988,1310988,0.002325468,0.00085433933,0.0024383957,-0.002964022,0.0002394209,-0.0398874,4000,4000,0,0,0,1
65112000,65112000,1310988,1310988,-0.00068602257,-0.001210143,0.0040022,-0.002528277,-0.0001244978,-0.039777268,4000,4000,0,0,0,1
65612000,65612000,1310988,1310988,-0.0014274518,0.001209078,0.0032416005,-0.003174712,-0.00052672374,-0.0392697,4000,4000,0,0,0,1
66112000,66112000,1310988,1310988,0.00036112097,-0.001301767,0.0032330726,-0.003447651,-4.7883354e-05,-0.039308008,4000,4000,0,0,0,1
66612000,66612000,1310988,1310988,-0.001139828,-0.0011973632,0.0012410319,-0.0046543283,0.0007709337,-0.04044286,4000,4000,0,0,0,1
67112000,67112000,1310988,1310988,0.000599745,0.00081812206,-0.0008937573,-0.0064068846,0.0008092409,-0.038939293,4000,4000,0,0,0,1
67612000,67612000,1310988,1310988,9.9070516e-05,0.0011291809,-0.00015339439,-0.007503429,0.00046447586,-0.03847961,4000,4000,0,0,0,1
68112000,68112000,1310988,1310988,0.0004495415,-0.0006753779,-6.178511e-05,-0.0072352784,0.0002633629,-0.038685516,4000,4000,0,0,0,1
68612000,68612000,1310988,1310988,-4.793691e-05,-0.00011185279,-1.1717831e-05,-0.007383718,0.00021069043,-0.0386089,4000,4000,0,0,0,1
69112000,69112000,1310988,1310988,-1.1717895e-05,-2.3435829e-05,-2.1305223e-06,-0.007240067,0.00029209335,-0.03858017,4000,4000,0,0,0,1
69612000,69612000,1310988,1310988,1.9174751e-05,-4.0480056e-05,-2.1305325e-06,-0.007307104,0.00020590205,-0.038704667,4000,4000,0,0,0,1
70112000,70112000,1310988,1310988,-1.704424e-05,-2.2370547e-05,1.2783187e-05,-0.007541736,0.00034955418,-0.038522705,4000,4000,0,0,0,1
70612000,70612000,1310988,1310988,-4.580637e-05,-6.8176945e-05,1.0652646e-05,-0.0075704665,0.00020111365,-0.038570594,4000,4000,0,0,0,1
71112000,71112000,1310988,1310988,0.00028868765,0.0018823222,2.4499766e-05,-0.007445968,0.0002729397,-0.038675934,4000,4000,0,0,0,1
71612000,71612000,1310988,1310988,-0.00014487599,-6.711175e-05,2.1305137e-05,-0.0064787106,0.00030167014,-0.039006334,4000,4000,0,0,0,1
72112000,72112000,1310988,1310988,-8.522126e-06,7.243799e-05,7.4569084e-06,-0.005631163,0.00029688174,-0.039149992,4000,4000,0,0,0,1
72612000,72612000,1310988,1310988,-0.000115048606,0.00010546114,1.1717943e-05,-0.0047548856,0.00023463248,-0.039178725,4000,4000,0,0,0,1
73112000,73112000,1310988,1310988,-2.7696884e-05,3.4088484e-05,2.5566322e-05,-0.0038594536,0.00033997736,-0.03930322,4000,4000,0,0,0,1
73612000,73612000,1310988,1310988,-9.4812596e-05,-0.0016117443,0.0003217137,-0.0032800566,0.00048841786,-0.03991613,4000,4000,0,0,0,1
74112000,74112000,1310988,1310988,0.0007691239,0.0014029479,0.004058659,-0.0029592337,0.0003639194,-0.03994487,4000,4000,0,0,0,1
74612000,74612000,1310988,1310988,-0.0012516993,-0.0005187868,0.0034706267,-0.002585738,-0.00051235844,-0.03938941,4000,4000,0,0,0,1
75112000,75112000,1310988,1310988,0.00036539813,-0.0012442282,0.0032160326,-0.0032800569,-0.00036870642,-0.03970545,4000,4000,0,0,0,1
75612000,75612000,1310988,1310988,-0.00059867254,-0.0013986944,0.0028527789,-0.0041898536,0.00044053385,-0.040385395,4000,4000,0,0,0,1
76112000,76112000,1310988,1310988,0.00028868706,5.219711e-05,-0.0010503508,-0.0055832784,0.0009289511,-0.039628837,4000,4000,0,0,0,1
76612000,76612000,1310988,1310988,0.00049854314,0.0008447552,-0.00030573076,-0.0070724725,0.0007230497,-0.038996764,4000,4000,0,0,0,1
77112000,77112000,1310988,1310988,-0.00017044257,-6.9242305e-05,-7.0306785e-05,-0.007455545,0.00034476578,-0.039059013,4000,4000,0,0,0,1
77612000,77612000,1310988,1310988,-2.2370554e-05,-1.3848443e-05,-2.1305418e-06,-0.0071538757,0.00046447586,-0.03864242,4000,4000,0,0,0,1
78112000,78112000,1310988,1310988,-1.3848495e-05,-6.285057e-05,1.38485e-05,-0.0071490873,0.00043574543,-0.03871904,4000,4000,0,0,0,1
78612000,78612000,1310988,1310988,-7.456868e-06,-5.9654834e-05,1.4913624e-05,-0.00723049,0.00041180346,-0.0386089,4000,4000,0,0,0,1
79112000,79112000,1310988,1310988,-4.0480038e-05,-4.367586e-05,-6.3915886e-06,-0.007335834,0.0003782846,-0.03864721,4000,4000,0,0,0,1
79612000,79612000,1310988,1310988,-1.5978972e-05,-2.9827406e-05,-5.32632e-06,-0.0071490873,0.0003399774,-0.038685516,4000,4000,0,0,0,1
80112000,80112000,1310988,1310988,2.130511e-06,-3.515373e-05,1.065279e-06,-0.007465122,0.00030167014,-0.03858017,4000,4000,0,0,0,1
80612000,80612000,1310988,1310988,5.3263207e-06,-3.6219004e-05,-7.4568306e-06,-0.007493852,0.00038786136,-0.038422156,4000,4000,0,0,0,1
81112000,81112000,1310988,1310988,-8.522099e-06,-2.4501094e-05,5.326312e-06,-0.007584832,0.00025378607,-0.038546648,4000,4000,0,0,0,1
81612000,81612000,1310988,1310988,4.2610127e-06,-4.261058e-05,2.4501092e-05,-0.0075896205,0.00033040054,-0.0385275,4000,4000,0,0,0,1
82112000,82112000,1310988,1310988,-1.4913702e-05,2.1305323e-06,-5.3263275e-06,-0.0075991973,0.00027772808,-0.03839342,4000,4000,0,0,0,1
82612000,82612000,1310988,1310988,8.52215e-06,-8.7351684e-05,5.3263575e-06,-0.007594409,0.00039264973,-0.038388636,4000,4000,0,0,0,1
83112000,83112000,1310988,1310988,1.1717909e-05,6.391588e-06,2.1305354e-06,-0.0076231393,0.0002968817,-0.038355112,4000,4000,0,0,0,1
83612000,83612000,1310988,1310988,2.0240426e-05,0.001357147,2.6630134e-05,-0.0077476376,0.00020590205,-0.03806781,4000,4000,0,0,0,1
84112000,84112000,1310988,1310988,-0.00023861937,-0.00013315788,2.2370452e-05,-0.0071490873,0.00034955415,-0.03909732,4000,4000,0,0,0,1
84612000,84612000,1310988,1310988,-3.40884e-05,0.00016937706,-2.4501136e-05,-0.0060142353,0.00018196004,-0.039154775,4000,4000,0,0,0,1
85112000,85112000,1310988,1310988,-7.989475e-05,0.00013635395,-3.4088385e-05,-0.005185841,0.0002873049,-0.039264914,4000,4000,0,0,0,1
85612000,85612000,1310988,1310988,-6.391587e-05,3.941477e-05,1.2783268e-05,-0.0040940847,0.00034476578,-0.03918351,4000,4000,0,0,0,1
86112000,86112000,1310988,1310988,0.00021624436,-0.0015595478,0.00035792936,-0.0034524393,0.0002729397,-0.039513916,4000,4000,0,0,0,1
86612000,86612000,1310988,1310988,0.00084794505,0.0013667264,0.004056531,-0.002810793,0.00031124696,-0.040265687,4000,4000,0,0,0,1
87112000,87112000,1310988,1310988,-0.0014040296,4.7932725e-05,0.0034642364,-0.0026671411,-0.00043574406,-0.03898239,4000,4000,0,0,0,1
87612000,87612000,1310988,1310988,0.0004367662,-0.0016213309,0.0031680968,-0.0032178075,-0.00032082235,-0.039542634,4000,4000,0,0,0,1
88112000,88112000,1310988,1310988,-0.00084155134,-0.0013060205,0.0023510384,-0.004122816,0.00047884113,-0.040423702,4000,4000,0,0,0,1
88612000,88612000,1310988,1310988,0.00020879341,7.350172e-05,-0.0010365023,-0.0056742583,0.00069910765,-0.039375048,4000,4000,0,0,0,1
89112000,89112000,1310988,1310988,0.00041545372,0.0008490156,-0.00021731413,-0.006995858,0.0005267251,-0.038786065,4000,4000,0,0,0,1
89612000,89612000,1310988,1310988,-0.0002439459,-8.202559e-05,-9.374231e-05,-0.0074268146,0.0002729397,-0.039025493,4000,4000,0,0,0,1
90112000,90112000,1310988,1310988,2.3435827e-05,3.5153727e-05,1.1717909e-05,-0.007168241,0.00033997736,-0.038556226,4000,4000,0,0,0,1
90612000,90612000,1310988,1310988,-1.38484465e-05,-5.645902e-05,3.1958227e-06,-0.007311892,0.00027772808,-0.038388636,4000,4000,0,0,0,1
91112000,91112000,1310988,1310988,-1.7044222e-05,-2.1305299e-05,-4.261058e-06,-0.0073166806,0.00016759482,-0.03839821,4000,4000,0,0,0,1
91612000,91612000,1310988,1310988,2.1305198e-06,-4.0480052e-05,2.1305164e-06,-0.0072592204,0.00013886437,-0.03871424,4000,4000,0,0,0,1
92112000,92112000,1310988,1310988,-1.0652642e-05,-2.5566356e-05,-7.4568406e-06,-0.0074028717,0.00011492235,-0.038297653,4000,4000,0,0,0,1
92612000,92612000,1310988,1310988,-5.965481e-05,-6.8176945e-05,5.326322e-06,-0.0074603334,7.182673e-05,-0.038422156,4000,4000,0,0,0,1
93112000,93112000,1310988,1310988,0.00031318894,0.0018152106,-1.1718823e-05,-0.007465122,4.7884718e-05,-0.038905777,4000,4000,0,0,0,1
93612000,93612000,1310988,1310988,-5.5393677e-05,0.0001395497,-1.5979005e-05,-0.0063350587,-1.9152933e-05,-0.039159562,4000,4000,0,0,0,1
94112000,94112000,1310988,1310988,-4.0480016e-05,9.69391e-05,-3.3023156e-05,-0.0055880668,1.9154299e-05,-0.039092522,4000,4000,0,0,0,1
94612000,94612000,1310988,1310988,-0.00013954968,8.309063e-05,-6.604638e-05,-0.0046782712,0.00010534556,-0.039207447,4000,4000,0,0,0,1
95112000,95112000,1310988,1310988,0.00023648873,-1.4913706e-05,-2.4501163e-05,-0.0039552213,0.00014844122,-0.039135627,4000,4000,0,0,0,1
95612000,95612000,1310988,1310988,0.00013422327,-5.3261774e-06,6.285072e-05,-0.0030502132,0.00016759483,-0.039312795,4000,4000,0,0,0,1
96112000,96112000,1310988,1310988,3.941479e-05,3.9414757e-05,-1.8109551e-05,-0.0025857377,0.00017238336,-0.046533708,4000,4000,0,0,0,1
96612000,96612000,1310988,1310988,-3.515376e-05,4.0480034e-05,-5.3262816e-06,-0.0019680338,0.00017238349,-0.053654067,4000,4000,0,0,0,1
97112000,97112000,1310988,1310988,2.3435681e-05,0.00019068237,-9.587472e-06,-0.0014269443,0.00020590212,-0.04303338,4000,4000,0,0,0,1
97612000,97612000,1310988,1310988,0.0001800283,-0.0015414379,1.065445e-05,-0.00045010995,9.098032e-05,-0.03658819,4000,4000,0,0,0,1
98112000,98112000,1310988,1310988,-6.7111636e-05,1.7044269e-05,7.4569602e-06,-0.00063206925,0.00030167014,-0.03892972,4000,4000,0,0,0,1
98612000,98612000,1310988,1310988,-1.171792e-05,3.515373e-05,4.2610523e-06,-0.00053630123,0.0002585745,-0.03908774,4000,4000,0,0,0,1
99112000,99112000,1310988,1310988,2.1305272e-05,-2.9827423e-05,-5.326326e-06,-0.00046447522,0.00032082372,-0.039135627,4000,4000,0,0,0,1
99612000,99612000,1310988,1310988,-1.1717903e-05,-2.130529e-06,-7.456864e-06,-0.0003734955,0.00031603532,-0.03909732,4000,4000,0,0,0,1
100112000,100112000,1310988,1310988,7.45685e-06,-2.1305295e-06,7.456854e-06,-0.000545878,0.00038307297,-0.039240967,4000,4000,0,0,0,1
100612000,100612000,1310988,1310988,1.810949e-05,-3.3023203e-05,5.326344e-06,-0.00060812733,0.00034955418,-0.039264914,4000,4000,0,0,0,1
101112000,101112000,1310988,1310988,1.0652458e-06,-2.5566354e-05,1.8109495e-05,-0.0005410897,0.00022505566,-0.039059013,4000,4000,0,0,0,1
101612000,101612000,1310988,1310988,-4.687165e-05,-1.3848437e-05,7.456808e-06,-0.0003782839,0.00033997736,-0.039389405,4000,4000,0,0,0,1
102112000,102112000,1310988,1310988,5.3263334e-06,-3.9414783e-05,3.1958036e-06,-0.00058897375,9.0980306e-05,-0.035726286,4000,4000,0,0,0,1
102612000,102612000,1310988,1310988,2.2370563e-05,-1.0652645e-05,-8.522101e-06,-0.0005554548,0.00027772805,-0.036473267,4000,4000,0,0,0,1
103112000,103112000,1310988,1310988,1.7044234e-05,-1.3848437e-05,-1.0652686e-06,-0.0006129157,0.00023942083,-0.036794096,4000,4000,0,0,0,1
103612000,103612000,1310988,1310988,-4.0480034e-05,-4.1545332e-05,-3.1957945e-06,-0.0005554548,0.00028730487,-0.036909018,4000,4000,0,0,0,1
104112000,104112000,1310988,1310988,-6.3915722e-06,-4.4741115e-05,4.2610727e-06,-0.00064164604,0.00022505563,-0.037397437,4000,4000,0,0,0,1
104612000,104612000,1310988,1310988,6.3915877e-06,-2.7997869e-12,-2.1305298e-06,-0.0008236055,0.00029209332,-0.03772783,4000,4000,0,0,0,1
105112000,105112000,1310988,1310988,2.8762151e-05,3.3023185e-05,1.1717951e-05,-0.00073262583,0.00024420925,-0.03779487,4000,4000,0,0,0,1
105612000,105612000,1310988,1310988,-2.876217e-05,-4.3675827e-05,2.130517e-06,-0.0008954315,0.00026815129,-0.03804866,4000,4000,0,0,0,1
106112000,106112000,1310988,1310988,-3.1957898e-06,-4.261058e-05,8.9020085e-12,-0.0007852981,0.00050757144,-0.038254555,4000,4000,0,0,0,1
106612000,106612000,1310988,1310988,-0.0020314571,-0.00097259163,-0.0021965755,-0.00071826053,0.0005554555,-0.039513916,4000,4000,0,0,0,1
107112000,107112000,1310988,1310988,-0.0016991084,-0.00030360225,-0.0039862148,-0.0018483237,0.0011683714,-0.040064577,4000,4000,0,0,0,1
107612000,107612000,1310988,1310988,-2.134485e-06,-0.0002535306,-0.0032554488,-0.0035386304,0.0019680345,-0.03984909,4000,4000,0,0,0,1
108112000,108112000,1310988,1310988,0.00029614996,0.00010119678,-0.0029965888,-0.005717354,0.0010678149,-0.039006334,4000,4000,0,0,0,1
108612000,108612000,1310988,1310988,0.00024927498,0.0012218565,0.00032384577,-0.007216125,-0.00034476444,-0.037866697,4000,4000,0,0,0,1
109112000,109112000,1310988,1310988,0.00012037593,-0.00048682533,0.000534763,-0.0076375045,-6.224857e-05,-0.038857896,4000,4000,0,0,0,1
109612000,109612000,1310988,1310988,-8.3090585e-05,-0.00011185272,8.3090774e-05,-0.0076806,8.140354e-05,-0.03861848,4000,4000,0,0,0,1
110112000,110112000,1310988,1310988,-2.3435827e-05,-1.4913696e-05,-3.4755287e-12,-0.007738061,0.00010534555,-0.03844609,4000,4000,0,0,0,1
110612000,110612000,1310988,1310988,-9.587359e-06,2.1305303e-05,1.8109497e-05,-0.007776368,0.00022505566,-0.038575385,4000,4000,0,0,0,1
111112000,111112000,1310988,1310988,-2.0240033e-05,2.0240015e-05,3.5325491e-13,-0.007838617,0.00021069043,-0.038450878,4000,4000,0,0,0,1
111612000,111612000,1310988,1310988,2.982745e-05,-4.6871617e-05,-3.1957964e-06,-0.0077093304,0.00033518896,-0.038637627,4000,4000,0,0,0,1
112112000,112112000,1310988,1310988,2.450111e-05,-4.687163e-05,-3.1957552e-06,-0.0076758116,0.00035434257,-0.0385275,4000,4000,0,0,0,1
112612000,112612000,1310988,1310988,-7.45684e-06,-1.7044244e-05,-1.2783168e-05,-0.007594409,0.00028730492,-0.03858017,4000,4000,0,0,0,1
113112000,113112000,1310988,1310988,-1.0652547e-06,-1.7044234e-05,-2.130532e-06,-0.007819464,0.0004932062,-0.03828329,4000,4000,0,0,0,1
113612000,113612000,1310988,1310988,-6.391603e-06,-2.8762139e-05,1.0652506e-06,-0.00794875,0.00035913094,-0.038369477,4000,4000,0,0,0,1
114112000,114112000,1310988,1310988,-2.5532744e-12,-3.1957943e-06,1.0652634e-06,-0.0076710233,0.00050757144,-0.038417365,4000,4000,0,0,0,1
114612000,114612000,1310988,1310988,-1.2783177e-05,5.3263184e-06,6.334299e-12,-0.007867347,0.00034955415,-0.038288075,4000,4000,0,0,0,1
115112000,115112000,1310988,1310988,6.3915804e-06,-3.834952e-05,2.1305345e-06,-0.007862559,0.00035434257,-0.0384413,4000,4000,0,0,0,1
115612000,115612000,1310988,1310988,0.00022690081,0.0014370419,-9.586637e-06,-0.007618351,0.00024899768,-0.039135627,4000,4000,0,0,0,1
116112000,116112000,1310988,1310988,-3.3023218e-05,0.00022796662,-1.06527e-05,-0.006555325,0.00031603532,-0.039039854,4000,4000,0,0,0,1
116612000,116612000,1310988,1310988,-4.47412e-05,0.00015659387,2.130689e-06,-0.0054970877,0.00024899768,-0.039054215,4000,4000,0,0,0,1
117112000,117112000,1310988,1310988,-6.285061e-05,9.800433e-05,-3.1957748e-06,-0.004520253,0.00044053383,-0.039102107,4000,4000,0,0,0,1
117612000,117612000,1310988,1310988,6.391579e-06,-3.3023207e-05,-1.7125367e-11,-0.003591303,0.0005315135,-0.03904464,4000,4000,0,0,0,1
118112000,118112000,1310988,1310988,-0.0002162485,-4.4741384e-05,-0.00032597105,-0.0029161382,0.0004836295,-0.039964013,4000,4000,0,0,0,1
118612000,118612000,1310988,1310988,0.00016724983,0.0001576641,-0.004185424,-0.0019297268,8.140336e-05,-0.028926747,4000,4000,0,0,0,1
119112000,119112000,1310988,1310988,-0.00015340596,2.9827323e-05,-0.0032969934,-0.0007517794,0.00015322959,-0.037876274,4000,4000,0,0,0,1
119612000,119612000,1310988,1310988,-0.00018002577,0.00023436733,-0.003210707,-0.00069431856,0.0005554555,-0.039092526,4000,4000,0,0,0,1
120112000,120112000,1310988,1310988,0.0001938801,-6.391058e-06,-0.0031595747,-0.0008523358,0.0005171483,-0.03861848,4000,4000,0,0,0,1
120612000,120612000,1310988,1310988,0.00021305548,1.2781715e-05,-0.002827212,-0.0007852982,0.0006224931,-0.039020706,4000,4000,0,0,0,1
121112000,121112000,1310988,1310988,-0.0001406155,-3.0893054e-05,0.0010641991,-0.0005315129,0.00051235984,-0.038757347,4000,4000,0,0,0,1
121612000,121612000,1310988,1310988,2.0239955e-05,-2.1305255e-05,0.00031638355,-0.0006799534,0.00032082372,-0.03909732,4000,4000,0,0,0,1
122112000,122112000,1310988,1310988,-2.663163e-05,-6.1785344e-05,2.1305255e-05,-0.00051714765,0.0003782846,-0.0391883,4000,4000,0,0,0,1
122612000,122612000,1310988,1310988,4.3675827e-05,-5.3263237e-05,9.587399e-06,-0.00072783744,0.00028730492,-0.038939297,4000,4000,0,0,0,1
123112000,123112000,1310988,1310988,-2.4501072e-05,-8.309064e-05,7.456792e-06,-0.00060333894,0.00029209335,-0.038991973,4000,4000,0,0,0,1
123612000,123612000,1310988,1310988,-2.2370552e-05,-2.7696879e-05,3.1958057e-06,-0.00060333894,0.00030167014,-0.03892972,4000,4000,0,0,0,1
124112000,124112000,1310988,1310988,-2.9827408e-05,4.2610445e-06,9.5873875e-06,-0.000675165,0.00018674844,-0.039020706,4000,4000,0,0,0,1
124612000,124612000,1310988,1310988,-1.0652655e-05,-3.8349517e-05,-1.5610707e-11,-0.00070868374,0.00030645856,-0.03911647,4000,4000,0,0,0,1
125112000,125112000,1310988,1310988,1.4913702e-05,-2.1305292e-05,1.1717908e-05,-0.00070389535,0.00024899768,-0.039226606,4000,4000,0,0,0,1
125612000,125612000,1310988,1310988,-1.2783179e-05,7.4568466e-06,6.3915872e-06,-0.00070389535,0.00029209335,-0.038996764,4000,4000,0,0,0,1
126112000,126112000,1310988,1310988,-3.1957934e-06,-7.937105e-13,2.1305302e-06,-0.00065601134,0.00034476578,-0.03903028,4000,4000,0,0,0,1
126612000,126612000,1310988,1310988,-1.278317e-05,-1.1717912e-05,-5.326333e-06,-0.00064643443,0.0002633629,-0.039092522,4000,4000,0,0,0,1
127112000,127112000,1310988,1310988,2.5566356e-05,-1.2783176e-05,-7.456833e-06,-0.00072304904,0.00042138022,-0.03925055,4000,4000,0,0,0,1
127612000,127612000,1310988,1310988,1.49137195e-05,-1.8109482e-05,-1.3848443e-05,-0.00062249246,0.00031124693,-0.039011125,4000,4000,0,0,0,1
128112000,128112000,1310988,1310988,-1.4913709e-05,1.0652612e-06,5.3263116e-06,-0.00062249246,0.0002729397,-0.039274484,4000,4000,0,0,0,1
128612000,128612000,1310988,1310988,2.556637e-05,-4.1545303e-05,4.2610354e-06,-0.00046926358,0.00019632524,-0.039063804,4000,4000,0,0,0,1
129112000,129112000,1310988,1310988,-2.6631638e-05,-1.8109475e-05,6.3915554e-06,-0.00061770406,0.00030645856,-0.039207447,4000,4000,0,0,0,1
129612000,129612000,1310988,1310988,-2.0240033e-05,-2.5566342e-05,5.3263225e-06,-0.0005746084,0.00018674844,-0.03890099,4000,4000,0,0,0,1
130112000,130112000,1310988,1310988,1.0652648e-05,-2.3435816e-05,-8.522129e-06,-0.0006512228,0.00045011065,-0.0391452,4000,4000,0,0,0,1
130612000,130612000,1310988,1310988,-3.7284255e-05,-3.6218997e-05,4.261051e-06,-0.00059855054,0.0003256122,-0.04378038,4000,4000,0,0,0,1
131112000,131112000,1310988,1310988,-8.522118e-06,-1.4913702e-05,-4.261065e-06,-0.00077093294,0.00031603535,-0.04129519,4000,4000,0,0,0,1
131612000,131612000,1310988,1310988,-2.4501087e-05,-3.515373e-05,3.1957704e-06,-0.0006943185,0.0005171484,-0.04066313,4000,4000,0,0,0,1
132112000,132112000,1310988,1310988,-4.9002145e-05,-2.2370608e-05,-1.0652653e-05,-0.0006129157,0.00041659188,-0.04048117,4000,4000,0,0,0,1
132612000,132612000,1310988,1310988,1.81095e-05,8.434942e-12,-1.0652726e-06,-0.00069910695,0.0004548989,-0.031976964,4000,4000,0,0,0,1
133112000,133112000,1310988,1310988,-1.7044204e-05,-3.621901e-05,3.1958089e-06,-0.00093852717,0.00048841786,-0.038905777,4000,4000,0,0,0,1
133612000,133612000,1310988,1310988,5.5393746e-05,-8.522168e-06,-6.3915986e-06,-0.00077572133,0.0005698208,-0.039829947,4000,4000,0,0,0,1
134112000,134112000,1310988,1310988,3.1957966e-06,-2.876214e-05,4.261066e-06,-0.0007852981,0.0005698208,-0.03968629,4000,4000,0,0,0,1
134612000,134612000,1310988,1310988,1.4913708e-05,-3.195789e-06,3.1957825e-06,-0.0008906431,0.0005602439,-0.039815575,4000,4000,0,0,0,1
135112000,135112000,1310988,1310988,8.522119e-06,-6.391592e-06,-4.2610473e-06,-0.00062728085,0.00043574543,-0.039595313,4000,4000,0,0,0,1
135612000,135612000,1310988,1310988,-3.4088465e-05,-4.1545318e-05,3.195771e-06,-0.00067995343,0.00044532225,-0.039580945,4000,4000,0,0,0,1
136112000,136112000,1310988,1310988,-4.687163e-05,-1.8109524e-05,-5.326347e-06,-0.0008092403,0.00063206995,-0.03978685,4000,4000,0,0,0,1
136612000,136612000,1310988,1310988,4.2610583e-05,-7.456855e-06,-8.522087e-06,-0.0007805097,0.00053151353,-0.03964798,4000,4000,0,0,0,1
137112000,137112000,1310988,1310988,-2.2370565e-05,1.3848428e-05,-7.4568434e-06,-0.000675165,0.00059855124,-0.039379835,4000,4000,0,0,0,1
137612000,137612000,1310988,1310988,5.049809e-11,-7.350325e-05,-3.195782e-06,-0.00064164604,0.00058418605,-0.039475597,4000,4000,0,0,0,1
138112000,138112000,1310988,1310988,6.391566e-06,-1.917477e-05,1.27831745e-05,-0.00064164604,0.000679954,-0.03866636,4000,4000,0,0,0,1
138612000,138612000,1310988,1310988,2.1305232e-06,-2.3435818e-05,5.3263343e-06,-0.00067995343,0.0005746091,-0.03904943,4000,4000,0,0,0,1
139112000,139112000,1310988,1310988,1.9174766e-05,-1.7044227e-05,1.0652691e-06,-0.00071826053,0.00054109027,-0.03887705,4000,4000,0,0,0,1
139612000,139612000,1310988,1310988,1.1717895e-05,-4.0480052e-05,2.1305414e-06,-0.0007996635,0.0005171483,-0.038833957,4000,4000,0,0,0,1
140112000,140112000,1310988,1310988,-1.5978965e-05,-1.1717916e-05,-1.0652512e-06,-0.00072783744,0.00055545545,-0.039001547,4000,4000,0,0,0,1
140612000,140612000,1310988,1310988,6.0720082e-05,8.52211e-06,-6.3915563e-06,-0.0007805097,0.0005985512,-0.038987186,4000,4000,0,0,0,1
141112000,141112000,1310988,1310988,-9.587379e-06,-5.326322e-06,2.1305334e-06,-0.0008331823,0.0004836295,-0.038939297,4000,4000,0,0,0,1
141612000,141612000,1310988,1310988,-1.7044233e-05,-3.0892665e-05,-9.587405e-06,-0.00070389535,0.00037349618,-0.038987186,4000,4000,0,0,0,1
142112000,142112000,1310988,1310988,1.0652632e-06,-3.1957943e-06,2.1305293e-06,-0.0007565678,0.00044532225,-0.03904464,4000,4000,0,0,0,1
142612000,142612000,1310988,1310988,2.1305293e-06,-5.326322e-06,-2.1305302e-06,-0.00076614454,0.00048841786,-0.038944084,4000,4000,0,0,0,1
143112000,143112000,1310988,1310988,-2.130519e-06,1.3848437e-05,6.3915927e-06,-0.00076614454,0.000407015,-0.03888663,4000,4000,0,0,0,1
143612000,143612000,1310988,1310988,-7.4568584e-06,-2.9827406e-05,4.2610554e-06,-0.00083797064,0.00043574543,-0.038738184,4000,4000,0,0,0,1
144112000,144112000,1310988,1310988,-4.2610395e-06,-3.6219004e-05,-4.261056e-06,-0.000746991,0.00041180346,-0.038833957,4000,4000,0,0,0,1
144612000,144612000,1310988,1310988,-3.728426e-05,7.4568525e-06,-3.195769e-06,-0.00077093294,0.0004022266,-0.03893451,4000,4000,0,0,0,1
145112000,145112000,1310988,1310988,-1.7044233e-05,2.130523e-06,-4.261068e-06,-0.0007805097,0.00051235984,-0.03908774,4000,4000,0,0,0,1
145612000,145612000,1310988,1310988,3.195794e-06,-9.587379e-06,1.0652712e-06,-0.00081881706,0.00053151353,-0.039025493,4000,4000,0,0,0,1
146112000,146112000,1310988,1310988,-4.261063e-06,-1.3848439e-05,1.0652642e-05,-0.0007422026,0.00055545545,-0.03904464,4000,4000,0,0,0,1
146612000,146612000,1310988,1310988,-2.1305257e-06,-1.2783176e-05,-1.0652606e-06,-0.0007948751,0.0006320699,-0.03892972,4000,4000,0,0,0,1
147112000,147112000,1310988,1310988,-2.1305223e-06,-2.556635e-05,-2.5266625e-12,-0.0006655882,0.00053151353,-0.039173935,4000,4000,0,0,0,1
147612000,147612000,1310988,1310988,-4.2610563e-06,-1.5978969e-05,-1.0652672e-06,-0.0007805098,0.00054109027,-0.039063804,4000,4000,0,0,0,1
148112000,148112000,1310988,1310988,-2.1305252e-06,-6.39159e-06,4.2610577e-06,-0.00071347214,0.000584186,-0.039226606,4000,4000,0,0,0,1
148612000,148612000,1310988,1310988,-5.3263234e-06,-7.4568534e-06,3.1957893e-06,1.18936305e-05,9.70873e-05,-0.039281867,4000,4000,0,0,1,1
149112000,149112000,1310988,1310988,1.0652612e-06,-2.1305292e-05,-5.32632e-06,-9.823961e-05,6.83569e-05,-0.039324965,4000,4000,0,0,1,1
