timestamp,timestamp_sample,time_last_fuse,device_id,observation[0],observation[1],observation_variance[0],observation_variance[1],innovation[0],innovation[1],innovation_variance[0],innovation_variance[1],test_ratio[0],test_ratio[1],estimator_instance,fusion_enabled,innovation_rejected,fused
3596000,3473268,0,0,0.0,0.0,1.0,1.0,0.00017792135,7.538726e-06,103.26622,103.26622,1.2261902e-11,2.2013932e-14,0,1,0,0
3996000,3873557,0,0,0.0,0.0,1.0,1.0,-0.00026085466,-0.0003484948,1.1253229,1.1253223,2.4186888e-09,4.316936e-09,0,1,0,0
4396000,4273732,0,0,0.0,0.0,1.0,1.0,-5.5033393e-05,4.220438e-05,1.0001378,1.0001378,1.2113029e-10,7.123858e-11,0,1,0,0
4788000,4673837,0,0,0.0,0.0075268387,1.0,1.0,9.4564784e-05,-0.0072155707,1.0002396,1.0002396,3.5761424e-10,2.0820794e-06,0,1,0,0
5188000,5073901,0,0,0.0,0.0075268387,1.0,1.0,8.4811596e-05,-0.0074704047,1.0002173,1.0002173,2.8765776e-10,2.231793e-06,0,1,0,0
5596000,5473941,0,0,0.0,0.0075268387,1.0,1.0,-0.00028825706,-0.007495346,1.0001687,1.0001687,3.3231247e-09,2.2468294e-06,0,1,0,0
5988000,5873964,0,0,0.0,0.0075268387,1.0,1.0,-0.0002309708,-0.007546239,1.0001234,1.0001234,2.1336373e-09,2.277548e-06,0,1,0,0
6396000,6273979,0,0,0.0,0.0075268387,1.0,1.0,-4.5684146e-08,-0.007548402,1.0001038,1.0001038,8.347298e-17,2.2788984e-06,0,1,0,0
6796000,6673987,0,0,0.0,0.0075268387,1.0,1.0,-1.6619904e-05,-0.007883093,1.0000875,1.0000875,1.1047881e-11,2.485509e-06,0,1,0,0
7196000,7073993,0,0,0.0,0.0075268387,1.0,1.0,-0.00028669115,-0.0077708717,1.0000764,1.0000764,3.2874214e-09,2.4152732e-06,0,1,0,0
7596000,7473996,0,0,0.0,0.0075268387,1.0,1.0,-0.00056771486,-0.0075260024,1.0000682,1.0000682,1.2891127e-08,2.265474e-06,0,1,0,0
7988000,7873998,0,0,0.0,0.0075268387,1.0,1.0,-0.0008290029,-0.007237475,1.000166,1.000166,2.7485264e-08,2.0948937e-06,0,1,0,0
8396000,8273999,0,0,0.0,0.0075268387,1.0,1.0,-0.00011233263,-0.0076375497,1.0001532,1.0001532,5.046675e-10,2.3329292e-06,0,1,0,0
8788000,8673999,8708000,0,0.0,0.0075268387,1.0,1.0,5.83896e-05,-0.0077539906,1.0001326,1.0001326,1.3635573e-10,2.404656e-06,0,1,0,0
9196000,9074000,9116000,0,0.0,0.0075268387,1.0,1.0,-0.008641157,0.0005040611,2.0150225,2.0150225,1.4822584e-06,5.0436677e-09,0,1,0,1
9588000,9474000,9508000,0,0.0,0.0075268387,1.0,1.0,-0.004517496,0.00080461195,1.5179336,1.5179336,5.377777e-07,1.7060044e-08,0,1,0,1
9996000,9874000,9916000,0,0.0,0.0075268387,1.0,1.0,-0.0043909196,-0.00521196,1.3543253,1.3543253,5.6944e-07,8.023044e-07,0,1,0,1
10396000,10274000,10316000,0,0.0,0.015053677,1.0,1.0,-0.010425384,-0.008167267,1.2739846,1.2739846,3.4125574e-06,2.0943503e-06,0,1,0,1
10788000,10674000,10708000,0,0.0,0.0075268387,1.0,1.0,-0.003325543,0.0045683137,1.2270004,1.2270004,3.6052916e-07,6.803418e-07,0,1,0,1
11188000,11074000,11108000,0,0.0,0.0075268387,1.0,1.0,-0.0027519604,0.005126869,1.1974887,1.1974887,2.5297228e-07,8.7799697e-07,0,1,0,1
11596000,11474000,11516000,0,0.0,0.0075268387,1.0,1.0,0.0011350089,-0.0010779295,1.1782581,1.1782581,4.3733888e-08,3.9445755e-08,0,1,0,1
11996000,11874000,11916000,0,-0.011119492,0.0075268387,1.0,1.0,0.016320819,-0.00082864054,1.16485,1.1648501,9.146899e-06,2.3578833e-08,0,1,0,1
12396000,12274000,12316000,0,0.0,0.0075268387,1.0,1.0,0.0036124531,-0.00096991844,1.1556755,1.1556756,4.5167755e-07,3.2560756e-08,0,1,0,1
12796000,12674000,12716000,0,0.0,0.0075268387,1.0,1.0,0.003998955,-0.0007847878,1.149407,1.1494073,5.565179e-07,2.1433374e-08,0,1,0,1
13188000,13074000,13108000,0,0.0,0.0075268387,1.0,1.0,-0.0007433548,0.0031258133,1.1445985,1.1445987,1.9310749e-08,3.414545e-07,0,1,0,1
13588000,13474000,13508000,0,0.0,0.0075268387,1.0,1.0,0.003109697,0.0030927663,1.1417478,1.141748,3.3878638e-07,3.3510733e-07,0,1,0,1
13996000,13874000,13916000,0,0.0,0.015053677,1.0,1.0,-0.009385903,-0.0039398912,1.1403637,1.1403638,3.0900733e-06,5.4448384e-07,0,1,0,1
14396000,14274000,14316000,0,0.0,0.0,1.0,1.0,-0.012143488,0.011577488,1.1388783,1.1388783,5.179282e-06,4.707728e-06,0,1,0,1
14796000,14674000,14716000,0,0.0,0.0075268387,1.0,1.0,-0.0065616593,0.0031076032,1.137781,1.1377811,1.5136612e-06,3.3950985e-07,0,1,0,1
15196000,15074000,15116000,0,0.0,0.0075268387,1.0,1.0,-0.0015175606,-0.0009858035,1.1369426,1.1369426,8.102397e-08,3.4190244e-08,0,1,0,1
15596000,15474000,15516000,0,0.0,0.0075268387,1.0,1.0,0.007234033,-0.0007908982,1.1362755,1.1362755,1.8422023e-06,2.202001e-08,0,1,0,1
15996000,15874000,15916000,0,0.0,0.0,1.0,1.0,0.0022597606,0.0029672484,1.1357266,1.1357266,1.7985026e-07,3.100945e-07,0,1,0,1
16396000,16274000,16316000,0,0.0,0.0,1.0,1.0,0.0025935294,0.0031871523,1.1352596,1.1352596,2.3699936e-07,3.579072e-07,0,1,0,1
16796000,16674000,16716000,0,0.0,0.0075268387,1.0,1.0,0.003075599,-0.00028720684,1.1348481,1.1348481,3.3341234e-07,2.9074472e-09,0,1,0,1
17188000,17074000,17108000,0,0.0,0.0075268387,1.0,1.0,0.003170184,-0.00040726364,1.1338837,1.1338838,3.5453607e-07,5.8511698e-09,0,1,0,1
17596000,17474000,17516000,0,0.0,0.0075268387,1.0,1.0,0.0037280433,-0.0003531687,1.1342356,1.1342357,4.901383e-07,4.3986668e-09,0,1,0,1
17996000,17874000,17916000,0,0.0,0.0075268387,1.0,1.0,0.003245103,-0.00033731153,1.133893,1.1338931,3.7148808e-07,4.0137493e-09,0,1,0,1
18388000,18274000,18308000,0,0.0,0.0075268387,1.0,1.0,-0.00057008327,-0.0038519818,1.1329911,1.1329912,1.1473874e-08,5.2384394e-07,0,1,0,1
18796000,18674000,18716000,0,0.0,0.0,1.0,1.0,0.0009403482,0.004869418,1.1333493,1.1333495,3.120855e-08,8.368551e-07,0,1,0,1
19196000,19074000,19116000,0,0.0,0.0075268387,1.0,1.0,0.002193381,-0.0028526718,1.1330276,1.1330278,1.6984302e-07,2.8729167e-07,0,1,0,1
19596000,19474000,19516000,0,0.0,0.0075268387,1.0,1.0,-0.0011895125,-0.002357842,1.1327165,1.1327169,4.9966257e-08,1.9632157e-07,0,1,0,1
19988000,19874000,19908000,0,0.0,0.0075268387,1.0,1.0,0.007737,-0.0017562024,1.1318647,1.1318649,2.1154885e-06,1.08997e-07,0,1,0,1
20396000,20274000,20316000,0,0.0,0.0075268387,1.0,1.0,0.01602002,-0.00091858674,1.1322151,1.1322154,9.066866e-06,2.981064e-08,0,1,0,1
20796000,20674000,20716000,0,0.0,0.0075268387,1.0,1.0,0.011195753,-0.0012042732,1.1319176,1.131918,4.4294707e-06,5.125014e-08,0,1,0,1
21196000,21074000,21116000,0,0.0,0.0075268387,1.0,1.0,0.014451477,-0.005915728,1.1316311,1.1316314,7.3820934e-06,1.2370048e-06,0,1,0,1
21588000,21474000,21508000,0,0.0,0.0075268387,1.0,1.0,0.0132189,-0.006449186,1.1308253,1.1308255,6.1809487e-06,1.4712083e-06,0,1,0,1
21988000,21874000,21908000,0,0.0,0.015053677,1.0,1.0,0.008936814,-0.014237767,1.1306528,1.1306531,2.8255056e-06,7.171572e-06,0,1,0,1
22388000,22274000,22308000,0,0.0,0.0075268387,1.0,1.0,0.008462909,-0.0071123713,1.1304786,1.130479,2.5341772e-06,1.78989e-06,0,1,0,1
22796000,22674000,22716000,0,0.0,0.0075268387,1.0,1.0,0.007998805,-0.008538625,1.1308262,1.1308267,2.2631548e-06,2.5789318e-06,0,1,0,1
23196000,23074000,23116000,0,0.0,0.0075268387,1.0,1.0,0.008043702,-0.0013554818,1.1305679,1.1305683,2.2891554e-06,6.500557e-08,0,1,0,1
23596000,23474000,23516000,0,0.0,0.0,1.0,1.0,0.015170507,0.009382569,1.130327,1.1303275,8.144344e-06,3.1152956e-06,0,1,0,1
23996000,23874000,23916000,0,0.0,0.0,1.0,1.0,0.017678818,0.011233594,1.130103,1.1301033,1.1062376e-05,4.466623e-06,0,1,0,1
24396000,24274000,24316000,0,0.0,0.0075268387,1.0,1.0,0.020040832,0.008729309,1.129895,1.1298954,1.4218488e-05,2.6976243e-06,0,1,0,1
24788000,24674000,24708000,0,0.0,0.0075268387,1.0,1.0,0.015194959,0.0025756168,1.1291959,1.1291963,8.178803e-06,2.3499199e-07,0,1,0,1
25196000,25074000,25116000,0,0.0,0.0075268387,1.0,1.0,0.014426973,-0.002991255,1.1296046,1.129605,7.37028e-06,3.1684016e-07,0,1,0,1
25596000,25474000,25516000,0,0.0,0.0075268387,1.0,1.0,0.013198491,-0.008041093,1.1294296,1.12943,6.1694923e-06,2.2899756e-06,0,1,0,1
25988000,25874000,25908000,0,0.0,0.0075268387,1.0,1.0,0.011726391,-0.0054817023,1.1287677,1.1287684,4.872862e-06,1.064844e-06,0,1,0,1
26396000,26274000,26316000,0,0.0,0.0075268387,1.0,1.0,0.009838807,-0.010843687,1.1292001,1.1292008,3.4290515e-06,4.165266e-06,0,1,0,1
26796000,26674000,26716000,0,0.0,0.0075268387,1.0,1.0,0.015633315,-0.0122417025,1.1290543,1.1290553,8.658592e-06,5.309192e-06,0,1,0,1
27196000,27074000,27116000,0,0.0,0.0075268387,1.0,1.0,0.0127894655,-0.006508314,1.1289206,1.1289217,5.7956395e-06,1.5008358e-06,0,1,0,1
27588000,27474000,27508000,0,0.0,0.0075268387,1.0,1.0,0.009820413,-0.008252023,1.1283023,1.1283036,3.41896e-06,2.4140975e-06,0,1,0,1
27996000,27874000,27916000,0,0.011119493,0.0,1.0,1.0,-0.0046362174,0.0004945169,1.1287634,1.128765,7.6170124e-07,8.666002e-09,0,1,0,1
28388000,28274000,28308000,0,0.0,0.0075268387,1.0,1.0,0.005203379,-0.00268061,1.1281565,1.1281585,9.599786e-07,2.5477522e-07,0,1,0,1
28796000,28674000,28716000,0,0.0,0.0075268387,1.0,1.0,-0.0009566514,-0.009526384,1.1286252,1.1286273,3.243528e-08,3.216367e-06,0,1,0,1
29188000,29074000,29108000,0,0.0,0.0075268387,1.0,1.0,0.00072435086,-0.011746265,1.1280283,1.1280307,1.8605354e-08,4.8925885e-06,0,1,0,1
29588000,29474000,29508000,0,0.0,0.0075268387,1.0,1.0,-0.0013826302,-0.013722325,1.1280109,1.1280135,6.778893e-08,6.677303e-06,0,1,0,1
29996000,29874000,29916000,0,0.0,0.0075268387,1.0,1.0,-0.010226721,-0.016095472,1.1284837,1.1284864,3.7071277e-06,9.182715e-06,0,1,0,1
30396000,30274000,30316000,0,-0.011119492,0.0,1.0,1.0,0.00055409316,-0.010928377,1.1283867,1.1283895,1.08834755e-08,4.2336237e-06,0,1,0,1
30788000,30670000,30708000,0,0.0,0.0075268387,1.0,1.0,-0.01086288,-0.013436655,1.1278085,1.127811,4.185185e-06,6.4033316e-06,0,1,0,1
31188000,31074000,31108000,0,0.0,0.0075268387,1.0,1.0,-0.0137913525,-0.018840618,1.127804,1.1278064,6.7459027e-06,1.2589711e-05,0,1,0,1
31596000,31474000,31516000,0,0.0,0.0075268387,1.0,1.0,-0.012528609,-0.017246183,1.1282866,1.1282889,5.564758e-06,1.05444915e-05,0,1,0,1
31996000,31874000,31916000,0,0.0,0.0075268387,1.0,1.0,-0.010786525,-0.022442989,1.1282017,1.1282036,4.1251174e-06,1.7858045e-05,0,1,0,1
32396000,32274000,32316000,0,0.0,0.0075268387,1.0,1.0,-0.008728879,-0.019960951,1.1281246,1.128126,2.7015922e-06,1.4127484e-05,0,1,0,1
32796000,32674000,32716000,0,-0.011119492,0.0075268387,1.0,1.0,0.01581872,-0.02078345,1.1280544,1.1280552,8.873045e-06,1.5316691e-05,0,1,0,1
33196000,33074000,33116000,0,0.0,0.0075268387,1.0,1.0,0.0047681145,-0.02511049,1.1279906,1.1279911,8.062094e-07,2.2359636e-05,0,1,0,1
33596000,33474000,33516000,0,0.0,0.015053677,1.0,1.0,0.009834183,-0.033614356,1.1279334,1.1279334,3.4296766e-06,4.0070627e-05,0,1,0,1
33996000,33874000,33916000,0,0.0,0.0075268387,1.0,1.0,0.007649358,-0.028777573,1.1278818,1.1278814,2.0751352e-06,2.9370065e-05,0,1,0,1
34396000,34274000,34316000,0,0.0,0.0075268387,1.0,1.0,0.009352591,-0.036055204,1.127835,1.1278344,3.1022607e-06,4.6105262e-05,0,1,0,1
34796000,34674000,34716000,0,0.0,0.0075268387,1.0,1.0,0.014544029,-0.036227092,1.1277936,1.1277925,7.5023936e-06,4.6547648e-05,0,1,0,1
35196000,35074000,35116000,0,0.0,0.0075268387,1.0,1.0,0.0049938457,-0.036041845,1.1277727,1.1277716,8.845221e-07,4.6073674e-05,0,1,0,1
35588000,35474000,35508000,0,-0.07783645,0.0,1.0,1.0,0.020532705,-0.041703478,1.1273042,1.1273063,1.4959297e-05,6.1711e-05,0,1,0,1
35996000,35874000,35916000,0,-0.18903138,-0.015053678,1.0,1.0,0.028869107,-0.047635023,1.1279349,1.1279367,2.9555797e-05,8.046889e-05,0,1,0,1
36388000,36274000,36308000,0,-0.26686782,-0.030107357,1.0,1.0,0.04395932,-0.033819772,1.1274713,1.1274717,6.855773e-05,4.0578474e-05,0,1,0,1
36788000,36674000,36708000,0,-0.28910682,-0.037634194,1.0,1.0,0.030603528,-0.033106573,1.1275631,1.127562,3.322478e-05,3.8881946e-05,0,1,0,1
37188000,37074000,37108000,0,-0.28910682,-0.037634194,1.0,1.0,0.03905207,-0.035713777,1.1276369,1.1276346,5.40977e-05,4.5244222e-05,0,1,0,1
37588000,37474000,37508000,0,-0.24462883,-0.022580517,1.0,1.0,0.022998571,-0.04584662,1.1272948,1.1272931,1.8768269e-05,7.458264e-05,0,1,0,1
37996000,37874000,37916000,0,-0.20015086,-0.015053678,1.0,1.0,0.030031994,-0.044518624,1.12824,1.1282412,3.19762e-05,7.026539e-05,0,1,0,1
38396000,38274000,38316000,0,-0.1556729,0.0,1.0,1.0,0.032338284,-0.03432136,1.1300313,1.1300342,3.701719e-05,4.1696287e-05,0,1,0,1
38796000,38674000,38716000,0,-0.10007543,0.0,1.0,1.0,-0.0012400299,-0.025988132,1.131999,1.1320022,5.4334826e-08,2.3865075e-05,0,1,0,1
39196000,39074000,39116000,0,-0.07783645,0.0075268387,1.0,1.0,0.0067948475,-0.033513896,1.1333457,1.1333485,1.6295099e-06,3.964116e-05,0,1,0,1
39596000,39474000,39516000,0,-0.033358477,0.0,1.0,1.0,0.0012024455,-0.026749372,1.1341175,1.1341196,5.0995602e-08,2.5236452e-05,0,1,0,1
39996000,39874000,39916000,0,-0.011119492,-0.0075268387,1.0,1.0,-0.0039467597,-0.015493302,1.1345171,1.1345187,5.4919974e-07,8.463233e-06,0,1,0,1
40396000,40274000,40316000,0,0.011119493,-0.015053677,1.0,1.0,-0.0042299675,-0.015473661,1.1346864,1.1346877,6.307514e-07,8.440532e-06,0,1,0,1
40788000,40674000,40708000,0,0.011119493,-0.022580516,1.0,1.0,-0.0004549846,-0.013724308,1.134028,1.1340289,7.3017947e-09,6.6438038e-06,0,1,0,1
41196000,41074000,41116000,0,0.011119493,-0.030107355,1.0,1.0,0.0054574953,-0.016515324,1.1347378,1.1347386,1.049908e-06,9.614758e-06,0,1,0,1
41588000,41474000,41508000,0,0.011119493,-0.030107355,1.0,1.0,0.007314182,-0.011563575,1.1339004,1.1339008,1.8871942e-06,4.717036e-06,0,1,0,1
41988000,41874000,41908000,0,0.0,-0.030107355,1.0,1.0,0.015535934,-0.005952196,1.1337326,1.1337329,8.5157735e-06,1.2499818e-06,0,1,0,1
42388000,42274000,42308000,0,0.0,-0.030107355,1.0,1.0,0.013165688,-0.0008684527,1.1335025,1.1335027,6.116805e-06,2.6615202e-08,0,1,0,1
42796000,42674000,42716000,0,0.0,-0.022580516,1.0,1.0,0.011025502,-0.008950785,1.1337986,1.1337988,4.2886522e-06,2.8264822e-06,0,1,0,1
43188000,43074000,43108000,0,0.0,-0.030107355,1.0,1.0,-0.0027711932,-0.00015938282,1.1327747,1.1327748,2.7117522e-07,8.970144e-10,0,1,0,1
43588000,43474000,43508000,0,0.03335848,0.0075268387,1.0,1.0,0.00055423006,-0.0076775914,1.1323955,1.132395,1.0850306e-08,2.08215e-06,0,1,0,1
43988000,43874000,43908000,0,0.27798733,0.13548309,1.0,1.0,-0.003030777,-0.006882876,1.1320004,1.1320069,3.245797e-07,1.6739822e-06,0,1,0,1
44396000,44274000,44316000,0,0.9340374,0.3387077,1.0,1.0,0.01669693,0.026421636,1.132321,1.1323423,9.848354e-06,2.4660487e-05,0,1,0,1
44796000,44674000,44716000,0,2.0793452,0.6473079,1.0,1.0,-0.028578997,0.041625082,1.132387,1.1323946,2.8850882e-05,6.120296e-05,0,1,0,1
45196000,45074000,45116000,0,3.5693572,1.0612836,1.0,1.0,-0.020484924,0.06715512,1.1328402,1.1328053,1.4816994e-05,0.00015924397,0,1,0,1
45596000,45474000,45516000,0,5.315118,1.6483762,1.0,1.0,-0.052153587,0.05820048,1.1333048,1.1332096,9.60023e-05,0.00011956466,0,1,0,1
45996000,45874000,45916000,0,7.049759,2.3333173,1.0,1.0,-0.052057743,0.04961133,1.1335515,1.1334497,9.562895e-05,8.685993e-05,0,1,0,1
46396000,46274000,46316000,0,8.728803,3.0634189,1.0,1.0,-0.044786453,0.045431376,1.1337043,1.1336405,7.077071e-05,7.282767e-05,0,1,0,1
46796000,46678000,46716000,0,10.407846,3.8537345,1.0,1.0,-0.0541687,0.017995596,1.1337702,1.1337614,0.000103521794,1.1425383e-05,0,1,0,1
47188000,47074000,47108000,0,12.053532,4.6591034,1.0,1.0,-0.07297993,-0.0150027275,1.1331232,1.1331669,0.0001880138,7.945232e-06,0,1,0,1
47588000,47474000,47508000,0,13.721457,5.4795256,1.0,1.0,-0.07292175,-0.015022278,1.1331568,1.1332538,0.0001877086,7.965341e-06,0,1,0,1
47996000,47874000,47916000,0,15.389381,6.284894,1.0,1.0,-0.01646614,0.0031528473,1.1337198,1.1338718,9.566166e-06,3.5067268e-07,0,1,0,1
48396000,48274000,48316000,0,17.101784,7.0827346,1.0,1.0,-0.031845093,-0.0010585785,1.1334879,1.1336778,3.5787234e-05,3.953816e-08,0,1,0,1
48796000,48674000,48716000,0,18.847546,7.865521,1.0,1.0,-0.04619217,-0.01298666,1.1332228,1.1334417,7.531499e-05,5.9519016e-06,0,1,0,1
49188000,49074000,49108000,0,20.604425,8.610673,1.0,1.0,-0.08486557,-0.01930809,1.1323534,1.1325887,0.00025441404,1.316638e-05,0,1,0,1
49596000,49474000,49516000,0,22.405785,9.363352,1.0,1.0,-0.056941986,-0.012901306,1.1327047,1.1329685,0.00011450079,5.8763753e-06,0,1,0,1
49988000,49874000,49908000,0,24.184906,10.093449,1.0,1.0,-0.08008385,-0.023715973,1.1317971,1.132071,0.00022666332,1.9873218e-05,0,1,0,1
50396000,50274000,50316000,0,25.986265,10.816019,1.0,1.0,-0.042881012,-0.005191803,1.1320764,1.1323713,6.497021e-05,9.521548e-07,0,1,0,1
50788000,50674000,50708000,0,27.809862,11.553642,1.0,1.0,-0.10019493,-0.031308174,1.1311524,1.1314471,0.00035500163,3.4653032e-05,0,1,0,1
51196000,51074000,51116000,0,29.611221,12.276212,1.0,1.0,-0.052793503,-0.013309479,1.1313856,1.1316916,9.853949e-05,6.2611484e-06,0,1,0,1
51588000,51474000,51508000,0,31.44594,13.021361,1.0,1.0,-0.10437393,-0.036268234,1.1304682,1.1307677,0.00038546568,4.6530684e-05,0,1,0,1
51988000,51874000,51908000,0,33.2473,13.751456,1.0,1.0,-0.07697296,-0.01896,1.1301701,1.1304667,0.00020969716,1.2719758e-05,0,1,0,1
52396000,52274000,52316000,0,35.070896,14.504131,1.0,1.0,-0.039302826,-0.008706093,1.130384,1.1306801,5.46615e-05,2.6814323e-06,0,1,0,1
52796000,52674000,52716000,0,36.927856,15.264333,1.0,1.0,-0.070438385,-0.015025139,1.1300136,1.1302997,0.00017562855,7.989202e-06,0,1,0,1
53188000,53074000,53108000,0,38.740334,16.00948,1.0,1.0,-0.08615875,-0.028282166,1.1291697,1.1294386,0.000262966,2.832844e-05,0,1,0,1
53596000,53474000,53516000,0,40.60841,16.76968,1.0,1.0,-0.07854462,-0.020685196,1.1294333,1.1296943,0.00021849034,1.5150198e-05,0,1,0,1
53996000,53874000,53916000,0,42.43201,17.522354,1.0,1.0,-0.060985565,-0.022069931,1.1291431,1.1293892,0.0001317544,1.725116e-05,0,1,0,1
54396000,54274000,54316000,0,44.277847,18.282553,1.0,1.0,-0.05659485,-0.026313782,1.1288879,1.12912,0.00011349141,2.452937e-05,0,1,0,1
54796000,54674000,54716000,0,46.145927,19.057806,1.0,1.0,-0.07633972,-0.03475952,1.1286688,1.1288867,0.00020653545,4.281118e-05,0,1,0,1
55196000,55078000,55116000,0,47.980644,19.818005,1.0,1.0,-0.06296158,-0.028276443,1.1284863,1.1286912,0.0001405125,2.8335731e-05,0,1,0,1
55596000,55474000,55516000,0,49.84872,20.58573,1.0,1.0,-0.081417084,-0.034313202,1.1283381,1.1285303,0.00023499133,4.1732008e-05,0,1,0,1
55996000,55874000,55916000,0,51.67232,21.3384,1.0,1.0,-0.05974579,-0.035247803,1.1282223,1.1284025,0.00012655517,4.404129e-05,0,1,0,1
56396000,56274000,56316000,0,53.529278,22.098597,1.0,1.0,-0.07711792,-0.035402298,1.1281364,1.1283069,0.00021086719,4.4431978e-05,0,1,0,1
56796000,56678000,56716000,0,55.397358,22.858793,1.0,1.0,-0.08917999,-0.025331497,1.1280761,1.1282375,0.00028200477,2.274999e-05,0,1,0,1
57188000,57074000,57108000,0,57.243195,23.61899,1.0,1.0,-0.107299805,-0.038715363,1.1275501,1.1277025,0.0004084341,5.316577e-05,0,1,0,1
57596000,57474000,57516000,0,59.111275,24.394238,1.0,1.0,-0.06659317,-0.039354324,1.1280982,1.128248,0.00015724341,5.49086e-05,0,1,0,1
57996000,57874000,57916000,0,60.94599,25.146906,1.0,1.0,-0.042819977,-0.03516388,1.1280856,1.1282316,6.501458e-05,4.3838456e-05,0,1,0,1
58388000,58274000,58308000,0,62.791832,25.9071,1.0,1.0,-0.08327484,-0.042835236,1.1275928,1.1277344,0.00024600013,6.5081185e-05,0,1,0,1
58796000,58674000,58716000,0,64.65991,26.682348,1.0,1.0,-0.07707214,-0.042467117,1.1281707,1.1283123,0.00021061051,6.393464e-05,0,1,0,1
59196000,59074000,59116000,0,66.48351,27.435017,1.0,1.0,-0.062400818,-0.03760147,1.1281745,1.1283138,0.00013805885,5.0123315e-05,0,1,0,1
59596000,59474000,59516000,0,68.35159,28.210262,1.0,1.0,-0.081970215,-0.04186821,1.1281809,1.1283169,0.00023822834,6.214379e-05,0,1,0,1
59996000,59878000,59916000,0,70.18631,28.962929,1.0,1.0,-0.054367065,-0.030670166,1.1281899,1.1283226,0.00010479717,3.334717e-05,0,1,0,1
60396000,60274000,60316000,0,72.03215,29.715593,1.0,1.0,-0.0395813,-0.024620056,1.1281987,1.1283295,5.5546214e-05,2.1488302e-05,0,1,0,1
60788000,60674000,60708000,0,73.90023,30.490839,1.0,1.0,-0.10108948,-0.04962349,1.1277115,1.1278387,0.0003624715,8.733485e-05,0,1,0,1
61196000,61074000,61116000,0,75.73495,31.258556,1.0,1.0,-0.04750061,-0.037492752,1.1282886,1.1284171,7.999045e-05,4.9829323e-05,0,1,0,1
61596000,61474000,61516000,0,77.5919,32.026276,1.0,1.0,-0.06577301,-0.032154083,1.1282814,1.1284076,0.00015336915,3.6649348e-05,0,1,0,1
61996000,61874000,61916000,0,79.41551,32.77894,1.0,1.0,-0.036567688,-0.023971558,1.1282716,1.1283946,4.7406877e-05,2.0370022e-05,0,1,0,1
62388000,62274000,62308000,0,81.25023,33.539127,1.0,1.0,-0.08792877,-0.046894073,1.1277609,1.127882,0.00027422368,7.798881e-05,0,1,0,1
62796000,62674000,62716000,0,82.9404,34.261684,1.0,1.0,-0.07022095,-0.04800415,1.1283362,1.1284806,0.0001748054,8.168146e-05,0,1,0,1
63196000,63074000,63116000,0,84.36369,34.87887,1.0,1.0,-0.061164856,-0.035362244,1.1283561,1.1285044,0.00013262266,4.4323733e-05,0,1,0,1
63596000,63474000,63516000,0,85.586845,35.42831,1.0,1.0,-0.05605316,-0.049526215,1.1283764,1.1284409,0.00011137975,8.694637e-05,0,1,0,1
63996000,63878000,63916000,0,86.57648,35.864857,1.0,1.0,-0.03362274,-0.045928955,1.1284808,1.1284026,4.0071172e-05,7.477718e-05,0,1,0,1
64388000,64274000,64308000,0,87.39932,36.203552,1.0,1.0,-0.05782318,-0.06136322,1.1281297,1.1278763,0.00011855091,0.00013354105,0,1,0,1
64788000,64674000,64708000,0,88.033134,36.474514,1.0,1.0,-0.04307556,-0.06021881,1.128401,1.1279432,6.577463e-05,0.00012859885,0,1,0,1
65196000,65074000,65116000,0,88.43344,36.828266,1.0,1.0,-0.056915283,-0.056461334,1.1292856,1.1285893,0.00011473978,0.00011298645,0,1,0,1
65596000,65474000,65516000,0,88.47792,37.385242,1.0,1.0,-0.034851074,-0.059700012,1.1295384,1.1286856,4.3012165e-05,0.00012630945,0,1,0,1
65996000,65874000,65916000,0,88.35561,38.06265,1.0,1.0,-0.015815735,-0.07134628,1.1296356,1.1287467,8.857281e-06,0.0001803874,0,1,0,1
66396000,66274000,66316000,0,88.14435,38.77769,1.0,1.0,2.2888184e-05,-0.07219696,1.1297162,1.1288519,1.8548692e-11,0.00018469742,0,1,0,1
66796000,66674000,66716000,0,87.79965,39.70348,1.0,1.0,0.014152527,-0.055282593,1.1298262,1.1290923,7.091144e-06,0.0001082698,0,1,0,1
67196000,67074000,67116000,0,87.35488,40.983025,1.0,1.0,0.019386292,-0.031715393,1.1299509,1.1294312,1.3304235e-05,3.562381e-05,0,1,0,1
67596000,67474000,67516000,0,86.810036,42.601276,1.0,1.0,0.027740479,-0.052700043,1.1301038,1.1298348,2.7237644e-05,9.832569e-05,0,1,0,1
67996000,67874000,67916000,0,86.17624,44.34748,1.0,1.0,0.03060913,-0.06547928,1.1302265,1.130155,3.3158623e-05,0.00015175037,0,1,0,1
68396000,68274000,68316000,0,85.53132,46.056053,1.0,1.0,0.044204712,-0.050727844,1.130331,1.1303924,6.9149886e-05,9.105914e-05,0,1,0,1
68788000,68674000,68708000,0,84.90864,47.7571,1.0,1.0,0.053367615,-0.076171875,1.1299204,1.130032,0.00010082489,0.00020538019,0,1,0,1
69188000,69074000,69108000,0,84.27484,49.443092,1.0,1.0,0.059684753,-0.053771973,1.1301564,1.1302725,0.00012608059,0.00010232665,0,1,0,1
69596000,69474000,69516000,0,83.641045,51.151665,1.0,1.0,0.036705017,-0.0045700073,1.1309249,1.1309963,4.7651552e-05,7.386396e-07,0,1,0,1
69988000,69874000,69908000,0,83.00725,52.897873,1.0,1.0,0.052574158,-0.07141495,1.1304468,1.1304506,9.7803524e-05,0.00018046236,0,1,0,1
70396000,70274000,70316000,0,82.37346,54.62903,1.0,1.0,0.03753662,-0.024841309,1.131142,1.1310469,4.9825678e-05,2.1823696e-05,0,1,0,1
70796000,70674000,70716000,0,81.73966,56.375237,1.0,1.0,0.03604889,-0.029571533,1.1311363,1.1309444,4.595458e-05,3.092904e-05,0,1,0,1
71196000,71074000,71116000,0,81.11699,58.121445,1.0,1.0,0.032699585,-0.017074585,1.1310949,1.1307989,3.781337e-05,1.03127595e-05,0,1,0,1
71596000,71474000,71516000,0,80.51655,59.78486,1.0,1.0,0.033210754,-0.027088165,1.1310465,1.1305971,3.90065e-05,2.5960395e-05,0,1,0,1
71996000,71874000,71916000,0,79.97171,61.26763,1.0,1.0,0.029083252,-0.033828735,1.1309837,1.1303782,2.9915038e-05,4.049559e-05,0,1,0,1
72396000,72274000,72316000,0,79.49358,62.539654,1.0,1.0,0.04106903,-0.03375244,1.1308987,1.1301621,5.9657516e-05,4.0320847e-05,0,1,0,1
72796000,72674000,72716000,0,79.08218,63.62351,1.0,1.0,0.041610718,-0.027168274,1.1307796,1.1299516,6.124807e-05,2.6129086e-05,0,1,0,1
73188000,73074000,73108000,0,78.748604,64.52672,1.0,1.0,0.047698975,-0.03967285,1.1300491,1.1292402,8.053427e-05,5.5752007e-05,0,1,0,1
73596000,73474000,73516000,0,78.49286,65.279396,1.0,1.0,0.031784058,-0.022705078,1.1303911,1.1296453,3.5747853e-05,1.8254244e-05,0,1,0,1
73996000,73874000,73916000,0,78.24824,65.9267,1.0,1.0,0.040412903,-0.017402649,1.1300654,1.1294236,5.7809135e-05,1.0725903e-05,0,1,0,1
74388000,74274000,74308000,0,77.90354,66.40089,1.0,1.0,0.0471344,-0.03517914,1.1292845,1.1286571,7.869236e-05,4.385997e-05,0,1,0,1
74788000,74670000,74708000,0,77.38093,66.49874,1.0,1.0,0.04975891,-0.021507263,1.1292241,1.1285036,8.7704444e-05,1.6395601e-05,0,1,0,1
75188000,75074000,75108000,0,76.747116,66.363266,1.0,1.0,0.04436493,-0.011306763,1.129102,1.1283494,6.972787e-05,4.5320317e-06,0,1,0,1
75596000,75474000,75516000,0,76.03546,66.11489,1.0,1.0,0.027946472,-0.008293152,1.1294532,1.1286733,2.765959e-05,2.4374233e-06,0,1,0,1
75996000,75874000,75916000,0,75.11254,65.76115,1.0,1.0,0.016929626,-0.013282776,1.12919,1.1283673,1.0152844e-05,6.2544223e-06,0,1,0,1
76388000,76274000,76308000,0,73.82268,65.317085,1.0,1.0,0.05052185,-0.0019454956,1.128439,1.1275848,9.0477464e-05,1.3426761e-07,0,1,0,1
76788000,76674000,76708000,0,72.23258,64.79775,1.0,1.0,0.06517029,-0.0063705444,1.1283652,1.1274705,0.00015056,1.439819e-06,0,1,0,1
77188000,77074000,77108000,0,70.56465,64.18058,1.0,1.0,0.037322998,-0.0015029907,1.1283088,1.127417,4.9383863e-05,8.014714e-08,0,1,0,1
77596000,77474000,77516000,0,68.885605,63.57093,1.0,1.0,0.0069885254,-0.007385254,1.1286947,1.1278722,1.7308307e-06,1.9343317e-06,0,1,0,1
77996000,77874000,77916000,0,67.20655,62.961285,1.0,1.0,0.0151901245,-0.005458832,1.1285203,1.1277928,8.178493e-06,1.0568907e-06,0,1,0,1
78396000,78274000,78316000,0,65.53862,62.34411,1.0,1.0,0.01776886,-0.0067329407,1.1283588,1.1277367,1.1192623e-05,1.6079105e-06,0,1,0,1
78796000,78674000,78716000,0,63.859573,61.719406,1.0,1.0,0.01052475,-0.011413574,1.1282103,1.1276999,3.9272945e-06,4.6207215e-06,0,1,0,1
79196000,79074000,79116000,0,62.191643,61.0947,1.0,1.0,-0.008956909,-0.027999878,1.1280768,1.1276796,2.8447078e-06,2.7809076e-05,0,1,0,1
79596000,79478000,79516000,0,60.479233,60.44742,1.0,1.0,0.0021247864,-0.019817352,1.1279554,1.1276659,1.6010267e-07,1.3930631e-05,0,1,0,1
79996000,79874000,79916000,0,58.744583,59.800133,1.0,1.0,0.025375366,-0.017105103,1.1278477,1.1276591,2.2836744e-05,1.0378475e-05,0,1,0,1
80396000,80274000,80316000,0,57.021057,59.15285,1.0,1.0,0.013648987,-0.014549255,1.1277537,1.1276572,6.6076427e-06,7.5086946e-06,0,1,0,1
80788000,80674000,80708000,0,55.27529,58.49804,1.0,1.0,0.055408478,-0.0029029846,1.1271894,1.1271639,0.00010894707,2.990628e-07,0,1,0,1
81196000,81074000,81116000,0,53.54064,57.843227,1.0,1.0,0.00579834,-0.02658081,1.1276767,1.1277144,1.1925669e-06,2.5060937e-05,0,1,0,1
81596000,81474000,81516000,0,51.783756,57.173363,1.0,1.0,0.008460999,-0.011238098,1.1276081,1.1276886,2.5394816e-06,4.479777e-06,0,1,0,1
81988000,81874000,81908000,0,49.98239,56.48844,1.0,1.0,0.08270645,0.016334534,1.1270676,1.1271735,0.00024276653,9.468533e-06,0,1,0,1
82396000,82274000,82316000,0,48.203266,55.818577,1.0,1.0,0.025421143,-0.008052826,1.1275756,1.1277013,2.2924742e-05,2.3001837e-06,0,1,0,1
82796000,82674000,82716000,0,46.4019,55.133656,1.0,1.0,0.029094696,-0.00030136108,1.1275289,1.1276597,3.0030318e-05,3.2214862e-09,0,1,0,1
83196000,83074000,83116000,0,44.600536,54.46379,1.0,1.0,0.01731491,-0.008666992,1.1274922,1.1276189,1.0636211e-05,2.6646148e-06,0,1,0,1
83596000,83474000,83516000,0,42.776936,53.77887,1.0,1.0,0.029312134,-0.00077056885,1.1274648,1.1275808,3.0482592e-05,2.1063727e-08,0,1,0,1
83988000,83874000,83908000,0,40.96445,53.09395,1.0,1.0,0.086868286,0.04020691,1.1269666,1.1270688,0.00026783752,5.7373447e-05,0,1,0,1
84396000,84274000,84316000,0,39.32988,52.47677,1.0,1.0,0.05496216,0.023284912,1.1275501,1.1276505,0.000107164684,1.9232453e-05,0,1,0,1
84796000,84674000,84716000,0,37.90658,51.919796,1.0,1.0,0.06835556,0.0320282,1.127587,1.1276948,0.00016575157,3.6385925e-05,0,1,0,1
85196000,85074000,85116000,0,36.71679,51.460674,1.0,1.0,0.048309326,0.020572662,1.1276109,1.1277556,8.27871e-05,1.5011565e-05,0,1,0,1
85588000,85474000,85508000,0,35.704914,51.06929,1.0,1.0,0.06238556,0.03513336,1.1271195,1.1273407,0.00013812051,4.3796983e-05,0,1,0,1
85996000,85874000,85916000,0,34.87095,50.775753,1.0,1.0,0.05013275,0.02552414,1.1276767,1.1280081,8.9149406e-05,2.310202e-05,0,1,0,1
86388000,86274000,86308000,0,34.192657,50.527374,1.0,1.0,0.061393738,0.033103943,1.1271619,1.1275735,0.00013375864,3.8875372e-05,0,1,0,1
86788000,86674000,86708000,0,33.67004,50.196198,1.0,1.0,0.06460953,0.031047821,1.1271502,1.1277045,0.00014813966,3.419219e-05,0,1,0,1
87196000,87074000,87116000,0,33.492123,49.70696,1.0,1.0,0.060661316,0.015258789,1.1275988,1.1284225,0.00013053563,8.253314e-06,0,1,0,1
87596000,87474000,87516000,0,33.581074,49.059654,1.0,1.0,0.048187256,0.024799347,1.1274518,1.1284446,8.238087e-05,2.180019e-05,0,1,0,1
87988000,87874000,87908000,0,33.78122,48.367188,1.0,1.0,0.03560257,0.035892487,1.1268243,1.1278942,4.499523e-05,4.568764e-05,0,1,0,1
88396000,88274000,88316000,0,34.092556,47.494076,1.0,1.0,0.02720642,0.0082092285,1.1272422,1.1283896,2.6265494e-05,2.388942e-06,0,1,0,1
88796000,88674000,88716000,0,34.481728,46.267204,1.0,1.0,0.022766113,0.004047394,1.127175,1.1282749,1.839274e-05,5.8075904e-07,0,1,0,1
89188000,89074000,89108000,0,34.93762,44.709156,1.0,1.0,0.0073661804,0.038108826,1.1267285,1.1277027,1.9263066e-06,5.1512958e-05,0,1,0,1
89596000,89474000,89516000,0,35.48246,42.993042,1.0,1.0,-6.1035156e-05,0.011203766,1.127355,1.1282125,1.3217807e-10,4.450381e-06,0,1,0,1
89996000,89874000,89916000,0,36.04954,41.261875,1.0,1.0,-0.012371063,0.031417847,1.1274024,1.1280905,5.4299408e-06,3.5000066e-05,0,1,0,1
90396000,90274000,90316000,0,36.605503,39.55329,1.0,1.0,-0.021190643,0.026885986,1.1274517,1.1279817,1.5931268e-05,2.5633617e-05,0,1,0,1
90796000,90674000,90716000,0,37.172585,37.85223,1.0,1.0,-0.03526306,0.013027191,1.1274953,1.1278785,4.41149e-05,6.0186517e-06,0,1,0,1
91196000,91074000,91116000,0,37.72855,36.143646,1.0,1.0,-0.027709961,-0.0016593933,1.1275284,1.1277816,2.7239825e-05,9.766381e-08,0,1,0,1
91596000,91474000,91516000,0,38.31787,34.412483,1.0,1.0,-0.040023804,0.0013389587,1.1275439,1.127687,5.6828114e-05,6.359249e-08,0,1,0,1
91988000,91874000,91908000,0,38.907196,32.658737,1.0,1.0,-0.058849335,0.04479599,1.1270577,1.1271138,0.00012291277,7.121484e-05,0,1,0,1
92396000,92274000,92316000,0,39.49652,30.897465,1.0,1.0,-0.055179596,0.007204056,1.1276002,1.1275792,0.00010800948,1.8410564e-06,0,1,0,1
92796000,92674000,92716000,0,40.074722,29.128666,1.0,1.0,-0.04807663,0.006673813,1.1275616,1.1274905,8.199507e-05,1.5801385e-06,0,1,0,1
93196000,93074000,93116000,0,40.664047,27.382448,1.0,1.0,-0.057964325,-0.017879486,1.1275064,1.1274059,0.00011919624,1.1342003e-05,0,1,0,1
93588000,93474000,93508000,0,41.220016,25.741608,1.0,1.0,-0.07334137,0.02113533,1.1269429,1.1268364,0.00019092206,1.585686e-05,0,1,0,1
93996000,93874000,93916000,0,41.709267,24.288935,1.0,1.0,-0.06439972,0.013988495,1.1274319,1.127312,0.00014714233,6.9431712e-06,0,1,0,1
94396000,94274000,94316000,0,42.14292,23.047014,1.0,1.0,-0.07175064,0.010961533,1.1273893,1.1272537,0.00018265756,4.2636434e-06,0,1,0,1
94796000,94674000,94716000,0,42.49874,21.985737,1.0,1.0,-0.066078186,0.011184692,1.1273813,1.1272224,0.00015491925,4.439136e-06,0,1,0,1
95196000,95074000,95116000,0,42.776726,21.1051,1.0,1.0,-0.06380463,-0.009183884,1.1273514,1.1271675,0.00014444583,2.9931211e-06,0,1,0,1
95596000,95474000,95516000,0,42.999115,20.375002,1.0,1.0,-0.06762695,-0.0047836304,1.1273347,1.1271043,0.00016227318,8.12103e-07,0,1,0,1
95996000,95874000,95916000,0,43.165905,19.780386,1.0,1.0,-0.058956146,-0.0007686615,1.1273572,1.1270684,0.00012332655,2.096911e-08,0,1,0,1
96388000,96270000,96308000,0,43.288216,19.343832,1.0,1.0,-0.058330536,0.0006122589,1.126997,1.1266406,0.00012076169,1.3308982e-08,0,1,0,1
96796000,96674000,96716000,0,43.37717,19.057814,1.0,1.0,-0.05958557,-0.009059906,1.1278353,1.1273804,0.00012592053,2.9123053e-06,0,1,0,1
97188000,97074000,97108000,0,43.41053,18.922333,1.0,1.0,-0.05809021,-0.0016479492,1.1275641,1.1270472,0.000119708406,9.6384134e-08,0,1,0,1
97596000,97474000,97516000,0,43.39941,18.937386,1.0,1.0,-0.041015625,-0.005739212,1.1282861,1.1276923,5.9640242e-05,1.1683526e-06,0,1,0,1
97996000,97874000,97916000,0,43.36605,19.005127,1.0,1.0,-0.036296844,-0.01169014,1.1282758,1.1276631,4.6707053e-05,4.8475245e-06,0,1,0,1
98396000,98274000,98316000,0,43.332695,19.057814,1.0,1.0,-0.026039124,-0.0065460205,1.1282377,1.1276217,2.4038762e-05,1.5200271e-06,0,1,0,1
98796000,98674000,98716000,0,43.299335,19.110502,1.0,1.0,-0.01499939,-0.005590439,1.128182,1.1275798,7.976787e-06,1.1086756e-06,0,1,0,1
99188000,99074000,99108000,0,43.254856,19.155663,1.0,1.0,-0.00025558472,0.0053653717,1.1276188,1.1270472,2.3172209e-09,1.0216862e-06,0,1,0,1
99596000,99474000,99516000,0,43.2215,19.208351,1.0,1.0,-0.0051078796,0.0057907104,1.1281135,1.1275699,9.2509964e-07,1.1895432e-06,0,1,0,1
99996000,99874000,99916000,0,43.17702,19.261038,1.0,1.0,0.011676788,0.009963989,1.1280308,1.1275314,4.8348816e-06,3.5220687e-06,0,1,0,1
100396000,100278000,100316000,0,43.14366,19.321253,1.0,1.0,0.015670776,0.0035648346,1.1279726,1.12753,8.708483e-06,4.5082777e-07,0,1,0,1
100788000,100670000,100708000,0,43.110306,19.381468,1.0,1.0,0.026885986,0.0045986176,1.1274418,1.1270607,2.5645892e-05,7.5052867e-07,0,1,0,1
101188000,101074000,101108000,0,43.076946,19.434155,1.0,1.0,0.037132263,0.010101318,1.1274875,1.127161,4.8916012e-05,3.6210135e-06,0,1,0,1
101596000,101474000,101516000,0,43.054707,19.501896,1.0,1.0,0.049755096,0.009340286,1.1280274,1.127751,8.778403e-05,3.0943336e-06,0,1,0,1
101996000,101874000,101916000,0,43.04359,19.554583,1.0,1.0,0.040992737,0.0075206757,1.1279949,1.1277654,5.9589078e-05,2.006111e-06,0,1,0,1
102388000,102270000,102308000,0,43.02135,19.607271,1.0,1.0,0.037727356,0.0035915375,1.1274164,1.1272292,5.049965e-05,4.5772913e-07,0,1,0,1
102796000,102674000,102716000,0,42.98799,19.652431,1.0,1.0,0.055862427,0.010259628,1.1279049,1.1277537,0.00011066929,3.733438e-06,0,1,0,1
103196000,103074000,103116000,0,42.98799,19.697592,1.0,1.0,0.041397095,0.006673813,1.1278312,1.1277108,6.077929e-05,1.5798298e-06,0,1,0,1
103596000,103474000,103516000,0,42.97687,19.735226,1.0,1.0,0.04011917,0.015007019,1.1277682,1.127673,5.70879e-05,7.988508e-06,0,1,0,1
103996000,103874000,103916000,0,42.97687,19.765333,1.0,1.0,0.042346954,0.024969101,1.1277175,1.1276422,6.360687e-05,2.2115386e-05,0,1,0,1
104396000,104274000,104316000,0,42.97687,19.780388,1.0,1.0,0.041934967,0.028694153,1.1276827,1.1276206,6.237718e-05,2.920679e-05,0,1,0,1
104796000,104674000,104716000,0,42.97687,19.802967,1.0,1.0,0.042240143,0.02869606,1.1276635,1.1276112,6.328944e-05,2.9210916e-05,0,1,0,1
105196000,105074000,105116000,0,42.97687,19.810493,1.0,1.0,0.04222107,0.036071777,1.1276577,1.1276106,6.323262e-05,4.6156827e-05,0,1,0,1
105596000,105474000,105516000,0,42.98799,19.810493,1.0,1.0,0.03371048,0.0452137,1.1276606,1.1276165,4.0309875e-05,7.251681e-05,0,1,0,1
105996000,105874000,105916000,0,42.98799,19.825548,1.0,1.0,0.037136078,0.034626007,1.1276733,1.1276295,4.891801e-05,4.2530293e-05,0,1,0,1
106396000,106274000,106316000,0,42.98799,19.840601,1.0,1.0,0.03630829,0.037021637,1.127693,1.1276475,4.676066e-05,4.8618083e-05,0,1,0,1
106796000,106674000,106716000,0,42.98799,19.840601,1.0,1.0,0.029155731,0.046525955,1.1277077,1.1276652,3.0151665e-05,7.6783945e-05,0,1,0,1
107196000,107074000,107116000,0,42.865677,19.75028,1.0,1.0,0.021404266,0.049251556,1.1276774,1.127632,1.6250839e-05,8.604636e-05,0,1,0,1
107588000,107474000,107508000,0,42.39866,19.51695,1.0,1.0,0.022197723,0.06357193,1.1272166,1.1271437,1.7485156e-05,0.00014342059,0,1,0,1
107996000,107874000,107916000,0,41.46462,19.140615,1.0,1.0,0.017112732,0.06129837,1.1278396,1.1277655,1.0386073e-05,0.00013327204,0,1,0,1
108396000,108274000,108316000,0,40.10804,18.621271,1.0,1.0,0.031848907,0.06628418,1.1279097,1.1278846,3.597284e-05,0.00015581709,0,1,0,1
108796000,108674000,108716000,0,38.462353,17.943865,1.0,1.0,0.041347504,0.06838989,1.1280265,1.1280607,6.0623257e-05,0.00016584844,0,1,0,1
109188000,109074000,109108000,0,36.749947,17.123451,1.0,1.0,0.075683594,0.09255409,1.1276209,1.1276976,0.00020318908,0.00030384955,0,1,0,1
109596000,109474000,109516000,0,35.048664,16.287981,1.0,1.0,0.05463028,0.07190704,1.1283034,1.1284225,0.00010580372,0.00018328677,0,1,0,1
109996000,109874000,109916000,0,33.347378,15.452512,1.0,1.0,0.07633209,0.07361317,1.12841,1.1285505,0.00020654155,0.00019206578,0,1,0,1
110396000,110274000,110316000,0,31.646095,14.632095,1.0,1.0,0.08116722,0.06917381,1.1285079,1.1286551,0.00023351607,0.00016958294,0,1,0,1
110796000,110674000,110716000,0,29.933691,13.819205,1.0,1.0,0.08449173,0.0695982,1.1286044,1.1287466,0.00025301523,0.00017165621,0,1,0,1
111196000,111074000,111116000,0,28.221287,13.021368,1.0,1.0,0.083156586,0.054398537,1.1287022,1.1288304,0.00024506086,0.000104859006,0,1,0,1
111596000,111474000,111516000,0,26.497765,12.223531,1.0,1.0,0.078258514,0.062000275,1.1287775,1.1288903,0.00021702754,0.00013620577,0,1,0,1
111996000,111878000,111916000,0,24.740883,11.425693,1.0,1.0,0.099624634,0.06996822,1.1288406,1.1289369,0.0003516907,0.00017345708,0,1,0,1
112396000,112274000,112316000,0,22.995121,10.635382,1.0,1.0,0.09918785,0.0668726,1.1289104,1.1289809,0.00034859203,0.0001584418,0,1,0,1
112796000,112674000,112716000,0,21.24936,9.837543,1.0,1.0,0.098371506,0.06233406,1.1289508,1.1289978,0.00034286536,0.00013766316,0,1,0,1
113196000,113074000,113116000,0,19.503597,9.04723,1.0,1.0,0.08456993,0.049809456,1.1289598,1.1289867,0.000253404,8.7901186e-05,0,1,0,1
113596000,113474000,113516000,0,17.746716,8.234337,1.0,1.0,0.07531929,0.056451797,1.1289406,1.1289526,0.00020100245,0.00011291193,0,1,0,1
113996000,113874000,113916000,0,15.956476,7.413916,1.0,1.0,0.09614563,0.05461502,1.1288962,1.1288974,0.00032754053,0.00010568899,0,1,0,1
114396000,114274000,114316000,0,14.166238,6.593495,1.0,1.0,0.09661293,0.05643463,1.128831,1.1288258,0.0003307513,0.00011285595,0,1,0,1
114796000,114674000,114716000,0,12.387117,5.7655463,1.0,1.0,0.08638191,0.05360222,1.1287489,1.1287425,0.0002644285,0.00010181943,0,1,0,1
115188000,115074000,115108000,0,10.630237,4.945124,1.0,1.0,0.09712696,0.051031113,1.1281568,1.1281514,0.00033448,9.2334216e-05,0,1,0,1
115596000,115474000,115516000,0,8.839998,4.1171746,1.0,1.0,0.07199097,0.030158043,1.128628,1.1286272,0.0001836814,3.223412e-05,0,1,0,1
115996000,115874000,115916000,0,7.160954,3.3268585,1.0,1.0,0.080663204,0.041267157,1.1285461,1.1285796,0.00023061715,6.035828e-05,0,1,0,1
116396000,116274000,116316000,0,5.7043004,2.6419177,1.0,1.0,0.08659649,0.039714813,1.1284685,1.1285558,0.00026580988,5.590389e-05,0,1,0,1
116796000,116674000,116716000,0,4.458917,2.0472987,1.0,1.0,0.0830183,0.041952133,1.1283791,1.1285506,0.0002443164,6.238024e-05,0,1,0,1
117196000,117074000,117116000,0,3.424804,1.5655816,1.0,1.0,0.063822985,0.043373227,1.1282427,1.1285617,0.0001444148,6.667732e-05,0,1,0,1
117596000,117474000,117516000,0,2.568603,1.1741863,1.0,1.0,0.056205273,0.037336707,1.1280978,1.1285795,0.00011201273,4.9408296e-05,0,1,0,1
117988000,117874000,117908000,0,1.8680748,0.86558616,1.0,1.0,0.070941806,0.033362746,1.1274619,1.1280878,0.00017855111,3.94676e-05,0,1,0,1
118396000,118274000,118316000,0,1.3343391,0.6247275,1.0,1.0,0.044119716,0.017683506,1.1278831,1.128663,6.9033726e-05,1.1082366e-05,0,1,0,1
118796000,118674000,118716000,0,0.9340374,0.45161024,1.0,1.0,0.039741635,0.01424554,1.1276352,1.1285323,5.602512e-05,7.192897e-06,0,1,0,1
119196000,119078000,119116000,0,0.700528,0.3387077,1.0,1.0,0.034420073,0.006066084,1.1273495,1.1283587,4.203635e-05,1.3044566e-06,0,1,0,1
119596000,119474000,119516000,0,0.6560501,0.29354668,1.0,1.0,0.023498535,0.008853018,1.1271871,1.1283007,1.9595012e-05,2.778548e-06,0,1,0,1
119996000,119874000,119916000,0,0.67828906,0.29354668,1.0,1.0,0.008434713,0.0009575784,1.127016,1.1281366,2.525053e-06,3.2512247e-08,0,1,0,1
120396000,120274000,120316000,0,0.7116475,0.30107352,1.0,1.0,0.005316019,0.0120895505,1.1268764,1.1279637,1.003129e-06,5.1830475e-06,0,1,0,1
120796000,120674000,120716000,0,0.73388654,0.31612718,1.0,1.0,0.013709307,0.008159608,1.1267716,1.1277943,6.6719854e-06,2.361395e-06,0,1,0,1
121196000,121074000,121116000,0,0.745006,0.32365403,1.0,1.0,0.014113009,0.0015247464,1.1267343,1.1276535,7.07095e-06,8.246688e-08,0,1,0,1
121588000,121474000,121508000,0,0.7561255,0.31612718,1.0,1.0,0.0044054985,0.011401027,1.1262937,1.1270936,6.8928443e-07,4.613048e-06,0,1,0,1
121996000,121874000,121916000,0,0.7561255,0.30107352,1.0,1.0,0.0005366802,0.021420509,1.1269641,1.1276324,1.0223064e-08,1.6276163e-05,0,1,0,1
122388000,122270000,122308000,0,0.7561255,0.278493,1.0,1.0,-0.009587467,0.023850322,1.1266311,1.1271571,3.2635176e-06,2.018664e-05,0,1,0,1
122796000,122674000,122716000,0,0.73388654,0.24838565,1.0,1.0,-0.00071048737,0.03444968,1.1273769,1.1277646,1.791033e-08,4.20932e-05,0,1,0,1
123196000,123074000,123116000,0,0.7116475,0.22580513,1.0,1.0,0.0010755062,0.030581117,1.1275651,1.1278136,4.103403e-08,3.316877e-05,0,1,0,1
123596000,123474000,123516000,0,0.6671696,0.20322461,1.0,1.0,0.021747828,0.03195907,1.1277405,1.1278691,1.6775775e-05,3.622343e-05,0,1,0,1
123996000,123874000,123916000,0,0.63381106,0.19569778,1.0,1.0,0.014567137,0.025041848,1.1278859,1.1279162,7.5256357e-06,2.2239035e-05,0,1,0,1
124396000,124274000,124316000,0,0.5893331,0.18817095,1.0,1.0,0.02143532,0.022589028,1.1279957,1.1279504,1.6293428e-05,1.809527e-05,0,1,0,1
124788000,124674000,124708000,0,0.55597466,0.18064411,1.0,1.0,0.017419815,0.01940608,1.1275698,1.1274723,1.0764742e-05,1.3360716e-05,0,1,0,1
125196000,125074000,125116000,0,0.51149666,0.18064411,1.0,1.0,0.035354137,0.012943506,1.1281854,1.1280401,4.431594e-05,5.9407234e-06,0,1,0,1
125596000,125474000,125516000,0,0.47813818,0.18817095,1.0,1.0,0.025677532,0.0021191537,1.1281813,1.1280074,2.3376939e-05,1.5924762e-07,0,1,0,1
125996000,125874000,125916000,0,0.44477972,0.18064411,1.0,1.0,0.024870932,0.009816706,1.1281493,1.1279575,2.1931966e-05,3.417424e-06,0,1,0,1
126396000,126274000,126316000,0,0.42254072,0.18064411,1.0,1.0,0.013175547,0.008363828,1.1280959,1.1278945,6.155329e-06,2.4808567e-06,0,1,0,1
126796000,126674000,126716000,0,0.38918224,0.17311728,1.0,1.0,0.013920367,0.01312612,1.1280268,1.1278226,6.8713475e-06,6.1107135e-06,0,1,0,1
127188000,127074000,127108000,0,0.36694327,0.18064411,1.0,1.0,0.014250457,0.0057163686,1.1274623,1.1272626,7.2046946e-06,1.1595122e-06,0,1,0,1
127596000,127474000,127516000,0,0.34470427,0.17311728,1.0,1.0,0.008471668,0.0061113685,1.1279444,1.1277457,2.545131e-06,1.3247251e-06,0,1,0,1
127988000,127874000,127908000,0,0.3224653,0.1580636,1.0,1.0,0.014711797,0.0042506754,1.12737,1.1271815,7.679359e-06,6.41183e-07,0,1,0,1
128396000,128274000,128316000,0,0.3002263,0.15053676,1.0,1.0,0.0067574084,0.0051923543,1.1278472,1.1276648,1.6194593e-06,9.563317e-07,0,1,0,1
128796000,128674000,128716000,0,0.26686782,0.13548309,1.0,1.0,0.021650344,0.006039396,1.1277657,1.127594,1.6625347e-05,1.2938807e-06,0,1,0,1
129196000,129074000,129116000,0,0.24462885,0.112902574,1.0,1.0,0.012357473,0.014418058,1.127696,1.1275358,5.416606e-06,7.3746796e-06,0,1,0,1
129596000,129474000,129516000,0,0.21127036,0.09032206,1.0,1.0,0.0009902567,0.021470658,1.1276399,1.1274915,3.478445e-08,1.6354506e-05,0,1,0,1
129996000,129874000,129916000,0,0.17791188,0.06774154,1.0,1.0,-0.0043044686,0.020113297,1.1275959,1.1274595,6.5727266e-07,1.4352433e-05,0,1,0,1
130396000,130274000,130316000,0,0.14455341,0.05268787,1.0,1.0,0.0045737326,0.00945114,1.127565,1.1274403,7.420957e-07,3.1690915e-06,0,1,0,1
130796000,130674000,130716000,0,0.122314416,0.037634194,1.0,1.0,0.00035523623,0.010317594,1.1275795,1.1274655,4.4765907e-09,3.7767093e-06,0,1,0,1
131196000,131074000,131116000,0,0.08895594,0.022580516,1.0,1.0,0.006673038,0.016030107,1.1276284,1.1275245,1.5795782e-06,9.116053e-06,0,1,0,1
131596000,131474000,131516000,0,0.07783645,0.022580516,1.0,1.0,-0.0016486943,0.0017294437,1.1276841,1.1275897,9.641681e-08,1.0610155e-07,0,1,0,1
131988000,131874000,131908000,0,0.066716954,0.022580516,1.0,1.0,0.0024554431,0.00058175065,1.127252,1.1271671,2.1394332e-07,1.2010067e-08,0,1,0,1
132396000,132274000,132316000,0,0.055597465,0.030107355,1.0,1.0,-0.007564448,-0.009897778,1.1278745,1.1277969,2.0293346e-06,3.4745974e-06,0,1,0,1
132796000,132674000,132716000,0,0.04447797,0.037634194,1.0,1.0,-0.007927287,-0.018317826,1.1278275,1.1277578,2.2287763e-06,1.1901235e-05,0,1,0,1
133196000,133074000,133116000,0,0.04447797,0.05268787,1.0,1.0,-0.0155679155,-0.034116775,1.1276977,1.1276354,8.59663e-06,4.128832e-05,0,1,0,1
133588000,133474000,133508000,0,0.04447797,0.06021471,1.0,1.0,-0.017226687,-0.037251763,1.1272111,1.127155,1.05307245e-05,4.9245893e-05,0,1,0,1
133996000,133874000,133916000,0,0.04447797,0.07526839,1.0,1.0,-0.0134305395,-0.038670737,1.1277859,1.1277343,6.3976463e-06,5.3041782e-05,0,1,0,1
134396000,134274000,134316000,0,0.04447797,0.082795225,1.0,1.0,-0.017637372,-0.036882877,1.1277894,1.1277428,1.1033156e-05,4.8250247e-05,0,1,0,1
134788000,134674000,134708000,0,0.03335848,0.0978489,1.0,1.0,-0.008738106,-0.0465545,1.1273135,1.1272718,2.709255e-06,7.690501e-05,0,1,0,1
135188000,135074000,135108000,0,0.03335848,0.105375744,1.0,1.0,-0.009173876,-0.0552448,1.1274073,1.1273692,2.985966e-06,0.00010828708,0,1,0,1
135596000,135474000,135516000,0,0.03335848,0.11290258,1.0,1.0,-0.012646319,-0.05608353,1.127984,1.1279488,5.671335e-06,0.00011154274,0,1,0,1
135988000,135874000,135908000,0,0.022238988,0.12042942,1.0,1.0,-0.004121704,-0.05926255,1.127496,1.127464,6.026964e-07,0.00012459997,0,1,0,1
136396000,136274000,136316000,0,0.022238988,0.12795626,1.0,1.0,-0.019256586,-0.06008497,1.1280677,1.1280378,1.3148719e-05,0.00012801711,0,1,0,1
136796000,136674000,136716000,0,0.022238988,0.12795626,1.0,1.0,-0.022466576,-0.06137029,1.1280613,1.1280336,1.7897859e-05,0.0001335532,0,1,0,1
137196000,137074000,137116000,0,0.011119494,0.1354831,1.0,1.0,-0.021238938,-0.058010288,1.1280538,1.128028,1.5995425e-05,0.000119330136,0,1,0,1
137596000,137474000,137516000,0,0.011119494,0.12795626,1.0,1.0,-0.020482693,-0.051598653,1.1280429,1.1280189,1.4876764e-05,9.441051e-05,0,1,0,1
137988000,137874000,137908000,0,0.022238988,0.12042942,1.0,1.0,-0.02710469,-0.045258768,1.1275401,1.1275177,2.606255e-05,7.2667804e-05,0,1,0,1
138388000,138274000,138308000,0,0.022238987,0.105375744,1.0,1.0,-0.026261847,-0.03886979,1.1275978,1.1275766,2.4465626e-05,5.3596737e-05,0,1,0,1
138796000,138674000,138716000,0,0.022238987,0.09032206,1.0,1.0,-0.02636376,-0.04041891,1.128129,1.1281084,2.4644269e-05,5.792665e-05,0,1,0,1
139196000,139074000,139116000,0,0.03335848,0.09032206,1.0,1.0,-0.03648664,-0.05435727,1.1280828,1.128063,4.720487e-05,0.00010477121,0,1,0,1
139596000,139474000,139516000,0,0.03335848,0.082795225,1.0,1.0,-0.027661694,-0.05518312,1.1280339,1.1280148,2.7132848e-05,0.00010798358,0,1,0,1
139996000,139874000,139916000,0,0.04447797,0.06774155,1.0,1.0,-0.03806369,-0.034034245,1.1279832,1.1279646,5.137823e-05,4.107681e-05,0,1,0,1
140396000,140274000,140316000,0,0.03335848,0.07526839,1.0,1.0,-0.025903713,-0.04242841,1.1279353,1.1279173,2.3795776e-05,6.3840496e-05,0,1,0,1
140796000,140674000,140716000,0,0.03335848,0.082795225,1.0,1.0,-0.0110796,-0.049731627,1.1278919,1.1278745,4.3535215e-06,8.771312e-05,0,1,0,1
141188000,141074000,141108000,0,0.03335848,0.082795225,1.0,1.0,-0.016374335,-0.0515951,1.1273639,1.1273475,9.5131245e-06,9.4453724e-05,0,1,0,1
141596000,141474000,141516000,0,0.03335848,0.09032206,1.0,1.0,-0.02470756,-0.058286794,1.1278841,1.127868,2.1649865e-05,0.00012048751,0,1,0,1
141996000,141878000,141916000,0,0.022238987,0.09032206,1.0,1.0,-0.022835718,-0.056860197,1.1278372,1.1278218,1.8494515e-05,0.000114666414,0,1,0,1
142396000,142274000,142316000,0,0.011119494,0.09032206,1.0,1.0,-0.012957589,-0.055445403,1.127794,1.1277794,5.9549566e-06,0.00010903525,0,1,0,1
142796000,142674000,142716000,0,0.011119494,0.0978489,1.0,1.0,-0.011819044,-0.062365074,1.1277554,1.1277415,4.9546134e-06,0.00013795368,0,1,0,1
143188000,143074000,143108000,0,1.0609846e-09,0.105375744,1.0,1.0,-0.00026991282,-0.067489274,1.1272341,1.127221,2.5851927e-09,0.00016162943,0,1,0,1
143596000,143474000,143516000,0,1.0609846e-09,0.11290258,1.0,1.0,-0.004040065,-0.060336214,1.1277572,1.1277447,5.7892345e-07,0.00012912351,0,1,0,1
143996000,143874000,143916000,0,-0.011119491,0.12042942,1.0,1.0,0.007059218,-0.06742255,1.1277149,1.1277032,1.7675588e-06,0.00016124101,0,1,0,1
144396000,144274000,144316000,0,-0.022238985,0.12042942,1.0,1.0,0.0138957165,-0.06670595,1.1276767,1.1276658,6.8491595e-06,0.00015783697,0,1,0,1
144796000,144674000,144716000,0,-0.033358477,0.12042942,1.0,1.0,0.009657659,-0.06581901,1.1276429,1.1276325,3.3085073e-06,0.00015367212,0,1,0,1
145196000,145074000,145116000,0,-0.04447797,0.12795626,1.0,1.0,0.007430166,-0.072951645,1.1276128,1.1276032,1.9583802e-06,0.00018878777,0,1,0,1
145596000,145474000,145516000,0,-0.04447797,0.12042942,1.0,1.0,0.00064750016,-0.06834012,1.1277328,1.1277237,1.4870773e-08,0.00016565662,0,1,0,1
145996000,145878000,145916000,0,-0.04447797,0.12795626,1.0,1.0,-0.005843818,-0.07438727,1.1277853,1.1277769,1.2112309e-06,0.00019626101,0,1,0,1
146396000,146274000,146316000,0,-0.05559746,0.12795626,1.0,1.0,-0.005105857,-0.06778257,1.1278574,1.1278493,9.245769e-07,0.0001629465,0,1,0,1
146796000,146674000,146716000,0,-0.04447797,0.12042942,1.0,1.0,-0.016475264,-0.05738289,1.1279637,1.1279558,9.625641e-06,0.00011677039,0,1,0,1
147188000,147074000,147108000,0,-0.04447797,0.12042942,1.0,1.0,-0.019419536,-0.05457539,1.127605,1.1275975,1.33776775e-05,0.000105657324,0,1,0,1
147588000,147470000,147508000,0,-0.04447797,0.12795626,1.0,1.0,-0.019614987,-0.05972434,1.1278555,1.1278484,1.3645284e-05,0.00012650625,0,1,0,1
147996000,147874000,147916000,0,-0.04447797,0.12795626,1.0,1.0,-0.027291067,-0.05671534,1.1286299,1.1286231,2.639669e-05,0.0001140019,0,1,0,1
148396000,148274000,148316000,0,-0.04447797,0.12795626,1.0,1.0,-0.025754437,-0.045741536,1.1288091,1.1288028,2.3504099e-05,7.414185e-05,0,1,0,1
148796000,148674000,148716000,0,-0.04447797,0.12795626,1.0,1.0,-0.029314026,-0.050569586,1.1289843,1.1289788,3.0445495e-05,9.0605165e-05,0,1,0,1
149188000,149074000,149108000,0,-0.04447797,0.12795626,1.0,1.0,-0.025321737,-0.0506208,1.1290225,1.1290175,2.2716657e-05,9.078568e-05,0,1,0,1
