timestamp,timestamp_sample,xyz[0],xyz[1],xyz[2]
3448000,3448000,-0.212684,0.18377058,-9.915941
3452000,3452000,-0.20877458,0.17401055,-9.9025
3500000,3500000,-0.21927729,0.21338749,-9.948717
3548000,3548000,-0.21589926,0.1948189,-9.907037
3600000,3600000,-0.22960842,0.17747974,-9.925365
3648000,3648000,-0.21742597,0.2062248,-9.93914
3700000,3700000,-0.23125008,0.19257596,-9.956398
3748000,3748000,-0.20406602,0.17894022,-9.932175
3800000,3800000,-0.21757571,0.20592351,-9.920354
3848000,3848000,-0.20992404,0.18475145,-9.938812
3900000,3900000,-0.22912899,0.20235392,-9.939327
3948000,3948000,-0.21239123,0.2041395,-9.919696
3996000,3996000,-0.22456388,0.18213066,-9.920332
4048000,4048000,-0.20342405,0.2038372,-9.926857
4100000,4100000,-0.2074799,0.18819666,-9.935099
4148000,4148000,-0.22476056,0.20549108,-9.822199
4200000,4200000,-0.22302815,0.19264129,-9.823164
4248000,4248000,-0.22386692,0.17942598,-9.846408
4300000,4300000,-0.21510336,0.18980314,-9.84154
4348000,4348000,-0.20226754,0.19083683,-9.828152
4400000,4400000,-0.19953118,0.18121997,-9.82688
4448000,4448000,-0.20147139,0.20039067,-9.830471
4500000,4500000,-0.21941021,0.20259757,-9.839456
4548000,4548000,-0.21633564,0.18321744,-9.821668
4600000,4600000,-0.20841067,0.19398068,-9.834754
4648000,4648000,-0.22057599,0.20305821,-9.814613
4700000,4700000,-0.21176772,0.16423845,-9.817974
4748000,4748000,-0.20951712,0.16514726,-9.811074
4800000,4800000,-0.21729828,0.16373295,-9.819312
4848000,4848000,-0.2208881,0.17981976,-9.795875
4900000,4900000,-0.21735868,0.16023083,-9.817667
4948000,4948000,-0.237318,0.21012211,-9.828333
5000000,5000000,-0.25760576,0.17816639,-9.836087
5044000,5044000,-0.20060706,0.19135745,-9.807805
5100000,5100000,-0.2088084,0.17862433,-9.8243475
5148000,5148000,-0.20167448,0.18046373,-9.8104
5200000,5200000,-0.21513858,0.19074295,-9.809181
5248000,5248000,-0.19204944,0.17173423,-9.839397
5300000,5300000,-0.22583929,0.16399269,-9.807864
5348000,5348000,-0.22054397,0.19085875,-9.843388
5400000,5400000,-0.20766954,0.21454903,-9.810943
5448000,5448000,-0.22139226,0.17254235,-9.835866
5500000,5500000,-0.19035065,0.20806992,-9.818724
5548000,5548000,-0.20139772,0.20135199,-9.81155
5600000,5600000,-0.19729246,0.17640081,-9.843697
5648000,5648000,-0.18661165,0.19408263,-9.817398
5700000,5700000,-0.20598751,0.18371998,-9.815844
5744000,5744000,-0.20070845,0.19418257,-9.816241
5800000,5800000,-0.18792033,0.18080665,-9.811764
5848000,5848000,-0.2186488,0.17690298,-9.847319
5900000,5900000,-0.20064196,0.16726568,-9.855374
5948000,5948000,-0.18727387,0.190103,-9.802731
6000000,6000000,-0.19541332,0.16243328,-9.823623
6044000,6044000,-0.19592921,0.17368758,-9.817472
6100000,6100000,-0.18321604,0.1987378,-9.821543
6148000,6148000,-0.22606157,0.1864195,-9.791759
6200000,6200000,-0.20799929,0.16420837,-9.828961
6244000,6244000,-0.20830683,0.16523735,-9.825136
6300000,6300000,-0.18786633,0.1951023,-9.791097
6348000,6348000,-0.2071306,0.17984694,-9.790099
6400000,6400000,-0.20290247,0.1942876,-9.83713
6448000,6448000,-0.225241,0.18300888,-9.828693
6500000,6500000,-0.1930635,0.1591196,-9.810906
6544000,6544000,-0.2161838,0.18071176,-9.814051
6600000,6600000,-0.19491702,0.17616318,-9.815275
6648000,6648000,-0.22222504,0.18893631,-9.793708
6700000,6700000,-0.20528394,0.1701662,-9.815102
6748000,6748000,-0.2191766,0.17785724,-9.81682
6800000,6800000,-0.2210773,0.1812743,-9.806675
6848000,6848000,-0.22583698,0.18579082,-9.792831
6900000,6900000,-0.21035585,0.19562761,-9.778271
6948000,6948000,-0.20247026,0.15607753,-9.801146
7000000,7000000,-0.2368222,0.16886085,-9.796494
7048000,7048000,-0.18978629,0.21120332,-9.788545
7100000,7100000,-0.22671536,0.18401867,-9.813098
7148000,7148000,-0.22322176,0.22137386,-9.79621
7200000,7200000,-0.18970804,0.17979476,-9.80459
7248000,7248000,-0.2122925,0.22841595,-9.810253
7300000,7300000,-0.23750716,0.1794427,-9.805563
7348000,7348000,-0.19000107,0.17921555,-9.788285
7400000,7400000,-0.2055905,0.18010773,-9.7976265
7448000,7448000,-0.22569269,0.20406732,-9.797986
7500000,7500000,-0.18011367,0.17364584,-9.799583
7548000,7548000,-0.18953721,0.17962188,-9.785535
7600000,7600000,-0.19659586,0.18454356,-9.8141575
7648000,7648000,-0.22884986,0.14175978,-9.816324
7700000,7700000,-0.21256936,0.17704362,-9.774759
7748000,7748000,-0.18859965,0.15939935,-9.804175
7800000,7800000,-0.19520375,0.19296622,-9.828996
7848000,7848000,-0.17517297,0.17718299,-9.795722
7900000,7900000,-0.20276915,0.18735027,-9.79828
7948000,7948000,-0.20873556,0.17359048,-9.821959
8000000,8000000,-0.22509012,0.18876094,-9.79816
8048000,8048000,-0.20750687,0.1829765,-9.829
8100000,8100000,-0.2008039,0.16363752,-9.797057
8148000,8148000,-0.23985207,0.17275715,-9.798285
8200000,8200000,-0.22270271,0.15874773,-9.794071
8248000,8248000,-0.20351052,0.18480225,-9.82415
8300000,8300000,-0.23031284,0.21371898,-9.827342
8348000,8348000,-0.22977398,0.1825512,-9.806488
8400000,8400000,-0.20907232,0.18390065,-9.773924
8448000,8448000,-0.18832038,0.16552028,-9.781748
8500000,8500000,-0.19978756,0.16691664,-9.764978
8548000,8548000,-0.19991207,0.19219741,-9.76966
8600000,8600000,-0.23502359,0.19263569,-9.797617
8648000,8648000,-0.17787941,0.16391808,-9.801035
8700000,8700000,-0.2022154,0.20624499,-9.8125725
8748000,8748000,-0.20566137,0.19852948,-9.806492
8796000,8796000,-0.21446933,0.19904277,-9.80606
8844000,8844000,-0.20952992,0.16351336,-9.8089485
8896000,8896000,-0.20423454,0.16466095,-9.780123
8948000,8948000,-0.17717099,0.17703041,-9.81503
9000000,9000000,-0.19325829,0.20219785,-9.811348
9048000,9048000,-0.20517927,0.19646993,-9.808125
9100000,9100000,-0.20285274,0.1867556,-9.821765
9148000,9148000,-0.19993913,0.17133069,-9.806762
9200000,9200000,-0.2028266,0.15663296,-9.800395
9244000,9244000,-0.17121533,0.17686272,-9.815819
9300000,9300000,-0.20659713,0.16961533,-9.812701
9344000,9344000,-0.19421208,0.18511099,-9.830087
9400000,9400000,-0.21397401,0.1490003,-9.777194
9448000,9448000,-0.17989546,0.17827138,-9.820317
9500000,9500000,-0.19454755,0.1945737,-9.813287
9548000,9548000,-0.19146226,0.19658296,-9.7900915
9600000,9600000,-0.22046486,0.15865666,-9.815418
9648000,9648000,-0.18371981,0.17551616,-9.784313
9700000,9700000,-0.18232846,0.1841757,-9.793285
9748000,9748000,-0.21141466,0.17570312,-9.788202
9796000,9796000,-0.17659912,0.18456537,-9.794318
9844000,9844000,-0.17664444,0.19232278,-9.801867
9900000,9900000,-0.18359348,0.16851154,-9.796217
9948000,9948000,-0.20699754,0.16006584,-9.803247
10000000,10000000,-0.20433398,0.17198518,-9.80099
10044000,10044000,-0.20635664,0.17479682,-9.804655
10096000,10096000,-0.19431363,0.18255854,-9.774374
10148000,10148000,-0.20431173,0.17182435,-9.797645
10200000,10200000,-0.19203365,0.18186043,-9.758096
10244000,10244000,-0.20032062,0.18684629,-9.796282
10300000,10300000,-0.19853733,0.15274535,-9.794959
10348000,10348000,-0.21879734,0.16187944,-9.816817
10400000,10400000,-0.21046463,0.17402974,-9.825297
10448000,10448000,-0.22085491,0.17401633,-9.793554
10500000,10500000,-0.17787242,0.16498834,-9.824778
10548000,10548000,-0.2175737,0.17711458,-9.770184
10600000,10600000,-0.19543828,0.16192555,-9.791041
10648000,10648000,-0.21641777,0.1749163,-9.787328
10700000,10700000,-0.19882323,0.17075716,-9.805925
10748000,10748000,-0.18529047,0.16035788,-9.801141
10800000,10800000,-0.19942081,0.1783029,-9.769353
10848000,10848000,-0.19908553,0.15252878,-9.803399
10900000,10900000,-0.18148835,0.18383916,-9.797653
10948000,10948000,-0.17687792,0.17809929,-9.784071
11000000,11000000,-0.18261933,0.14604564,-9.789237
11044000,11044000,-0.2129072,0.13806432,-9.770947
11096000,11096000,-0.21550938,0.15438184,-9.784866
11148000,11148000,-0.20754084,0.14887688,-9.789111
11200000,11200000,-0.21533282,0.16844745,-9.781342
11248000,11248000,-0.19688502,0.1587382,-9.799259
11296000,11296000,-0.15087214,0.19045076,-9.7830715
11348000,11348000,-0.22296977,0.16909991,-9.815773
11400000,11400000,-0.19377856,0.17794335,-9.799258
11448000,11448000,-0.19567835,0.17111766,-9.772709
11500000,11500000,-0.19640736,0.13786614,-9.798807
11544000,11544000,-0.20168066,0.14800239,-9.767076
11600000,11600000,-0.21487588,0.15611632,-9.776591
11648000,11648000,-0.2018823,0.17235094,-9.805354
11700000,11700000,-0.20052868,0.1480326,-9.789929
11744000,11744000,-0.19877726,0.16927901,-9.779621
11800000,11800000,-0.22264434,0.17238303,-9.781685
11848000,11848000,-0.20442924,0.16590527,-9.796849
11896000,11896000,-0.20642161,0.16465597,-9.781432
11948000,11948000,-0.19080274,0.1750746,-9.809222
12000000,12000000,-0.18603325,0.16603824,-9.802083
12048000,12048000,-0.19785027,0.20006916,-9.806646
12100000,12100000,-0.19162099,0.17671679,-9.808361
12148000,12148000,-0.21389441,0.15186676,-9.778631
12200000,12200000,-0.15538302,0.16099319,-9.79985
12248000,12248000,-0.20173602,0.16808662,-9.828275
12300000,12300000,-0.19139488,0.17678967,-9.796474
12348000,12348000,-0.18347704,0.15468752,-9.7839775
12396000,12396000,-0.18158345,0.15780687,-9.768883
12444000,12444000,-0.19152927,0.16024594,-9.830292
12500000,12500000,-0.17764351,0.13359448,-9.8048725
12544000,12544000,-0.18473358,0.16377318,-9.806057
12600000,12600000,-0.20352218,0.1928433,-9.774765
12648000,12648000,-0.1755389,0.19690153,-9.80838
12696000,12696000,-0.19603677,0.16608265,-9.795324
12744000,12744000,-0.20746237,0.19267036,-9.773189
12796000,12796000,-0.1652961,0.16245045,-9.790489
12844000,12844000,-0.18432914,0.17690499,-9.806473
12896000,12896000,-0.20377986,0.18890892,-9.774638
12948000,12948000,-0.19370285,0.17543656,-9.787907
13000000,13000000,-0.18658356,0.17171144,-9.782257
13048000,13048000,-0.19052523,0.18055016,-9.7907
13100000,13100000,-0.20583257,0.18031962,-9.78655
13148000,13148000,-0.20225725,0.140847,-9.8079195
13200000,13200000,-0.18955429,0.1763471,-9.800145
13248000,13248000,-0.18037938,0.16781434,-9.779263
13300000,13300000,-0.19062275,0.16907069,-9.771281
13348000,13348000,-0.1851455,0.16773394,-9.798957
13400000,13400000,-0.18644051,0.19803712,-9.801268
13448000,13448000,-0.17571564,0.1722256,-9.8143
13500000,13500000,-0.18620737,0.1575289,-9.780092
13548000,13548000,-0.18328913,0.16719392,-9.791416
13600000,13600000,-0.16303152,0.20730199,-9.810637
13644000,13644000,-0.18160622,0.18439324,-9.780756
13700000,13700000,-0.1728952,0.15251517,-9.806573
13748000,13748000,-0.17488039,0.18056314,-9.776474
13800000,13800000,-0.18383482,0.14194258,-9.795483
13848000,13848000,-0.17267492,0.19418341,-9.820625
13900000,13900000,-0.2015227,0.1510963,-9.797027
13948000,13948000,-0.20115204,0.1715681,-9.784474
14000000,14000000,-0.20310275,0.15235513,-9.796814
14048000,14048000,-0.1964958,0.15836787,-9.784687
14100000,14100000,-0.1697622,0.1408948,-9.785656
14148000,14148000,-0.18454923,0.15993375,-9.773238
14196000,14196000,-0.22743753,0.1731413,-9.775157
14248000,14248000,-0.16207401,0.15555167,-9.795651
14296000,14296000,-0.19775616,0.16550484,-9.813012
14348000,14348000,-0.19787282,0.18733355,-9.81083
14400000,14400000,-0.1736952,0.16697624,-9.785094
14448000,14448000,-0.18766707,0.14556539,-9.79025
14500000,14500000,-0.19100596,0.17118418,-9.799282
14548000,14548000,-0.1957613,0.15787314,-9.815334
14596000,14596000,-0.18353806,0.18529029,-9.790911
14648000,14648000,-0.15946785,0.14611028,-9.802653
14700000,14700000,-0.16776447,0.15366772,-9.780116
14748000,14748000,-0.16942665,0.17011376,-9.802639
14800000,14800000,-0.15137401,0.12887023,-9.813797
14848000,14848000,-0.17587613,0.16427498,-9.816504
14900000,14900000,-0.1932992,0.17668128,-9.794129
14944000,14944000,-0.18106055,0.17107044,-9.797237
15000000,15000000,-0.18606183,0.16768226,-9.808135
15048000,15048000,-0.17964466,0.19354577,-9.789919
15100000,15100000,-0.18247467,0.16795899,-9.784234
15148000,15148000,-0.17667343,0.19291317,-9.800126
15200000,15200000,-0.18224782,0.16401003,-9.791405
15248000,15248000,-0.18946777,0.1568484,-9.793106
15300000,15300000,-0.18264742,0.14976758,-9.787851
15348000,15348000,-0.1868929,0.1545943,-9.778887
15400000,15400000,-0.16133292,0.13326204,-9.7649555
15448000,15448000,-0.1734532,0.16168696,-9.7953615
15500000,15500000,-0.16874126,0.18235604,-9.7761345
15544000,15544000,-0.16405475,0.17592378,-9.784526
15596000,15596000,-0.18610157,0.19017375,-9.804785
15644000,15644000,-0.17024837,0.14889905,-9.78244
15696000,15696000,-0.18849377,0.14370072,-9.792984
15744000,15744000,-0.19017547,0.12983203,-9.802647
15800000,15800000,-0.19546504,0.14193971,-9.771309
15848000,15848000,-0.15998052,0.15485561,-9.811578
15900000,15900000,-0.18906131,0.15542006,-9.805076
15948000,15948000,-0.1609082,0.123434626,-9.805293
16000000,16000000,-0.17208765,0.14871486,-9.824453
16048000,16048000,-0.1584667,0.15304765,-9.802281
16096000,16096000,-0.18468577,0.17139164,-9.803207
16144000,16144000,-0.1706726,0.16517085,-9.779862
16200000,16200000,-0.16218211,0.16497643,-9.7955265
16244000,16244000,-0.14467238,0.17878206,-9.790924
16300000,16300000,-0.18320417,0.1762836,-9.813737
16348000,16348000,-0.1561219,0.16616377,-9.817527
16400000,16400000,-0.1803196,0.16590746,-9.806494
16448000,16448000,-0.15645486,0.12623465,-9.7868595
16500000,16500000,-0.17819701,0.13309832,-9.794303
16548000,16548000,-0.15941007,0.14268726,-9.781253
16600000,16600000,-0.17026633,0.13804008,-9.783419
16648000,16648000,-0.18081518,0.15364215,-9.7976
16700000,16700000,-0.17559998,0.14381668,-9.782182
16748000,16748000,-0.16705874,0.15979663,-9.79778
16800000,16800000,-0.17841521,0.1654247,-9.7920685
16848000,16848000,-0.17517602,0.12638655,-9.776133
16896000,16896000,-0.17554423,0.16102052,-9.807439
16944000,16944000,-0.17746928,0.11906796,-9.781979
17000000,17000000,-0.14458501,0.15434718,-9.767407
17044000,17044000,-0.15313274,0.13999857,-9.79874
17100000,17100000,-0.17177854,0.15643391,-9.800408
17148000,17148000,-0.17238262,0.14872327,-9.807959
17196000,17196000,-0.15571833,0.1493781,-9.799814
17248000,17248000,-0.16976982,0.19196402,-9.8162985
17300000,17300000,-0.17741428,0.14817727,-9.797764
17348000,17348000,-0.1992183,0.13598886,-9.814011
17400000,17400000,-0.17928332,0.15167494,-9.774838
17448000,17448000,-0.16074947,0.16546409,-9.791386
17500000,17500000,-0.17974047,0.1692809,-9.768514
17548000,17548000,-0.1360409,0.17962357,-9.836618
17600000,17600000,-0.15845922,0.16712452,-9.791428
17648000,17648000,-0.16904403,0.1719192,-9.800996
17700000,17700000,-0.20573169,0.15228553,-9.797539
17748000,17748000,-0.1369658,0.15459922,-9.772713
17796000,17796000,-0.1715174,0.12944768,-9.815374
17848000,17848000,-0.18185595,0.17076454,-9.787102
17900000,17900000,-0.15288728,0.1509736,-9.800554
17948000,17948000,-0.17715438,0.14623511,-9.815144
18000000,18000000,-0.15753262,0.15123232,-9.788418
18048000,18048000,-0.16214533,0.15016441,-9.778071
18100000,18100000,-0.16267493,0.14362577,-9.788009
18148000,18148000,-0.16457452,0.13566919,-9.767506
18200000,18200000,-0.18161577,0.13686042,-9.785314
18248000,18248000,-0.1511966,0.13133046,-9.782382
18300000,18300000,-0.16570643,0.15688184,-9.788616
18348000,18348000,-0.16148873,0.13557965,-9.784874
18400000,18400000,-0.15460247,0.11489643,-9.784094
18448000,18448000,-0.15823469,0.12881377,-9.830513
18500000,18500000,-0.14992829,0.14679822,-9.787229
18548000,18548000,-0.16721904,0.15466572,-9.772447
18600000,18600000,-0.17653906,0.14150324,-9.770139
18648000,18648000,-0.16802832,0.14602953,-9.786492
18700000,18700000,-0.16931188,0.15437356,-9.767313
18748000,18748000,-0.15181883,0.13311827,-9.781023
18800000,18800000,-0.16130553,0.14521025,-9.812
18844000,18844000,-0.17293173,0.15233153,-9.794863
18900000,18900000,-0.17449178,0.15360036,-9.799765
18944000,18944000,-0.14775035,0.14029154,-9.7764
19000000,19000000,-0.1609936,0.12039528,-9.802673
19044000,19044000,-0.18328027,0.14288953,-9.777702
19096000,19096000,-0.18268599,0.15487222,-9.783361
19144000,19144000,-0.17243433,0.14646257,-9.785654
19196000,19196000,-0.16147178,0.1600419,-9.785613
19244000,19244000,-0.1740221,0.18898144,-9.825585
19300000,19300000,-0.15709403,0.14786327,-9.785415
19348000,19348000,-0.17047149,0.1593097,-9.785665
19400000,19400000,-0.18119502,0.1565946,-9.790485
19448000,19448000,-0.12458609,0.15521646,-9.806554
19500000,19500000,-0.14526765,0.121735536,-9.788133
19548000,19548000,-0.15440133,0.12643413,-9.78846
19600000,19600000,-0.15163013,0.15009178,-9.786202
19648000,19648000,-0.17381592,0.14244041,-9.792421
19700000,19700000,-0.15088256,0.12304723,-9.80395
19748000,19748000,-0.14043206,0.15430142,-9.812608
19796000,19796000,-0.17091352,0.16185516,-9.75951
19848000,19848000,-0.14596751,0.15997311,-9.798073
19900000,19900000,-0.18060602,0.14915523,-9.786886
19948000,19948000,-0.1441586,0.1553791,-9.79942
20000000,20000000,-0.14774516,0.15404087,-9.812378
20044000,20044000,-0.16888504,0.16017413,-9.787317
20100000,20100000,-0.12317779,0.14204356,-9.809135
20148000,20148000,-0.12812525,0.13546777,-9.79035
20200000,20200000,-0.15948506,0.13217762,-9.786687
20248000,20248000,-0.15083441,0.16147077,-9.794603
20300000,20300000,-0.15731204,0.14547354,-9.811164
20348000,20348000,-0.16833416,0.17100158,-9.769106
20400000,20400000,-0.15160292,0.1402155,-9.82353
20448000,20448000,-0.17090112,0.15161173,-9.779972
20496000,20496000,-0.1599893,0.12626474,-9.783794
20548000,20548000,-0.15027142,0.16734575,-9.814167
20600000,20600000,-0.17285123,0.149243,-9.782438
20648000,20648000,-0.15397483,0.14120962,-9.775792
20700000,20700000,-0.16122691,0.15676606,-9.798277
20744000,20744000,-0.16618532,0.1357559,-9.795099
20796000,20796000,-0.18076721,0.1430507,-9.785114
20848000,20848000,-0.1629416,0.13792549,-9.786152
20900000,20900000,-0.1659635,0.13926877,-9.809757
20948000,20948000,-0.15540703,0.15105201,-9.78886
21000000,21000000,-0.15107888,0.16650292,-9.76992
21048000,21048000,-0.18558703,0.14821497,-9.766268
21100000,21100000,-0.18126057,0.16824225,-9.798776
21148000,21148000,-0.16571938,0.14621696,-9.8055
21200000,21200000,-0.19084354,0.15197776,-9.804258
21248000,21248000,-0.17426975,0.14766325,-9.798876
21296000,21296000,-0.14262941,0.13394319,-9.76883
21348000,21348000,-0.15343484,0.15545703,-9.809655
21400000,21400000,-0.15660691,0.16516331,-9.8202095
21444000,21444000,-0.1483758,0.15291446,-9.810577
21500000,21500000,-0.14487508,0.16932084,-9.789101
21544000,21544000,-0.1480433,0.1687023,-9.7950115
21600000,21600000,-0.18166623,0.14780067,-9.771053
21648000,21648000,-0.16421674,0.13711497,-9.815384
21700000,21700000,-0.16765341,0.13625674,-9.786568
21748000,21748000,-0.14254457,0.1436622,-9.79446
21800000,21800000,-0.17437209,0.14184242,-9.7855
21848000,21848000,-0.14331509,0.14368318,-9.773924
21900000,21900000,-0.1736997,0.17106505,-9.7949915
21948000,21948000,-0.1661585,0.15415072,-9.804869
22000000,22000000,-0.17658818,0.14105488,-9.816583
22048000,22048000,-0.18776943,0.14341232,-9.78599
22100000,22100000,-0.1555617,0.15452388,-9.771339
22148000,22148000,-0.16887315,0.14521483,-9.777988
22200000,22200000,-0.19322085,0.14094019,-9.786854
22248000,22248000,-0.17225319,0.14880551,-9.755687
22296000,22296000,-0.15632644,0.15325847,-9.783643
22348000,22348000,-0.19058447,0.1353536,-9.805596
22400000,22400000,-0.1595527,0.1463454,-9.8082905
22448000,22448000,-0.17968473,0.13325843,-9.789442
22500000,22500000,-0.17954855,0.14450547,-9.77327
22548000,22548000,-0.15368274,0.17246872,-9.764715
22596000,22596000,-0.1675618,0.13151285,-9.794946
22644000,22644000,-0.15098847,0.16655666,-9.80491
22696000,22696000,-0.15525936,0.1392572,-9.794597
22748000,22748000,-0.16378234,0.1586312,-9.762409
22800000,22800000,-0.16011941,0.14704888,-9.785225
22848000,22848000,-0.14044237,0.12462521,-9.785345
22900000,22900000,-0.16117328,0.14562447,-9.80855
22948000,22948000,-0.15934534,0.15272154,-9.772958
23000000,23000000,-0.1628292,0.13249618,-9.78286
23048000,23048000,-0.17020956,0.12535343,-9.790738
23100000,23100000,-0.15657797,0.14695139,-9.784449
23148000,23148000,-0.15542036,0.1470929,-9.781474
23196000,23196000,-0.1472651,0.14735283,-9.8146925
23248000,23248000,-0.1410435,0.16358107,-9.774256
23300000,23300000,-0.15866603,0.14857456,-9.800159
23344000,23344000,-0.17655683,0.14484826,-9.779423
23400000,23400000,-0.16700885,0.15370843,-9.773829
23444000,23444000,-0.15912129,0.13577539,-9.765514
23500000,23500000,-0.16469061,0.17388141,-9.784795
23548000,23548000,-0.16399127,0.14576891,-9.79808
23596000,23596000,-0.14078586,0.1456124,-9.806727
23648000,23648000,-0.17863454,0.1469368,-9.80933
23700000,23700000,-0.14258912,0.13588685,-9.805258
23748000,23748000,-0.1582188,0.13840416,-9.77669
23800000,23800000,-0.14950217,0.15729505,-9.785747
23848000,23848000,-0.16395423,0.15644953,-9.782688
23900000,23900000,-0.14448833,0.13934195,-9.797496
23948000,23948000,-0.14364982,0.16774029,-9.779357
24000000,24000000,-0.16284084,0.13866681,-9.785623
24048000,24048000,-0.16826257,0.14357802,-9.810455
24100000,24100000,-0.16757032,0.14152904,-9.800461
24148000,24148000,-0.15171622,0.13903545,-9.809133
24196000,24196000,-0.17214799,0.1613272,-9.826519
24248000,24248000,-0.16701415,0.13032217,-9.782897
24296000,24296000,-0.17344394,0.12600577,-9.787347
24348000,24348000,-0.15698707,0.139753,-9.783493
24400000,24400000,-0.15241364,0.14853889,-9.780764
24448000,24448000,-0.1667636,0.1200909,-9.791241
24500000,24500000,-0.15984957,0.14350972,-9.79847
24548000,24548000,-0.16292045,0.13707021,-9.782441
24600000,24600000,-0.16909248,0.122131206,-9.804942
24644000,24644000,-0.13041517,0.14138731,-9.774256
24700000,24700000,-0.18409857,0.1295015,-9.769805
24748000,24748000,-0.15589735,0.13243668,-9.786911
24800000,24800000,-0.14430262,0.16125187,-9.789598
24848000,24848000,-0.17773105,0.17255045,-9.786949
24896000,24896000,-0.18118206,0.123198524,-9.776983
24948000,24948000,-0.15965264,0.11629947,-9.791567
25000000,25000000,-0.16830614,0.13338976,-9.805633
25048000,25048000,-0.17933397,0.13633418,-9.795095
25096000,25096000,-0.16233957,0.14950868,-9.777657
25148000,25148000,-0.16302602,0.14307962,-9.788925
25200000,25200000,-0.18535136,0.1378079,-9.773973
25248000,25248000,-0.15575062,0.1487338,-9.784348
25300000,25300000,-0.17003018,0.117685705,-9.786518
25348000,25348000,-0.16062808,0.14323121,-9.795021
25400000,25400000,-0.1699348,0.13463333,-9.7879925
25448000,25448000,-0.15556526,0.14832023,-9.796778
25500000,25500000,-0.17347726,0.16251686,-9.780929
25548000,25548000,-0.16039887,0.16468632,-9.82068
25600000,25600000,-0.17556223,0.15425572,-9.789881
25648000,25648000,-0.15684465,0.15745258,-9.796055
25696000,25696000,-0.1626113,0.12107316,-9.787908
25744000,25744000,-0.19701418,0.14141762,-9.796106
25800000,25800000,-0.15388723,0.1707365,-9.796967
25844000,25844000,-0.13986127,0.15160044,-9.816926
25896000,25896000,-0.19451031,0.13822934,-9.784572
25948000,25948000,-0.1652872,0.12850356,-9.783355
26000000,26000000,-0.1615998,0.15814318,-9.778006
26048000,26048000,-0.15908155,0.12192203,-9.793764
26096000,26096000,-0.17398404,0.18328504,-9.789076
26148000,26148000,-0.16147397,0.15011679,-9.765862
26200000,26200000,-0.18532753,0.142099,-9.791306
26248000,26248000,-0.1391799,0.137031,-9.774425
26300000,26300000,-0.15269473,0.16728395,-9.778612
26344000,26344000,-0.18548599,0.15509406,-9.7870655
26396000,26396000,-0.15761219,0.15349406,-9.767704
26448000,26448000,-0.16620667,0.15098335,-9.787938
26500000,26500000,-0.169584,0.13916813,-9.782061
26548000,26548000,-0.18436863,0.15630075,-9.7762165
26600000,26600000,-0.16836329,0.14596912,-9.794533
26644000,26644000,-0.15929295,0.13801455,-9.799666
26700000,26700000,-0.188007,0.13827015,-9.785174
26748000,26748000,-0.15492633,0.15111813,-9.790558
26796000,26796000,-0.18382324,0.16761473,-9.77425
26844000,26844000,-0.17401439,0.16180435,-9.788738
26896000,26896000,-0.2010638,0.16539446,-9.774294
26948000,26948000,-0.1801096,0.15330106,-9.786396
26996000,26996000,-0.16054437,0.1587132,-9.798109
27044000,27044000,-0.1752566,0.14344802,-9.783278
27100000,27100000,-0.18997537,0.15522921,-9.781536
27148000,27148000,-0.1754785,0.1614597,-9.769551
27200000,27200000,-0.17218545,0.15659487,-9.764984
27248000,27248000,-0.17111345,0.11673689,-9.749996
27300000,27300000,-0.1561467,0.14798456,-9.793034
27348000,27348000,-0.14359483,0.15468931,-9.801773
27400000,27400000,-0.17731014,0.19283369,-9.778418
27444000,27444000,-0.15465109,0.17558895,-9.790848
27500000,27500000,-0.17561312,0.16903405,-9.777039
27544000,27544000,-0.14690661,0.1781149,-9.779766
27596000,27596000,-0.124291256,0.16189489,-9.756492
27644000,27644000,-0.18713076,0.1493006,-9.765155
27700000,27700000,-0.19178589,0.16236377,-9.759332
27748000,27748000,-0.17085563,0.14500752,-9.7532
27800000,27800000,-0.1709371,0.14745533,-9.758694
27844000,27844000,-0.17468356,0.15474424,-9.76495
27900000,27900000,-0.17431292,0.14759031,-9.759984
27948000,27948000,-0.16019988,0.16588771,-9.781447
27996000,27996000,-0.15982209,0.15569763,-9.785872
28048000,28048000,-0.17565346,0.16274309,-9.790833
28100000,28100000,-0.17409517,0.13745314,-9.778507
28148000,28148000,-0.17889571,0.13615924,-9.744582
28200000,28200000,-0.1651625,0.14708856,-9.7597065
28248000,28248000,-0.15218504,0.16945845,-9.780961
28300000,28300000,-0.15217313,0.13442358,-9.781467
28348000,28348000,-0.16189867,0.14695655,-9.792154
28400000,28400000,-0.15735614,0.14537984,-9.788692
28448000,28448000,-0.16725881,0.15560415,-9.7824135
28500000,28500000,-0.20255196,0.15346928,-9.776131
28548000,28548000,-0.18974835,0.1457739,-9.774742
28600000,28600000,-0.1873399,0.17300716,-9.7791395
28648000,28648000,-0.1831137,0.16032752,-9.802581
28700000,28700000,-0.17670715,0.14550012,-9.741584
28748000,28748000,-0.16841659,0.17482351,-9.7590275
28800000,28800000,-0.19968979,0.15148269,-9.760201
28848000,28848000,-0.20169044,0.15407752,-9.765734
28900000,28900000,-0.19531713,0.15726376,-9.764349
28948000,28948000,-0.16783594,0.1728153,-9.774352
28996000,28996000,-0.17743707,0.11321485,-9.735745
29048000,29048000,-0.17001742,0.13397603,-9.791098
29100000,29100000,-0.15623048,0.16858213,-9.751273
29148000,29148000,-0.178543,0.15579176,-9.794461
29200000,29200000,-0.17736904,0.17094706,-9.796711
29244000,29244000,-0.1678503,0.17872994,-9.774111
29300000,29300000,-0.15574314,0.13840468,-9.796097
29344000,29344000,-0.19236115,0.1680835,-9.776474
29400000,29400000,-0.18550172,0.12586035,-9.767794
29448000,29448000,-0.17044735,0.13622603,-9.777311
29500000,29500000,-0.17437059,0.13319138,-9.77676
29548000,29548000,-0.20793295,0.14679691,-9.771637
29600000,29600000,-0.17823409,0.18254808,-9.779547
29644000,29644000,-0.16732241,0.15999258,-9.785447
29696000,29696000,-0.15022565,0.13962422,-9.782713
29748000,29748000,-0.19384469,0.13100119,-9.788576
29800000,29800000,-0.16166128,0.14355263,-9.784958
29848000,29848000,-0.18305923,0.17183705,-9.784107
29900000,29900000,-0.16793343,0.15081848,-9.772062
29944000,29944000,-0.19439748,0.16868001,-9.773466
29996000,29996000,-0.17713624,0.12929522,-9.781259
30044000,30044000,-0.1831193,0.14956486,-9.773744
30100000,30100000,-0.16509883,0.13940236,-9.791534
30148000,30148000,-0.18697944,0.15506837,-9.762192
30200000,30200000,-0.17182758,0.1648999,-9.786876
30248000,30248000,-0.1701017,0.12843472,-9.779629
30300000,30300000,-0.16010556,0.1796628,-9.763478
30348000,30348000,-0.17429176,0.15697223,-9.770682
30400000,30400000,-0.184624,0.14791054,-9.780948
30444000,30444000,-0.1474371,0.14895001,-9.78868
30500000,30500000,-0.20532578,0.13853264,-9.783323
30544000,30544000,-0.18416268,0.1399678,-9.792382
30600000,30600000,-0.19797096,0.118842304,-9.777681
30648000,30648000,-0.16781248,0.14489603,-9.768438
30700000,30700000,-0.19435059,0.109216526,-9.765276
30748000,30748000,-0.18598449,0.12356649,-9.760598
30800000,30800000,-0.19335455,0.14343986,-9.78092
30848000,30848000,-0.20078078,0.15762742,-9.781664
30900000,30900000,-0.15286836,0.17360833,-9.774674
30948000,30948000,-0.19267872,0.151281,-9.785727
30996000,30996000,-0.18437535,0.16019054,-9.764532
31048000,31048000,-0.18647668,0.14289452,-9.782836
31100000,31100000,-0.16540645,0.13550325,-9.779125
31148000,31148000,-0.17519106,0.16208693,-9.777927
31200000,31200000,-0.1874618,0.13358141,-9.784847
31248000,31248000,-0.17463587,0.14650524,-9.742908
31300000,31300000,-0.17364503,0.14552838,-9.768064
31348000,31348000,-0.19567274,0.10986403,-9.782813
31400000,31400000,-0.19415341,0.11651666,-9.769022
31448000,31448000,-0.17848384,0.13978398,-9.813331
31500000,31500000,-0.15062001,0.14567323,-9.788497
31544000,31544000,-0.18663296,0.13980804,-9.7850685
31596000,31596000,-0.17423655,0.15649357,-9.771639
31644000,31644000,-0.19406016,0.12420543,-9.773865
31700000,31700000,-0.17869253,0.14600149,-9.772443
31748000,31748000,-0.17717984,0.17017299,-9.782654
31796000,31796000,-0.1792278,0.12509066,-9.785328
31848000,31848000,-0.18391775,0.13792185,-9.777289
31900000,31900000,-0.18683945,0.14256242,-9.790235
31948000,31948000,-0.16606227,0.12608086,-9.784901
31996000,31996000,-0.16806619,0.13747409,-9.771285
32044000,32044000,-0.20763281,0.13418937,-9.791084
32096000,32096000,-0.16976033,0.1588925,-9.765769
32148000,32148000,-0.17691351,0.13517225,-9.773769
32200000,32200000,-0.1645723,0.14371482,-9.784252
32244000,32244000,-0.18421723,0.15724827,-9.78355
32296000,32296000,-0.19729343,0.14287663,-9.766058
32344000,32344000,-0.16103461,0.13358742,-9.784622
32396000,32396000,-0.15718421,0.1208051,-9.765641
32444000,32444000,-0.20025834,0.124469474,-9.76219
32496000,32496000,-0.17976409,0.14270848,-9.799957
32544000,32544000,-0.1813957,0.14015684,-9.7812
32596000,32596000,-0.19839798,0.14092764,-9.781492
32648000,32648000,-0.18240769,0.14136596,-9.7695055
32700000,32700000,-0.17704226,0.10810158,-9.812952
32748000,32748000,-0.20012766,0.14349863,-9.779813
32800000,32800000,-0.16153681,0.16973083,-9.798688
32848000,32848000,-0.17467931,0.13381955,-9.77462
32900000,32900000,-0.16553745,0.15311033,-9.766568
32948000,32948000,-0.15566105,0.10304757,-9.786031
32996000,32996000,-0.20640267,0.13639057,-9.775116
33048000,33048000,-0.1987012,0.15080383,-9.73922
33100000,33100000,-0.21199852,0.13638106,-9.815057
33148000,33148000,-0.17922586,0.13471052,-9.810909
33196000,33196000,-0.17098951,0.131286,-9.787333
33244000,33244000,-0.20001177,0.12032756,-9.7746525
33300000,33300000,-0.22399744,0.13701683,-9.77809
33348000,33348000,-0.1834439,0.12546636,-9.818237
33400000,33400000,-0.18174508,0.13824919,-9.752128
33448000,33448000,-0.1930818,0.13140002,-9.790625
33500000,33500000,-0.1766915,0.1301255,-9.77954
33548000,33548000,-0.1725772,0.11389699,-9.801071
33600000,33600000,-0.18778276,0.13770364,-9.798398
33644000,33644000,-0.19009346,0.12847549,-9.803255
33696000,33696000,-0.1869429,0.14088073,-9.777997
33748000,33748000,-0.19280858,0.10898745,-9.7848
33800000,33800000,-0.20795703,0.12958224,-9.786959
33848000,33848000,-0.1838476,0.1421076,-9.770997
33900000,33900000,-0.18472792,0.12935367,-9.765836
33944000,33944000,-0.20053256,0.111459605,-9.783485
33996000,33996000,-0.15904403,0.15470631,-9.7820425
34048000,34048000,-0.20114517,0.13529295,-9.776641
34100000,34100000,-0.20963752,0.14464702,-9.785922
34148000,34148000,-0.18344553,0.13634421,-9.771388
34196000,34196000,-0.19699337,0.1387836,-9.761945
34248000,34248000,-0.19706422,0.1379441,-9.794396
34300000,34300000,-0.20854609,0.13695247,-9.806852
34344000,34344000,-0.21947241,0.13059255,-9.799427
34400000,34400000,-0.19088237,0.14522707,-9.805011
34448000,34448000,-0.19480766,0.14476098,-9.8173
34500000,34500000,-0.18971401,0.12821393,-9.814188
34548000,34548000,-0.1923781,0.12116144,-9.807871
34596000,34596000,-0.21953523,0.14200482,-9.806836
34648000,34648000,-0.1942281,0.15040675,-9.791918
34700000,34700000,-0.191055,0.14839312,-9.802108
34748000,34748000,-0.21414043,0.16224487,-9.900741
34800000,34800000,-0.20987678,0.17725633,-10.040373
34844000,34844000,-0.20436125,0.17756027,-10.10617
34900000,34900000,-0.18504882,0.090671174,-10.109959
34944000,34944000,-0.20713624,0.01495818,-10.1124735
35000000,35000000,-0.17315376,-0.06132163,-10.046884
35044000,35044000,-0.13102017,-0.049589913,-9.975802
35100000,35100000,-0.21266535,0.16157067,-10.054107
35148000,35148000,-0.19562635,0.1344176,-10.23123
35200000,35200000,-0.1983561,0.13018057,-10.422316
35248000,35248000,-0.20419058,0.102619484,-10.549492
35300000,35300000,-0.18249983,0.09846729,-10.601121
35348000,35348000,-0.19175574,0.09056268,-10.6782675
35400000,35400000,-0.18889505,0.08946762,-10.689621
35448000,35448000,-0.20802727,0.07024569,-10.719673
35500000,35500000,-0.17855604,0.075213805,-10.720686
35548000,35548000,-0.18604806,0.0656,-10.711027
35600000,35600000,-0.16766387,0.058451414,-10.723919
35648000,35648000,-0.1933399,0.059378058,-10.738756
35700000,35700000,-0.165791,0.045560565,-10.705931
35748000,35748000,-0.1817229,0.03858105,-10.663643
35800000,35800000,-0.18458167,0.071758226,-10.68026
35844000,35844000,-0.19983548,0.06954241,-10.686827
35900000,35900000,-0.17817181,0.060394406,-10.639629
35944000,35944000,-0.16500959,0.08072165,-10.504403
36000000,36000000,-0.1650357,0.079442084,-10.221754
36048000,36048000,-0.20247729,0.07447581,-10.011339
36100000,36100000,-0.1839459,0.07376154,-9.942881
36148000,36148000,-0.17951828,0.07547673,-9.999396
36200000,36200000,-0.18919563,0.08207724,-10.039827
36248000,36248000,-0.18377934,0.07666162,-10.073328
36300000,36300000,-0.20946613,0.10110151,-10.065527
36348000,36348000,-0.18469408,0.12640679,-10.058311
36400000,36400000,-0.20435122,0.13669598,-10.08162
36448000,36448000,-0.19804654,0.10619774,-10.103664
36500000,36500000,-0.18568131,0.1288093,-10.101585
36548000,36548000,-0.18716554,0.14646778,-10.082873
36596000,36596000,-0.20623225,0.15920015,-10.07732
36648000,36648000,-0.2158735,0.14372495,-10.074905
36700000,36700000,-0.18051182,0.13324305,-10.080667
36748000,36748000,-0.20239492,0.15723853,-10.063961
36796000,36796000,-0.20453495,0.14777267,-10.044795
36848000,36848000,-0.22552554,0.15836854,-10.060577
36900000,36900000,-0.2260682,0.17813459,-10.044924
36948000,36948000,-0.2217077,0.16281667,-10.010071
36996000,36996000,-0.21264441,0.17367226,-10.0609045
37048000,37048000,-0.18480022,0.20050251,-10.026027
37100000,37100000,-0.17927603,0.1590033,-10.005658
37144000,37144000,-0.21863382,0.18826108,-9.99811
37196000,37196000,-0.1961804,0.19351067,-10.001739
37248000,37248000,-0.21201903,0.18577304,-10.018448
37300000,37300000,-0.21806285,0.19139038,-10.00614
37348000,37348000,-0.20177934,0.19178903,-9.994657
37400000,37400000,-0.22377938,0.19104427,-10.015377
37448000,37448000,-0.19328445,0.20411925,-9.994941
37500000,37500000,-0.17830029,0.21188185,-9.964254
37548000,37548000,-0.21385266,0.22080043,-9.966683
37600000,37600000,-0.2208084,0.21061045,-9.935919
37648000,37648000,-0.19984946,0.1992872,-9.97126
37700000,37700000,-0.21270758,0.18760094,-9.958464
37748000,37748000,-0.21281745,0.21597011,-9.946688
37800000,37800000,-0.19659993,0.21358204,-9.973467
37848000,37848000,-0.2002393,0.19521466,-9.992491
37900000,37900000,-0.2273985,0.18660367,-9.924017
37948000,37948000,-0.21409693,0.19296792,-9.948958
37996000,37996000,-0.21797541,0.2091521,-9.949047
38048000,38048000,-0.20503321,0.17833808,-9.941667
38096000,38096000,-0.22407416,0.1883472,-9.96443
38144000,38144000,-0.21933149,0.21543178,-9.911695
38200000,38200000,-0.17870153,0.21090743,-9.908365
38248000,38248000,-0.20746252,0.20363341,-9.910133
38300000,38300000,-0.21116386,0.20081463,-9.9121685
38344000,38344000,-0.19670443,0.20080043,-9.901791
38400000,38400000,-0.21568418,0.20229816,-9.920608
38448000,38448000,-0.18425895,0.22325274,-9.930944
38500000,38500000,-0.16119948,0.204686,-9.898343
38544000,38544000,-0.2118785,0.18157922,-9.879058
38600000,38600000,-0.19720504,0.20287713,-9.889724
38648000,38648000,-0.18481126,0.2095201,-9.911695
38700000,38700000,-0.18926474,0.17444076,-9.905852
38748000,38748000,-0.23588338,0.20926908,-9.903048
38800000,38800000,-0.1927779,0.2009621,-9.923654
38848000,38848000,-0.1969462,0.17722401,-9.922254
38900000,38900000,-0.20528056,0.20099036,-9.893997
38944000,38944000,-0.17720184,0.21004644,-9.85617
39000000,39000000,-0.17608938,0.20338856,-9.884448
39048000,39048000,-0.1988575,0.18388999,-9.893751
39100000,39100000,-0.19140339,0.18577057,-9.855821
39148000,39148000,-0.19597384,0.1804438,-9.866318
39196000,39196000,-0.19202381,0.17892967,-9.913191
39248000,39248000,-0.17239527,0.1786749,-9.882858
39300000,39300000,-0.20106924,0.17761534,-9.870423
39348000,39348000,-0.20687762,0.18549265,-9.840677
39400000,39400000,-0.14874546,0.18570024,-9.882514
39448000,39448000,-0.17395282,0.17147544,-9.878031
39500000,39500000,-0.19880137,0.18836698,-9.832085
39548000,39548000,-0.18191478,0.19056205,-9.821617
39600000,39600000,-0.18209636,0.17991664,-9.858567
39648000,39648000,-0.20163338,0.20321506,-9.874085
39700000,39700000,-0.19102988,0.20353927,-9.848604
39748000,39748000,-0.17759198,0.1640814,-9.800652
39800000,39800000,-0.14374562,0.16603598,-9.826721
39848000,39848000,-0.16499494,0.18800054,-9.854991
39900000,39900000,-0.1939088,0.1889943,-9.819771
39944000,39944000,-0.17368865,0.1832082,-9.809582
39996000,39996000,-0.19708022,0.16424519,-9.841186
40048000,40048000,-0.18045515,0.18512094,-9.874786
40100000,40100000,-0.16931513,0.21104029,-9.832647
40148000,40148000,-0.1702367,0.1748867,-9.7998705
40196000,40196000,-0.19363597,0.17310883,-9.848123
40248000,40248000,-0.179086,0.13936694,-9.873935
40300000,40300000,-0.18200886,0.16747203,-9.826681
40348000,40348000,-0.21747012,0.1589942,-9.8063545
40400000,40400000,-0.16335392,0.18846415,-9.806394
40444000,40444000,-0.17454487,0.16859192,-9.826533
40500000,40500000,-0.16629787,0.17570397,-9.820972
40548000,40548000,-0.18645841,0.1446177,-9.807442
40600000,40600000,-0.16251257,0.14642385,-9.8141775
40648000,40648000,-0.19932812,0.16291085,-9.853415
40700000,40700000,-0.19022048,0.14295703,-9.825402
40748000,40748000,-0.18649685,0.15506774,-9.755415
40800000,40800000,-0.19382292,0.16070129,-9.839144
40848000,40848000,-0.14754093,0.18829657,-9.895405
40896000,40896000,-0.21576668,0.15677533,-9.8153715
40944000,40944000,-0.20504224,0.16723692,-9.783765
41000000,41000000,-0.19778156,0.17579569,-9.846277
41048000,41048000,-0.23024014,0.17893651,-9.834028
41100000,41100000,-0.18450673,0.15513577,-9.79462
41148000,41148000,-0.18361956,0.1587477,-9.76059
41196000,41196000,-0.1837512,0.15911168,-9.816429
41248000,41248000,-0.20102988,0.14896578,-9.84144
41300000,41300000,-0.19113654,0.1625604,-9.775225
41348000,41348000,-0.21496764,0.1776249,-9.7673645
41400000,41400000,-0.20636371,0.18153033,-9.809784
41448000,41448000,-0.18565176,0.17669953,-9.834261
41500000,41500000,-0.20436071,0.16524428,-9.527152
41548000,41548000,-0.18881388,0.15699491,-9.172865
41600000,41600000,-0.18580548,0.17612687,-9.125769
41648000,41648000,-0.20729148,0.13100979,-9.177416
41700000,41700000,-0.21305147,0.151058,-9.16355
41748000,41748000,-0.20534292,0.19941357,-9.208415
41800000,41800000,-0.19281301,0.16125914,-9.289332
41848000,41848000,-0.21133609,0.17009693,-9.350441
41896000,41896000,-0.17159274,0.17441764,-9.313192
41948000,41948000,-0.18108998,0.15762888,-9.288352
41996000,41996000,-0.18356468,0.17208703,-9.342682
42044000,42044000,-0.18255958,0.16808295,-9.360274
42100000,42100000,-0.1931698,0.17029063,-9.328439
42148000,42148000,-0.16647166,0.15892693,-9.284684
42196000,42196000,-0.19349928,0.17616436,-9.34177
42244000,42244000,-0.19854769,0.1438872,-9.33173
42296000,42296000,-0.19693302,0.1590904,-9.336013
42348000,42348000,-0.1961816,0.15689224,-9.310639
42400000,42400000,-0.16062453,0.13974091,-9.36057
42448000,42448000,-0.18691383,0.14959946,-9.408524
42500000,42500000,-0.21994935,0.16057725,-9.305891
42548000,42548000,-0.19993287,0.18772736,-9.259269
42600000,42600000,-0.1943893,0.1535548,-9.328502
42648000,42648000,-0.20059496,0.16700542,-9.295479
42700000,42700000,-0.1974602,0.16767862,-9.301004
42748000,42748000,-0.16605286,0.16579276,-9.306852
42796000,42796000,-0.16659302,0.1691685,-9.294212
42844000,42844000,-0.18511823,0.15604874,-9.36607
42900000,42900000,-0.21371236,0.16391847,-9.298805
42948000,42948000,-0.1683276,0.16992958,-9.278506
43000000,43000000,-0.18382698,0.17170824,-9.236436
43048000,43048000,-0.16369322,0.13407433,-8.945621
43100000,43100000,-0.18941306,0.15885308,-8.989666
43148000,43148000,-0.15833245,0.18188311,-9.030795
43196000,43196000,-0.18356895,0.18991432,-9.093881
43244000,43244000,-0.17687124,0.1795637,-9.158187
43296000,43296000,-0.15439272,0.18303058,-9.127405
43348000,43348000,-0.17853907,0.1658323,-9.069486
43396000,43396000,-0.18283576,0.19519912,-9.023543
43448000,43448000,-0.22730806,0.23737332,-9.057867
43500000,43500000,-0.22729754,0.20917566,-9.089663
43548000,43548000,-0.27137357,0.23184769,-9.130827
43596000,43596000,-0.255028,0.25162095,-9.233929
43648000,43648000,-0.351201,0.2570089,-9.342161
43700000,43700000,-0.38066846,0.2795553,-9.328493
43744000,43744000,-0.42058372,0.3235811,-9.359197
43796000,43796000,-0.4574666,0.3041441,-9.427397
43844000,43844000,-0.50609505,0.31646043,-9.408413
43896000,43896000,-0.5312749,0.3511282,-9.372566
43948000,43948000,-0.5654907,0.37380028,-9.342089
44000000,44000000,-0.61805564,0.3531419,-9.557552
44048000,44048000,-0.67590845,0.39424372,-9.873161
44100000,44100000,-0.75803626,0.39996266,-10.156393
44148000,44148000,-0.83691883,0.3982694,-10.363406
44200000,44200000,-0.87855685,0.42305228,-10.45732
44248000,44248000,-0.9509906,0.3908637,-10.292037
44300000,44300000,-1.0034426,0.37277675,-10.13785
44348000,44348000,-1.0512167,0.33870897,-10.081858
44400000,44400000,-1.0800049,0.33557135,-10.012278
44448000,44448000,-1.122167,0.2891125,-9.97891
44500000,44500000,-1.1995771,0.25006765,-9.910891
44548000,44548000,-1.2242637,0.25168267,-9.835494
44600000,44600000,-1.3067871,0.23027521,-9.854475
44648000,44648000,-1.3564973,0.15306363,-9.964616
44700000,44700000,-1.3961408,0.13203855,-9.906859
44748000,44748000,-1.4238949,0.11274628,-9.851883
44800000,44800000,-1.4860384,0.08085023,-9.743446
44848000,44848000,-1.4912806,0.044619318,-9.682829
44900000,44900000,-1.5358894,0.024320671,-9.608315
44948000,44948000,-1.5745723,0.015912691,-9.582792
45000000,45000000,-1.6050519,0.03409913,-9.604913
45048000,45048000,-1.6679916,0.031026985,-9.619486
45096000,45096000,-1.6680789,0.07786267,-9.618009
45148000,45148000,-1.72741,0.07034096,-9.633956
45200000,45200000,-1.7568903,0.06158627,-9.676914
45244000,45244000,-1.7244015,0.008025222,-9.681688
45300000,45300000,-1.7661405,0.060622066,-9.661781
45348000,45348000,-1.7914712,0.035784442,-9.653751
45400000,45400000,-1.7723322,0.04449168,-9.634363
45448000,45448000,-1.7992837,0.060748376,-9.570344
45500000,45500000,-1.8214579,0.07319428,-9.598377
45544000,45544000,-1.8313441,0.023458578,-9.62914
45600000,45600000,-1.8128834,0.029050935,-9.671283
45648000,45648000,-1.7813781,-0.01931363,-9.761456
45700000,45700000,-1.838019,-0.020765092,-9.797893
45748000,45748000,-1.8334544,-0.025257671,-9.810772
45800000,45800000,-1.8227402,0.009018954,-9.825409
45844000,45844000,-1.7752541,-0.006903651,-9.805342
45900000,45900000,-1.7991308,0.011660246,-9.741436
45948000,45948000,-1.78585,-0.0024925775,-9.7258625
46000000,46000000,-1.7500176,-0.0036268604,-9.706523
46048000,46048000,-1.7492924,-0.02437076,-9.744232
46100000,46100000,-1.7157608,-0.020241812,-9.694339
46148000,46148000,-1.7390046,-0.052691456,-9.686041
46200000,46200000,-1.7091305,-0.04295411,-9.706809
46248000,46248000,-1.7261243,-0.059339207,-9.710441
46300000,46300000,-1.7400625,-0.047848456,-9.700884
46344000,46344000,-1.7318834,-0.064662084,-9.700752
46400000,46400000,-1.7150173,-0.08328995,-9.717676
46448000,46448000,-1.6989043,-0.09583969,-9.715124
46500000,46500000,-1.6814843,-0.08062051,-9.696856
46548000,46548000,-1.7156403,-0.07582867,-9.709767
46596000,46596000,-1.6864736,-0.09910023,-9.661664
46648000,46648000,-1.7047894,-0.076625735,-9.716003
46700000,46700000,-1.7104322,-0.10371509,-9.708651
46748000,46748000,-1.7012475,-0.11156084,-9.711607
46800000,46800000,-1.6957777,-0.13053559,-9.696206
46848000,46848000,-1.6744142,-0.145229,-9.707929
46896000,46896000,-1.654378,-0.13722265,-9.66765
46948000,46948000,-1.7051743,-0.13255861,-9.670125
47000000,47000000,-1.724642,-0.13674344,-9.651662
47044000,47044000,-1.7164737,-0.11974767,-9.636677
47100000,47100000,-1.6802655,-0.12561987,-9.598643
47148000,47148000,-1.7082883,-0.14060977,-9.672134
47200000,47200000,-1.7010181,-0.1329892,-9.623973
47244000,47244000,-1.6990594,-0.12686023,-9.646179
47300000,47300000,-1.7055068,-0.1395976,-9.640813
47348000,47348000,-1.6882578,-0.12254644,-9.627688
47400000,47400000,-1.6777524,-0.14639048,-9.608478
47448000,47448000,-1.6952878,-0.11897707,-9.613943
47500000,47500000,-1.7059911,-0.1396906,-9.63348
47548000,47548000,-1.7048486,-0.09669554,-9.646191
47600000,47600000,-1.7021759,-0.10519947,-9.671604
47648000,47648000,-1.722604,-0.11558253,-9.70738
47700000,47700000,-1.7079127,-0.112820685,-9.631399
47748000,47748000,-1.701253,-0.12127984,-9.613985
47800000,47800000,-1.7086585,-0.11405537,-9.602134
47848000,47848000,-1.7132348,-0.10976931,-9.652126
47900000,47900000,-1.7020001,-0.10952498,-9.631033
47948000,47948000,-1.7112235,-0.11502984,-9.650415
48000000,48000000,-1.7156647,-0.10604282,-9.672788
48048000,48048000,-1.7212182,-0.12894665,-9.642934
48100000,48100000,-1.7258512,-0.10594818,-9.565687
48148000,48148000,-1.7248881,-0.09316424,-9.619573
48200000,48200000,-1.7279468,-0.12374489,-9.628746
48248000,48248000,-1.730873,-0.059933882,-9.578388
48300000,48300000,-1.7152092,-0.12906693,-9.600021
48348000,48348000,-1.7143776,-0.0740556,-9.608459
48396000,48396000,-1.7260637,-0.112898394,-9.625141
48448000,48448000,-1.7230117,-0.07383059,-9.654654
48500000,48500000,-1.7025812,-0.10250273,-9.62541
48548000,48548000,-1.7468058,-0.07920557,-9.601959
48600000,48600000,-1.7461349,-0.08264609,-9.602053
48648000,48648000,-1.756371,-0.0759933,-9.624466
48700000,48700000,-1.7457492,-0.06033583,-9.635235
48748000,48748000,-1.7549045,-0.0796327,-9.660976
48796000,48796000,-1.7424881,-0.06379568,-9.657432
48844000,48844000,-1.7638421,-0.07726302,-9.638706
48900000,48900000,-1.7590454,-0.05032295,-9.598464
48948000,48948000,-1.7517833,-0.062640004,-9.607703
49000000,49000000,-1.7778655,-0.05131203,-9.613938
49044000,49044000,-1.7451714,-0.043801647,-9.60214
49100000,49100000,-1.753624,-0.034028023,-9.60298
49148000,49148000,-1.7659359,-0.058126014,-9.614484
49200000,49200000,-1.7433753,-0.045229755,-9.646253
49248000,49248000,-1.7657795,-0.039128084,-9.63738
49300000,49300000,-1.774848,-0.057090398,-9.621244
49344000,49344000,-1.7759267,-0.05747408,-9.592651
49400000,49400000,-1.7639294,-0.06153667,-9.6219225
49448000,49448000,-1.7572956,-0.036987234,-9.594865
49496000,49496000,-1.7687016,-0.032531265,-9.63606
49548000,49548000,-1.7695446,-0.03959873,-9.664463
49600000,49600000,-1.756526,-0.009110995,-9.687153
49648000,49648000,-1.7859476,-0.049812138,-9.625003
49700000,49700000,-1.7739078,-0.013775161,-9.650388
49744000,49744000,-1.7443184,-0.019330788,-9.6117325
49796000,49796000,-1.8028293,-0.022042911,-9.610538
49848000,49848000,-1.7715298,-0.016800962,-9.620664
49900000,49900000,-1.7874455,-0.017355414,-9.644305
49948000,49948000,-1.7757708,-0.03302906,-9.629912
50000000,50000000,-1.760165,-0.028473282,-9.663916
50048000,50048000,-1.758172,-0.0016840193,-9.643262
50100000,50100000,-1.7867113,-0.016204994,-9.613229
50148000,50148000,-1.7686042,-0.019041957,-9.565602
50200000,50200000,-1.7580569,-0.034203913,-9.620085
50248000,50248000,-1.7745785,-0.021742582,-9.5720825
50300000,50300000,-1.7611629,-0.017664747,-9.627403
50348000,50348000,-1.7823566,-0.026332222,-9.634865
50400000,50400000,-1.7482126,-0.032396797,-9.638004
50448000,50448000,-1.7863367,-0.03833218,-9.6503105
50500000,50500000,-1.775065,-0.008939097,-9.599455
50548000,50548000,-1.78812,-0.028854173,-9.562947
50600000,50600000,-1.7742326,-0.0054517016,-9.592316
50648000,50648000,-1.7941715,-0.0035210934,-9.548864
50700000,50700000,-1.7815833,-0.0030684203,-9.599743
50744000,50744000,-1.789867,0.0027085226,-9.597614
50800000,50800000,-1.793896,-0.030249933,-9.640118
50844000,50844000,-1.802688,-0.049596127,-9.620966
50900000,50900000,-1.7841431,-0.03151024,-9.612511
50944000,50944000,-1.7768238,-0.033103123,-9.575097
51000000,51000000,-1.7800927,-0.031842295,-9.554537
51048000,51048000,-1.7741822,-0.011620762,-9.585278
51100000,51100000,-1.8186963,-0.035478108,-9.613786
51144000,51144000,-1.7960911,-0.018952819,-9.644304
51200000,51200000,-1.801863,-0.019739557,-9.649644
51248000,51248000,-1.7858745,-0.03616953,-9.642828
51300000,51300000,-1.7770555,-0.04750791,-9.658448
51348000,51348000,-1.7762247,-0.023432313,-9.635336
51396000,51396000,-1.80199,-0.06326959,-9.600454
51448000,51448000,-1.7759755,-0.0134398425,-9.624223
51500000,51500000,-1.8094168,-0.025277592,-9.605315
51548000,51548000,-1.7898197,-0.036677208,-9.632977
51600000,51600000,-1.7993015,-0.0539711,-9.653263
51648000,51648000,-1.7893218,-0.047293574,-9.663956
51700000,51700000,-1.7832519,-0.052285865,-9.601181
51748000,51748000,-1.7675893,-0.06491907,-9.586773
51800000,51800000,-1.8094125,-0.016735826,-9.602507
51848000,51848000,-1.8152142,-0.016113896,-9.615267
51900000,51900000,-1.8020158,-0.031556018,-9.611822
51944000,51944000,-1.8024843,-0.036047004,-9.6148615
52000000,52000000,-1.8141879,-0.045980908,-9.662979
52048000,52048000,-1.8098595,-0.037588015,-9.602863
52100000,52100000,-1.8189545,-0.029163182,-9.593633
52148000,52148000,-1.8158526,-0.023454137,-9.5999155
52200000,52200000,-1.7772216,-0.057609797,-9.58352
52248000,52248000,-1.8100973,-0.021419179,-9.570967
52300000,52300000,-1.779049,-0.047057316,-9.578038
52348000,52348000,-1.8106465,-0.04514464,-9.642979
52396000,52396000,-1.8120844,-0.027036866,-9.635918
52448000,52448000,-1.810466,-0.06322284,-9.629
52496000,52496000,-1.7970921,-0.017400805,-9.625032
52548000,52548000,-1.7993557,-0.04463176,-9.554365
52596000,52596000,-1.8198661,-0.04238995,-9.58045
52648000,52648000,-1.7921908,-0.057724047,-9.586441
52696000,52696000,-1.8100584,-0.05093949,-9.61187
52748000,52748000,-1.8275856,-0.05583017,-9.61931
52800000,52800000,-1.8197954,-0.041499544,-9.672212
52848000,52848000,-1.8186426,-0.02202985,-9.616268
52900000,52900000,-1.8090062,-0.03387033,-9.607307
52944000,52944000,-1.8117961,-0.027495723,-9.590788
53000000,53000000,-1.8076392,-0.02301609,-9.601157
53048000,53048000,-1.8061608,-0.07846532,-9.579986
53100000,53100000,-1.8291589,-0.0013458906,-9.616303
53148000,53148000,-1.7924271,-0.045893446,-9.652905
53200000,53200000,-1.8194375,-0.024407646,-9.647192
53248000,53248000,-1.825412,-0.006465001,-9.628898
53300000,53300000,-1.8111366,-0.021412209,-9.611806
53348000,53348000,-1.8070351,-0.050865997,-9.598951
53400000,53400000,-1.8000228,-0.048080534,-9.600452
53448000,53448000,-1.8110847,-0.041063383,-9.620895
53500000,53500000,-1.8254716,-0.037594877,-9.625404
53548000,53548000,-1.8359934,-0.044992328,-9.634093
53600000,53600000,-1.8347881,-0.042092167,-9.630986
53648000,53648000,-1.8404307,-0.04642299,-9.6546755
53700000,53700000,-1.8338687,-0.04550956,-9.624674
53748000,53748000,-1.8279134,-0.049854234,-9.579403
53796000,53796000,-1.824737,-0.025686866,-9.570486
53844000,53844000,-1.8259422,-0.03586412,-9.599837
53896000,53896000,-1.7926372,-0.07208612,-9.59498
53948000,53948000,-1.830668,-0.012939818,-9.626022
54000000,54000000,-1.8260695,-0.044502318,-9.651215
54044000,54044000,-1.8197603,-0.0020037899,-9.648507
54100000,54100000,-1.8163884,-0.049240693,-9.605269
54144000,54144000,-1.8510776,-0.059123475,-9.572055
54200000,54200000,-1.8228903,-0.055457324,-9.576044
54248000,54248000,-1.8268896,-0.061480835,-9.580917
54300000,54300000,-1.8177298,-0.042651568,-9.591471
54348000,54348000,-1.8226476,-0.05708598,-9.6342945
54396000,54396000,-1.8300287,-0.035296876,-9.627807
54448000,54448000,-1.8379428,-0.032026883,-9.635839
54496000,54496000,-1.8334086,-0.0446861,-9.576784
54548000,54548000,-1.8405309,-0.04121392,-9.583024
54600000,54600000,-1.8403327,-0.028637126,-9.575964
54648000,54648000,-1.8134906,-0.038729526,-9.563772
54700000,54700000,-1.8248184,-0.043864403,-9.616283
54748000,54748000,-1.8089945,-0.053366564,-9.633665
54796000,54796000,-1.826084,-0.07736507,-9.6298
54848000,54848000,-1.8453536,-0.05263661,-9.646246
54900000,54900000,-1.8293066,-0.06372765,-9.591086
54948000,54948000,-1.8250575,-0.048001483,-9.553811
55000000,55000000,-1.8221426,-0.045663334,-9.596449
55048000,55048000,-1.8224088,-0.019572113,-9.595368
55100000,55100000,-1.8193873,-0.040343214,-9.598002
55148000,55148000,-1.8463544,-0.016323892,-9.607271
55196000,55196000,-1.8032298,-0.044065755,-9.624384
55244000,55244000,-1.8503716,-0.03983421,-9.630514
55300000,55300000,-1.861237,-0.040579554,-9.609859
55348000,55348000,-1.8275651,-0.05270053,-9.557421
55400000,55400000,-1.8424046,-0.047687598,-9.578215
55448000,55448000,-1.7928308,-0.04142853,-9.56349
55500000,55500000,-1.8415873,-0.05793159,-9.579858
55544000,55544000,-1.8326461,-0.010402853,-9.565786
55600000,55600000,-1.8382461,-0.069656655,-9.63902
55648000,55648000,-1.8345828,-0.05510948,-9.637102
55700000,55700000,-1.840761,-0.05117515,-9.610984
55748000,55748000,-1.8296922,-0.04816513,-9.581576
55800000,55800000,-1.8289516,-0.03746281,-9.56696
55848000,55848000,-1.8333995,-0.027076088,-9.594883
55900000,55900000,-1.8200568,-0.06034858,-9.592589
55944000,55944000,-1.8241681,-0.06492681,-9.599339
56000000,56000000,-1.8143497,-0.054630432,-9.640752
56048000,56048000,-1.8307146,-0.061584756,-9.650136
56096000,56096000,-1.8345594,-0.063276455,-9.620372
56144000,56144000,-1.8443749,-0.019817846,-9.592945
56196000,56196000,-1.8471333,-0.05086915,-9.602383
56248000,56248000,-1.8652582,-0.049032792,-9.574079
56300000,56300000,-1.8472409,-0.056014307,-9.5955925
56348000,56348000,-1.8543013,-0.060889322,-9.614361
56400000,56400000,-1.8436462,-0.046306476,-9.604218
56448000,56448000,-1.8512864,-0.058975566,-9.6407
56500000,56500000,-1.8609189,-0.04697988,-9.604777
56548000,56548000,-1.8465868,-0.043374605,-9.595661
56600000,56600000,-1.85253,-0.062020212,-9.591967
56648000,56648000,-1.862535,-0.04575211,-9.61351
56696000,56696000,-1.8510052,-0.04246452,-9.646243
56748000,56748000,-1.8382552,-0.04608434,-9.652238
56800000,56800000,-1.8294697,-0.032266993,-9.656664
56844000,56844000,-1.845599,-0.052521974,-9.670358
56900000,56900000,-1.8181005,-0.04282201,-9.628574
56948000,56948000,-1.8531355,-0.05983691,-9.572476
56996000,56996000,-1.8436453,-0.027990345,-9.570148
57048000,57048000,-1.8511462,-0.029789321,-9.598867
57100000,57100000,-1.8481042,-0.0687972,-9.609037
57148000,57148000,-1.859722,-0.04317325,-9.611315
57200000,57200000,-1.8518956,-0.059066847,-9.606231
57248000,57248000,-1.8227134,-0.07034762,-9.645064
57300000,57300000,-1.8399502,-0.04525729,-9.59865
57348000,57348000,-1.8366996,-0.031509176,-9.583925
57400000,57400000,-1.8165329,-0.039133005,-9.591246
57448000,57448000,-1.8205945,-0.030465912,-9.5678425
57500000,57500000,-1.8532892,-0.03666395,-9.571556
57548000,57548000,-1.8457179,-0.06760687,-9.637558
57600000,57600000,-1.8418431,-0.060445696,-9.623123
57648000,57648000,-1.8209672,-0.03940393,-9.6189575
57696000,57696000,-1.8388809,-0.052520074,-9.609043
57744000,57744000,-1.8381307,-0.057752896,-9.574215
57796000,57796000,-1.8378294,-0.05388911,-9.568251
57848000,57848000,-1.8418634,-0.02443779,-9.590616
57900000,57900000,-1.8467927,-0.06002173,-9.597477
57948000,57948000,-1.842155,-0.033889927,-9.633932
58000000,58000000,-1.8509226,-0.028250834,-9.634165
58048000,58048000,-1.8190993,-0.032086935,-9.627865
58100000,58100000,-1.861041,-0.04381381,-9.621124
58144000,58144000,-1.8099469,-0.046530068,-9.615822
58200000,58200000,-1.8129156,-0.05185754,-9.598471
58248000,58248000,-1.8514452,-0.06915813,-9.582356
58300000,58300000,-1.8317114,-0.06628947,-9.61528
58348000,58348000,-1.8344141,-0.055135928,-9.624263
58400000,58400000,-1.8237873,-0.049792286,-9.6796875
58448000,58448000,-1.8376546,-0.03767512,-9.649671
58500000,58500000,-1.8320819,-0.07273008,-9.594176
58548000,58548000,-1.8048668,-0.050987385,-9.583298
58600000,58600000,-1.843133,-0.044379607,-9.581093
58648000,58648000,-1.8378385,-0.07193314,-9.610429
58700000,58700000,-1.8371707,-0.052760817,-9.622049
58744000,58744000,-1.8204066,-0.0420501,-9.629442
58800000,58800000,-1.87002,-0.040068842,-9.653938
58844000,58844000,-1.8322071,-0.049771376,-9.646628
58896000,58896000,-1.8443522,-0.029006606,-9.607406
58948000,58948000,-1.843034,-0.06380297,-9.572971
59000000,59000000,-1.8228434,-0.047737576,-9.592712
59048000,59048000,-1.8474402,-0.019968916,-9.595261
59100000,59100000,-1.8399756,-0.03768937,-9.630257
59148000,59148000,-1.8396925,-0.050354093,-9.62327
59200000,59200000,-1.8633412,-0.08290097,-9.612621
59248000,59248000,-1.8544204,-0.057628002,-9.641745
59300000,59300000,-1.8324386,-0.03637847,-9.62388
59348000,59348000,-1.8453645,-0.08233568,-9.609951
59400000,59400000,-1.8479757,-0.062897526,-9.591486
59448000,59448000,-1.8326048,-0.046929225,-9.612215
59500000,59500000,-1.854299,-0.04660096,-9.616428
59548000,59548000,-1.8459307,-0.06076152,-9.635056
59600000,59600000,-1.8300704,-0.06674594,-9.673977
59648000,59648000,-1.8470209,-0.059716027,-9.648111
59700000,59700000,-1.8712795,-0.064462855,-9.593754
59744000,59744000,-1.8613541,-0.08240555,-9.607485
59800000,59800000,-1.8342899,-0.06596808,-9.586387
59848000,59848000,-1.8454525,-0.050071813,-9.608627
59900000,59900000,-1.8619534,-0.060449082,-9.641051
59948000,59948000,-1.8439417,-0.04815917,-9.585498
60000000,60000000,-1.8432368,-0.06274026,-9.643454
60048000,60048000,-1.8399796,-0.07236476,-9.631689
60100000,60100000,-1.8360106,-0.076165594,-9.605079
60148000,60148000,-1.8290269,-0.10732948,-9.592576
60200000,60200000,-1.8423591,-0.098931,-9.602966
60244000,60244000,-1.8691144,-0.07349734,-9.592798
60296000,60296000,-1.8457053,-0.071435906,-9.615613
60344000,60344000,-1.8295963,-0.058765013,-9.617727
60400000,60400000,-1.8344244,-0.06564835,-9.6707115
60448000,60448000,-1.8594803,-0.07685909,-9.647551
60500000,60500000,-1.841877,-0.06870541,-9.597576
60548000,60548000,-1.8189131,-0.08428926,-9.602171
60600000,60600000,-1.8387886,-0.06683307,-9.573355
60644000,60644000,-1.8034788,-0.092627406,-9.5808935
60696000,60696000,-1.8445821,-0.055431902,-9.6346
60744000,60744000,-1.8672389,-0.09153867,-9.634558
60800000,60800000,-1.8365108,-0.070971236,-9.627302
60848000,60848000,-1.8053904,-0.07378823,-9.653627
60900000,60900000,-1.8418294,-0.0773281,-9.609094
60944000,60944000,-1.8325481,-0.06009026,-9.58301
61000000,61000000,-1.825958,-0.05152166,-9.573145
61048000,61048000,-1.8275449,-0.061093926,-9.609611
61100000,61100000,-1.8335311,-0.0683149,-9.615304
61148000,61148000,-1.8805767,-0.08674566,-9.615065
61196000,61196000,-1.8341427,-0.057657406,-9.6269
61248000,61248000,-1.8345944,-0.09090662,-9.650098
61300000,61300000,-1.8726548,-0.08462268,-9.606898
61348000,61348000,-1.83411,-0.0773843,-9.621588
61400000,61400000,-1.8293328,-0.08869117,-9.623993
61448000,61448000,-1.8463002,-0.07723352,-9.623748
61500000,61500000,-1.8526914,-0.07755715,-9.620425
61548000,61548000,-1.8417007,-0.09705281,-9.626295
61600000,61600000,-1.8480963,-0.082557574,-9.654791
61648000,61648000,-1.8626994,-0.088122904,-9.6744795
61696000,61696000,-1.8340858,-0.08375925,-9.607286
61748000,61748000,-1.8514533,-0.08441361,-9.603167
61800000,61800000,-1.8408506,-0.07785499,-9.597999
61848000,61848000,-1.8407718,-0.075122744,-9.593029
61900000,61900000,-1.8329055,-0.10542313,-9.634021
61944000,61944000,-1.8326315,-0.08862906,-9.608388
62000000,62000000,-1.8111893,-0.09456659,-9.537474
62048000,62048000,-1.8173193,-0.08107666,-9.5231495
62096000,62096000,-1.8307939,-0.101594254,-9.513155
62148000,62148000,-1.8173028,-0.11291977,-9.566725
62200000,62200000,-1.8034075,-0.10547881,-9.655855
62248000,62248000,-1.7859335,-0.06467292,-9.661573
62300000,62300000,-1.7870277,-0.10808126,-9.7895155
62344000,62344000,-1.7767367,-0.10669787,-9.825634
62400000,62400000,-1.7133057,-0.08459223,-9.842459
62448000,62448000,-1.7133577,-0.09085962,-9.832813
62496000,62496000,-1.6786966,-0.124622956,-9.791631
62544000,62544000,-1.6447593,-0.10958425,-9.781506
