timestamp,timestamp_sample,yaw_composite,yaw_variance,yaw[0],yaw[1],yaw[2],yaw[3],yaw[4],innov_vn[0],innov_vn[1],innov_vn[2],innov_vn[3],innov_vn[4],innov_ve[0],innov_ve[1],innov_ve[2],innov_ve[3],innov_ve[4],weight[0],weight[1],weight[2],weight[3],weight[4],yaw_composite_valid
32396000,32316000,2.6779451,3.5801747,-2.5132742,-1.2566371,0.0,1.2566371,2.5132742,0.0,0.0,0.0,0.0,0.0,0.0,0.0,0.0,0.0,0.0,0.2,0.2,0.2,0.2,0.2,0
32404000,32324000,2.782822,3.6257257,-2.5132942,-1.256657,-1.9931693e-05,1.2566172,2.5132544,0.0,0.0,0.0,0.0,0.0,0.0,0.0,0.0,0.0,0.0,0.2,0.2,0.2,0.2,0.2,0
32412000,32332000,-3.0172377,3.8070066,-2.5133057,-1.2566684,-3.1374588e-05,1.2566057,2.513243,0.0,0.0,0.0,0.0,0.0,0.0,0.0,0.0,0.0,0.0,0.2,0.2,0.2,0.2,0.2,0
32420000,32340000,-3.041924,3.8324754,-2.513326,-1.2566888,-5.1661296e-05,1.2565855,2.5132227,0.0,0.0,0.0,0.0,0.0,0.0,0.0,0.0,0.0,0.0,0.2,0.2,0.2,0.2,0.2,0
32428000,32348000,3.041924,3.8326085,-2.5133476,-1.2567105,-7.338265e-05,1.2565637,2.513201,0.0,0.0,0.0,0.0,0.0,0.0,0.0,0.0,0.0,0.0,0.2,0.2,0.2,0.2,0.2,0
32436000,32356000,-2.819842,3.6469886,-2.5133655,-1.2567283,-9.1214024e-05,1.2565459,2.513183,0.0,0.0,0.0,0.0,0.0,0.0,0.0,0.0,0.0,0.0,0.2,0.2,0.2,0.2,0.2,0
32444000,32364000,3.1415927,3.9477286,-2.5133674,-1.2567302,-9.3131915e-05,1.256544,2.5131812,0.0,0.0,0.0,0.0,0.0,0.0,0.0,0.0,0.0,0.0,0.2,0.2,0.2,0.2,0.2,0
32452000,32372000,3.041924,3.8326201,-2.5133572,-1.25672,-8.285513e-05,1.2565542,2.5131915,0.0,0.0,0.0,0.0,0.0,0.0,0.0,0.0,0.0,0.0,0.2,0.2,0.2,0.2,0.2,0
32460000,32380000,3.1415927,3.9477606,-2.5133433,-1.256706,-6.8858615e-05,1.2565682,2.5132055,0.0,0.0,0.0,0.0,0.0,0.0,0.0,0.0,0.0,0.0,0.2,0.2,0.2,0.2,0.2,0
32468000,32388000,2.782822,3.6257558,-2.5133417,-1.2567043,-6.7302724e-05,1.2565699,2.513207,0.0,0.0,0.0,0.0,0.0,0.0,0.0,0.0,0.0,0.0,0.2,0.2,0.2,0.2,0.2,0
32476000,32396000,2.8501358,3.6665912,-2.513351,-1.2567137,-7.661206e-05,1.2565606,2.5131977,0.0,0.0,0.0,0.0,0.0,0.0,0.0,0.0,0.0,0.0,0.2,0.2,0.2,0.2,0.2,0
32484000,32404000,2.5829935,3.5579376,-2.5133603,-1.2567229,-8.58911e-05,1.2565513,2.5131884,0.0,0.0,0.0,0.0,0.0,0.0,0.0,0.0,0.0,0.0,0.2,0.2,0.2,0.2,0.2,0
32492000,32412000,3.0791738,3.873419,-2.513373,-1.2567356,-9.845684e-05,1.2565387,2.513176,0.0,0.0,0.0,0.0,0.0,0.0,0.0,0.0,0.0,0.0,0.2,0.2,0.2,0.2,0.2,0
32500000,32420000,-2.6779451,3.5801404,-2.513402,-1.2567649,-0.00012775608,1.2565094,2.5131466,0.0,0.0,0.0,0.0,0.0,0.0,0.0,0.0,0.0,0.0,0.2,0.2,0.2,0.2,0.2,0
32508000,32428000,-3.041924,3.8323932,-2.5134103,-1.2567732,-0.00013609313,1.2565011,2.5131383,0.0,0.0,0.0,0.0,0.0,0.0,0.0,0.0,0.0,0.0,0.2,0.2,0.2,0.2,0.2,0
32516000,32436000,-3.041924,3.8323805,-2.5134232,-1.256786,-0.00014884505,1.2564883,2.5131254,0.0,0.0,0.0,0.0,0.0,0.0,0.0,0.0,0.0,0.0,0.2,0.2,0.2,0.2,0.2,0
32524000,32444000,-2.782822,3.6256444,-2.5134213,-1.2567842,-0.00014702448,1.2564901,2.5131273,0.0,0.0,0.0,0.0,0.0,0.0,0.0,0.0,0.0,0.0,0.2,0.2,0.2,0.2,0.2,0
32532000,32452000,-2.976444,3.767446,-2.5134344,-1.2567973,-0.00016010922,1.2564771,2.5131145,0.0,0.0,0.0,0.0,0.0,0.0,0.0,0.0,0.0,0.0,0.2,0.2,0.2,0.2,0.2,0
32540000,32460000,-2.7468016,3.6075203,-2.513453,-1.2568159,-0.00017876469,1.2564584,2.5130956,0.0,0.0,0.0,0.0,0.0,0.0,0.0,0.0,0.0,0.0,0.2,0.2,0.2,0.2,0.2,0
32548000,32468000,-3.0584514,3.8500915,-2.5134544,-1.2568171,-0.00018004818,1.2564571,2.5130944,0.0,0.0,0.0,0.0,0.0,0.0,0.0,0.0,0.0,0.0,0.2,0.2,0.2,0.2,0.2,0
32556000,32476000,3.1415927,3.9475787,-2.5134935,-1.2568566,-0.00021939687,1.2564178,2.5130548,0.0,0.0,0.0,0.0,0.0,0.0,0.0,0.0,0.0,0.0,0.2,0.2,0.2,0.2,0.2,0
32564000,32484000,-2.3561945,3.5778213,-2.513517,-1.2568798,-0.00024273997,1.2563944,2.5130317,0.0,0.0,0.0,0.0,0.0,0.0,0.0,0.0,0.0,0.0,0.2,0.2,0.2,0.2,0.2,0
32572000,32492000,-2.6779451,3.5801065,-2.5135221,-1.256885,-0.0002479182,1.2563893,2.5130265,0.0,0.0,0.0,0.0,0.0,0.0,0.0,0.0,0.0,0.0,0.2,0.2,0.2,0.2,0.2,0
32580000,32500000,-3.0172377,3.80682,-2.5135036,-1.2568665,-0.00022933229,1.2564079,2.513045,0.0,0.0,0.0,0.0,0.0,0.0,0.0,0.0,0.0,0.0,0.2,0.2,0.2,0.2,0.2,0
32588000,32508000,3.0172377,3.8072867,-2.5135071,-1.2568699,-0.00023277795,1.2564044,2.5130415,0.0,0.0,0.0,0.0,0.0,0.0,0.0,0.0,0.0,0.0,0.2,0.2,0.2,0.2,0.2,0
32596000,32516000,-2.3561945,3.5778236,-2.5135174,-1.2568803,-0.00024322535,1.2563939,2.5130312,0.0,0.0,0.0,0.0,0.0,0.0,0.0,0.0,0.0,0.0,0.2,0.2,0.2,0.2,0.2,0
32604000,32524000,-2.863293,3.6753967,-2.513546,-1.2569089,-0.0002717447,1.2563655,2.5130026,0.0,0.0,0.0,0.0,0.0,0.0,0.0,0.0,0.0,0.0,0.2,0.2,0.2,0.2,0.2,0
32612000,32532000,-2.6779451,3.5801015,-2.513546,-1.256909,-0.00027187224,1.2563653,2.5130024,0.0,0.0,0.0,0.0,0.0,0.0,0.0,0.0,0.0,0.0,0.2,0.2,0.2,0.2,0.2,0
32620000,32540000,-2.896614,3.699811,-2.5135536,-1.2569165,-0.0002793944,1.2563578,2.512995,0.0,0.0,0.0,0.0,0.0,0.0,0.0,0.0,0.0,0.0,0.2,0.2,0.2,0.2,0.2,0
32628000,32548000,-2.8706458,3.6805863,-2.5135593,-1.2569222,-0.00028502868,1.2563522,2.5129895,0.0,0.0,0.0,0.0,0.0,0.0,0.0,0.0,0.0,0.0,0.2,0.2,0.2,0.2,0.2,0
32636000,32556000,-2.896614,3.699794,-2.5135775,-1.2569404,-0.000303232,1.256334,2.5129712,0.0,0.0,0.0,0.0,0.0,0.0,0.0,0.0,0.0,0.0,0.2,0.2,0.2,0.2,0.2,0
32644000,32564000,-2.6779451,3.5800858,-2.5136032,-1.2569661,-0.00032901225,1.2563082,2.5129454,0.0,0.0,0.0,0.0,0.0,0.0,0.0,0.0,0.0,0.0,0.2,0.2,0.2,0.2,0.2,0
32652000,32572000,2.976444,3.7679117,-2.513606,-1.2569689,-0.00033176134,1.2563055,2.5129426,0.0,0.0,0.0,0.0,0.0,0.0,0.0,0.0,0.0,0.0,0.2,0.2,0.2,0.2,0.2,0
32660000,32580000,2.976444,3.7679048,-2.513598,-1.2569607,-0.0003236493,1.2563136,2.5129507,0.0,0.0,0.0,0.0,0.0,0.0,0.0,0.0,0.0,0.0,0.2,0.2,0.2,0.2,0.2,0
32668000,32588000,2.976444,3.7679038,-2.5135965,-1.2569593,-0.00032220042,1.256315,2.512952,0.0,0.0,0.0,0.0,0.0,0.0,0.0,0.0,0.0,0.0,0.2,0.2,0.2,0.2,0.2,0
32676000,32596000,-2.863293,3.6753697,-2.5135925,-1.2569554,-0.00031825874,1.256319,2.5129561,0.0,0.0,0.0,0.0,0.0,0.0,0.0,0.0,0.0,0.0,0.2,0.2,0.2,0.2,0.2,0
32684000,32604000,3.070285,3.8636918,-2.5135887,-1.2569516,-0.0003144382,1.2563229,2.51296,0.0,0.0,0.0,0.0,0.0,0.0,0.0,0.0,0.0,0.0,0.2,0.2,0.2,0.2,0.2,0
32692000,32612000,-2.4980917,3.5533216,-2.5135946,-1.2569575,-0.0003205059,1.2563167,2.512954,0.0,0.0,0.0,0.0,0.0,0.0,0.0,0.0,0.0,0.0,0.2,0.2,0.2,0.2,0.2,0
32700000,32620000,-2.3996453,3.5660663,-2.5135975,-1.2569605,-0.0003234104,1.2563138,2.5129511,0.0,0.0,0.0,0.0,0.0,0.0,0.0,0.0,0.0,0.0,0.2,0.2,0.2,0.2,0.2,0
32708000,32628000,-2.7468016,3.6074677,-2.5135949,-1.2569578,-0.00032065008,1.2563165,2.5129538,0.0,0.0,0.0,0.0,0.0,0.0,0.0,0.0,0.0,0.0,0.2,0.2,0.2,0.2,0.2,0
32716000,32636000,-2.8387077,3.6587846,-2.5135896,-1.2569526,-0.00031548782,1.2563218,2.512959,0.0,0.0,0.0,0.0,0.0,0.0,0.0,0.0,0.0,0.0,0.2,0.2,0.2,0.2,0.2,0
32724000,32644000,-2.819842,3.6468735,-2.5135903,-1.2569534,-0.00031622298,1.256321,2.512958,0.0,0.0,0.0,0.0,0.0,0.0,0.0,0.0,0.0,0.0,0.2,0.2,0.2,0.2,0.2,0
32732000,32652000,-2.6779451,3.5800998,-2.5135806,-1.2569435,-0.000306408,1.2563308,2.512968,0.0,0.0,0.0,0.0,0.0,0.0,0.0,0.0,0.0,0.0,0.2,0.2,0.2,0.2,0.2,0
32740000,32660000,-2.6135182,3.5630674,-2.5136034,-1.2569664,-0.00032924608,1.256308,2.5129452,0.0,0.0,0.0,0.0,0.0,0.0,0.0,0.0,0.0,0.0,0.2,0.2,0.2,0.2,0.2,0
32748000,32668000,-2.7468016,3.607452,-2.5136354,-1.2569983,-0.0003612057,1.256276,2.5129132,0.0,0.0,0.0,0.0,0.0,0.0,0.0,0.0,0.0,0.0,0.2,0.2,0.2,0.2,0.2,0
32756000,32676000,-2.6779451,3.5800781,-2.5136514,-1.2570143,-0.0003771008,1.2562602,2.5128975,0.0,0.0,0.0,0.0,0.0,0.0,0.0,0.0,0.0,0.0,0.2,0.2,0.2,0.2,0.2,0
32764000,32684000,-2.8387077,3.6587408,-2.5136626,-1.2570256,-0.00038843654,1.2562488,2.512886,0.0,0.0,0.0,0.0,0.0,0.0,0.0,0.0,0.0,0.0,0.2,0.2,0.2,0.2,0.2,0
32772000,32692000,-2.6779451,3.5800776,-2.513656,-1.2570189,-0.00038172715,1.2562555,2.5128927,0.0,0.0,0.0,0.0,0.0,0.0,0.0,0.0,0.0,0.0,0.2,0.2,0.2,0.2,0.2,0
32780000,32700000,-2.896614,3.6997433,-2.5136578,-1.2570207,-0.00038362783,1.2562536,2.5128908,0.0,0.0,0.0,0.0,0.0,0.0,0.0,0.0,0.0,0.0,0.2,0.2,0.2,0.2,0.2,0
32788000,32708000,-2.7233684,3.5970678,-2.513655,-1.2570179,-0.00038069894,1.2562566,2.512894,0.0,0.0,0.0,0.0,0.0,0.0,0.0,0.0,0.0,0.0,0.2,0.2,0.2,0.2,0.2,0
32796000,32716000,-2.4127264,3.5426104,-2.513354,-1.2595557,-0.002223399,1.2576822,2.515644,-0.012268287,0.025963211,0.069773436,0.05861812,0.007913543,0.0005107308,-0.033131927,-0.007167697,0.042521663,0.04726723,0.20141535,0.20057197,0.19894053,0.19877274,0.20029935,0
32804000,32724000,-2.4127052,3.5426097,-2.5133252,-1.259527,-0.0021945033,1.2577112,2.5156732,-0.012268287,0.025963211,0.069773436,0.05861812,0.007913543,0.0005107308,-0.033131927,-0.007167697,0.042521663,0.04726723,0.20141535,0.20057197,0.19894053,0.19877274,0.20029935,0
32812000,32732000,-2.412704,3.5426106,-2.5133257,-1.2595272,-0.002194861,1.2577107,2.5156727,-0.012268287,0.025963211,0.069773436,0.05861812,0.007913543,0.0005107308,-0.033131927,-0.007167697,0.042521663,0.04726723,0.20141535,0.20057197,0.19894053,0.19877274,0.20029935,0
32820000,32740000,-2.412705,3.5426097,-2.5133195,-1.2595211,-0.00218871,1.2577169,2.515679,-0.012268287,0.025963211,0.069773436,0.05861812,0.007913543,0.0005107308,-0.033131927,-0.007167697,0.042521663,0.04726723,0.20141535,0.20057197,0.19894053,0.19877274,0.20029935,0
32828000,32748000,-2.4127111,3.5426102,-2.5133257,-1.2595271,-0.002194724,1.2577109,2.515673,-0.012268287,0.025963211,0.069773436,0.05861812,0.007913543,0.0005107308,-0.033131927,-0.007167697,0.042521663,0.04726723,0.20141535,0.20057197,0.19894053,0.19877274,0.20029935,0
32836000,32756000,-2.412703,3.542611,-2.51332,-1.2595215,-0.0021890535,1.2577165,2.5156786,-0.012268287,0.025963211,0.069773436,0.05861812,0.007913543,0.0005107308,-0.033131927,-0.007167697,0.042521663,0.04726723,0.20141535,0.20057197,0.19894053,0.19877274,0.20029935,0
32844000,32764000,-2.412696,3.542614,-2.5133219,-1.2595235,-0.002191138,1.2577145,2.5156765,-0.012268287,0.025963211,0.069773436,0.05861812,0.007913543,0.0005107308,-0.033131927,-0.007167697,0.042521663,0.04726723,0.20141535,0.20057197,0.19894053,0.19877274,0.20029935,0
32852000,32772000,-2.4126983,3.542612,-2.5133133,-1.2595148,-0.0021824227,1.2577232,2.515685,-0.012268287,0.025963211,0.069773436,0.05861812,0.007913543,0.0005107308,-0.033131927,-0.007167697,0.042521663,0.04726723,0.20141535,0.20057197,0.19894053,0.19877274,0.20029935,0
32860000,32780000,-2.412692,3.5426145,-2.513315,-1.2595167,-0.002184239,1.2577214,2.5156834,-0.012268287,0.025963211,0.069773436,0.05861812,0.007913543,0.0005107308,-0.033131927,-0.007167697,0.042521663,0.04726723,0.20141535,0.20057197,0.19894053,0.19877274,0.20029935,0
32868000,32788000,-2.412672,3.5426152,-2.5132973,-1.2594991,-0.0021666177,1.2577391,2.515701,-0.012268287,0.025963211,0.069773436,0.05861812,0.007913543,0.0005107308,-0.033131927,-0.007167697,0.042521663,0.04726723,0.20141535,0.20057197,0.19894053,0.19877274,0.20029935,0
32876000,32796000,-2.4126673,3.5426157,-2.5132895,-1.259491,-0.0021586402,1.2577469,2.515709,-0.012268287,0.025963211,0.069773436,0.05861812,0.007913543,0.0005107308,-0.033131927,-0.007167697,0.042521663,0.04726723,0.20141535,0.20057197,0.19894053,0.19877274,0.20029935,0
32884000,32804000,-2.4126713,3.542616,-2.513292,-1.2594938,-0.0021613722,1.2577443,2.5157063,-0.012268287,0.025963211,0.069773436,0.05861812,0.007913543,0.0005107308,-0.033131927,-0.007167697,0.042521663,0.04726723,0.20141535,0.20057197,0.19894053,0.19877274,0.20029935,0
32892000,32812000,-2.4126542,3.542616,-2.5132725,-1.259474,-0.0021416512,1.257764,2.515726,-0.012268287,0.025963211,0.069773436,0.05861812,0.007913543,0.0005107308,-0.033131927,-0.007167697,0.042521663,0.04726723,0.20141535,0.20057197,0.19894053,0.19877274,0.20029935,0
32900000,32820000,-2.412651,3.5426157,-2.5132627,-1.2594643,-0.0021317836,1.2577739,2.5157359,-0.012268287,0.025963211,0.069773436,0.05861812,0.007913543,0.0005107308,-0.033131927,-0.007167697,0.042521663,0.04726723,0.20141535,0.20057197,0.19894053,0.19877274,0.20029935,0
32908000,32828000,-2.4126394,3.542617,-2.5132575,-1.259459,-0.0021266218,1.257779,2.515741,-0.012268287,0.025963211,0.069773436,0.05861812,0.007913543,0.0005107308,-0.033131927,-0.007167697,0.042521663,0.04726723,0.20141535,0.20057197,0.19894053,0.19877274,0.20029935,0
32916000,32836000,-2.412617,3.542618,-2.5132375,-1.2594391,-0.0021066684,1.257799,2.515761,-0.012268287,0.025963211,0.069773436,0.05861812,0.007913543,0.0005107308,-0.033131927,-0.007167697,0.042521663,0.04726723,0.20141535,0.20057197,0.19894053,0.19877274,0.20029935,0
32924000,32844000,-2.4126277,3.542618,-2.513244,-1.2594454,-0.002113042,1.2577926,2.5157547,-0.012268287,0.025963211,0.069773436,0.05861812,0.007913543,0.0005107308,-0.033131927,-0.007167697,0.042521663,0.04726723,0.20141535,0.20057197,0.19894053,0.19877274,0.20029935,0
32932000,32852000,-2.4126348,3.5426192,-2.5132532,-1.259455,-0.0021224923,1.2577832,2.5157452,-0.012268287,0.025963211,0.069773436,0.05861812,0.007913543,0.0005107308,-0.033131927,-0.007167697,0.042521663,0.04726723,0.20141535,0.20057197,0.19894053,0.19877274,0.20029935,0
32940000,32860000,-2.412635,3.54262,-2.5132551,-1.2594569,-0.0021243691,1.2577813,2.5157433,-0.012268287,0.025963211,0.069773436,0.05861812,0.007913543,0.0005107308,-0.033131927,-0.007167697,0.042521663,0.04726723,0.20141535,0.20057197,0.19894053,0.19877274,0.20029935,0
32948000,32868000,-2.412632,3.5426202,-2.5132492,-1.2594507,-0.0021182573,1.2577873,2.5157495,-0.012268287,0.025963211,0.069773436,0.05861812,0.007913543,0.0005107308,-0.033131927,-0.007167697,0.042521663,0.04726723,0.20141535,0.20057197,0.19894053,0.19877274,0.20029935,0
32956000,32876000,-2.4126256,3.5426216,-2.5132456,-1.2594473,-0.0021148704,1.2577908,2.5157528,-0.012268287,0.025963211,0.069773436,0.05861812,0.007913543,0.0005107308,-0.033131927,-0.007167697,0.042521663,0.04726723,0.20141535,0.20057197,0.19894053,0.19877274,0.20029935,0
32964000,32884000,-2.4126434,3.5426214,-2.5132616,-1.2594632,-0.0021307135,1.2577748,2.515737,-0.012268287,0.025963211,0.069773436,0.05861812,0.007913543,0.0005107308,-0.033131927,-0.007167697,0.042521663,0.04726723,0.20141535,0.20057197,0.19894053,0.19877274,0.20029935,0
32972000,32892000,-2.412633,3.5426226,-2.513253,-1.2594545,-0.0021220911,1.2577835,2.5157456,-0.012268287,0.025963211,0.069773436,0.05861812,0.007913543,0.0005107308,-0.033131927,-0.007167697,0.042521663,0.04726723,0.20141535,0.20057197,0.19894053,0.19877274,0.20029935,0
32980000,32900000,-2.4126039,3.5426235,-2.513226,-1.2594278,-0.0020952737,1.2578104,2.5157723,-0.012268287,0.025963211,0.069773436,0.05861812,0.007913543,0.0005107308,-0.033131927,-0.007167697,0.042521663,0.04726723,0.20141535,0.20057197,0.19894053,0.19877274,0.20029935,0
32988000,32908000,-2.412601,3.5426235,-2.5132205,-1.2594223,-0.0020897866,1.2578158,2.5157778,-0.012268287,0.025963211,0.069773436,0.05861812,0.007913543,0.0005107308,-0.033131927,-0.007167697,0.042521663,0.04726723,0.20141535,0.20057197,0.19894053,0.19877274,0.20029935,0
32996000,32916000,-2.4126017,3.5426228,-2.513215,-1.2594166,-0.002084122,1.2578216,2.5157835,-0.012268287,0.025963211,0.069773436,0.05861812,0.007913543,0.0005107308,-0.033131927,-0.007167697,0.042521663,0.04726723,0.20141535,0.20057197,0.19894053,0.19877274,0.20029935,0
33004000,32924000,-2.412601,3.5426254,-2.513223,-1.2594244,-0.0020920355,1.2578136,2.5157757,-0.012268287,0.025963211,0.069773436,0.05861812,0.007913543,0.0005107308,-0.033131927,-0.007167697,0.042521663,0.04726723,0.20141535,0.20057197,0.19894053,0.19877274,0.20029935,0
33012000,32932000,-2.4125953,3.5426269,-2.5132217,-1.2594234,-0.0020909254,1.2578146,2.5157769,-0.012268287,0.025963211,0.069773436,0.05861812,0.007913543,0.0005107308,-0.033131927,-0.007167697,0.042521663,0.04726723,0.20141535,0.20057197,0.19894053,0.19877274,0.20029935,0
33020000,32940000,-2.4126031,3.542626,-2.5132217,-1.2594235,-0.002090997,1.2578146,2.5157766,-0.012268287,0.025963211,0.069773436,0.05861812,0.007913543,0.0005107308,-0.033131927,-0.007167697,0.042521663,0.04726723,0.20141535,0.20057197,0.19894053,0.19877274,0.20029935,0
33028000,32948000,-2.4126072,3.5426273,-2.5132282,-1.2594298,-0.0020973405,1.2578082,2.5157704,-0.012268287,0.025963211,0.069773436,0.05861812,0.007913543,0.0005107308,-0.033131927,-0.007167697,0.042521663,0.04726723,0.20141535,0.20057197,0.19894053,0.19877274,0.20029935,0
33036000,32956000,-2.4126115,3.5426276,-2.513232,-1.2594336,-0.0021011112,1.2578045,2.5157666,-0.012268287,0.025963211,0.069773436,0.05861812,0.007913543,0.0005107308,-0.033131927,-0.007167697,0.042521663,0.04726723,0.20141535,0.20057197,0.19894053,0.19877274,0.20029935,0
33044000,32964000,-2.4126215,3.5426266,-2.5132344,-1.2594359,-0.0021034905,1.2578021,2.5157642,-0.012268287,0.025963211,0.069773436,0.05861812,0.007913543,0.0005107308,-0.033131927,-0.007167697,0.042521663,0.04726723,0.20141535,0.20057197,0.19894053,0.19877274,0.20029935,0
33052000,32972000,-2.4126244,3.542628,-2.5132408,-1.2594423,-0.0021098938,1.2577958,2.5157578,-0.012268287,0.025963211,0.069773436,0.05861812,0.007913543,0.0005107308,-0.033131927,-0.007167697,0.042521663,0.04726723,0.20141535,0.20057197,0.19894053,0.19877274,0.20029935,0
33060000,32980000,-2.4126234,3.5426285,-2.5132377,-1.2594393,-0.002106859,1.2577988,2.515761,-0.012268287,0.025963211,0.069773436,0.05861812,0.007913543,0.0005107308,-0.033131927,-0.007167697,0.042521663,0.04726723,0.20141535,0.20057197,0.19894053,0.19877274,0.20029935,0
33068000,32988000,-2.4126267,3.5426283,-2.513239,-1.2594404,-0.0021079087,1.2577977,2.5157597,-0.012268287,0.025963211,0.069773436,0.05861812,0.007913543,0.0005107308,-0.033131927,-0.007167697,0.042521663,0.04726723,0.20141535,0.20057197,0.19894053,0.19877274,0.20029935,0
33076000,32996000,-2.412634,3.5426297,-2.5132492,-1.2594507,-0.00211822,1.2577875,2.5157495,-0.012268287,0.025963211,0.069773436,0.05861812,0.007913543,0.0005107308,-0.033131927,-0.007167697,0.042521663,0.04726723,0.20141535,0.20057197,0.19894053,0.19877274,0.20029935,0
33084000,33004000,-2.4126437,3.54263,-2.5132563,-1.2594578,-0.0021253065,1.2577803,2.5157423,-0.012268287,0.025963211,0.069773436,0.05861812,0.007913543,0.0005107308,-0.033131927,-0.007167697,0.042521663,0.04726723,0.20141535,0.20057197,0.19894053,0.19877274,0.20029935,0
33092000,33012000,-2.4126499,3.5426295,-2.5132585,-1.25946,-0.0021274786,1.2577782,2.5157402,-0.012268287,0.025963211,0.069773436,0.05861812,0.007913543,0.0005107308,-0.033131927,-0.007167697,0.042521663,0.04726723,0.20141535,0.20057197,0.19894053,0.19877274,0.20029935,0
33100000,33020000,-2.4126556,3.5426307,-2.5132654,-1.2594669,-0.0021343273,1.2577713,2.5157332,-0.012268287,0.025963211,0.069773436,0.05861812,0.007913543,0.0005107308,-0.033131927,-0.007167697,0.042521663,0.04726723,0.20141535,0.20057197,0.19894053,0.19877274,0.20029935,0
33108000,33028000,-2.412664,3.5426307,-2.5132713,-1.2594728,-0.0021403478,1.2577653,2.5157273,-0.012268287,0.025963211,0.069773436,0.05861812,0.007913543,0.0005107308,-0.033131927,-0.007167697,0.042521663,0.04726723,0.20141535,0.20057197,0.19894053,0.19877274,0.20029935,0
33116000,33036000,-2.4126809,3.5426326,-2.5132961,-1.2594978,-0.0021652447,1.2577404,2.5157025,-0.012268287,0.025963211,0.069773436,0.05861812,0.007913543,0.0005107308,-0.033131927,-0.007167697,0.042521663,0.04726723,0.20141535,0.20057197,0.19894053,0.19877274,0.20029935,0
33124000,33044000,-2.4127002,3.5426328,-2.5133128,-1.2595145,-0.0021819756,1.2577237,2.5156856,-0.012268287,0.025963211,0.069773436,0.05861812,0.007913543,0.0005107308,-0.033131927,-0.007167697,0.042521663,0.04726723,0.20141535,0.20057197,0.19894053,0.19877274,0.20029935,0
33132000,33052000,-2.4127,3.5426354,-2.5133224,-1.2595239,-0.0021914588,1.2577142,2.5156763,-0.012268287,0.025963211,0.069773436,0.05861812,0.007913543,0.0005107308,-0.033131927,-0.007167697,0.042521663,0.04726723,0.20141535,0.20057197,0.19894053,0.19877274,0.20029935,0
33140000,33060000,-2.4127364,3.542633,-2.513343,-1.2595446,-0.0022120993,1.2576935,2.5156555,-0.012268287,0.025963211,0.069773436,0.05861812,0.007913543,0.0005107308,-0.033131927,-0.007167697,0.042521663,0.04726723,0.20141535,0.20057197,0.19894053,0.19877274,0.20029935,0
33148000,33068000,-2.4127276,3.5426345,-2.5133417,-1.2595433,-0.0022107575,1.2576948,2.515657,-0.012268287,0.025963211,0.069773436,0.05861812,0.007913543,0.0005107308,-0.033131927,-0.007167697,0.042521663,0.04726723,0.20141535,0.20057197,0.19894053,0.19877274,0.20029935,0
33156000,33076000,-2.4127343,3.5426354,-2.513345,-1.2595465,-0.00221397,1.2576916,2.5156536,-0.012268287,0.025963211,0.069773436,0.05861812,0.007913543,0.0005107308,-0.033131927,-0.007167697,0.042521663,0.04726723,0.20141535,0.20057197,0.19894053,0.19877274,0.20029935,0
33164000,33084000,-2.4127254,3.5426364,-2.5133402,-1.2595417,-0.0022092569,1.2576964,2.5156584,-0.012268287,0.025963211,0.069773436,0.05861812,0.007913543,0.0005107308,-0.033131927,-0.007167697,0.042521663,0.04726723,0.20141535,0.20057197,0.19894053,0.19877274,0.20029935,0
33172000,33092000,-2.4127147,3.542638,-2.5133343,-1.2595359,-0.002203422,1.2577021,2.5156643,-0.012268287,0.025963211,0.069773436,0.05861812,0.007913543,0.0005107308,-0.033131927,-0.007167697,0.042521663,0.04726723,0.20141535,0.20057197,0.19894053,0.19877274,0.20029935,0
33180000,33100000,-2.412705,3.5426373,-2.513318,-1.2595196,-0.0021870267,1.2577186,2.5156808,-0.012268287,0.025963211,0.069773436,0.05861812,0.007913543,0.0005107308,-0.033131927,-0.007167697,0.042521663,0.04726723,0.20141535,0.20057197,0.19894053,0.19877274,0.20029935,0
33188000,33108000,-2.412704,3.5426378,-2.5133157,-1.2595173,-0.0021847717,1.2577208,2.515683,-0.012268287,0.025963211,0.069773436,0.05861812,0.007913543,0.0005107308,-0.033131927,-0.007167697,0.042521663,0.04726723,0.20141535,0.20057197,0.19894053,0.19877274,0.20029935,0
33196000,33116000,-2.714422,3.5660536,-2.5142345,-1.2601709,-0.0016635319,1.2587025,2.5157726,-0.052703768,-0.0007196106,0.057846867,0.041819192,-0.026606215,-0.018964112,-0.0634639,-0.027750846,0.039071407,0.044313293,0.20162067,0.20018412,0.19849773,0.19888428,0.20081326,0
33204000,33124000,-2.7144258,3.5660565,-2.514233,-1.2601695,-0.0016621092,1.258704,2.5157738,-0.052703768,-0.0007196106,0.057846867,0.041819192,-0.026606215,-0.018964112,-0.0634639,-0.027750846,0.039071407,0.044313293,0.20162067,0.20018412,0.19849773,0.19888428,0.20081326,0
33212000,33132000,-2.714406,3.5660536,-2.5142224,-1.260159,-0.0016515694,1.2587144,2.5157843,-0.052703768,-0.0007196106,0.057846867,0.041819192,-0.026606215,-0.018964112,-0.0634639,-0.027750846,0.039071407,0.044313293,0.20162067,0.20018412,0.19849773,0.19888428,0.20081326,0
33220000,33140000,-2.7144072,3.5660553,-2.5142193,-1.2601557,-0.001648339,1.2587178,2.5157876,-0.052703768,-0.0007196106,0.057846867,0.041819192,-0.026606215,-0.018964112,-0.0634639,-0.027750846,0.039071407,0.044313293,0.20162067,0.20018412,0.19849773,0.19888428,0.20081326,0
33228000,33148000,-2.714419,3.5660558,-2.514232,-1.2601683,-0.001660996,1.258705,2.515775,-0.052703768,-0.0007196106,0.057846867,0.041819192,-0.026606215,-0.018964112,-0.0634639,-0.027750846,0.039071407,0.044313293,0.20162067,0.20018412,0.19849773,0.19888428,0.20081326,0
33236000,33156000,-2.7144222,3.5660586,-2.51423,-1.2601664,-0.0016590935,1.258707,2.5157769,-0.052703768,-0.0007196106,0.057846867,0.041819192,-0.026606215,-0.018964112,-0.0634639,-0.027750846,0.039071407,0.044313293,0.20162067,0.20018412,0.19849773,0.19888428,0.20081326,0
33244000,33164000,-2.7144163,3.5660582,-2.5142267,-1.2601631,-0.0016557178,1.2587104,2.5157802,-0.052703768,-0.0007196106,0.057846867,0.041819192,-0.026606215,-0.018964112,-0.0634639,-0.027750846,0.039071407,0.044313293,0.20162067,0.20018412,0.19849773,0.19888428,0.20081326,0
33252000,33172000,-2.714398,3.5660563,-2.5142152,-1.2601519,-0.0016444207,1.2587216,2.5157914,-0.052703768,-0.0007196106,0.057846867,0.041819192,-0.026606215,-0.018964112,-0.0634639,-0.027750846,0.039071407,0.044313293,0.20162067,0.20018412,0.19849773,0.19888428,0.20081326,0
33260000,33180000,-2.7144012,3.5660558,-2.5142212,-1.2601577,-0.0016503393,1.2587156,2.5157857,-0.052703768,-0.0007196106,0.057846867,0.041819192,-0.026606215,-0.018964112,-0.0634639,-0.027750846,0.039071407,0.044313293,0.20162067,0.20018412,0.19849773,0.19888428,0.20081326,0
33268000,33188000,-2.7144165,3.5660615,-2.5142229,-1.2601593,-0.0016519106,1.2587142,2.515784,-0.052703768,-0.0007196106,0.057846867,0.041819192,-0.026606215,-0.018964112,-0.0634639,-0.027750846,0.039071407,0.044313293,0.20162067,0.20018412,0.19849773,0.19888428,0.20081326,0
33276000,33196000,-2.714386,3.5660558,-2.5142088,-1.2601453,-0.0016379728,1.258728,2.515798,-0.052703768,-0.0007196106,0.057846867,0.041819192,-0.026606215,-0.018964112,-0.0634639,-0.027750846,0.039071407,0.044313293,0.20162067,0.20018412,0.19849773,0.19888428,0.20081326,0
33284000,33204000,-2.7143745,3.5660582,-2.5141935,-1.26013,-0.0016226796,1.2587434,2.5158134,-0.052703768,-0.0007196106,0.057846867,0.041819192,-0.026606215,-0.018964112,-0.0634639,-0.027750846,0.039071407,0.044313293,0.20162067,0.20018412,0.19849773,0.19888428,0.20081326,0
33292000,33212000,-2.7143826,3.5660625,-2.5141923,-1.2601289,-0.0016214066,1.2587447,2.5158145,-0.052703768,-0.0007196106,0.057846867,0.041819192,-0.026606215,-0.018964112,-0.0634639,-0.027750846,0.039071407,0.044313293,0.20162067,0.20018412,0.19849773,0.19888428,0.20081326,0
33300000,33220000,-2.7143722,3.566063,-2.5141816,-1.2601181,-0.0016106373,1.2587554,2.5158253,-0.052703768,-0.0007196106,0.057846867,0.041819192,-0.026606215,-0.018964112,-0.0634639,-0.027750846,0.039071407,0.044313293,0.20162067,0.20018412,0.19849773,0.19888428,0.20081326,0
33308000,33228000,-2.7143815,3.566064,-2.5141902,-1.2601267,-0.0016192717,1.2587469,2.5158167,-0.052703768,-0.0007196106,0.057846867,0.041819192,-0.026606215,-0.018964112,-0.0634639,-0.027750846,0.039071407,0.044313293,0.20162067,0.20018412,0.19849773,0.19888428,0.20081326,0
33316000,33236000,-2.714385,3.5660634,-2.5141969,-1.2601335,-0.0016260281,1.25874,2.51581,-0.052703768,-0.0007196106,0.057846867,0.041819192,-0.026606215,-0.018964112,-0.0634639,-0.027750846,0.039071407,0.044313293,0.20162067,0.20018412,0.19849773,0.19888428,0.20081326,0
33324000,33244000,-2.714385,3.566064,-2.5141969,-1.2601335,-0.001626028,1.25874,2.51581,-0.052703768,-0.0007196106,0.057846867,0.041819192,-0.026606215,-0.018964112,-0.0634639,-0.027750846,0.039071407,0.044313293,0.20162067,0.20018412,0.19849773,0.19888428,0.20081326,0
33332000,33252000,-2.7144117,3.5660663,-2.5142188,-1.2601552,-0.001647785,1.2587183,2.515788,-0.052703768,-0.0007196106,0.057846867,0.041819192,-0.026606215,-0.018964112,-0.0634639,-0.027750846,0.039071407,0.044313293,0.20162067,0.20018412,0.19849773,0.19888428,0.20081326,0
33340000,33260000,-2.7144256,3.5660646,-2.5142393,-1.260176,-0.0016684273,1.2586976,2.5157676,-0.052703768,-0.0007196106,0.057846867,0.041819192,-0.026606215,-0.018964112,-0.0634639,-0.027750846,0.039071407,0.044313293,0.20162067,0.20018412,0.19849773,0.19888428,0.20081326,0
33348000,33268000,-2.7144349,3.5660658,-2.5142467,-1.2601831,-0.0016756523,1.2586904,2.5157604,-0.052703768,-0.0007196106,0.057846867,0.041819192,-0.026606215,-0.018964112,-0.0634639,-0.027750846,0.039071407,0.044313293,0.20162067,0.20018412,0.19849773,0.19888428,0.20081326,0
33356000,33276000,-2.7144256,3.5660682,-2.5142338,-1.2601702,-0.0016627585,1.2587032,2.5157733,-0.052703768,-0.0007196106,0.057846867,0.041819192,-0.026606215,-0.018964112,-0.0634639,-0.027750846,0.039071407,0.044313293,0.20162067,0.20018412,0.19849773,0.19888428,0.20081326,0
33364000,33284000,-2.7144184,3.5660646,-2.5142357,-1.2601724,-0.0016648328,1.2587012,2.5157712,-0.052703768,-0.0007196106,0.057846867,0.041819192,-0.026606215,-0.018964112,-0.0634639,-0.027750846,0.039071407,0.044313293,0.20162067,0.20018412,0.19849773,0.19888428,0.20081326,0
33372000,33292000,-2.7144208,3.5660682,-2.5142303,-1.2601666,-0.0016591633,1.2587069,2.5157769,-0.052703768,-0.0007196106,0.057846867,0.041819192,-0.026606215,-0.018964112,-0.0634639,-0.027750846,0.039071407,0.044313293,0.20162067,0.20018412,0.19849773,0.19888428,0.20081326,0
33380000,33300000,-2.7144244,3.5660686,-2.5142343,-1.2601708,-0.0016633713,1.2587028,2.5157726,-0.052703768,-0.0007196106,0.057846867,0.041819192,-0.026606215,-0.018964112,-0.0634639,-0.027750846,0.039071407,0.044313293,0.20162067,0.20018412,0.19849773,0.19888428,0.20081326,0
33388000,33308000,-2.7144418,3.5660684,-2.5142546,-1.2601911,-0.0016836142,1.2586825,2.5157523,-0.052703768,-0.0007196106,0.057846867,0.041819192,-0.026606215,-0.018964112,-0.0634639,-0.027750846,0.039071407,0.044313293,0.20162067,0.20018412,0.19849773,0.19888428,0.20081326,0
33396000,33316000,-2.7144463,3.5660725,-2.5142503,-1.2601867,-0.0016791599,1.2586869,2.5157568,-0.052703768,-0.0007196106,0.057846867,0.041819192,-0.026606215,-0.018964112,-0.0634639,-0.027750846,0.039071407,0.044313293,0.20162067,0.20018412,0.19849773,0.19888428,0.20081326,0
33404000,33324000,-2.7144382,3.5660725,-2.514244,-1.2601805,-0.001672952,1.2586931,2.515763,-0.052703768,-0.0007196106,0.057846867,0.041819192,-0.026606215,-0.018964112,-0.0634639,-0.027750846,0.039071407,0.044313293,0.20162067,0.20018412,0.19849773,0.19888428,0.20081326,0
33412000,33332000,-2.7144604,3.5660744,-2.5142643,-1.2602006,-0.001693198,1.2586728,2.5157428,-0.052703768,-0.0007196106,0.057846867,0.041819192,-0.026606215,-0.018964112,-0.0634639,-0.027750846,0.039071407,0.044313293,0.20162067,0.20018412,0.19849773,0.19888428,0.20081326,0
33420000,33340000,-2.714445,3.5660725,-2.5142536,-1.2601899,-0.0016824715,1.2586836,2.5157535,-0.052703768,-0.0007196106,0.057846867,0.041819192,-0.026606215,-0.018964112,-0.0634639,-0.027750846,0.039071407,0.044313293,0.20162067,0.20018412,0.19849773,0.19888428,0.20081326,0
33428000,33348000,-2.714445,3.5660748,-2.51425,-1.2601864,-0.0016789115,1.2586871,2.515757,-0.052703768,-0.0007196106,0.057846867,0.041819192,-0.026606215,-0.018964112,-0.0634639,-0.027750846,0.039071407,0.044313293,0.20162067,0.20018412,0.19849773,0.19888428,0.20081326,0
33436000,33356000,-2.7144313,3.5660744,-2.514239,-1.2601755,-0.001668013,1.2586981,2.515768,-0.052703768,-0.0007196106,0.057846867,0.041819192,-0.026606215,-0.018964112,-0.0634639,-0.027750846,0.039071407,0.044313293,0.20162067,0.20018412,0.19849773,0.19888428,0.20081326,0
33444000,33364000,-2.714444,3.5660741,-2.5142524,-1.2601888,-0.0016813518,1.2586848,2.5157547,-0.052703768,-0.0007196106,0.057846867,0.041819192,-0.026606215,-0.018964112,-0.0634639,-0.027750846,0.039071407,0.044313293,0.20162067,0.20018412,0.19849773,0.19888428,0.20081326,0
33452000,33372000,-2.714479,3.5660758,-2.5142858,-1.2602222,-0.0017147537,1.2586513,2.5157213,-0.052703768,-0.0007196106,0.057846867,0.041819192,-0.026606215,-0.018964112,-0.0634639,-0.027750846,0.039071407,0.044313293,0.20162067,0.20018412,0.19849773,0.19888428,0.20081326,0
33460000,33380000,-2.7144995,3.5660796,-2.5142984,-1.2602347,-0.0017272589,1.2586389,2.5157087,-0.052703768,-0.0007196106,0.057846867,0.041819192,-0.026606215,-0.018964112,-0.0634639,-0.027750846,0.039071407,0.044313293,0.20162067,0.20018412,0.19849773,0.19888428,0.20081326,0
33468000,33388000,-2.714497,3.5660756,-2.514307,-1.2602433,-0.0017358504,1.2586303,2.5157003,-0.052703768,-0.0007196106,0.057846867,0.041819192,-0.026606215,-0.018964112,-0.0634639,-0.027750846,0.039071407,0.044313293,0.20162067,0.20018412,0.19849773,0.19888428,0.20081326,0
33476000,33396000,-2.7145112,3.566079,-2.5143154,-1.2602518,-0.0017443267,1.2586218,2.5156918,-0.052703768,-0.0007196106,0.057846867,0.041819192,-0.026606215,-0.018964112,-0.0634639,-0.027750846,0.039071407,0.044313293,0.20162067,0.20018412,0.19849773,0.19888428,0.20081326,0
33484000,33404000,-2.71451,3.5660806,-2.5143118,-1.260248,-0.0017405115,1.2586256,2.5156956,-0.052703768,-0.0007196106,0.057846867,0.041819192,-0.026606215,-0.018964112,-0.0634639,-0.027750846,0.039071407,0.044313293,0.20162067,0.20018412,0.19849773,0.19888428,0.20081326,0
33492000,33412000,-2.714511,3.5660787,-2.5143185,-1.2602547,-0.00174726,1.2586188,2.515689,-0.052703768,-0.0007196106,0.057846867,0.041819192,-0.026606215,-0.018964112,-0.0634639,-0.027750846,0.039071407,0.044313293,0.20162067,0.20018412,0.19849773,0.19888428,0.20081326,0
33500000,33420000,-2.7145333,3.5660784,-2.5143428,-1.2602792,-0.0017717395,1.2585944,2.5156643,-0.052703768,-0.0007196106,0.057846867,0.041819192,-0.026606215,-0.018964112,-0.0634639,-0.027750846,0.039071407,0.044313293,0.20162067,0.20018412,0.19849773,0.19888428,0.20081326,0
33508000,33428000,-2.7145495,3.5660796,-2.5143576,-1.260294,-0.0017865194,1.2585796,2.5156496,-0.052703768,-0.0007196106,0.057846867,0.041819192,-0.026606215,-0.018964112,-0.0634639,-0.027750846,0.039071407,0.044313293,0.20162067,0.20018412,0.19849773,0.19888428,0.20081326,0
33516000,33436000,-2.714561,3.5660827,-2.5143628,-1.2602992,-0.0017916859,1.2585745,2.5156443,-0.052703768,-0.0007196106,0.057846867,0.041819192,-0.026606215,-0.018964112,-0.0634639,-0.027750846,0.039071407,0.044313293,0.20162067,0.20018412,0.19849773,0.19888428,0.20081326,0
33524000,33444000,-2.7145748,3.5660844,-2.5143743,-1.2603105,-0.0018029849,1.2585632,2.515633,-0.052703768,-0.0007196106,0.057846867,0.041819192,-0.026606215,-0.018964112,-0.0634639,-0.027750846,0.039071407,0.044313293,0.20162067,0.20018412,0.19849773,0.19888428,0.20081326,0
33532000,33452000,-2.7145808,3.566082,-2.5143876,-1.260324,-0.001816501,1.2585497,2.5156195,-0.052703768,-0.0007196106,0.057846867,0.041819192,-0.026606215,-0.018964112,-0.0634639,-0.027750846,0.039071407,0.044313293,0.20162067,0.20018412,0.19849773,0.19888428,0.20081326,0
33540000,33460000,-2.7145967,3.5660853,-2.5143964,-1.2603327,-0.0018251798,1.258541,2.515611,-0.052703768,-0.0007196106,0.057846867,0.041819192,-0.026606215,-0.018964112,-0.0634639,-0.027750846,0.039071407,0.044313293,0.20162067,0.20018412,0.19849773,0.19888428,0.20081326,0
33548000,33468000,-2.7146006,3.5660841,-2.5144048,-1.2603412,-0.0018336569,1.2585325,2.5156024,-0.052703768,-0.0007196106,0.057846867,0.041819192,-0.026606215,-0.018964112,-0.0634639,-0.027750846,0.039071407,0.044313293,0.20162067,0.20018412,0.19849773,0.19888428,0.20081326,0
33556000,33476000,-2.7145994,3.5660875,-2.5143979,-1.2603341,-0.001826646,1.2585396,2.5156093,-0.052703768,-0.0007196106,0.057846867,0.041819192,-0.026606215,-0.018964112,-0.0634639,-0.027750846,0.039071407,0.044313293,0.20162067,0.20018412,0.19849773,0.19888428,0.20081326,0
33564000,33484000,-2.7145934,3.5660868,-2.5143943,-1.2603307,-0.0018231501,1.258543,2.5156128,-0.052703768,-0.0007196106,0.057846867,0.041819192,-0.026606215,-0.018964112,-0.0634639,-0.027750846,0.039071407,0.044313293,0.20162067,0.20018412,0.19849773,0.19888428,0.20081326,0
33572000,33492000,-2.71459,3.5660882,-2.51439,-1.2603263,-0.0018187318,1.2585474,2.5156174,-0.052703768,-0.0007196106,0.057846867,0.041819192,-0.026606215,-0.018964112,-0.0634639,-0.027750846,0.039071407,0.044313293,0.20162067,0.20018412,0.19849773,0.19888428,0.20081326,0
33580000,33500000,-2.7145991,3.5660872,-2.514402,-1.2603383,-0.0018307756,1.2585354,2.5156052,-0.052703768,-0.0007196106,0.057846867,0.041819192,-0.026606215,-0.018964112,-0.0634639,-0.027750846,0.039071407,0.044313293,0.20162067,0.20018412,0.19849773,0.19888428,0.20081326,0
33588000,33508000,-2.7146409,3.5660899,-2.5144396,-1.2603759,-0.0018682948,1.258498,2.5155678,-0.052703768,-0.0007196106,0.057846867,0.041819192,-0.026606215,-0.018964112,-0.0634639,-0.027750846,0.039071407,0.044313293,0.20162067,0.20018412,0.19849773,0.19888428,0.20081326,0
33596000,33516000,-2.5574162,3.4934518,-2.5141342,-1.264402,-0.0046832217,1.2607814,2.519768,-0.043051675,0.016143033,0.08405865,0.06643675,-0.012179352,-0.008058175,-0.06000223,-0.019656787,0.057451367,0.06434042,0.20388287,0.20102572,0.19677307,0.1969698,0.20134847,0
33604000,33524000,-2.5574055,3.4934525,-2.5141213,-1.2643892,-0.004670311,1.2607944,2.5197809,-0.043051675,0.016143033,0.08405865,0.06643675,-0.012179352,-0.008058175,-0.06000223,-0.019656787,0.057451367,0.06434042,0.20388287,0.20102572,0.19677307,0.1969698,0.20134847,0
33612000,33532000,-2.5573955,3.4934533,-2.5141137,-1.2643815,-0.0046626683,1.260802,2.5197885,-0.043051675,0.016143033,0.08405865,0.06643675,-0.012179352,-0.008058175,-0.06000223,-0.019656787,0.057451367,0.06434042,0.20388287,0.20102572,0.19677307,0.1969698,0.20134847,0
33620000,33540000,-2.5573893,3.493454,-2.5141082,-1.2643762,-0.0046573323,1.2608073,2.519794,-0.043051675,0.016143033,0.08405865,0.06643675,-0.012179352,-0.008058175,-0.06000223,-0.019656787,0.057451367,0.06434042,0.20388287,0.20102572,0.19677307,0.1969698,0.20134847,0
33628000,33548000,-2.5573964,3.4934545,-2.5141132,-1.264381,-0.0046622115,1.2608025,2.519789,-0.043051675,0.016143033,0.08405865,0.06643675,-0.012179352,-0.008058175,-0.06000223,-0.019656787,0.057451367,0.06434042,0.20388287,0.20102572,0.19677307,0.1969698,0.20134847,0
33636000,33556000,-2.5574055,3.493455,-2.5141225,-1.2643905,-0.004671552,1.2607931,2.5197797,-0.043051675,0.016143033,0.08405865,0.06643675,-0.012179352,-0.008058175,-0.06000223,-0.019656787,0.057451367,0.06434042,0.20388287,0.20102572,0.19677307,0.1969698,0.20134847,0
33644000,33564000,-2.557417,3.493456,-2.5141308,-1.2643988,-0.004679856,1.2607849,2.5197713,-0.043051675,0.016143033,0.08405865,0.06643675,-0.012179352,-0.008058175,-0.06000223,-0.019656787,0.057451367,0.06434042,0.20388287,0.20102572,0.19677307,0.1969698,0.20134847,0
33652000,33572000,-2.557441,3.4934568,-2.514157,-1.2644249,-0.004706001,1.2607586,2.5197453,-0.043051675,0.016143033,0.08405865,0.06643675,-0.012179352,-0.008058175,-0.06000223,-0.019656787,0.057451367,0.06434042,0.20388287,0.20102572,0.19677307,0.1969698,0.20134847,0
33660000,33580000,-2.5574305,3.4934568,-2.514147,-1.264415,-0.0046960833,1.2607685,2.5197551,-0.043051675,0.016143033,0.08405865,0.06643675,-0.012179352,-0.008058175,-0.06000223,-0.019656787,0.057451367,0.06434042,0.20388287,0.20102572,0.19677307,0.1969698,0.20134847,0
33668000,33588000,-2.5574024,3.4934578,-2.5141187,-1.2643865,-0.0046676593,1.260797,2.5197835,-0.043051675,0.016143033,0.08405865,0.06643675,-0.012179352,-0.008058175,-0.06000223,-0.019656787,0.057451367,0.06434042,0.20388287,0.20102572,0.19677307,0.1969698,0.20134847,0
33676000,33596000,-2.5574033,3.493458,-2.5141244,-1.2643925,-0.0046735755,1.2607911,2.5197775,-0.043051675,0.016143033,0.08405865,0.06643675,-0.012179352,-0.008058175,-0.06000223,-0.019656787,0.057451367,0.06434042,0.20388287,0.20102572,0.19677307,0.1969698,0.20134847,0
33684000,33604000,-2.5573921,3.493459,-2.5141098,-1.2643778,-0.0046589416,1.2608057,2.5197923,-0.043051675,0.016143033,0.08405865,0.06643675,-0.012179352,-0.008058175,-0.06000223,-0.019656787,0.057451367,0.06434042,0.20388287,0.20102572,0.19677307,0.1969698,0.20134847,0
33692000,33612000,-2.557385,3.4934597,-2.5141015,-1.2643695,-0.004650499,1.2608142,2.5198007,-0.043051675,0.016143033,0.08405865,0.06643675,-0.012179352,-0.008058175,-0.06000223,-0.019656787,0.057451367,0.06434042,0.20388287,0.20102572,0.19677307,0.1969698,0.20134847,0
33700000,33620000,-2.5573761,3.4934604,-2.5140927,-1.2643605,-0.004641648,1.260823,2.5198095,-0.043051675,0.016143033,0.08405865,0.06643675,-0.012179352,-0.008058175,-0.06000223,-0.019656787,0.057451367,0.06434042,0.20388287,0.20102572,0.19677307,0.1969698,0.20134847,0
33708000,33628000,-2.5573778,3.4934604,-2.5140975,-1.2643654,-0.0046465006,1.2608181,2.5198047,-0.043051675,0.016143033,0.08405865,0.06643675,-0.012179352,-0.008058175,-0.06000223,-0.019656787,0.057451367,0.06434042,0.20388287,0.20102572,0.19677307,0.1969698,0.20134847,0
33716000,33636000,-2.5573778,3.4934614,-2.5140975,-1.2643654,-0.0046465416,1.2608181,2.5198047,-0.043051675,0.016143033,0.08405865,0.06643675,-0.012179352,-0.008058175,-0.06000223,-0.019656787,0.057451367,0.06434042,0.20388287,0.20102572,0.19677307,0.1969698,0.20134847,0
33724000,33644000,-2.5573852,3.493462,-2.5141006,-1.2643684,-0.0046495222,1.2608151,2.5198016,-0.043051675,0.016143033,0.08405865,0.06643675,-0.012179352,-0.008058175,-0.06000223,-0.019656787,0.057451367,0.06434042,0.20388287,0.20102572,0.19677307,0.1969698,0.20134847,0
33732000,33652000,-2.5573764,3.4934628,-2.5140939,-1.2643619,-0.004642973,1.2608217,2.5198083,-0.043051675,0.016143033,0.08405865,0.06643675,-0.012179352,-0.008058175,-0.06000223,-0.019656787,0.057451367,0.06434042,0.20388287,0.20102572,0.19677307,0.1969698,0.20134847,0
33740000,33660000,-2.5573602,3.493463,-2.514077,-1.2643448,-0.004625974,1.2608387,2.5198252,-0.043051675,0.016143033,0.08405865,0.06643675,-0.012179352,-0.008058175,-0.06000223,-0.019656787,0.057451367,0.06434042,0.20388287,0.20102572,0.19677307,0.1969698,0.20134847,0
33748000,33668000,-2.5573602,3.493464,-2.5140781,-1.264346,-0.0046271374,1.2608376,2.519824,-0.043051675,0.016143033,0.08405865,0.06643675,-0.012179352,-0.008058175,-0.06000223,-0.019656787,0.057451367,0.06434042,0.20388287,0.20102572,0.19677307,0.1969698,0.20134847,0
33756000,33676000,-2.5573657,3.4934645,-2.5140812,-1.2643492,-0.004630346,1.2608343,2.519821,-0.043051675,0.016143033,0.08405865,0.06643675,-0.012179352,-0.008058175,-0.06000223,-0.019656787,0.057451367,0.06434042,0.20388287,0.20102572,0.19677307,0.1969698,0.20134847,0
33764000,33684000,-2.5573535,3.4934654,-2.5140696,-1.2643373,-0.0046185297,1.2608461,2.5198326,-0.043051675,0.016143033,0.08405865,0.06643675,-0.012179352,-0.008058175,-0.06000223,-0.019656787,0.057451367,0.06434042,0.20388287,0.20102572,0.19677307,0.1969698,0.20134847,0
33772000,33692000,-2.5573547,3.493466,-2.5140696,-1.2643373,-0.0046184296,1.2608463,2.5198328,-0.043051675,0.016143033,0.08405865,0.06643675,-0.012179352,-0.008058175,-0.06000223,-0.019656787,0.057451367,0.06434042,0.20388287,0.20102572,0.19677307,0.1969698,0.20134847,0
33780000,33700000,-2.5573556,3.4934669,-2.5140712,-1.264339,-0.004620149,1.2608445,2.519831,-0.043051675,0.016143033,0.08405865,0.06643675,-0.012179352,-0.008058175,-0.06000223,-0.019656787,0.057451367,0.06434042,0.20388287,0.20102572,0.19677307,0.1969698,0.20134847,0
33788000,33708000,-2.5573554,3.4934669,-2.5140727,-1.2643405,-0.004621671,1.260843,2.5198295,-0.043051675,0.016143033,0.08405865,0.06643675,-0.012179352,-0.008058175,-0.06000223,-0.019656787,0.057451367,0.06434042,0.20388287,0.20102572,0.19677307,0.1969698,0.20134847,0
33796000,33716000,-2.5573683,3.4934685,-2.5140817,-1.2643496,-0.004630679,1.260834,2.5198205,-0.043051675,0.016143033,0.08405865,0.06643675,-0.012179352,-0.008058175,-0.06000223,-0.019656787,0.057451367,0.06434042,0.20388287,0.20102572,0.19677307,0.1969698,0.20134847,0
33804000,33724000,-2.5573685,3.493468,-2.514087,-1.264355,-0.0046360763,1.2608286,2.5198152,-0.043051675,0.016143033,0.08405865,0.06643675,-0.012179352,-0.008058175,-0.06000223,-0.019656787,0.057451367,0.06434042,0.20388287,0.20102572,0.19677307,0.1969698,0.20134847,0
33812000,33732000,-2.55738,3.493469,-2.5140955,-1.2643635,-0.004644584,1.2608202,2.5198066,-0.043051675,0.016143033,0.08405865,0.06643675,-0.012179352,-0.008058175,-0.06000223,-0.019656787,0.057451367,0.06434042,0.20388287,0.20102572,0.19677307,0.1969698,0.20134847,0
33820000,33740000,-2.5573907,3.49347,-2.5141058,-1.2643735,-0.004654659,1.26081,2.5197966,-0.043051675,0.016143033,0.08405865,0.06643675,-0.012179352,-0.008058175,-0.06000223,-0.019656787,0.057451367,0.06434042,0.20388287,0.20102572,0.19677307,0.1969698,0.20134847,0
33828000,33748000,-2.5573907,3.4934702,-2.5141087,-1.2643766,-0.004657673,1.260807,2.5197935,-0.043051675,0.016143033,0.08405865,0.06643675,-0.012179352,-0.008058175,-0.06000223,-0.019656787,0.057451367,0.06434042,0.20388287,0.20102572,0.19677307,0.1969698,0.20134847,0
33836000,33756000,-2.557394,3.4934707,-2.5141098,-1.2643778,-0.004658926,1.2608058,2.5197923,-0.043051675,0.016143033,0.08405865,0.06643675,-0.012179352,-0.008058175,-0.06000223,-0.019656787,0.057451367,0.06434042,0.20388287,0.20102572,0.19677307,0.1969698,0.20134847,0
33844000,33764000,-2.557394,3.4934719,-2.5141106,-1.2643783,-0.0046594176,1.2608052,2.5197918,-0.043051675,0.016143033,0.08405865,0.06643675,-0.012179352,-0.008058175,-0.06000223,-0.019656787,0.057451367,0.06434042,0.20388287,0.20102572,0.19677307,0.1969698,0.20134847,0
33852000,33772000,-2.55739,3.493472,-2.5141068,-1.2643747,-0.0046558185,1.2608088,2.5197954,-0.043051675,0.016143033,0.08405865,0.06643675,-0.012179352,-0.008058175,-0.06000223,-0.019656787,0.057451367,0.06434042,0.20388287,0.20102572,0.19677307,0.1969698,0.20134847,0
33860000,33780000,-2.557376,3.4934723,-2.5140963,-1.2643642,-0.004645383,1.2608193,2.519806,-0.043051675,0.016143033,0.08405865,0.06643675,-0.012179352,-0.008058175,-0.06000223,-0.019656787,0.057451367,0.06434042,0.20388287,0.20102572,0.19677307,0.1969698,0.20134847,0
33868000,33788000,-2.557376,3.4934738,-2.51409,-1.2643579,-0.0046389834,1.2608258,2.519812,-0.043051675,0.016143033,0.08405865,0.06643675,-0.012179352,-0.008058175,-0.06000223,-0.019656787,0.057451367,0.06434042,0.20388287,0.20102572,0.19677307,0.1969698,0.20134847,0
33876000,33796000,-2.557371,3.4934745,-2.5140865,-1.2643542,-0.004635359,1.2608293,2.519816,-0.043051675,0.016143033,0.08405865,0.06643675,-0.012179352,-0.008058175,-0.06000223,-0.019656787,0.057451367,0.06434042,0.20388287,0.20102572,0.19677307,0.1969698,0.20134847,0
33884000,33804000,-2.5573745,3.4934745,-2.5140905,-1.2643585,-0.004639583,1.2608252,2.5198116,-0.043051675,0.016143033,0.08405865,0.06643675,-0.012179352,-0.008058175,-0.06000223,-0.019656787,0.057451367,0.06434042,0.20388287,0.20102572,0.19677307,0.1969698,0.20134847,0
33892000,33812000,-2.5573711,3.4934754,-2.5140874,-1.2643554,-0.0046364903,1.2608281,2.5198147,-0.043051675,0.016143033,0.08405865,0.06643675,-0.012179352,-0.008058175,-0.06000223,-0.019656787,0.057451367,0.06434042,0.20388287,0.20102572,0.19677307,0.1969698,0.20134847,0
33900000,33820000,-2.5573628,3.493476,-2.51408,-1.264348,-0.004629054,1.2608356,2.5198221,-0.043051675,0.016143033,0.08405865,0.06643675,-0.012179352,-0.008058175,-0.06000223,-0.019656787,0.057451367,0.06434042,0.20388287,0.20102572,0.19677307,0.1969698,0.20134847,0
33908000,33828000,-2.5573535,3.4934766,-2.5140684,-1.2643361,-0.004617274,1.2608474,2.519834,-0.043051675,0.016143033,0.08405865,0.06643675,-0.012179352,-0.008058175,-0.06000223,-0.019656787,0.057451367,0.06434042,0.20388287,0.20102572,0.19677307,0.1969698,0.20134847,0
33916000,33836000,-2.5573626,3.4934773,-2.5140762,-1.264344,-0.0046250294,1.2608397,2.5198262,-0.043051675,0.016143033,0.08405865,0.06643675,-0.012179352,-0.008058175,-0.06000223,-0.019656787,0.057451367,0.06434042,0.20388287,0.20102572,0.19677307,0.1969698,0.20134847,0
33924000,33844000,-2.5573533,3.4934783,-2.5140698,-1.2643377,-0.0046187425,1.2608459,2.5198326,-0.043051675,0.016143033,0.08405865,0.06643675,-0.012179352,-0.008058175,-0.06000223,-0.019656787,0.057451367,0.06434042,0.20388287,0.20102572,0.19677307,0.1969698,0.20134847,0
33932000,33852000,-2.5573583,3.4934783,-2.514075,-1.2643428,-0.0046239463,1.2608408,2.5198274,-0.043051675,0.016143033,0.08405865,0.06643675,-0.012179352,-0.008058175,-0.06000223,-0.019656787,0.057451367,0.06434042,0.20388287,0.20102572,0.19677307,0.1969698,0.20134847,0
33940000,33860000,-2.557371,3.4934795,-2.5140865,-1.2643542,-0.0046353717,1.2608293,2.519816,-0.043051675,0.016143033,0.08405865,0.06643675,-0.012179352,-0.008058175,-0.06000223,-0.019656787,0.057451367,0.06434042,0.20388287,0.20102572,0.19677307,0.1969698,0.20134847,0
33948000,33868000,-2.5573838,3.49348,-2.5141022,-1.2643701,-0.004651172,1.2608135,2.5198002,-0.043051675,0.016143033,0.08405865,0.06643675,-0.012179352,-0.008058175,-0.06000223,-0.019656787,0.057451367,0.06434042,0.20388287,0.20102572,0.19677307,0.1969698,0.20134847,0
33956000,33876000,-2.5573883,3.4934807,-2.514102,-1.2643697,-0.004650858,1.260814,2.5198004,-0.043051675,0.016143033,0.08405865,0.06643675,-0.012179352,-0.008058175,-0.06000223,-0.019656787,0.057451367,0.06434042,0.20388287,0.20102572,0.19677307,0.1969698,0.20134847,0
33964000,33884000,-2.5573902,3.493481,-2.5141053,-1.2643732,-0.004654218,1.2608105,2.519797,-0.043051675,0.016143033,0.08405865,0.06643675,-0.012179352,-0.008058175,-0.06000223,-0.019656787,0.057451367,0.06434042,0.20388287,0.20102572,0.19677307,0.1969698,0.20134847,0
33972000,33892000,-2.5574026,3.4934816,-2.5141175,-1.2643852,-0.004666377,1.2607983,2.519785,-0.043051675,0.016143033,0.08405865,0.06643675,-0.012179352,-0.008058175,-0.06000223,-0.019656787,0.057451367,0.06434042,0.20388287,0.20102572,0.19677307,0.1969698,0.20134847,0
33980000,33900000,-2.5574255,3.4934824,-2.5141408,-1.2644087,-0.0046898588,1.2607749,2.5197613,-0.043051675,0.016143033,0.08405865,0.06643675,-0.012179352,-0.008058175,-0.06000223,-0.019656787,0.057451367,0.06434042,0.20388287,0.20102572,0.19677307,0.1969698,0.20134847,0
33988000,33908000,-2.5574274,3.4934828,-2.5141444,-1.2644124,-0.004693468,1.2607713,2.5197577,-0.043051675,0.016143033,0.08405865,0.06643675,-0.012179352,-0.008058175,-0.06000223,-0.019656787,0.057451367,0.06434042,0.20388287,0.20102572,0.19677307,0.1969698,0.20134847,0
33996000,33916000,-2.250004,3.5401516,-2.5114002,-1.2650721,-0.007868751,1.2594748,2.5221202,-0.06885327,-0.0020513344,0.07399838,0.05325062,-0.03529035,-0.003087692,-0.060705323,-0.014806464,0.07192291,0.07846621,0.20475173,0.20267789,0.19691975,0.19542734,0.20022327,0
34004000,33924000,-2.2500114,3.5401518,-2.511407,-1.2650785,-0.007875221,1.2594683,2.5221138,-0.06885327,-0.0020513344,0.07399838,0.05325062,-0.03529035,-0.003087692,-0.060705323,-0.014806464,0.07192291,0.07846621,0.20475173,0.20267789,0.19691975,0.19542734,0.20022327,0
34012000,33932000,-2.250025,3.540154,-2.5114236,-1.2650954,-0.007892093,1.2594515,2.5220969,-0.06885327,-0.0020513344,0.07399838,0.05325062,-0.03529035,-0.003087692,-0.060705323,-0.014806464,0.07192291,0.07846621,0.20475173,0.20267789,0.19691975,0.19542734,0.20022327,0
34020000,33940000,-2.250049,3.540153,-2.5114443,-1.2651161,-0.007912772,1.2594309,2.5220764,-0.06885327,-0.0020513344,0.07399838,0.05325062,-0.03529035,-0.003087692,-0.060705323,-0.014806464,0.07192291,0.07846621,0.20475173,0.20267789,0.19691975,0.19542734,0.20022327,0
34028000,33948000,-2.250043,3.540154,-2.5114393,-1.265111,-0.007907749,1.2594359,2.5220814,-0.06885327,-0.0020513344,0.07399838,0.05325062,-0.03529035,-0.003087692,-0.060705323,-0.014806464,0.07192291,0.07846621,0.20475173,0.20267789,0.19691975,0.19542734,0.20022327,0
34036000,33956000,-2.2500594,3.5401547,-2.5114553,-1.265127,-0.007923694,1.2594199,2.5220654,-0.06885327,-0.0020513344,0.07399838,0.05325062,-0.03529035,-0.003087692,-0.060705323,-0.014806464,0.07192291,0.07846621,0.20475173,0.20267789,0.19691975,0.19542734,0.20022327,0
34044000,33964000,-2.2500875,3.5401547,-2.511483,-1.2651546,-0.007951327,1.2593923,2.5220377,-0.06885327,-0.0020513344,0.07399838,0.05325062,-0.03529035,-0.003087692,-0.060705323,-0.014806464,0.07192291,0.07846621,0.20475173,0.20267789,0.19691975,0.19542734,0.20022327,0
34052000,33972000,-2.250071,3.5401547,-2.5114655,-1.2651372,-0.007933977,1.2594097,2.5220551,-0.06885327,-0.0020513344,0.07399838,0.05325062,-0.03529035,-0.003087692,-0.060705323,-0.014806464,0.07192291,0.07846621,0.20475173,0.20267789,0.19691975,0.19542734,0.20022327,0
34060000,33980000,-2.2500682,3.5401547,-2.5114617,-1.2651334,-0.007930048,1.2594136,2.522059,-0.06885327,-0.0020513344,0.07399838,0.05325062,-0.03529035,-0.003087692,-0.060705323,-0.014806464,0.07192291,0.07846621,0.20475173,0.20267789,0.19691975,0.19542734,0.20022327,0
34068000,33988000,-2.250073,3.5401554,-2.5114663,-1.2651379,-0.007934526,1.2594091,2.5220547,-0.06885327,-0.0020513344,0.07399838,0.05325062,-0.03529035,-0.003087692,-0.060705323,-0.014806464,0.07192291,0.07846621,0.20475173,0.20267789,0.19691975,0.19542734,0.20022327,0
34076000,33996000,-2.2500885,3.540157,-2.511484,-1.2651554,-0.007952154,1.2593914,2.522037,-0.06885327,-0.0020513344,0.07399838,0.05325062,-0.03529035,-0.003087692,-0.060705323,-0.014806464,0.07192291,0.07846621,0.20475173,0.20267789,0.19691975,0.19542734,0.20022327,0
34084000,34004000,-2.2501063,3.5401568,-2.5114994,-1.265171,-0.0079677105,1.2593759,2.5220213,-0.06885327,-0.0020513344,0.07399838,0.05325062,-0.03529035,-0.003087692,-0.060705323,-0.014806464,0.07192291,0.07846621,0.20475173,0.20267789,0.19691975,0.19542734,0.20022327,0
34092000,34012000,-2.2501016,3.5401587,-2.5114968,-1.2651684,-0.00796516,1.2593784,2.522024,-0.06885327,-0.0020513344,0.07399838,0.05325062,-0.03529035,-0.003087692,-0.060705323,-0.014806464,0.07192291,0.07846621,0.20475173,0.20267789,0.19691975,0.19542734,0.20022327,0
34100000,34020000,-2.2500923,3.5401578,-2.5114853,-1.2651569,-0.007953579,1.25939,2.5220356,-0.06885327,-0.0020513344,0.07399838,0.05325062,-0.03529035,-0.003087692,-0.060705323,-0.014806464,0.07192291,0.07846621,0.20475173,0.20267789,0.19691975,0.19542734,0.20022327,0
34108000,34028000,-2.250102,3.5401602,-2.511498,-1.2651696,-0.007966355,1.2593772,2.5220227,-0.06885327,-0.0020513344,0.07399838,0.05325062,-0.03529035,-0.003087692,-0.060705323,-0.014806464,0.07192291,0.07846621,0.20475173,0.20267789,0.19691975,0.19542734,0.20022327,0
34116000,34036000,-2.2501273,3.54016,-2.5115218,-1.2651935,-0.007990227,1.2593534,2.521999,-0.06885327,-0.0020513344,0.07399838,0.05325062,-0.03529035,-0.003087692,-0.060705323,-0.014806464,0.07192291,0.07846621,0.20475173,0.20267789,0.19691975,0.19542734,0.20022327,0
34124000,34044000,-2.2501292,3.5401618,-2.5115259,-1.2651975,-0.007994237,1.2593493,2.521995,-0.06885327,-0.0020513344,0.07399838,0.05325062,-0.03529035,-0.003087692,-0.060705323,-0.014806464,0.07192291,0.07846621,0.20475173,0.20267789,0.19691975,0.19542734,0.20022327,0
34132000,34052000,-2.250127,3.5401623,-2.5115235,-1.2651951,-0.007991802,1.2593517,2.5219975,-0.06885327,-0.0020513344,0.07399838,0.05325062,-0.03529035,-0.003087692,-0.060705323,-0.014806464,0.07192291,0.07846621,0.20475173,0.20267789,0.19691975,0.19542734,0.20022327,0
34140000,34060000,-2.250135,3.5401623,-2.5115306,-1.2652023,-0.00799901,1.2593446,2.52199,-0.06885327,-0.0020513344,0.07399838,0.05325062,-0.03529035,-0.003087692,-0.060705323,-0.014806464,0.07192291,0.07846621,0.20475173,0.20267789,0.19691975,0.19542734,0.20022327,0
34148000,34068000,-2.2501113,3.5401638,-2.511508,-1.2651796,-0.007976369,1.2593672,2.5220127,-0.06885327,-0.0020513344,0.07399838,0.05325062,-0.03529035,-0.003087692,-0.060705323,-0.014806464,0.07192291,0.07846621,0.20475173,0.20267789,0.19691975,0.19542734,0.20022327,0
34156000,34076000,-2.250102,3.5401616,-2.5114934,-1.265165,-0.007961669,1.259382,2.5220275,-0.06885327,-0.0020513344,0.07399838,0.05325062,-0.03529035,-0.003087692,-0.060705323,-0.014806464,0.07192291,0.07846621,0.20475173,0.20267789,0.19691975,0.19542734,0.20022327,0
34164000,34084000,-2.2501016,3.5401647,-2.511498,-1.2651697,-0.007966391,1.2593772,2.5220227,-0.06885327,-0.0020513344,0.07399838,0.05325062,-0.03529035,-0.003087692,-0.060705323,-0.014806464,0.07192291,0.07846621,0.20475173,0.20267789,0.19691975,0.19542734,0.20022327,0
34172000,34092000,-2.2501197,3.540164,-2.5115137,-1.2651854,-0.007982065,1.2593616,2.522007,-0.06885327,-0.0020513344,0.07399838,0.05325062,-0.03529035,-0.003087692,-0.060705323,-0.014806464,0.07192291,0.07846621,0.20475173,0.20267789,0.19691975,0.19542734,0.20022327,0
34180000,34100000,-2.2501204,3.540165,-2.511515,-1.2651865,-0.007983215,1.2593604,2.522006,-0.06885327,-0.0020513344,0.07399838,0.05325062,-0.03529035,-0.003087692,-0.060705323,-0.014806464,0.07192291,0.07846621,0.20475173,0.20267789,0.19691975,0.19542734,0.20022327,0
34188000,34108000,-2.2501178,3.5401642,-2.5115094,-1.265181,-0.007977616,1.259366,2.5220115,-0.06885327,-0.0020513344,0.07399838,0.05325062,-0.03529035,-0.003087692,-0.060705323,-0.014806464,0.07192291,0.07846621,0.20475173,0.20267789,0.19691975,0.19542734,0.20022327,0
34196000,34116000,-2.250121,3.5401654,-2.5115151,-1.2651867,-0.00798335,1.2593603,2.5220058,-0.06885327,-0.0020513344,0.07399838,0.05325062,-0.03529035,-0.003087692,-0.060705323,-0.014806464,0.07192291,0.07846621,0.20475173,0.20267789,0.19691975,0.19542734,0.20022327,0
34204000,34124000,-2.2501016,3.5401669,-2.5114965,-1.2651682,-0.00796489,1.2593788,2.5220242,-0.06885327,-0.0020513344,0.07399838,0.05325062,-0.03529035,-0.003087692,-0.060705323,-0.014806464,0.07192291,0.07846621,0.20475173,0.20267789,0.19691975,0.19542734,0.20022327,0
34212000,34132000,-2.2500882,3.5401678,-2.5114837,-1.2651553,-0.007952003,1.2593917,2.522037,-0.06885327,-0.0020513344,0.07399838,0.05325062,-0.03529035,-0.003087692,-0.060705323,-0.014806464,0.07192291,0.07846621,0.20475173,0.20267789,0.19691975,0.19542734,0.20022327,0
34220000,34140000,-2.250095,3.540168,-2.5114899,-1.2651616,-0.007958288,1.2593853,2.5220308,-0.06885327,-0.0020513344,0.07399838,0.05325062,-0.03529035,-0.003087692,-0.060705323,-0.014806464,0.07192291,0.07846621,0.20475173,0.20267789,0.19691975,0.19542734,0.20022327,0
34228000,34148000,-2.2501073,3.5401676,-2.5114996,-1.2651713,-0.007967904,1.2593758,2.5220213,-0.06885327,-0.0020513344,0.07399838,0.05325062,-0.03529035,-0.003087692,-0.060705323,-0.014806464,0.07192291,0.07846621,0.20475173,0.20267789,0.19691975,0.19542734,0.20022327,0
34236000,34156000,-2.250124,3.5401692,-2.511519,-1.2651906,-0.007987272,1.2593564,2.5220017,-0.06885327,-0.0020513344,0.07399838,0.05325062,-0.03529035,-0.003087692,-0.060705323,-0.014806464,0.07192291,0.07846621,0.20475173,0.20267789,0.19691975,0.19542734,0.20022327,0
34244000,34164000,-2.2501473,3.5401688,-2.5115395,-1.2652111,-0.008007731,1.259336,2.5219812,-0.06885327,-0.0020513344,0.07399838,0.05325062,-0.03529035,-0.003087692,-0.060705323,-0.014806464,0.07192291,0.07846621,0.20475173,0.20267789,0.19691975,0.19542734,0.20022327,0
34252000,34172000,-2.2501683,3.5401688,-2.5115592,-1.2652309,-0.008027452,1.2593162,2.5219617,-0.06885327,-0.0020513344,0.07399838,0.05325062,-0.03529035,-0.003087692,-0.060705323,-0.014806464,0.07192291,0.07846621,0.20475173,0.20267789,0.19691975,0.19542734,0.20022327,0
34260000,34180000,-2.2501764,3.5401697,-2.5115685,-1.2652402,-0.008036742,1.2593069,2.5219524,-0.06885327,-0.0020513344,0.07399838,0.05325062,-0.03529035,-0.003087692,-0.060705323,-0.014806464,0.07192291,0.07846621,0.20475173,0.20267789,0.19691975,0.19542734,0.20022327,0
34268000,34188000,-2.2502074,3.5401702,-2.511598,-1.2652696,-0.008066241,1.2592775,2.5219228,-0.06885327,-0.0020513344,0.07399838,0.05325062,-0.03529035,-0.003087692,-0.060705323,-0.014806464,0.07192291,0.07846621,0.20475173,0.20267789,0.19691975,0.19542734,0.20022327,0
34276000,34196000,-2.2502043,3.5401716,-2.5115972,-1.2652689,-0.008065563,1.2592782,2.5219235,-0.06885327,-0.0020513344,0.07399838,0.05325062,-0.03529035,-0.003087692,-0.060705323,-0.014806464,0.07192291,0.07846621,0.20475173,0.20267789,0.19691975,0.19542734,0.20022327,0
34284000,34204000,-2.250195,3.5401714,-2.5115871,-1.2652588,-0.0080553815,1.2592883,2.5219338,-0.06885327,-0.0020513344,0.07399838,0.05325062,-0.03529035,-0.003087692,-0.060705323,-0.014806464,0.07192291,0.07846621,0.20475173,0.20267789,0.19691975,0.19542734,0.20022327,0
34292000,34212000,-2.2502027,3.5401735,-2.5115967,-1.2652684,-0.008065055,1.2592787,2.521924,-0.06885327,-0.0020513344,0.07399838,0.05325062,-0.03529035,-0.003087692,-0.060705323,-0.014806464,0.07192291,0.07846621,0.20475173,0.20267789,0.19691975,0.19542734,0.20022327,0
34300000,34220000,-2.2502244,3.540173,-2.511617,-1.2652887,-0.008085298,1.2592584,2.521904,-0.06885327,-0.0020513344,0.07399838,0.05325062,-0.03529035,-0.003087692,-0.060705323,-0.014806464,0.07192291,0.07846621,0.20475173,0.20267789,0.19691975,0.19542734,0.20022327,0
34308000,34228000,-2.2502372,3.5401735,-2.5116296,-1.2653013,-0.0080978675,1.2592459,2.5218914,-0.06885327,-0.0020513344,0.07399838,0.05325062,-0.03529035,-0.003087692,-0.060705323,-0.014806464,0.07192291,0.07846621,0.20475173,0.20267789,0.19691975,0.19542734,0.20022327,0
