timestamp,timestamp_sample,time_last_fuse,device_id,observation[0],observation[1],observation_variance[0],observation_variance[1],innovation[0],innovation[1],innovation_variance[0],innovation_variance[1],test_ratio[0],test_ratio[1],estimator_instance,fusion_enabled,innovation_rejected,fused
3348000,3348000,3348000,0,0.0,0.0,0.25,0.25,9.449665e-09,-3.0882659e-09,0.500009,0.500009,1.9843236e-17,2.1193809e-18,3,0,0,0
3636000,3556000,3556000,0,0.0,0.0,0.25,0.25,0.00017404526,-0.00042869293,103.28185,103.28185,3.2588012e-11,1.9770885e-10,3,1,0,1
3844000,3764000,3764000,0,0.0,0.0,0.25,0.25,0.0006612564,-0.0010472331,1.9127904,1.9127909,2.5399771e-08,6.370547e-08,3,1,0,1
4052000,3972000,3972000,0,0.0,0.0,1e-04,1e-04,-0.00016775525,0.00017974897,0.12513988,0.12514001,2.4986994e-08,2.8687596e-08,3,1,0,1
4260000,4180000,4180000,0,0.0,0.0,1e-04,1e-04,-1.0601353e-05,3.1426116e-05,0.00020385369,0.00020385408,6.1257815e-08,5.3829393e-07,3,1,0,1
4468000,4388000,4388000,0,0.0,0.0,1e-04,1e-04,0.00016473731,0.00014296267,0.00033936542,0.00033940724,8.885337e-06,6.690856e-06,3,1,0,1
4676000,4596000,4596000,0,0.0,0.0,1e-04,1e-04,0.00055733597,5.471569e-05,0.0007846351,0.00078469416,4.398696e-05,4.2391696e-07,3,1,0,1
4884000,4804000,4804000,0,0.0,0.0,1e-04,1e-04,0.0005482469,-0.00037922597,0.00065959117,0.0006595984,5.063316e-05,2.422557e-05,3,1,0,1
5092000,5012000,5012000,0,0.0,0.0,1e-04,1e-04,0.00037595077,-0.0007779178,0.00053541193,0.00053541193,2.9331306e-05,0.00012558475,3,1,0,1
5300000,5220000,5220000,0,0.0,0.0,1e-04,1e-04,0.00031825012,-0.0005443073,0.00047825862,0.0004782619,2.3530538e-05,6.883035e-05,3,1,0,1
5508000,5428000,5428000,0,0.0,0.0,1e-04,1e-04,0.00048725092,-0.0002598685,0.00044435705,0.0004443616,5.9365033e-05,1.6886059e-05,3,1,0,1
5716000,5636000,5636000,0,0.0,0.0,1e-04,1e-04,0.00032457442,0.00043920334,0.0004145662,0.00041457274,2.8235287e-05,5.1699702e-05,3,1,0,1
5924000,5844000,5844000,0,0.0,0.0,1e-04,1e-04,0.0003339062,0.0005749096,0.0003865346,0.00038653964,3.2049265e-05,9.500853e-05,3,1,0,1
6132000,6052000,6052000,0,0.0,0.0,1e-04,1e-04,0.00025630463,0.00028670742,0.00036190328,0.0003619065,2.0168698e-05,2.5237072e-05,3,1,0,1
6340000,6260000,6260000,0,0.0,0.0,1e-04,1e-04,0.00024450026,9.756852e-05,0.0003415894,0.00034159105,1.9445171e-05,3.0964952e-06,3,1,0,1
6548000,6468000,6468000,0,0.0,0.0,1e-04,1e-04,-1.8274864e-05,-1.8770368e-05,0.00032533958,0.00032534002,1.14058835e-07,1.2032768e-07,3,1,0,1
6756000,6676000,6676000,0,0.0,0.0,1e-04,1e-04,-0.00063339784,5.835094e-05,0.00031248448,0.00031248495,0.00014265341,1.2106652e-06,3,1,0,1
6964000,6884000,6884000,0,0.0,0.0,1e-04,1e-04,-0.0007535931,0.00020948346,0.00030229823,0.00030229767,0.00020873522,1.6129547e-05,3,1,0,1
7172000,7092000,7092000,0,0.0,0.0,1e-04,1e-04,-0.0005750838,0.0006560079,0.00029410076,0.00029409918,0.00012494635,0.00016258551,3,1,0,1
7380000,7300000,7300000,0,0.0,0.0,1e-04,1e-04,-0.00026063182,0.0012642858,0.0002874384,0.00028743577,2.625836e-05,0.00061788433,3,1,0,1
7588000,7508000,7508000,0,0.0,0.0,1e-04,1e-04,7.096678e-05,0.0016205908,0.00028192808,0.00028192482,1.9848576e-06,0.0010350728,3,1,0,1
7796000,7716000,7716000,0,0.0,0.0,1e-04,1e-04,0.00036121477,0.0014423276,0.00027728896,0.00027728616,5.228245e-05,0.00083359896,3,1,0,1
8004000,7924000,7924000,0,0.0,0.0,1e-04,1e-04,0.0003646106,0.0009721862,0.00027334702,0.00027334437,5.403831e-05,0.0003841902,3,1,0,1
8212000,8132000,8132000,0,0.0,0.0,1e-04,1e-04,0.00018939502,0.00065651076,0.0002699678,0.00026996536,1.4763273e-05,0.00017739164,3,1,0,1
8420000,8340000,8340000,0,0.0,0.0,1e-04,1e-04,-0.00011700682,0.00026055038,0.00026702994,0.0002670278,5.6966546e-06,2.8247789e-05,3,1,0,1
8628000,8548000,8548000,0,0.0,0.0,1e-04,1e-04,-0.0003343929,0.00021324282,0.00026445166,0.00026445024,4.698133e-05,1.9105673e-05,3,1,0,1
8836000,8756000,8756000,0,0.0,0.0,1e-04,1e-04,-0.00021549515,8.957807e-05,0.00026213934,0.00026213806,1.9683408e-05,3.4011894e-06,3,1,0,1
9044000,8964000,8964000,0,0.0,0.0,1e-04,1e-04,6.121611e-05,0.0002529275,0.00026008242,0.0002600821,1.6009506e-06,2.732997e-05,3,1,0,1
9252000,9172000,9172000,0,0.0,0.0,1e-04,1e-04,0.000514236,0.0005334227,0.00025824786,0.00025824827,0.0001137747,0.000122423,3,1,0,1
9460000,9380000,9380000,0,0.0,0.0,1e-04,1e-04,0.00088954164,0.00069214776,0.00025659983,0.00025659995,0.00034263654,0.00020744292,3,1,0,1
9668000,9588000,9588000,0,0.0,0.0,1e-04,1e-04,0.00095833355,0.0007211333,0.00025512345,0.00025512197,0.00039998203,0.0002264857,3,1,0,1
9876000,9796000,9796000,0,0.0,0.0,1e-04,1e-04,0.0010149814,0.00064512866,0.00025377772,0.00025377437,0.0004510453,0.00018222266,3,1,0,1
10084000,10004000,10004000,0,0.0,0.0,1e-04,1e-04,0.001118103,0.0006784132,0.00025254724,0.0002525427,0.0005500201,0.00020249357,3,1,0,1
10292000,10212000,10212000,0,0.0,0.0,1e-04,1e-04,0.0007851768,0.00043963184,0.00025142613,0.00025141996,0.00027244698,8.541537e-05,3,1,0,1
10500000,10420000,10420000,0,0.0,0.0,1e-04,1e-04,0.00032056944,0.00015604965,0.00025039862,0.0002503914,4.560052e-05,1.0805968e-05,3,1,0,1
10708000,10628000,10628000,0,0.0,0.0,1e-04,1e-04,-6.5795604e-05,-0.00030525305,0.00024947405,0.00024946584,1.9280837e-06,4.150175e-05,3,1,0,1
10916000,10836000,10836000,0,0.0,0.0,1e-04,1e-04,-0.0003365548,-0.0005232109,0.00024861205,0.00024860373,5.0622886e-05,0.00012234985,3,1,0,1
11124000,11044000,11044000,0,0.0,0.0,1e-04,1e-04,-0.00013642995,-0.0008321806,0.00024781114,0.0002478026,8.3455725e-06,0.00031051802,3,1,0,1
11332000,11252000,11252000,0,0.0,0.0,1e-04,1e-04,-0.0002481104,-0.0010164374,0.00024706623,0.00024705852,2.768433e-05,0.00046464254,3,1,0,1
11540000,11460000,11460000,0,0.0,0.0,1e-04,1e-04,-0.0004589171,-0.0010810144,0.00024637993,0.00024637388,9.497747e-05,0.0005270184,3,1,0,1
11748000,11668000,11668000,0,0.0,0.0,1e-04,1e-04,-0.00063637237,-0.0012204942,0.00024574582,0.00024574157,0.00018310238,0.0006735197,3,1,0,1
11956000,11876000,11876000,0,0.0,0.0,1e-04,1e-04,-0.00073614734,-0.001273531,0.0002451557,0.00024515396,0.0002456094,0.0007350851,3,1,0,1
12164000,12084000,12084000,0,0.0,0.0,1e-04,1e-04,-0.0009903667,-0.00096835586,0.00024462276,0.0002446243,0.00044550508,0.00042591986,3,1,0,1
12372000,12292000,12292000,0,0.0,0.0,1e-04,1e-04,-0.0010818255,-0.000468161,0.00024413734,0.00024414159,0.0005326448,9.974845e-05,3,1,0,1
12580000,12500000,12500000,0,0.0,0.0,1e-04,1e-04,-0.0009819657,-0.00038673446,0.00024368046,0.00024368512,0.00043967259,6.8195266e-05,3,1,0,1
12788000,12708000,12708000,0,0.0,0.0,1e-04,1e-04,-0.0006819797,-0.0001996445,0.00024324504,0.0002432485,0.00021244983,1.8206316e-05,3,1,0,1
12996000,12916000,12916000,0,0.0,0.0,1e-04,1e-04,-0.00015472829,0.0005889331,0.00024282918,0.00024283008,1.0954589e-05,0.00015870368,3,1,0,1
13204000,13124000,13124000,0,0.0,0.0,1e-04,1e-04,6.505183e-05,0.0011459313,0.00024243825,0.00024243514,1.9394356e-06,0.0006018373,3,1,0,1
13412000,13332000,13332000,0,0.0,0.0,1e-04,1e-04,0.00010478882,0.0011802103,0.00024207501,0.00024206823,5.0400804e-06,0.0006393497,3,1,0,1
13620000,13540000,13540000,0,0.0,0.0,1e-04,1e-04,0.00032024577,0.0011419804,0.00024173126,0.00024172233,4.7140205e-05,0.00059945695,3,1,0,1
13828000,13748000,13748000,0,0.0,0.0,1e-04,1e-04,0.0006395509,0.001074036,0.00024141342,0.00024140341,0.00018825491,0.0005309477,3,1,0,1
14036000,13956000,13956000,0,0.0,0.0,1e-04,1e-04,0.0009027974,0.00073945057,0.00024111453,0.00024110396,0.00037559058,0.0002519831,3,1,0,1
14244000,14164000,14164000,0,0.0,0.0,1e-04,1e-04,0.000627066,0.00028758886,0.00024083219,0.00024082005,0.00018141346,3.8160055e-05,3,1,0,1
14452000,14372000,14372000,0,0.0,0.0,1e-04,1e-04,0.00051004125,-0.00016628114,0.00024055698,0.00024054325,0.0001201573,1.2771748e-05,3,1,0,1
14660000,14580000,14580000,0,0.0,0.0,1e-04,1e-04,0.0005514502,-0.00045358157,0.0002403036,0.00024028835,0.00014060792,9.513395e-05,3,1,0,1
14868000,14788000,14788000,0,0.0,0.0,1e-04,1e-04,0.0006049615,-0.00046790007,0.00024006577,0.0002400493,0.00016938802,0.000101335885,3,1,0,1
15076000,14996000,14996000,0,0.0,0.0,1e-04,1e-04,0.0008114895,-0.0004170336,0.00023984702,0.00023982953,0.00030506257,8.057437e-05,3,1,0,1
15284000,15204000,15204000,0,0.0,0.0,1e-04,1e-04,0.0006990802,-0.000105613646,0.00023963573,0.00023961696,0.0002266,5.172256e-06,3,1,0,1
15492000,15412000,15412000,0,0.0,0.0,1e-04,1e-04,0.00048189244,3.9299488e-05,0.00023942222,0.00023940174,0.00010776884,7.1680984e-07,3,1,0,1
15700000,15620000,15620000,0,0.0,0.0,1e-04,1e-04,0.0005040539,3.1987707e-05,0.00023922164,0.00023919976,0.000118007876,4.752947e-07,3,1,0,1
15908000,15828000,15828000,0,0.0,0.0,1e-04,1e-04,0.0006152044,-4.8586876e-06,0.0002390306,0.00023900764,0.00017593119,1.0974473e-08,3,1,0,1
16116000,16036000,16036000,0,0.0,0.0,1e-04,1e-04,0.00020747466,-0.00023352783,0.00023885342,0.00023882897,2.0024245e-05,2.5371593e-05,3,1,0,1
16324000,16244000,16244000,0,0.0,0.0,1e-04,1e-04,0.00010456585,-0.0005718279,0.00023868834,0.00023866247,5.089862e-06,0.00015223134,3,1,0,1
16532000,16452000,16452000,0,0.0,0.0,1e-04,1e-04,0.00016236477,-0.00067116093,0.00023852946,0.00023850228,1.228002e-05,0.0002098545,3,1,0,1
16740000,16660000,16660000,0,0.0,0.0,1e-04,1e-04,0.00014848102,-0.0010120209,0.00023837699,0.00023834757,1.027626e-05,0.00047744758,3,1,0,1
16948000,16868000,16868000,0,0.0,0.0,1e-04,1e-04,-4.5378394e-05,-0.001109299,0.0002382248,0.00023819372,9.604366e-07,0.0005740166,3,1,0,1
17156000,17076000,17076000,0,0.0,0.0,1e-04,1e-04,-0.00022640459,-0.0011998848,0.0002380856,0.00023805373,2.3921853e-05,0.0006719881,3,1,0,1
17364000,17284000,17284000,0,0.0,0.0,1e-04,1e-04,-0.00021736725,-0.0011848873,0.00023795819,0.0002379262,2.206201e-05,0.0006556458,3,1,0,1
17572000,17492000,17492000,0,0.0,0.0,1e-04,1e-04,-0.0002488224,-0.0012796492,0.0002378427,0.00023781043,2.8923221e-05,0.00076508283,3,1,0,1
17780000,17700000,17700000,0,0.0,0.0,1e-04,1e-04,-0.00039607572,-0.0010054016,0.0002377344,0.0002377023,7.33199e-05,0.00047250156,3,1,0,1
17988000,17908000,17908000,0,0.0,0.0,1e-04,1e-04,-0.0005364694,-0.0006028454,0.00023764087,0.00023760909,0.00013456319,0.00016994421,3,1,0,1
18196000,18116000,18116000,0,0.0,0.0,1e-04,1e-04,-0.0004639131,-0.00029869544,0.00023754322,0.00023751156,0.00010066723,4.1737836e-05,3,1,0,1
18404000,18324000,18324000,0,0.0,0.0,1e-04,1e-04,-2.9891617e-06,-0.00042995883,0.00023743277,0.00023740128,4.181341e-09,8.652233e-05,3,1,0,1
18612000,18532000,18532000,0,0.0,0.0,1e-04,1e-04,0.00071463076,-0.0009831253,0.00023732454,0.00023729351,0.00023909929,0.00045257376,3,1,0,1
18820000,18740000,18740000,0,0.0,0.0,1e-04,1e-04,0.0009705514,-0.0012451774,0.00023722401,0.00023719331,0.00044120045,0.0007263024,3,1,0,1
19028000,18948000,18948000,0,0.0,0.0,1e-04,1e-04,0.0010402146,-0.001581905,0.00023713091,0.00023710035,0.0005070084,0.0011726978,3,1,0,1
19236000,19156000,19156000,0,0.0,0.0,1e-04,1e-04,0.00061197655,-0.0018535843,0.00023704578,0.00023701557,0.00017554755,0.0016106652,3,1,0,1
19444000,19364000,19364000,0,0.0,0.0,1e-04,1e-04,2.9154839e-05,-0.001771185,0.00023696784,0.0002369395,3.98556e-07,0.0014711192,3,1,0,1
19652000,19572000,19572000,0,0.0,0.0,1e-04,1e-04,-7.562274e-05,-0.0015390954,0.00023689508,0.0002368695,2.682293e-06,0.0011111673,3,1,0,1
19860000,19780000,19780000,0,0.0,0.0,1e-04,1e-04,0.00011767377,-0.0013952246,0.00023683114,0.00023680826,6.496479e-06,0.00091337453,3,1,0,1
20068000,19988000,19988000,0,0.0,0.0,1e-04,1e-04,0.00017913723,-0.0010430302,0.00023676164,0.00023674135,1.5059753e-05,0.0005105957,3,1,0,1
20276000,20196000,20196000,0,0.0,0.0,1e-04,1e-04,0.00031347133,-0.00079562044,0.0002366959,0.00023667826,4.612777e-05,0.00029717415,3,1,0,1
20484000,20404000,20404000,0,0.0,0.0,1e-04,1e-04,0.00039367526,-0.0006214037,0.00023662887,0.00023661429,7.277229e-05,0.0001813277,3,1,0,1
20692000,20612000,20612000,0,0.0,0.0,1e-04,1e-04,5.246667e-05,-0.0003611567,0.00023656257,0.0002365507,1.2929403e-06,6.126672e-05,3,1,0,1
20900000,20820000,20820000,0,0.0,0.0,1e-04,1e-04,-0.0005407578,-0.00010949437,0.00023649854,0.00023648833,0.0001373835,5.6328913e-06,3,1,0,1
21108000,21028000,21028000,0,0.0,0.0,1e-04,1e-04,-0.001255334,0.00015853239,0.00023643495,0.00023642535,0.0007405671,1.1811349e-05,3,1,0,1
21316000,21236000,21236000,0,0.0,0.0,1e-04,1e-04,-0.0016622137,0.00066373777,0.00023637284,0.00023636306,0.001298774,0.00020709563,3,1,0,1
21524000,21444000,21444000,0,0.0,0.0,1e-04,1e-04,-0.0020878657,0.0009192283,0.00023631853,0.00023630861,0.0020495798,0.00039730562,3,1,0,1
21732000,21652000,21652000,0,0.0,0.0,1e-04,1e-04,-0.0022410636,0.001119423,0.00023626955,0.00023625966,0.0023618815,0.00058932696,3,1,0,1
21940000,21860000,21860000,0,0.0,0.0,1e-04,1e-04,-0.0021180746,0.00081581523,0.00023622601,0.00023621664,0.0021101448,0.0003130622,3,1,0,1
22148000,22068000,22068000,0,0.0,0.0,1e-04,1e-04,-0.0019822633,0.0005849769,0.00023618242,0.00023617357,0.0018485559,0.00016099177,3,1,0,1
22356000,22276000,22276000,0,0.0,0.0,1e-04,1e-04,-0.0021600882,0.000450055,0.00023613466,0.00023612645,0.0021955366,9.5311225e-05,3,1,0,1
22564000,22484000,22484000,0,0.0,0.0,1e-04,1e-04,-0.0022364608,0.00024324555,0.000236085,0.00023607744,0.0023540284,2.7847924e-05,3,1,0,1
22772000,22692000,22692000,0,0.0,0.0,1e-04,1e-04,-0.0022953718,0.00019685607,0.0002360343,0.00023602732,0.00248021,1.8242856e-05,3,1,0,1
22980000,22900000,22900000,0,0.0,0.0,1e-04,1e-04,-0.0019247731,-6.701248e-07,0.0002359848,0.00023597787,0.0017443456,2.1144508e-10,3,1,0,1
23188000,23108000,23108000,0,0.0,0.0,1e-04,1e-04,-0.0012098751,-0.0002833895,0.00023593812,0.00023593067,0.0006893511,3.782166e-05,3,1,0,1
23396000,23316000,23316000,0,0.0,0.0,1e-04,1e-04,-0.0005539738,-0.0004926755,0.00023589903,0.00023589056,0.00014454722,0.00011433229,3,1,0,1
23604000,23524000,23524000,0,0.0,0.0,1e-04,1e-04,-0.00015341873,-0.0003788722,0.00023586265,0.00023585223,1.1088048e-05,6.7624336e-05,3,1,0,1
23812000,23732000,23732000,0,0.0,0.0,1e-04,1e-04,7.170316e-05,-0.00010556217,0.00023583358,0.00023582048,2.4223027e-06,5.2504024e-06,3,1,0,1
24020000,23940000,23940000,0,0.0,0.0,1e-04,1e-04,0.0002581557,0.00011625542,0.00023580668,0.0002357905,3.1402542e-05,6.3688e-06,3,1,0,1
24228000,24148000,24148000,0,0.0,0.0,1e-04,1e-04,0.0003991215,0.00025373348,0.00023577973,0.00023576061,7.506911e-05,3.0341831e-05,3,1,0,1
24436000,24356000,24356000,0,0.0,0.0,1e-04,1e-04,0.00012747284,0.00010577055,0.00023576044,0.00023573838,7.6581155e-06,5.2729874e-06,3,1,0,1
24644000,24564000,24564000,0,0.0,0.0,1e-04,1e-04,-0.0005314515,-0.00015378416,0.00023573669,0.0002357123,0.00013312437,1.1148038e-05,3,1,0,1
24852000,24772000,24772000,0,0.0,0.0,1e-04,1e-04,-0.0011394311,-0.00058330444,0.00023570633,0.0002356811,0.0006120155,0.00016040698,3,1,0,1
25060000,24980000,24980000,0,0.0,0.0,1e-04,1e-04,-0.0014014062,-0.0006985453,0.00023567039,0.0002356458,0.0009259351,0.00023008429,3,1,0,1
25268000,25188000,25188000,0,0.0,0.0,1e-04,1e-04,-0.0015056536,-0.0006749168,0.00023563474,0.00023561169,0.0010689768,0.00021481328,3,1,0,1
25476000,25396000,25396000,0,0.0,0.0,1e-04,1e-04,-0.0014820205,-0.00041551123,0.00023560127,0.00023558008,0.0010358294,8.143e-05,3,1,0,1
25684000,25604000,25604000,0,0.0,0.0,1e-04,1e-04,-0.0014720855,-1.905076e-05,0.00023557738,0.00023555811,0.001022092,1.7119224e-07,3,1,0,1
25892000,25812000,25812000,0,0.0,0.0,1e-04,1e-04,-0.0014466634,0.00039536646,0.00023555645,0.00023553852,0.0009871826,7.373866e-05,3,1,0,1
26100000,26020000,26020000,0,0.0,0.0,1e-04,1e-04,-0.0014326411,0.00084815593,0.00023553421,0.00023551699,0.0009682294,0.00033938032,3,1,0,1
26308000,26228000,26228000,0,0.0,0.0,1e-04,1e-04,-0.0014557817,0.0013276195,0.00023550633,0.00023548977,0.000999879,0.0008316349,3,1,0,1
26516000,26436000,26436000,0,0.0,0.0,1e-04,1e-04,-0.0014141578,0.0017993108,0.0002354765,0.0002354612,0.00094363844,0.0015277439,3,1,0,1
26724000,26644000,26644000,0,0.0,0.0,1e-04,1e-04,-0.001359409,0.0017124334,0.00023544955,0.00023543613,0.00087208714,0.0013839225,3,1,0,1
26932000,26852000,26852000,0,0.0,0.0,1e-04,1e-04,-0.0015342832,0.001579626,0.00023542333,0.00023541128,0.0011110127,0.0011777111,3,1,0,1
27140000,27060000,27060000,0,0.0,0.0,1e-04,1e-04,-0.0017027264,0.0017189976,0.00023539871,0.00023538686,0.0013684947,0.0013948446,3,1,0,1
27348000,27268000,27268000,0,0.0,0.0,1e-04,1e-04,-0.0019561492,0.0020049948,0.00023537918,0.00023536631,0.0018063147,0.0018977528,3,1,0,1
27556000,27476000,27476000,0,0.0,0.0,1e-04,1e-04,-0.0018272308,0.0021552076,0.00023536047,0.00023534591,0.0015761979,0.0021929515,3,1,0,1
27764000,27684000,27684000,0,0.0,0.0,1e-04,1e-04,-0.0017301466,0.0024961797,0.00023534303,0.00023532682,0.0014132595,0.0029419665,3,1,0,1
27972000,27892000,27892000,0,0.0,0.0,1e-04,1e-04,-0.0016939907,0.0026656357,0.00023531611,0.00023529906,0.0013549642,0.003355358,3,1,0,1
28180000,28100000,28100000,0,0.0,0.0,1e-04,1e-04,-0.0017460414,0.0026287267,0.00023529126,0.00023527446,0.0014396628,0.0032634244,3,1,0,1
28388000,28308000,28308000,0,0.0,0.0,1e-04,1e-04,-0.0017026635,0.002311804,0.00023527772,0.00023526142,0.0013690974,0.0025241133,3,1,0,1
28596000,28516000,28516000,0,0.0,0.0,1e-04,1e-04,-0.0014232013,0.0019371256,0.00023526742,0.0002352515,0.0009565956,0.0017723138,3,1,0,1
28804000,28724000,28724000,0,0.0,0.0,1e-04,1e-04,-0.0016290667,0.0014561843,0.0002352614,0.000235246,0.0012533851,0.0010015392,3,1,0,1
29012000,28932000,28932000,0,0.0,0.0,1e-04,1e-04,-0.0018414413,0.0012019419,0.00023525127,0.00023523616,0.0016015529,0.0006823706,3,1,0,1
29220000,29140000,29140000,0,0.0,0.0,1e-04,1e-04,-0.0020682332,0.0009009103,0.00023523433,0.00023521943,0.0020204857,0.00038339585,3,1,0,1
29428000,29348000,29348000,0,0.0,0.0,1e-04,1e-04,-0.0018041012,0.0008316891,0.0002352201,0.00023520531,0.0015374635,0.00032676265,3,1,0,1
29636000,29556000,29556000,0,0.0,0.0,1e-04,1e-04,-0.0016354279,0.00035247096,0.00023521297,0.00023519865,0.0012634529,5.8690715e-05,3,1,0,1
29844000,29764000,29764000,0,0.0,0.0,1e-04,1e-04,-0.0013981352,2.2460783e-05,0.00023520412,0.00023519064,0.0009234447,2.3833468e-07,3,1,0,1
30052000,29972000,29972000,0,0.0,0.0,1e-04,1e-04,-0.0014142989,-0.00047820425,0.00023519972,0.00023518712,0.0009449376,0.000108036584,3,1,0,1
30260000,30180000,30180000,0,0.0,0.0,1e-04,1e-04,-0.0017764268,-0.0006799705,0.00023519498,0.00023518316,0.001490816,0.0002184396,3,1,0,1
30468000,30388000,30388000,0,0.0,0.0,1e-04,1e-04,-0.0019103136,-0.00091250625,0.00023518995,0.00023517819,0.001724043,0.00039339796,3,1,0,1
30676000,30596000,30596000,0,0.0,0.0,1e-04,1e-04,-0.001729833,-0.0013695661,0.00023518506,0.00023517295,0.0014136963,0.0008862089,3,1,0,1
30884000,30804000,30804000,0,0.0,0.0,1e-04,1e-04,-0.0016459619,-0.001860125,0.00023517027,0.00023515822,0.0012800137,0.0016348638,3,1,0,1
31092000,31012000,31012000,0,0.0,0.0,1e-04,1e-04,-0.0014854502,-0.0019389547,0.00023515383,0.00023514312,0.0010426095,0.0017764809,3,1,0,1
31300000,31220000,31220000,0,0.0,0.0,1e-04,1e-04,-0.0011576972,-0.0016476997,0.00023514143,0.00023513238,0.0006333128,0.0012829248,3,1,0,1
31508000,31428000,31428000,0,0.0,0.0,1e-04,1e-04,-0.0010375138,-0.0014396866,0.00023512734,0.00023511934,0.00050867704,0.0009795014,3,1,0,1
31716000,31636000,31636000,0,0.0,0.0,1e-04,1e-04,-0.0012897799,-0.0016015131,0.00023511736,0.0002351091,0.0007861475,0.0012121296,3,1,0,1
31924000,31844000,31844000,0,0.0,0.0,1e-04,1e-04,-0.0013930195,-0.0017093702,0.00023511154,0.00023510237,0.00091706036,0.0013809333,3,1,0,1
32132000,32052000,32052000,0,0.0,0.0,1e-04,1e-04,-0.0012918521,-0.001749737,0.00023510584,0.00023509556,0.0007887142,0.0014469669,3,1,0,1
32340000,32260000,32260000,0,0.0,0.0,100.0,100.0,-0.0013114427,-0.0017353606,100.00014,100.00014,1.9109774e-09,3.3460803e-09,3,1,0,1
32548000,32468000,32468000,0,0.0,0.0,100.0,100.0,-0.0024989357,-0.0030589544,100.00045,100.00045,6.9385013e-09,1.0396844e-08,3,1,0,1
32756000,32676000,32676000,0,0.0,0.0,100.0,100.0,-0.003910245,-0.005278908,100.00172,100.00172,1.6988615e-08,3.096266e-08,3,1,0,1
32964000,32884000,32884000,0,0.0,0.0,100.0,100.0,-0.0055548484,-0.008149272,100.005325,100.005325,3.4282998e-08,7.3785664e-08,3,1,0,1
33172000,33092000,33092000,0,0.0,0.0,100.0,100.0,-0.0073902546,-0.011603244,100.01333,100.013336,6.067621e-08,1.495748e-07,3,1,0,1
33380000,33300000,33300000,0,0.0,0.0,100.0,100.0,-0.009697365,-0.015815817,100.02844,100.02846,1.0445793e-07,2.7785433e-07,3,1,0,1
33588000,33508000,33508000,0,0.0,0.0,100.0,100.0,-0.012776871,-0.020608626,100.054054,100.05408,1.8128915e-07,4.7165105e-07,3,1,0,1
33796000,33716000,33716000,0,0.0,0.0,100.0,100.0,-0.01616478,-0.026168488,100.094185,100.09422,2.9006026e-07,7.601613e-07,3,1,0,1
34004000,33924000,33924000,0,0.0,0.0,100.0,100.0,-0.020035105,-0.032190654,100.15349,100.15354,4.4532248e-07,1.1496107e-06,3,1,0,1
34212000,34132000,34132000,0,0.0,0.0,100.0,100.0,-0.024439277,-0.03884558,100.23717,100.23725,6.6207224e-07,1.672675e-06,3,1,0,1
34420000,34340000,34340000,0,0.0,0.0,100.0,100.0,-0.029644042,-0.045969702,100.35091,100.351036,9.72996e-07,2.3398015e-06,3,1,0,1
34628000,34548000,34548000,0,0.0,0.0,100.0,100.0,-0.03548461,-0.053934205,100.500786,100.50096,1.3920924e-06,3.2159985e-06,3,1,0,1
34836000,34756000,34756000,0,0.0,0.0,100.0,100.0,-0.042557467,-0.06178385,100.69292,100.69314,1.9985273e-06,4.2121865e-06,3,1,0,1
35044000,34964000,34964000,0,0.0,0.0,100.0,100.0,-0.05006089,-0.06877485,100.933716,100.93401,2.7587882e-06,5.2069e-06,3,1,0,1
35252000,35172000,35172000,0,0.0,0.0,100.0,100.0,-0.058240745,-0.06589898,101.22894,101.2293,3.7231166e-06,4.766599e-06,3,1,0,1
35460000,35380000,35380000,0,0.0,0.0,100.0,100.0,-0.07133441,-0.034310598,101.58417,101.58466,5.565825e-06,1.2876146e-06,3,1,0,1
35668000,35588000,35588000,0,0.0,0.0,100.0,100.0,-0.091702096,0.014038717,102.0035,102.00421,9.160116e-06,2.1468131e-07,3,1,0,1
35876000,35796000,35796000,0,0.0,0.0,100.0,100.0,-0.11052817,0.05903375,102.489265,102.49022,1.324418e-05,3.7781208e-06,3,1,0,1
36084000,36004000,36004000,0,0.0,0.0,100.0,100.0,-0.12816644,0.09476442,103.03931,103.04067,1.7713452e-05,9.6836575e-06,3,1,0,1
36292000,36212000,36212000,0,0.0,0.0,100.0,100.0,-0.14155172,0.115611784,103.64864,103.650314,2.14795e-05,1.4328181e-05,3,1,0,1
36500000,36420000,36420000,0,0.0,0.0,100.0,100.0,-0.15393719,0.12316535,104.30666,104.3089,2.5242512e-05,1.6158952e-05,3,1,0,1
36708000,36628000,36628000,0,0.0,0.0,100.0,100.0,-0.16181672,0.115334205,105.003624,105.006165,2.7707669e-05,1.4075342e-05,3,1,0,1
36916000,36836000,36836000,0,0.0,0.0,100.0,100.0,-0.16900553,0.09708339,105.72282,105.72587,3.001861e-05,9.905265e-06,3,1,0,1
37124000,37044000,37044000,0,0.0,0.0,100.0,100.0,-0.17118563,0.06672333,106.450264,106.4535,3.05876e-05,4.64679e-06,3,1,0,1
37332000,37252000,37252000,0,0.0,0.0,100.0,100.0,-0.17295027,0.031497434,107.165726,107.16917,3.101302e-05,1.0285797e-06,3,1,0,1
37540000,37460000,37460000,0,0.0,0.0,100.0,100.0,-0.16965397,-0.01014794,107.85576,107.85917,2.9651193e-05,1.0608555e-07,3,1,0,1
37748000,37668000,37668000,0,0.0,0.0,100.0,100.0,-0.16663852,-0.050434776,108.50182,108.50492,2.8436181e-05,2.604763e-06,3,1,0,1
37956000,37876000,37876000,0,0.0,0.0,100.0,100.0,-0.15967323,-0.09225135,109.09536,109.09823,2.5966621e-05,8.667329e-06,3,1,0,1
38164000,38084000,38084000,0,0.0,0.0,100.0,100.0,-0.15381698,-0.12850195,109.62357,109.62566,2.3980714e-05,1.6736501e-05,3,1,0,1
38372000,38292000,38292000,0,0.0,0.0,100.0,100.0,-0.14584698,-0.16149718,110.0849,110.086655,2.1469632e-05,2.6324049e-05,3,1,0,1
38580000,38500000,38500000,0,0.0,0.0,100.0,100.0,-0.14208719,-0.18548186,110.47327,110.47402,2.0305333e-05,3.4601922e-05,3,1,0,1
38788000,38708000,38708000,0,0.0,0.0,100.0,100.0,-0.13963437,-0.20508398,110.79152,110.79123,1.9554001e-05,4.2180876e-05,3,1,0,1
38996000,38916000,38916000,0,0.0,0.0,100.0,100.0,-0.13725963,-0.22348778,111.04417,111.043655,1.8851564e-05,4.997713e-05,3,1,0,1
39204000,39124000,39124000,0,0.0,0.0,100.0,100.0,-0.13844895,-0.23603722,111.23248,111.23097,1.9147197e-05,5.5653538e-05,3,1,0,1
39412000,39332000,39332000,0,0.0,0.0,100.0,100.0,-0.13830501,-0.24809167,111.365234,111.36358,1.9084628e-05,6.140994e-05,3,1,0,1
39620000,39540000,39540000,0,0.0,0.0,100.0,100.0,-0.14069957,-0.2538961,111.44616,111.443794,1.9736852e-05,6.427078e-05,3,1,0,1
39828000,39748000,39748000,0,0.0,0.0,100.0,100.0,-0.1415945,-0.25785816,111.4837,111.48133,1.9981995e-05,6.627002e-05,3,1,0,1
40036000,39956000,39956000,0,0.0,0.0,100.0,100.0,-0.14337648,-0.25631645,111.48218,111.47933,2.0488395e-05,6.548112e-05,3,1,0,1
40244000,40164000,40164000,0,0.0,0.0,100.0,100.0,-0.1437094,-0.25414604,111.449036,111.4463,2.0589772e-05,6.439595e-05,3,1,0,1
40452000,40372000,40372000,0,0.0,0.0,100.0,100.0,-0.14693812,-0.24650463,111.38823,111.38524,2.1537095e-05,6.0614988e-05,3,1,0,1
40660000,40580000,40580000,0,0.0,0.0,100.0,100.0,-0.14694704,-0.2405367,111.30573,111.302925,2.1555676e-05,5.7758196e-05,3,1,0,1
40868000,40788000,40788000,0,0.0,0.0,100.0,100.0,-0.14898068,-0.23002286,111.20472,111.201836,2.2176559e-05,5.286735e-05,3,1,0,1
41076000,40996000,40996000,0,0.0,0.0,100.0,100.0,-0.1485882,-0.2211899,111.08975,111.08708,2.2082699e-05,4.8935555e-05,3,1,0,1
41284000,41204000,41204000,0,0.0,0.0,100.0,100.0,-0.14969479,-0.2097875,110.96322,110.96058,2.2438395e-05,4.40705e-05,3,1,0,1
41492000,41412000,41412000,0,0.0,0.0,100.0,100.0,-0.1480647,-0.20038982,110.82843,110.82601,2.1979075e-05,4.025938e-05,3,1,0,1
41700000,41620000,41620000,0,0.0,0.0,100.0,100.0,-0.14804733,-0.18798983,110.686905,110.68457,2.2002012e-05,3.5476365e-05,3,1,0,1
41908000,41828000,41828000,0,0.0,0.0,100.0,100.0,-0.14630339,-0.17802176,110.54014,110.53802,2.1515241e-05,3.1856052e-05,3,1,0,1
42116000,42036000,42036000,0,0.0,0.0,100.0,100.0,-0.14746812,-0.16528738,110.38974,110.38775,2.1888956e-05,2.7498942e-05,3,1,0,1
42324000,42244000,42244000,0,0.0,0.0,100.0,100.0,-0.14657673,-0.15581462,110.23766,110.235855,2.1654969e-05,2.447096e-05,3,1,0,1
42532000,42452000,42452000,0,0.0,0.0,100.0,100.0,-0.14777178,-0.14490364,110.08483,110.083145,2.204007e-05,2.1193138e-05,3,1,0,1
42740000,42660000,42660000,0,0.0,0.0,100.0,100.0,-0.148112,-0.13652551,109.9325,109.93097,2.2172357e-05,1.8839313e-05,3,1,0,1
42948000,42868000,42868000,0,0.0,0.0,100.0,100.0,-0.15063383,-0.12698533,109.78123,109.77982,2.2965422e-05,1.6320822e-05,3,1,0,1
43156000,43076000,43076000,0,0.0,0.0,100.0,100.0,-0.15163864,-0.11997456,109.63184,109.63057,2.3304541e-05,1.4588282e-05,3,1,0,1
43364000,43284000,43284000,0,0.0,0.0,100.0,100.0,-0.1525737,-0.114944234,109.484436,109.48328,2.3624601e-05,1.340862e-05,3,1,0,1
43572000,43492000,43492000,0,0.0,0.0,100.0,100.0,-0.1315608,-0.13954507,109.3396,109.33854,1.758867e-05,1.9788515e-05,3,1,0,1
43780000,43700000,43700000,0,0.0,0.0,100.0,100.0,-0.08045319,-0.2199381,109.19755,109.19655,6.586142e-06,4.9220896e-05,3,1,0,1
43988000,43908000,43908000,0,0.0,0.0,100.0,100.0,-0.0058461996,-0.38030466,109.05882,109.057816,3.482122e-08,0.0001473547,3,1,0,1
44196000,44116000,44116000,0,0.0,0.0,100.0,100.0,0.09148718,-0.6406612,108.92377,108.92267,8.5379825e-06,0.00041869332,3,1,0,1
44404000,44324000,44324000,0,0.0,0.0,100.0,100.0,0.21118127,-0.99955255,108.79318,108.79167,4.5547713e-05,0.0010204061,3,1,0,1
44612000,44532000,44532000,0,0.0,0.0,100.0,100.0,0.35861915,-1.4482311,108.667404,108.66535,0.00013149981,0.0021445793,3,1,0,1
44820000,44740000,44740000,0,0.0,0.0,100.0,100.0,0.5268039,-1.9596204,108.54608,108.542694,0.00028408042,0.0039309794,3,1,0,1
45028000,44948000,44948000,0,0.0,0.0,100.0,100.0,0.7276806,-2.5330799,108.429474,108.424805,0.00054261496,0.006575467,3,1,0,1
45236000,45156000,45156000,0,0.0,0.0,100.0,100.0,0.9625227,-3.1249385,108.3171,108.309845,0.00095034746,0.010017804,3,1,0,1
45444000,45364000,45364000,0,0.0,0.0,100.0,100.0,1.2365457,-3.7155507,108.20939,108.20017,0.0015700478,0.0141767245,3,1,0,1
45652000,45572000,45572000,0,0.0,0.0,100.0,100.0,1.5335156,-4.2576356,108.10569,108.09326,0.0024170482,0.01863356,3,1,0,1
45860000,45780000,45780000,0,0.0,0.0,100.0,100.0,1.8451668,-4.7491646,108.00638,107.992096,0.0035025098,0.023205983,3,1,0,1
46068000,45988000,45988000,0,0.0,0.0,100.0,100.0,2.1435804,-5.16093,107.910645,107.893394,0.004731216,0.027429545,3,1,0,1
46276000,46196000,46196000,0,0.0,0.0,100.0,100.0,2.4450028,-5.528718,107.81913,107.800644,0.006160563,0.031505402,3,1,0,1
46484000,46404000,46404000,0,0.0,0.0,100.0,100.0,2.7363305,-5.8363924,107.73078,107.70996,0.0077224444,0.035139095,3,1,0,1
46692000,46612000,46612000,0,0.0,0.0,100.0,100.0,3.0285683,-6.1148257,107.64657,107.625175,0.009467429,0.038602177,3,1,0,1
46900000,46820000,46820000,0,0.0,0.0,100.0,100.0,3.3054419,-6.3439503,107.56525,107.54225,0.011286118,0.041581284,3,1,0,1
47108000,47028000,47028000,0,0.0,0.0,100.0,100.0,3.5796912,-6.5531077,107.488045,107.46509,0.013246113,0.044400178,3,1,0,1
47316000,47236000,47236000,0,0.0,0.0,100.0,100.0,3.8354208,-6.7222824,107.41349,107.38969,0.015216848,0.046755034,3,1,0,1
47524000,47444000,47444000,0,0.0,0.0,100.0,100.0,4.085311,-6.8777027,107.343,107.31973,0.017275633,0.048973903,3,1,0,1
47732000,47652000,47652000,0,0.0,0.0,100.0,100.0,4.3127055,-6.9996586,107.275024,107.25152,0.019264532,0.05075838,3,1,0,1
47940000,47860000,47860000,0,0.0,0.0,100.0,100.0,4.531199,-7.11188,107.21111,107.188484,0.021278644,0.0524298,3,1,0,1
48148000,48068000,48068000,0,0.0,0.0,100.0,100.0,4.725346,-7.1940365,107.1496,107.127205,0.023154436,0.053678825,3,1,0,1
48356000,48276000,48276000,0,0.0,0.0,100.0,100.0,4.910437,-7.2689233,107.09207,107.0708,0.025017302,0.054831058,3,1,0,1
48564000,48484000,48484000,0,0.0,0.0,100.0,100.0,5.0719404,-7.317887,107.03679,107.01608,0.026703777,0.055600643,3,1,0,1
48772000,48692000,48692000,0,0.0,0.0,100.0,100.0,5.2259917,-7.3622403,106.98558,106.96619,0.028364142,0.056302927,3,1,0,1
48980000,48900000,48900000,0,0.0,0.0,100.0,100.0,5.358827,-7.3826413,106.93661,106.918106,0.029838061,0.056640852,3,1,0,1
49188000,49108000,49108000,0,0.0,0.0,100.0,100.0,5.479509,-7.388642,106.89062,106.8732,0.03121053,0.056756806,3,1,0,1
49396000,49316000,49316000,0,0.0,0.0,100.0,100.0,5.595769,-7.3868675,106.848495,106.832535,0.032561816,0.05675114,3,1,0,1
49604000,49524000,49524000,0,0.0,0.0,100.0,100.0,5.6941876,-7.3608847,106.80861,106.794,0.03372988,0.05637294,3,1,0,1
49812000,49732000,49732000,0,0.0,0.0,100.0,100.0,5.7889757,-7.3232822,106.77236,106.75931,0.03487403,0.05581659,3,1,0,1
50020000,49940000,49940000,0,0.0,0.0,100.0,100.0,5.869158,-7.2611847,106.73839,106.72693,0.035858195,0.05489066,3,1,0,1
50228000,50148000,50148000,0,0.0,0.0,100.0,100.0,5.947243,-7.187202,106.70791,106.6981,0.0368292,0.05379235,3,1,0,1
50436000,50356000,50356000,0,0.0,0.0,100.0,100.0,6.0132947,-7.0921454,106.67975,106.67168,0.03766175,0.05239184,3,1,0,1
50644000,50564000,50564000,0,0.0,0.0,100.0,100.0,6.078053,-6.98592,106.65492,106.64849,0.03848625,0.050845202,3,1,0,1
50852000,50772000,50772000,0,0.0,0.0,100.0,100.0,6.1322536,-6.860488,106.63246,106.62781,0.039183956,0.049045257,3,1,0,1
51060000,50980000,50980000,0,0.0,0.0,100.0,100.0,6.1852717,-6.7239666,106.61317,106.61008,0.03987165,0.047120545,3,1,0,1
51268000,51188000,51188000,0,0.0,0.0,100.0,100.0,6.2285767,-6.5707974,106.59628,106.59487,0.040438313,0.045004647,3,1,0,1
51476000,51396000,51396000,0,0.0,0.0,100.0,100.0,6.2708817,-6.406687,106.582436,106.5824,0.040994827,0.042789675,3,1,0,1
51684000,51604000,51604000,0,0.0,0.0,100.0,100.0,6.3039002,-6.2284293,106.57104,106.57243,0.0414321,0.04044545,3,1,0,1
51892000,51812000,51812000,0,0.0,0.0,100.0,100.0,6.334942,-6.038934,106.56252,106.565,0.04184449,0.0380245,3,1,0,1
52100000,52020000,52020000,0,0.0,0.0,100.0,100.0,6.356925,-5.837064,106.55645,106.559975,0.042137805,0.035526484,3,1,0,1
52308000,52228000,52228000,0,0.0,0.0,100.0,100.0,6.376189,-5.6233296,106.55309,106.5573,0.04239492,0.03297322,3,1,0,1
52516000,52436000,52436000,0,0.0,0.0,100.0,100.0,6.386438,-5.3996315,106.55213,106.556854,0.042531703,0.030402154,3,1,0,1
52724000,52644000,52644000,0,0.0,0.0,100.0,100.0,6.3923264,-5.1650763,106.55375,106.55863,0.042609517,0.02781777,3,1,0,1
52932000,52852000,52852000,0,0.0,0.0,100.0,100.0,6.3892813,-4.923309,106.55769,106.56244,0.042567357,0.025273623,3,1,0,1
53140000,53060000,53060000,0,0.0,0.0,100.0,100.0,6.381511,-4.670271,106.56405,106.56837,0.042461358,0.022741197,3,1,0,1
53348000,53268000,53268000,0,0.0,0.0,100.0,100.0,6.36583,-4.412601,106.57265,106.57608,0.042249523,0.020299582,3,1,0,1
53556000,53476000,53476000,0,0.0,0.0,100.0,100.0,6.345178,-4.1437135,106.583496,106.58586,0.041971564,0.017899351,3,1,0,1
53764000,53684000,53684000,0,0.0,0.0,100.0,100.0,6.3169065,-3.8723896,106.59648,106.59715,0.041593313,0.015630394,3,1,0,1
53972000,53892000,53892000,0,0.0,0.0,100.0,100.0,6.2829437,-3.5892723,106.61154,106.61044,0.04114145,0.013426739,3,1,0,1
54180000,54100000,54100000,0,0.0,0.0,100.0,100.0,6.24217,-3.3054588,106.62856,106.624886,0.040602718,0.0113857705,3,1,0,1
54388000,54308000,54308000,0,0.0,0.0,100.0,100.0,6.195679,-3.0103636,106.64748,106.64135,0.03999307,0.009442125,3,1,0,1
54596000,54516000,54516000,0,0.0,0.0,100.0,100.0,6.1427045,-2.716651,106.668175,106.6586,0.039304465,0.007688282,3,1,0,1
54804000,54724000,54724000,0,0.0,0.0,100.0,100.0,6.083777,-2.4183,106.69056,106.677055,0.038545888,0.006091255,3,1,0,1
55012000,54932000,54932000,0,0.0,0.0,100.0,100.0,6.017881,-2.1080902,106.71455,106.697495,0.03770692,0.004627875,3,1,0,1
55220000,55140000,55140000,0,0.0,0.0,100.0,100.0,5.94568,-1.8032476,106.74,106.7182,0.03679878,0.0033855538,3,1,0,1
55428000,55348000,55348000,0,0.0,0.0,100.0,100.0,5.8660083,-1.4864112,106.76684,106.74081,0.035810176,0.002299879,3,1,0,1
55636000,55556000,55556000,0,0.0,0.0,100.0,100.0,5.7804446,-1.1770077,106.794914,106.763374,0.034763973,0.0014417627,3,1,0,1
55844000,55764000,55764000,0,0.0,0.0,100.0,100.0,5.687039,-0.8572534,106.82415,106.78776,0.033640344,0.00076463545,3,1,0,1
56052000,55972000,55972000,0,0.0,0.0,100.0,100.0,5.589027,-0.5478799,106.85437,106.81179,0.032481615,0.0003122547,3,1,0,1
56260000,56180000,56180000,0,0.0,0.0,100.0,100.0,5.484211,-0.22881943,106.88553,106.83758,0.03126561,5.445268e-05,3,1,0,1
56468000,56388000,56388000,0,0.0,0.0,100.0,100.0,5.3759,0.078412294,106.91744,106.86276,0.030033868,6.392922e-06,3,1,0,1
56676000,56596000,56596000,0,0.0,0.0,100.0,100.0,5.260625,0.39543238,106.95005,106.889595,0.02875088,0.00016254235,3,1,0,1
56884000,56804000,56804000,0,0.0,0.0,100.0,100.0,5.1421337,0.6985862,106.983154,106.91558,0.02746179,0.0005071735,3,1,0,1
57092000,57012000,57012000,0,0.0,0.0,100.0,100.0,5.016789,1.0094396,107.01675,106.94323,0.026131082,0.0010586804,3,1,0,1
57300000,57220000,57220000,0,0.0,0.0,100.0,100.0,4.888822,1.3052502,107.05057,106.969574,0.024807157,0.0017696392,3,1,0,1
57508000,57428000,57428000,0,0.0,0.0,100.0,100.0,4.7539825,1.6097909,107.08463,106.997406,0.023450142,0.0026910587,3,1,0,1
57716000,57636000,57636000,0,0.0,0.0,100.0,100.0,4.617477,1.8988458,107.11868,107.02395,0.022115754,0.0037433112,3,1,0,1
57924000,57844000,57844000,0,0.0,0.0,100.0,100.0,4.4749765,2.1969619,107.152756,107.051735,0.020765178,0.0050096666,3,1,0,1
58132000,58052000,58052000,0,0.0,0.0,100.0,100.0,4.331845,2.479077,107.1866,107.078064,0.019451933,0.006377303,3,1,0,1
58340000,58260000,58260000,0,0.0,0.0,100.0,100.0,4.1835318,2.7681034,107.22026,107.105515,0.018137055,0.007948959,3,1,0,1
58548000,58468000,58468000,0,0.0,0.0,100.0,100.0,4.034807,3.0389326,107.25348,107.13139,0.016865207,0.009578177,3,1,0,1
58756000,58676000,58676000,0,0.0,0.0,100.0,100.0,3.8804827,3.3148396,107.28628,107.15824,0.01559498,0.011393495,3,1,0,1
58964000,58884000,58884000,0,0.0,0.0,100.0,100.0,3.7265697,3.5709534,107.3184,107.18327,0.01437811,0.013219007,3,1,0,1
59172000,59092000,59092000,0,0.0,0.0,100.0,100.0,3.5678282,3.8306384,107.349915,107.2094,0.013175395,0.01520782,3,1,0,1
59380000,59300000,59300000,0,0.0,0.0,100.0,100.0,3.4106987,4.068076,107.38055,107.23348,0.012037008,0.017147675,3,1,0,1
59588000,59508000,59508000,0,0.0,0.0,100.0,100.0,3.2487497,4.3086987,107.41039,107.25854,0.010918015,0.019231709,3,1,0,1
59796000,59716000,59716000,0,0.0,0.0,100.0,100.0,3.0885203,4.5265503,107.4392,107.28151,0.009864967,0.021221073,3,1,0,1
60004000,59924000,59924000,0,0.0,0.0,100.0,100.0,2.926831,4.7349296,107.46701,107.303955,0.008856815,0.023215005,3,1,0,1
60212000,60132000,60132000,0,0.0,0.0,100.0,100.0,2.760776,4.946621,107.49389,107.327065,0.007878364,0.025331767,3,1,0,1
60420000,60340000,60340000,0,0.0,0.0,100.0,100.0,2.5971682,5.137659,107.519585,107.348206,0.0069705984,0.027320791,3,1,0,1
60628000,60548000,60548000,0,0.0,0.0,100.0,100.0,2.4297237,5.3325725,107.544304,107.3699,0.006099354,0.029427169,3,1,0,1
60836000,60756000,60756000,0,0.0,0.0,100.0,100.0,2.2657056,5.507237,107.56775,107.38963,0.0053025205,0.0313807,3,1,0,1
61044000,60964000,60964000,0,0.0,0.0,100.0,100.0,2.0982454,5.6836996,107.59014,107.40981,0.004546713,0.03341764,3,1,0,1
61252000,61172000,61172000,0,0.0,0.0,100.0,100.0,1.9350845,5.839866,107.61119,107.42807,0.0038663386,0.035273254,3,1,0,1
61460000,61380000,61380000,0,0.0,0.0,100.0,100.0,1.7689456,5.9963446,107.631165,107.44679,0.0032303412,0.037182383,3,1,0,1
61668000,61588000,61588000,0,0.0,0.0,100.0,100.0,1.6061627,6.133085,107.64975,107.46348,0.0026627076,0.038891483,3,1,0,1
61876000,61796000,61796000,0,0.0,0.0,100.0,100.0,1.4399878,6.2692146,107.66724,107.48065,0.0021398903,0.04063062,3,1,0,1
62084000,62004000,62004000,0,0.0,0.0,100.0,100.0,1.2783608,6.384549,107.68328,107.49584,0.0016862273,0.042133376,3,1,0,1
62292000,62212000,62212000,0,0.0,0.0,100.0,100.0,1.1109139,6.5063195,107.69832,107.51137,0.0012732373,0.043749582,3,1,0,1
62500000,62420000,62420000,0,0.0,0.0,100.0,100.0,0.93619895,6.6439314,107.71291,107.5251,0.0009041199,0.045613974,3,1,0,1
62708000,62628000,62628000,0,0.0,0.0,100.0,100.0,0.7410957,6.83928,107.728294,107.53933,0.0005664693,0.04832935,3,1,0,1
62916000,62836000,62836000,0,0.0,0.0,100.0,100.0,0.5303172,7.070824,107.74396,107.551834,0.00029002535,0.05165112,3,1,0,1
63124000,63044000,63044000,0,0.0,0.0,100.0,100.0,0.29626223,7.3482637,107.76017,107.56493,9.0500675e-05,0.05577714,3,1,0,1
63332000,63252000,63252000,0,0.0,0.0,100.0,100.0,0.047718666,7.649133,107.77637,107.576195,2.3475268e-06,0.060431834,3,1,0,1
63540000,63460000,63460000,0,0.0,0.0,100.0,100.0,-0.22355989,7.9888363,107.79303,107.588326,5.1517476e-05,0.065911226,3,1,0,1
63748000,63668000,63668000,0,0.0,0.0,100.0,100.0,-0.50603193,8.340756,107.80938,107.598404,0.00026391057,0.07183937,3,1,0,1
63956000,63876000,63876000,0,0.0,0.0,100.0,100.0,-0.8091673,8.722173,107.82609,107.60971,0.0006746994,0.07855166,3,1,0,1
64164000,64084000,64084000,0,0.0,0.0,100.0,100.0,-1.1194535,9.102057,107.84209,107.618675,0.0012911638,0.08553601,3,1,0,1
64372000,64292000,64292000,0,0.0,0.0,100.0,100.0,-1.4465984,9.502632,107.85821,107.629074,0.0021557594,0.09322142,3,1,0,1
64580000,64500000,64500000,0,0.0,0.0,100.0,100.0,-1.7665418,9.889692,107.873245,107.637054,0.0032143386,0.100962766,3,1,0,1
64788000,64708000,64708000,0,0.0,0.0,100.0,100.0,-2.072042,10.271492,107.887474,107.64379,0.004421642,0.108901925,3,1,0,1
64996000,64916000,64916000,0,0.0,0.0,100.0,100.0,-2.3437755,10.694408,107.90299,107.65245,0.0056566074,0.11804486,3,1,0,1
65204000,65124000,65124000,0,0.0,0.0,100.0,100.0,-2.543256,11.153297,107.919235,107.65569,0.0066594565,0.12838878,3,1,0,1
65412000,65332000,65332000,0,0.0,0.0,100.0,100.0,-2.6928113,11.678441,107.937775,107.66056,0.007464417,0.14075719,3,1,0,1
65620000,65540000,65540000,0,0.0,0.0,100.0,100.0,-2.7798662,12.181778,107.95514,107.659,0.007953567,0.15315408,3,1,0,1
65828000,65748000,65748000,0,0.0,0.0,100.0,100.0,-2.8609269,12.680293,107.97179,107.661064,0.008422881,0.1659424,3,1,0,1
66036000,65956000,65956000,0,0.0,0.0,100.0,100.0,-2.9415553,13.100146,107.98503,107.65735,0.008903237,0.17711939,3,1,0,1
66244000,66164000,66164000,0,0.0,0.0,100.0,100.0,-3.0215344,13.505584,107.99666,107.65854,0.009392955,0.18825032,3,1,0,1
66452000,66372000,66372000,0,0.0,0.0,100.0,100.0,-3.0555341,13.861718,108.00611,107.65246,0.0096046915,0.19832052,3,1,0,1
66660000,66580000,66580000,0,0.0,0.0,100.0,100.0,-3.0398104,14.219025,108.01441,107.650955,0.009505364,0.20867923,3,1,0,1
66868000,66788000,66788000,0,0.0,0.0,100.0,100.0,-2.9367154,14.516448,108.02008,107.64086,0.008871084,0.21752094,3,1,0,1
67076000,66996000,66996000,0,0.0,0.0,100.0,100.0,-2.7508104,14.800831,108.02327,107.635086,0.0077832593,0.22613919,3,1,0,1
67284000,67204000,67204000,0,0.0,0.0,100.0,100.0,-2.4889498,15.023703,108.02345,107.62046,0.0063719405,0.23303255,3,1,0,1
67492000,67412000,67412000,0,0.0,0.0,100.0,100.0,-2.1908226,15.238638,108.02117,107.61173,0.0049369987,0.2397674,3,1,0,1
67700000,67620000,67620000,0,0.0,0.0,100.0,100.0,-1.8840642,15.400989,108.01638,107.595474,0.003651399,0.24494055,3,1,0,1
67908000,67828000,67828000,0,0.0,0.0,100.0,100.0,-1.5977901,15.549416,108.00898,107.58575,0.002626256,0.2497071,3,1,0,1
68116000,68036000,68036000,0,0.0,0.0,100.0,100.0,-1.3520806,15.62208,107.99798,107.57042,0.0018808191,0.2520823,3,1,0,1
68324000,68244000,68244000,0,0.0,0.0,100.0,100.0,-1.1433995,15.647322,107.982994,107.56123,0.0013452348,0.25291917,3,1,0,1
68532000,68452000,68452000,0,0.0,0.0,100.0,100.0,-0.96431506,15.602143,107.964676,107.54635,0.00095700385,0.25149557,3,1,0,1
68740000,68660000,68660000,0,0.0,0.0,100.0,100.0,-0.8085838,15.525115,107.94356,107.53699,0.0006729934,0.2490401,3,1,0,1
68948000,68868000,68868000,0,0.0,0.0,100.0,100.0,-0.676418,15.391338,107.91978,107.52229,0.00047107143,0.2448002,3,1,0,1
69156000,69076000,69076000,0,0.0,0.0,100.0,100.0,-0.56195056,15.22885,107.89383,107.512505,0.00032520495,0.23968051,3,1,0,1
69364000,69284000,69284000,0,0.0,0.0,100.0,100.0,-0.46655264,15.01666,107.8658,107.49783,0.00022422035,0.23307972,3,1,0,1
69572000,69492000,69492000,0,0.0,0.0,100.0,100.0,-0.38497728,14.778556,107.83624,107.48744,0.0001527084,0.22576872,3,1,0,1
69780000,69700000,69700000,0,0.0,0.0,100.0,100.0,-0.31872234,14.498373,107.80516,107.47278,0.000104699095,0.21731892,3,1,0,1
69988000,69908000,69908000,0,0.0,0.0,100.0,100.0,-0.26498,14.18744,107.77294,107.457954,7.2389215e-05,0.2081263,3,1,0,1
70196000,70116000,70116000,0,0.0,0.0,100.0,100.0,-0.22171435,13.850757,107.740005,107.447075,5.0695347e-05,0.19838548,3,1,0,1
70404000,70324000,70324000,0,0.0,0.0,100.0,100.0,-0.18922709,13.48422,107.70636,107.432335,3.6938796e-05,0.18805033,3,1,0,1
70612000,70532000,70532000,0,0.0,0.0,100.0,100.0,-0.16490759,13.095889,107.67247,107.42052,2.8063e-05,0.17739452,3,1,0,1
70820000,70740000,70740000,0,0.0,0.0,100.0,100.0,-0.14952582,12.68182,107.63842,107.40613,2.3079296e-05,0.16637635,3,1,0,1
71028000,70948000,70948000,0,0.0,0.0,100.0,100.0,-0.14089184,12.248169,107.60455,107.39371,2.0497388e-05,0.15521047,3,1,0,1
71236000,71156000,71156000,0,0.0,0.0,100.0,100.0,-0.14607555,11.7899065,107.570854,107.3794,2.2040322e-05,0.14383256,3,1,0,1
71444000,71364000,71364000,0,0.0,0.0,100.0,100.0,-0.19365636,11.305527,107.53744,107.3668,3.8749073e-05,0.13227235,3,1,0,1
71652000,71572000,71572000,0,0.0,0.0,100.0,100.0,-0.30441865,10.787554,107.50436,107.3534,9.5779804e-05,0.120444685,3,1,0,1
71860000,71780000,71780000,0,0.0,0.0,100.0,100.0,-0.46945328,10.239449,107.47182,107.34135,0.00022784928,0.10852844,3,1,0,1
72068000,71988000,71988000,0,0.0,0.0,100.0,100.0,-0.6811604,9.658873,107.44007,107.32894,0.00047983284,0.096581414,3,1,0,1
72276000,72196000,72196000,0,0.0,0.0,100.0,100.0,-0.93626916,9.05209,107.40938,107.317505,0.0009068109,0.08483687,3,1,0,1
72484000,72404000,72404000,0,0.0,0.0,100.0,100.0,-1.2284316,8.4184675,107.37992,107.30617,0.0015614798,0.073383585,3,1,0,1
72692000,72612000,72612000,0,0.0,0.0,100.0,100.0,-1.5534999,7.763713,107.35213,107.29565,0.002497867,0.062418643,3,1,0,1
72900000,72820000,72820000,0,0.0,0.0,100.0,100.0,-1.9041101,7.087694,107.32579,107.28555,0.0037535091,0.05202669,3,1,0,1
73108000,73028000,73028000,0,0.0,0.0,100.0,100.0,-2.279949,6.3944435,107.30169,107.27612,0.0053827125,0.042350635,3,1,0,1
73316000,73236000,73236000,0,0.0,0.0,100.0,100.0,-2.670411,5.6844034,107.27915,107.26731,0.0073858146,0.03347032,3,1,0,1
73524000,73444000,73444000,0,0.0,0.0,100.0,100.0,-3.0790737,4.9640355,107.259445,107.259155,0.009821145,0.025526594,3,1,0,1
73732000,73652000,73652000,0,0.0,0.0,100.0,100.0,-3.4878955,4.2447476,107.24122,107.25159,0.0126044145,0.01866627,3,1,0,1
73940000,73860000,73860000,0,0.0,0.0,100.0,100.0,-3.8875942,3.5399516,107.2264,107.244385,0.015660932,0.012983074,3,1,0,1
74148000,74068000,74068000,0,0.0,0.0,100.0,100.0,-4.284914,2.8802633,107.21225,107.23764,0.019028183,0.008595568,3,1,0,1
74356000,74276000,74276000,0,0.0,0.0,100.0,100.0,-4.7454658,2.2663097,107.20134,107.23276,0.023340758,0.0053219222,3,1,0,1
74564000,74484000,74484000,0,0.0,0.0,100.0,100.0,-5.266815,1.6955822,107.189766,107.230034,0.028754136,0.0029790562,3,1,0,1
74772000,74692000,74692000,0,0.0,0.0,100.0,100.0,-5.8523393,1.1603484,107.18121,107.22982,0.03550568,0.0013951431,3,1,0,1
74980000,74900000,74900000,0,0.0,0.0,100.0,100.0,-6.4347715,0.66554254,107.17082,107.230606,0.042928644,0.00045897643,3,1,0,1
75188000,75108000,75108000,0,0.0,0.0,100.0,100.0,-6.9947762,0.17847364,107.16109,107.231865,0.05073037,3.300515e-05,3,1,0,1
75396000,75316000,75316000,0,0.0,0.0,100.0,100.0,-7.5428686,-0.31155533,107.15557,107.23352,0.058995083,0.00010057668,3,1,0,1
75604000,75524000,75524000,0,0.0,0.0,100.0,100.0,-8.047189,-0.76379675,107.147285,107.2348,0.06715289,0.0006044736,3,1,0,1
75812000,75732000,75732000,0,0.0,0.0,100.0,100.0,-8.547443,-1.1656595,107.1422,107.2364,0.07576514,0.0014078575,3,1,0,1
76020000,75940000,75940000,0,0.0,0.0,100.0,100.0,-9.005726,-1.4792508,107.13233,107.237366,0.08411518,0.0022672268,3,1,0,1
76228000,76148000,76148000,0,0.0,0.0,100.0,100.0,-9.450175,-1.7023829,107.12454,107.23788,0.092629276,0.003002782,3,1,0,1
76436000,76356000,76356000,0,0.0,0.0,100.0,100.0,-9.85347,-1.8416128,107.11113,107.23725,0.10071665,0.0035140542,3,1,0,1
76644000,76564000,76564000,0,0.0,0.0,100.0,100.0,-10.245525,-1.933737,107.10035,107.23605,0.1089018,0.0038744626,3,1,0,1
76852000,76772000,76772000,0,0.0,0.0,100.0,100.0,-10.603511,-2.0052881,107.08561,107.2339,0.11666101,0.004166573,3,1,0,1
77060000,76980000,76980000,0,0.0,0.0,100.0,100.0,-10.942132,-2.086245,107.0747,107.230835,0.12424374,0.004509916,3,1,0,1
77268000,77188000,77188000,0,0.0,0.0,100.0,100.0,-11.223561,-2.1944447,107.06133,107.2257,0.1307333,0.004990084,3,1,0,1
77476000,77396000,77396000,0,0.0,0.0,100.0,100.0,-11.4528885,-2.3327649,107.051994,107.21811,0.13614221,0.005639379,3,1,0,1
77684000,77604000,77604000,0,0.0,0.0,100.0,100.0,-11.629492,-2.4896705,107.040764,107.20841,0.14038794,0.006424101,3,1,0,1
77892000,77812000,77812000,0,0.0,0.0,100.0,100.0,-11.769913,-2.6629088,107.03267,107.19686,0.14380951,0.0073500113,3,1,0,1
78100000,78020000,78020000,0,0.0,0.0,100.0,100.0,-11.865206,-2.8483353,107.02282,107.183556,0.14616105,0.008410302,3,1,0,1
78308000,78228000,78228000,0,0.0,0.0,100.0,100.0,-11.92678,-3.0440762,107.0157,107.168686,0.1476918,0.009607284,3,1,0,1
78516000,78436000,78436000,0,0.0,0.0,100.0,100.0,-11.951523,-3.247566,107.006805,107.15235,0.14831756,0.010936334,3,1,0,1
78724000,78644000,78644000,0,0.0,0.0,100.0,100.0,-11.943129,-3.456858,107.00058,107.13473,0.1481179,0.0123933945,3,1,0,1
78932000,78852000,78852000,0,0.0,0.0,100.0,100.0,-11.902735,-3.6702693,106.99264,107.11591,0.14712861,0.013973312,3,1,0,1
79140000,79060000,79060000,0,0.0,0.0,100.0,100.0,-11.8328285,-3.8867362,106.987,107.09615,0.14541312,0.015673058,3,1,0,1
79348000,79268000,79268000,0,0.0,0.0,100.0,100.0,-11.734338,-4.1048713,106.97988,107.07548,0.14301203,0.017485036,3,1,0,1
79556000,79476000,79476000,0,0.0,0.0,100.0,100.0,-11.608244,-4.3231936,106.97472,107.05418,0.13996176,0.01939828,3,1,0,1
79764000,79684000,79684000,0,0.0,0.0,100.0,100.0,-11.457331,-4.5407834,106.9683,107.03224,0.13635445,0.021404468,3,1,0,1
79972000,79892000,79892000,0,0.0,0.0,100.0,100.0,-11.282243,-4.7565303,106.96351,107.010056,0.13222474,0.023491645,3,1,0,1
80180000,80100000,80100000,0,0.0,0.0,100.0,100.0,-11.084693,-4.970099,106.957726,106.98748,0.12764172,0.025653971,3,1,0,1
80388000,80308000,80308000,0,0.0,0.0,100.0,100.0,-10.865385,-5.1804786,106.952324,106.964775,0.122647166,0.02787767,3,1,0,1
80596000,80516000,80516000,0,0.0,0.0,100.0,100.0,-10.627888,-5.387606,106.94806,106.94239,0.11734876,0.030157775,3,1,0,1
80804000,80724000,80724000,0,0.0,0.0,100.0,100.0,-10.371494,-5.590072,106.94324,106.91993,0.11176011,0.03247384,3,1,0,1
81012000,80932000,80932000,0,0.0,0.0,100.0,100.0,-10.0992775,-5.788262,106.93919,106.898094,0.10597446,0.03482442,3,1,0,1
81220000,81140000,81140000,0,0.0,0.0,100.0,100.0,-9.81132,-5.980788,106.93481,106.87636,0.10002149,0.037187133,3,1,0,1
81428000,81348000,81348000,0,0.0,0.0,100.0,100.0,-9.509568,-6.1676106,106.93099,106.85556,0.09396703,0.03955435,3,1,0,1
81636000,81556000,81556000,0,0.0,0.0,100.0,100.0,-9.193778,-6.3471465,106.927,106.83502,0.08783308,0.041898735,3,1,0,1
81844000,81764000,81764000,0,0.0,0.0,100.0,100.0,-8.866909,-6.520479,106.92343,106.81574,0.08170132,0.044226363,3,1,0,1
82052000,81972000,81972000,0,0.0,0.0,100.0,100.0,-8.528871,-6.6846256,106.919815,106.79687,0.07559313,0.046489317,3,1,0,1
82260000,82180000,82180000,0,0.0,0.0,100.0,100.0,-8.1825485,-6.842734,106.91648,106.779526,0.0695809,0.048722412,3,1,0,1
82468000,82388000,82388000,0,0.0,0.0,100.0,100.0,-7.8269367,-6.9908643,106.91319,106.76267,0.06366633,0.050862744,3,1,0,1
82676000,82596000,82596000,0,0.0,0.0,100.0,100.0,-7.463997,-7.1327806,106.91014,106.74759,0.05790039,0.052956242,3,1,0,1
82884000,82804000,82804000,0,0.0,0.0,100.0,100.0,-7.0938807,-7.26417,106.90724,106.73301,0.05230198,0.054932676,3,1,0,1
83092000,83012000,83012000,0,0.0,0.0,100.0,100.0,-6.718592,-7.389399,106.90453,106.72052,0.04691567,0.05684965,3,1,0,1
83300000,83220000,83220000,0,0.0,0.0,100.0,100.0,-6.338431,-7.503273,106.90201,106.70854,0.041757565,0.058621887,3,1,0,1
83508000,83428000,83428000,0,0.0,0.0,100.0,100.0,-5.9543767,-7.611448,106.8997,106.69874,0.03685137,0.06032992,3,1,0,1
83716000,83636000,83636000,0,0.0,0.0,100.0,100.0,-5.5675955,-7.708076,106.8976,106.68963,0.032219954,0.061876718,3,1,0,1
83924000,83844000,83844000,0,0.0,0.0,100.0,100.0,-5.1716514,-7.812521,106.89625,106.68263,0.027800558,0.06356911,3,1,0,1
84132000,84052000,84052000,0,0.0,0.0,100.0,100.0,-4.7567525,-7.9510083,106.89711,106.676315,0.023518663,0.06584668,3,1,0,1
84340000,84260000,84260000,0,0.0,0.0,100.0,100.0,-4.317544,-8.141943,106.9009,106.67227,0.019375354,0.069049746,3,1,0,1
84548000,84468000,84468000,0,0.0,0.0,100.0,100.0,-3.8562737,-8.367487,106.90716,106.669,0.0154556185,0.07293053,3,1,0,1
84756000,84676000,84676000,0,0.0,0.0,100.0,100.0,-3.3713152,-8.631693,106.91584,106.66831,0.011811748,0.07760934,3,1,0,1
84964000,84884000,84884000,0,0.0,0.0,100.0,100.0,-2.8672774,-8.921399,106.92669,106.66853,0.008543007,0.08290622,3,1,0,1
85172000,85092000,85092000,0,0.0,0.0,100.0,100.0,-2.343011,-9.241123,106.939766,106.671684,0.0057038344,0.088952444,3,1,0,1
85380000,85300000,85300000,0,0.0,0.0,100.0,100.0,-1.8041835,-9.5760355,106.95467,106.67574,0.003381576,0.09551318,3,1,0,1
85588000,85508000,85508000,0,0.0,0.0,100.0,100.0,-1.2519943,-9.925398,106.97131,106.681526,0.0016281516,0.10260396,3,1,0,1
85796000,85716000,85716000,0,0.0,0.0,100.0,100.0,-0.6830348,-10.297143,106.98983,106.69127,0.00048450768,0.11042365,3,1,0,1
86004000,85924000,85924000,0,0.0,0.0,100.0,100.0,-0.110778354,-10.664338,107.00941,106.701096,1.2742227e-05,0.11842855,3,1,0,1
86212000,86132000,86132000,0,0.0,0.0,100.0,100.0,0.46389383,-11.046734,107.03044,106.71508,0.00022340215,0.12705725,3,1,0,1
86420000,86340000,86340000,0,0.0,0.0,100.0,100.0,1.0126289,-11.401481,107.05133,106.72839,0.001064305,0.13533185,3,1,0,1
86628000,86548000,86548000,0,0.0,0.0,100.0,100.0,1.5197946,-11.771755,107.07341,106.74506,0.0023968765,0.14424214,3,1,0,1
86836000,86756000,86756000,0,0.0,0.0,100.0,100.0,1.964878,-12.172239,107.0984,106.75927,0.004005398,0.15420301,3,1,0,1
87044000,86964000,86964000,0,0.0,0.0,100.0,100.0,2.3730018,-12.654167,107.128525,106.77629,0.0058404794,0.16662869,3,1,0,1
87252000,87172000,87172000,0,0.0,0.0,100.0,100.0,2.7279015,-13.1602955,107.16177,106.78991,0.007715693,0.18020156,3,1,0,1
87460000,87380000,87380000,0,0.0,0.0,100.0,100.0,3.0477567,-13.684114,107.196495,106.80601,0.0096280305,0.1948028,3,1,0,1
87668000,87588000,87588000,0,0.0,0.0,100.0,100.0,3.3510752,-14.158006,107.229866,106.81953,0.011636171,0.20850238,3,1,0,1
87876000,87796000,87796000,0,0.0,0.0,100.0,100.0,3.6488788,-14.611145,107.26158,106.83653,0.013792156,0.22202721,3,1,0,1
88084000,88004000,88004000,0,0.0,0.0,100.0,100.0,3.8980694,-15.01314,107.29147,106.84957,0.015735894,0.2343839,3,1,0,1
88292000,88212000,88212000,0,0.0,0.0,100.0,100.0,4.08252,-15.407983,107.32011,106.8644,0.017255718,0.24684027,3,1,0,1
88500000,88420000,88420000,0,0.0,0.0,100.0,100.0,4.1684585,-15.752813,107.34666,106.873215,0.017985392,0.25799116,3,1,0,1
88708000,88628000,88628000,0,0.0,0.0,100.0,100.0,4.154816,-16.084421,107.370964,106.88272,0.017863816,0.2689434,3,1,0,1
88916000,88836000,88836000,0,0.0,0.0,100.0,100.0,4.049345,-16.367834,107.39285,106.88621,0.016964916,0.27849555,3,1,0,1
89124000,89044000,89044000,0,0.0,0.0,100.0,100.0,3.8869412,-16.638924,107.41252,106.89208,0.015628543,0.2877812,3,1,0,1
89332000,89252000,89252000,0,0.0,0.0,100.0,100.0,3.6964045,-16.859703,107.42983,106.89409,0.014131608,0.29546335,3,1,0,1
89540000,89460000,89460000,0,0.0,0.0,100.0,100.0,3.506488,-17.06148,107.444626,106.900246,0.012715034,0.30256045,3,1,0,1
89748000,89668000,89668000,0,0.0,0.0,100.0,100.0,3.3362458,-17.196249,107.4557,106.90339,0.011509173,0.30735016,3,1,0,1
89956000,89876000,89876000,0,0.0,0.0,100.0,100.0,3.186864,-17.278141,107.46211,106.91169,0.010500964,0.3102604,3,1,0,1
90164000,90084000,90084000,0,0.0,0.0,100.0,100.0,3.0500646,-17.292608,107.46456,106.91632,0.009618565,0.31076673,3,1,0,1
90372000,90292000,90292000,0,0.0,0.0,100.0,100.0,2.9217308,-17.269983,107.463646,106.925385,0.008826252,0.30992776,3,1,0,1
90580000,90500000,90500000,0,0.0,0.0,100.0,100.0,2.803245,-17.186436,107.4596,106.93067,0.008125206,0.30692115,3,1,0,1
90788000,90708000,90708000,0,0.0,0.0,100.0,100.0,2.689825,-17.06994,107.45285,106.93999,0.0074814814,0.30274805,3,1,0,1
90996000,90916000,90916000,0,0.0,0.0,100.0,100.0,2.5824797,-16.904856,107.44362,106.94556,0.006896849,0.2969051,3,1,0,1
91204000,91124000,91124000,0,0.0,0.0,100.0,100.0,2.4794927,-16.70055,107.432274,106.95146,0.006358408,0.28975594,3,1,0,1
91412000,91332000,91332000,0,0.0,0.0,100.0,100.0,2.3779685,-16.46932,107.41914,106.96023,0.005849086,0.2817647,3,1,0,1
91620000,91540000,91540000,0,0.0,0.0,100.0,100.0,2.2799344,-16.195766,107.40438,106.96582,0.0053774975,0.272468,3,1,0,1
91828000,91748000,91748000,0,0.0,0.0,100.0,100.0,2.1816258,-15.897928,107.38839,106.97421,0.004924484,0.26251823,3,1,0,1
92036000,91956000,91956000,0,0.0,0.0,100.0,100.0,2.0848217,-15.563922,107.37127,106.97957,0.004497873,0.2515908,3,1,0,1
92244000,92164000,92164000,0,0.0,0.0,100.0,100.0,1.9868003,-15.208339,107.353386,106.98703,0.004085547,0.24020934,3,1,0,1
92452000,92372000,92372000,0,0.0,0.0,100.0,100.0,1.889295,-14.820133,107.334854,106.99223,0.0036950156,0.22809169,3,1,0,1
92660000,92580000,92580000,0,0.0,0.0,100.0,100.0,1.7910175,-14.413989,107.31603,106.99907,0.003321181,0.21574754,3,1,0,1
92868000,92788000,92788000,0,0.0,0.0,100.0,100.0,1.6928648,-13.980909,107.29704,107.00377,0.0029676608,0.20296878,3,1,0,1
93076000,92996000,92996000,0,0.0,0.0,100.0,100.0,1.5957024,-13.532036,107.27808,107.00964,0.0026372438,0.19013447,3,1,0,1
93284000,93204000,93204000,0,0.0,0.0,100.0,100.0,1.523394,-13.049038,107.25894,107.01416,0.0024040774,0.17679632,3,1,0,1
93492000,93412000,93412000,0,0.0,0.0,100.0,100.0,1.502074,-12.5338335,107.239586,107.019585,0.0023376797,0.16310304,3,1,0,1
93700000,93620000,93620000,0,0.0,0.0,100.0,100.0,1.5312306,-11.977743,107.220215,107.02406,0.0024297521,0.14894503,3,1,0,1
93908000,93828000,93828000,0,0.0,0.0,100.0,100.0,1.6006968,-11.391232,107.2012,107.028915,0.0026556817,0.13470934,3,1,0,1
94116000,94036000,94036000,0,0.0,0.0,100.0,100.0,1.7067671,-10.7695055,107.18286,107.033066,0.0030198174,0.12040126,3,1,0,1
94324000,94244000,94244000,0,0.0,0.0,100.0,100.0,1.8459865,-10.122462,107.165565,107.03729,0.0035331273,0.10636401,3,1,0,1
94532000,94452000,94452000,0,0.0,0.0,100.0,100.0,2.0119872,-9.448565,107.14953,107.04106,0.0041977605,0.09266991,3,1,0,1
94740000,94660000,94660000,0,0.0,0.0,100.0,100.0,2.2038283,-8.75491,107.13518,107.04476,0.005037104,0.07956014,3,1,0,1
94948000,94868000,94868000,0,0.0,0.0,100.0,100.0,2.412927,-8.040741,107.122505,107.04825,0.0060390015,0.06710735,3,1,0,1
95156000,95076000,95076000,0,0.0,0.0,100.0,100.0,2.641202,-7.3111644,107.11213,107.05162,0.007236392,0.05548011,3,1,0,1
95364000,95284000,95284000,0,0.0,0.0,100.0,100.0,2.8782508,-6.56983,107.10356,107.05487,0.008594306,0.044798072,3,1,0,1
95572000,95492000,95492000,0,0.0,0.0,100.0,100.0,3.1301599,-5.824868,107.09798,107.05807,0.010165044,0.03521359,3,1,0,1
95780000,95700000,95700000,0,0.0,0.0,100.0,100.0,3.3823614,-5.082549,107.094185,107.06118,0.011869478,0.026809497,3,1,0,1
95988000,95908000,95908000,0,0.0,0.0,100.0,100.0,3.6415913,-4.343035,107.09366,107.06441,0.013758661,0.019574879,3,1,0,1
96196000,96116000,96116000,0,0.0,0.0,100.0,100.0,3.8947878,-3.6095357,107.09535,107.06818,0.015738178,0.013520718,3,1,0,1
96404000,96324000,96324000,0,0.0,0.0,100.0,100.0,4.147928,-2.8784106,107.10051,107.07324,0.017849598,0.008597695,3,1,0,1
96612000,96532000,96532000,0,0.0,0.0,100.0,100.0,4.410383,-2.1447527,107.11179,107.08073,0.020177756,0.004773101,3,1,0,1
96820000,96740000,96740000,0,0.0,0.0,100.0,100.0,4.6604795,-1.420364,107.12592,107.08998,0.022528078,0.0020931866,3,1,0,1
97028000,96948000,96948000,0,0.0,0.0,100.0,100.0,4.9148817,-0.6980075,107.14625,107.10171,0.02504994,0.0005054536,3,1,0,1
97236000,97156000,97156000,0,0.0,0.0,100.0,100.0,5.153619,0.006550217,107.167046,107.11324,0.027537266,4.4506734e-08,3,1,0,1
97444000,97364000,97364000,0,0.0,0.0,100.0,100.0,5.397864,0.70367527,107.192116,107.12583,0.030202193,0.0005135797,3,1,0,1
97652000,97572000,97572000,0,0.0,0.0,100.0,100.0,5.621591,1.3760866,107.21598,107.1369,0.03275039,0.0019638573,3,1,0,1
97860000,97780000,97780000,0,0.0,0.0,100.0,100.0,5.819665,2.0272322,107.24224,107.14746,0.03509034,0.004261697,3,1,0,1
98068000,97988000,97988000,0,0.0,0.0,100.0,100.0,5.9581213,2.6307044,107.2659,107.15536,0.036771767,0.0071760872,3,1,0,1
98276000,98196000,98196000,0,0.0,0.0,100.0,100.0,6.0692024,3.2045152,107.29173,107.16333,0.038146477,0.010647214,3,1,0,1
98484000,98404000,98404000,0,0.0,0.0,100.0,100.0,6.1318855,3.7334857,107.31454,107.16889,0.038930237,0.01445166,3,1,0,1
98692000,98612000,98612000,0,0.0,0.0,100.0,100.0,6.172588,4.237384,107.33902,107.17485,0.039439775,0.018614879,3,1,0,1
98900000,98820000,98820000,0,0.0,0.0,100.0,100.0,6.1714687,4.698719,107.36077,107.17881,0.039417487,0.022887982,3,1,0,1
99108000,99028000,99028000,0,0.0,0.0,100.0,100.0,6.151328,5.1353593,107.38336,107.18338,0.039152388,0.027338315,3,1,0,1
99316000,99236000,99236000,0,0.0,0.0,100.0,100.0,6.0932426,5.5300817,107.40327,107.186226,0.03840935,0.03170163,3,1,0,1
99524000,99444000,99444000,0,0.0,0.0,100.0,100.0,6.017981,5.900146,107.42334,107.18993,0.03745937,0.03608519,3,1,0,1
99732000,99652000,99652000,0,0.0,0.0,100.0,100.0,5.910726,6.2299523,107.44086,107.19228,0.036130145,0.04023124,3,1,0,1
99940000,99860000,99860000,0,0.0,0.0,100.0,100.0,5.7877474,6.5343714,107.45794,107.19573,0.03463683,0.044257578,3,1,0,1
100148000,100068000,100068000,0,0.0,0.0,100.0,100.0,5.6358566,6.7984166,107.47264,107.19821,0.032838207,0.047905512,3,1,0,1
100356000,100276000,100276000,0,0.0,0.0,100.0,100.0,5.4707117,7.039373,107.48649,107.201965,0.03093793,0.051359728,3,1,0,1
100564000,100484000,100484000,0,0.0,0.0,100.0,100.0,5.2813325,7.2419243,107.49825,107.205185,0.028829899,0.054356273,3,1,0,1
