timestamp,timestamp_sample,ref_timestamp,ref_lat,ref_lon,x,y,z,delta_xy[0],delta_xy[1],delta_z,vx,vy,vz,z_deriv,delta_vxy[0],delta_vxy[1],delta_vz,ax,ay,az,heading,delta_heading,ref_alt,dist_bottom,eph,epv,evh,evv,vxy_max,vz_max,hagl_min,hagl_max,xy_valid,z_valid,v_xy_valid,v_z_valid,xy_reset_counter,z_reset_counter,vxy_reset_counter,vz_reset_counter,heading_reset_counter,heading_good_for_control,xy_global,z_global,dist_bottom_valid,dist_bottom_sensor_bitfield,dead_reckoning
3876000,3876000,0,nan,nan,0.0012577403,-0.0018639006,-0.0204491,-9.449665e-09,3.0882659e-09,0.0,0.006981507,-0.008030456,-0.07698349,-0.07587073,-2.3624161e-06,7.720664e-07,0.0010541603,0.047286883,-0.01753043,-0.114972696,4.224996e-05,0.0,nan,0.10952364,0.7502288,5.8557878,3.5870662,3.1351638,inf,inf,inf,inf,0,0,0,0,1,1,1,1,0,0,0,0,0,0,1
4372000,4372000,0,nan,nan,0.0026071896,-0.0016795543,-0.03685448,-9.449665e-09,3.0882659e-09,0.0,0.006943084,-0.0022985092,-0.027606213,-0.025130702,-2.3624161e-06,7.720664e-07,0.0010541603,0.013883007,0.028579406,-0.034567896,-8.2018356e-05,0.0,nan,0.1,0.01309934,1.6517538,0.08630333,0.025370222,inf,inf,inf,inf,0,1,0,1,1,1,1,1,0,0,0,0,0,0,1
4868000,4868000,4388000,47.3977508,8.5456073,0.0019561897,-0.0003892066,-0.046949342,-9.449665e-09,3.0882659e-09,0.0,0.0055364943,-0.004000852,-0.016435266,-0.024013644,-2.3624161e-06,7.720664e-07,0.0010541603,0.023028811,-0.038779266,-0.03188662,0.0001749756,0.0,488.059,0.10410035,0.031283703,0.9904812,0.1366806,0.059234407,inf,inf,inf,inf,0,1,0,1,1,1,1,1,0,0,1,1,0,0,1
5372000,5372000,4388000,47.3977508,8.5456073,0.00072191906,-0.0010804918,-0.049131673,-9.449665e-09,3.0882659e-09,0.0,0.002844669,-0.002812779,-0.02100704,-0.021710506,-2.3624161e-06,7.720664e-07,0.0010541603,0.037320625,0.00275037,-0.010504386,-0.00014104828,0.0,488.059,0.10753712,0.01608225,0.7557667,0.07208299,0.07811477,inf,inf,inf,inf,0,1,0,1,1,1,1,1,0,0,1,1,0,0,1
5868000,5868000,4388000,47.3977508,8.5456073,1.8578103e-05,0.0013644764,-0.05324816,-9.449665e-09,3.0882659e-09,0.0,0.00077542703,0.0041175475,-0.021418259,-0.016282488,-2.3624161e-06,7.720664e-07,0.0010541603,0.026692577,0.007321694,0.004875473,-4.9430637e-05,0.0,488.059,0.10801922,0.020058097,0.64675075,0.07363923,0.089401476,inf,inf,inf,inf,0,1,0,1,1,1,1,1,0,0,1,1,0,0,1
6372000,6372000,4388000,47.3977508,8.5456073,-0.00048562087,0.0013326055,-0.057071682,-9.449665e-09,3.0882659e-09,0.0,-0.000995347,0.0012431513,-0.01878099,-0.010455104,-2.3624161e-06,7.720664e-07,0.0010541603,-0.0063710753,-0.015031502,-0.01467578,-0.00012658413,0.0,488.059,0.104478076,0.013030178,0.56855047,0.04923796,0.094257034,inf,inf,inf,inf,0,1,0,1,1,1,1,1,0,0,1,1,0,0,1
6868000,6868000,4388000,47.3977508,8.5456073,-0.0022099896,0.00087653176,-0.05403499,-9.449665e-09,3.0882659e-09,0.0,-0.005711198,0.0029490334,-0.013801963,-0.00037956418,-2.3624161e-06,7.720664e-07,0.0010541603,0.018015735,0.02344718,-0.015276483,-6.117284e-05,0.0,488.059,0.10402438,0.015623754,0.5193008,0.05136619,0.0862479,inf,inf,inf,inf,0,1,0,1,1,1,1,1,0,0,1,1,0,0,1
7372000,7372000,4388000,47.3977508,8.5456073,-0.00185275,0.002618807,-0.049497336,-9.449665e-09,3.0882659e-09,0.0,-0.0019034845,0.008960314,-0.007067755,0.008175186,-2.3624161e-06,7.720664e-07,0.0010541603,0.02952077,-0.011899872,-0.019951722,-0.00029216416,0.0,488.059,0.10289375,0.018983362,0.47847712,0.054977052,0.08634924,inf,inf,inf,inf,0,1,0,1,1,1,1,1,0,0,1,1,0,0,1
7868000,7868000,4388000,47.3977508,8.5456073,-8.680902e-05,0.0030739948,-0.044451687,-9.449665e-09,3.0882659e-09,0.0,0.0009026573,0.0055931434,-0.0032257417,0.011546011,-2.3624161e-06,7.720664e-07,0.0010541603,-0.024200007,-0.0040310696,0.013465061,-0.00058297673,0.0,488.059,0.1,0.01339181,0.44936305,0.042954475,0.07873452,inf,inf,inf,inf,0,1,0,1,1,1,1,1,0,0,1,1,0,0,1
8372000,8372000,4388000,47.3977508,8.5456073,-0.00016240186,0.0010686808,-0.04476434,-9.449665e-09,3.0882659e-09,0.0,-0.0022745158,0.001972253,-0.004923409,0.005121067,-2.3624161e-06,7.720664e-07,0.0010541603,0.012591816,0.041274715,-0.03513507,-0.0007405804,0.0,488.059,0.1,0.01633839,0.4272601,0.04723426,0.078644894,inf,inf,inf,inf,0,1,0,1,1,1,1,1,0,0,1,1,0,0,1
8876000,8876000,4388000,47.3977508,8.5456073,-0.0004920857,-0.00013252134,-0.040587485,-9.449665e-09,3.0882659e-09,0.005554609,-0.00030840558,0.0009882698,-0.0019123224,0.004742753,-2.3624161e-06,7.720664e-07,0.0010541603,-0.010235307,-0.004118119,0.0076713036,-0.0007147484,0.0,488.059,0.10264997,0.012195944,0.9615486,0.039113495,0.0787801,inf,inf,inf,inf,0,1,0,1,1,2,1,1,0,0,1,1,0,0,1
9372000,9372000,4388000,47.3977508,8.5456073,0.0010374531,0.00039286455,-0.039007664,-9.449665e-09,3.0882659e-09,0.005554609,0.004104918,0.0033893045,-0.0012373009,0.004096819,-2.3624161e-06,7.720664e-07,0.0010541603,-0.037878387,0.029784553,-0.023001803,-0.0007605782,0.0,488.059,0.1,0.014498259,0.59640425,0.042552587,0.0739356,inf,inf,inf,inf,0,1,0,1,1,2,1,1,0,0,1,1,0,0,1
9868000,9868000,4388000,47.3977508,8.5456073,0.0020387564,0.0007710661,-0.039120834,-9.449665e-09,3.0882659e-09,0.005554609,0.0052171582,0.0030626967,0.00080833124,0.004743588,-2.3624161e-06,7.720664e-07,0.0010541603,-0.018595891,0.0020134174,0.0021317971,-0.00053835317,0.0,488.059,0.1,0.017230958,0.47488448,0.046237614,0.07489525,inf,inf,inf,inf,0,1,0,1,1,2,1,1,0,0,1,1,0,0,1
10372000,10372000,4388000,47.3977508,8.5456073,0.0013500047,0.0002205016,-0.03448651,-9.449665e-09,3.0882659e-09,0.005554609,0.0009109415,-0.00044480484,0.0045383996,0.009767226,-2.3624161e-06,7.720664e-07,0.0010541603,0.0021882004,-0.013297335,-0.01629628,-0.00070984784,0.0,488.059,0.1,0.013051546,0.40517247,0.039165195,0.07129784,inf,inf,inf,inf,0,1,0,1,1,2,1,1,0,0,1,1,0,0,1
10868000,10868000,4388000,47.3977508,8.5456073,-0.00052454334,-0.001346645,-0.032395955,-9.449665e-09,3.0882659e-09,0.005554609,-0.0011169626,-0.0041098013,0.0064646513,0.009750174,-2.3624161e-06,7.720664e-07,0.0010541603,0.030271882,-0.045526713,0.023065133,-0.00078415556,0.0,488.059,0.1,0.0155291315,0.34160203,0.04286456,0.072573714,inf,inf,inf,inf,0,1,0,1,1,2,1,1,0,0,1,1,0,0,1
11372000,11372000,4388000,47.3977508,8.5456073,-0.0010275403,-0.0025520262,-0.029528517,-9.449665e-09,3.0882659e-09,0.005554609,-0.003051543,-0.005620391,0.011930555,0.012779047,-2.3624161e-06,7.720664e-07,0.0010541603,-0.040430516,-0.003034729,0.013512558,-0.0007402181,0.0,488.059,0.1,0.011901653,0.31637034,0.03675811,0.074228495,inf,inf,inf,inf,0,1,0,1,1,2,1,1,0,0,1,1,0,0,1
11868000,11868000,4388000,47.3977508,8.5456073,-0.0016647348,-0.0029134224,-0.027206697,-9.449665e-09,3.0882659e-09,0.005554609,-0.004884318,-0.005692126,0.016504904,0.013619036,-2.3624161e-06,7.720664e-07,0.0010541603,-0.034115653,-0.0030039225,0.04152767,-0.000674893,0.0,488.059,0.1,0.014086832,0.29669866,0.040110603,0.07107265,inf,inf,inf,inf,0,1,0,1,1,2,1,1,0,0,1,1,0,0,1
12372000,12372000,4388000,47.3977508,8.5456073,-0.0023024601,-0.0015220032,-0.026992641,-9.449665e-09,3.0882659e-09,0.005554609,-0.0051100035,-0.0024841698,0.014511329,0.0075426926,-2.3624161e-06,7.720664e-07,0.0010541603,-0.023487838,0.0010171206,-0.015238299,-0.00072666246,0.0,488.059,0.1,0.010866445,0.28392106,0.034353565,0.07290383,inf,inf,inf,inf,0,1,0,1,1,2,1,1,0,0,1,1,0,0,1
12868000,12868000,4388000,47.3977508,8.5456073,-0.0011778867,0.00021721442,-0.0275329,-9.449665e-09,3.0882659e-09,0.005554609,-0.00034302103,0.0041876202,0.014447459,0.004879736,-2.3624161e-06,7.720664e-07,0.0010541603,-0.024421139,0.048548315,-0.017127952,-0.0006908466,0.0,488.059,0.1,0.012835576,0.26294574,0.037727136,0.069736406,inf,inf,inf,inf,0,1,0,1,1,2,1,1,0,0,1,1,0,0,1
13372000,13372000,4388000,47.3977508,8.5456073,0.00030886597,0.002465189,-0.028270954,-9.449665e-09,3.0882659e-09,0.005554609,0.0015202279,0.0051584747,0.014441383,0.0031839497,-2.3624161e-06,7.720664e-07,0.0010541603,0.009136317,-0.0043085306,0.004075467,-0.0006750446,0.0,488.059,0.1,0.015490237,0.25597247,0.041670192,0.07161918,inf,inf,inf,inf,0,1,0,1,1,2,1,1,0,0,1,1,0,0,1
13868000,13868000,4388000,47.3977508,8.5456073,0.0016061711,0.002455217,-0.027974578,-9.449665e-09,3.0882659e-09,0.005554609,0.0049873665,0.003528746,0.011981124,0.0008585651,-2.3624161e-06,7.720664e-07,0.0010541603,0.021590559,-0.01682229,-0.0153407445,-0.0006021622,0.0,488.059,0.1,0.011781865,0.25138494,0.035847332,0.07338336,inf,inf,inf,inf,0,1,0,1,1,2,1,1,0,0,1,1,0,0,1
14372000,14372000,4388000,47.3977508,8.5456073,0.0015658236,0.00047889154,-0.030014586,-9.449665e-09,3.0882659e-09,0.005554609,0.0028153476,-0.00142876,0.010501456,-0.0016010357,-2.3624161e-06,7.720664e-07,0.0010541603,0.0007015332,-0.016468765,-0.0034458933,-0.00052611536,0.0,488.059,0.1,0.014155977,0.24523816,0.03948517,0.070729576,inf,inf,inf,inf,0,1,0,1,1,2,1,1,0,0,1,1,0,0,1
14876000,14876000,4388000,47.3977508,8.5456073,0.0014928724,-0.0010282117,-0.029676845,-9.449665e-09,3.0882659e-09,0.005554609,0.004049135,-0.002130881,0.0077770525,-0.0025596553,-2.3624161e-06,7.720664e-07,0.0010541603,0.01791914,0.019883154,0.017365439,-0.0006194354,0.0,488.059,0.1,0.010983591,0.23643668,0.03414374,0.07238248,inf,inf,inf,inf,0,1,0,1,1,2,1,1,0,0,1,1,0,0,1
15372000,15372000,4388000,47.3977508,8.5456073,0.0012063007,-0.0005215657,-0.031222709,-9.449665e-09,3.0882659e-09,0.005554609,0.0016730723,-0.00018442635,0.007856013,-0.0022012978,-2.3624161e-06,7.720664e-07,0.0010541603,0.0041013844,0.012978576,-0.032421198,-0.0005084304,0.0,488.059,0.1,0.012954926,0.2321697,0.03743338,0.069633,inf,inf,inf,inf,0,1,0,1,1,2,1,1,0,0,1,1,0,0,1
15868000,15868000,4388000,47.3977508,8.5456073,0.0008845394,-0.00019234561,-0.03328746,-9.449665e-09,3.0882659e-09,0.005554609,0.0006569589,-0.00094067777,0.008768272,-0.0019445342,-2.3624161e-06,7.720664e-07,0.0010541603,0.017095225,-0.018657198,0.012286938,-0.00042681777,0.0,488.059,0.1,0.015340779,0.23157653,0.040919606,0.07144382,inf,inf,inf,inf,0,1,0,1,1,2,1,1,0,0,1,1,0,0,1
16372000,16372000,4388000,47.3977508,8.5456073,5.1133058e-05,-0.0009894427,-0.03350754,-9.449665e-09,3.0882659e-09,0.005554609,0.0006070999,-0.0030304298,0.009260372,-0.000543136,-2.3624161e-06,7.720664e-07,0.0010541603,0.0031982488,-9.0352834e-05,-0.0042207534,-0.00034298186,0.0,488.059,0.10009205,0.011922668,0.23143132,0.035759684,0.07344181,inf,inf,inf,inf,0,1,0,1,1,2,1,1,0,0,1,1,0,0,1
16868000,16868000,4388000,47.3977508,8.5456073,-0.00030887223,-0.0019502033,-0.033067454,-9.449665e-09,3.0882659e-09,0.005554609,-0.0013549238,-0.0051251003,0.013041766,0.0032809733,-2.3624161e-06,7.720664e-07,0.0010541603,-0.020746388,-0.029056739,0.01297146,-0.00028977482,0.0,488.059,0.1,0.014063265,0.22316815,0.038967296,0.0703768,inf,inf,inf,inf,0,1,0,1,1,2,1,1,0,0,1,1,0,0,1
17372000,17372000,4388000,47.3977508,8.5456073,-0.0007706807,-0.0022868793,-0.032255977,-9.449665e-09,3.0882659e-09,0.005554609,-0.0013276763,-0.006039791,0.013939786,0.0034627737,-2.3624161e-06,7.720664e-07,0.0010541603,-0.0005563051,-0.025211846,0.012551433,-0.00012938057,0.0,488.059,0.1,0.010946911,0.22390246,0.03382901,0.07238825,inf,inf,inf,inf,0,1,0,1,1,2,1,1,0,0,1,1,0,0,1
17876000,17876000,4388000,47.3977508,8.5456073,-0.0011380902,-0.0014888198,-0.033089362,-9.449665e-09,3.0882659e-09,0.005554609,-0.0031162316,-0.0018356952,0.010884084,-0.0009139369,-2.3624161e-06,7.720664e-07,0.0010541603,-0.0057899593,0.0058825677,0.012177042,-0.00021940024,0.0,488.059,0.1,0.013119257,0.22231591,0.037439696,0.069885485,inf,inf,inf,inf,0,1,0,1,1,2,1,1,0,0,1,1,0,0,1
18372000,18372000,4388000,47.3977508,8.5456073,-0.0004691766,-0.0004508722,-0.032913815,-9.449665e-09,3.0882659e-09,0.005554609,0.0022941541,-0.0034220542,0.012750816,0.0017287198,-2.3624161e-06,7.720664e-07,0.0010541603,0.0062043103,-0.012696632,0.0133486455,-7.009181e-05,0.0,488.059,0.1,0.015518109,0.22322431,0.040868662,0.07170101,inf,inf,inf,inf,0,1,0,1,1,2,1,1,0,0,1,1,0,0,1
18868000,18868000,4388000,47.3977508,8.5456073,0.0015768835,-0.0016748034,-0.03130427,-9.449665e-09,3.0882659e-09,0.005554609,0.0045720297,-0.006560307,0.01392353,0.0036805775,-2.3624161e-06,7.720664e-07,0.0010541603,-0.0075264103,-0.011174459,0.037595626,8.546651e-05,0.0,488.059,0.1,0.011887874,0.21954483,0.03550889,0.07318918,inf,inf,inf,inf,0,1,0,1,1,2,1,1,0,0,1,1,0,0,1
19372000,19372000,4388000,47.3977508,8.5456073,0.0007621337,-0.002686307,-0.031046646,-9.449665e-09,3.0882659e-09,0.005554609,-0.0002590262,-0.0062749325,0.013480028,0.0022717295,-2.3624161e-06,7.720664e-07,0.0010541603,0.0049581137,0.021244893,0.018280929,-4.464509e-05,0.0,488.059,0.1,0.014250947,0.2180679,0.039038453,0.070680365,inf,inf,inf,inf,0,1,0,1,1,2,1,1,0,0,1,1,0,0,1
19868000,19868000,4388000,47.3977508,8.5456073,8.099349e-05,-0.0020307614,-0.031273242,-9.449665e-09,3.0882659e-09,0.005554609,0.00036012213,-0.0038667496,0.012035747,0.00043600204,-2.3624161e-06,7.720664e-07,0.0010541603,0.013270153,0.0024187318,0.0048726792,-0.00020242667,0.0,488.059,0.1,0.010927147,0.21999803,0.033662084,0.07254989,inf,inf,inf,inf,0,1,0,1,1,2,1,1,0,0,1,1,0,0,1
20372000,20372000,4388000,47.3977508,8.5456073,0.0003704123,-0.0005883429,-0.031950846,-9.449665e-09,3.0882659e-09,0.005554609,0.0013657748,-0.0010143525,0.01052398,-0.0010555512,-2.3624161e-06,7.720664e-07,0.0010541603,0.032886554,0.011620766,0.01376029,0.00010906787,0.0,488.059,0.1,0.013086205,0.21868695,0.03723398,0.07000498,inf,inf,inf,inf,0,1,0,1,1,2,1,1,0,0,1,1,0,0,1
20868000,20868000,4388000,47.3977508,8.5456073,-0.00086625334,0.00067761407,-0.031606916,-9.449665e-09,3.0882659e-09,0.005554609,-0.005297714,0.0011476793,0.011417902,0.0006498579,-2.3624161e-06,7.720664e-07,0.0010541603,-0.009512848,0.014741759,-0.011454335,0.0002679706,0.0,488.059,0.1,0.015470282,0.21566972,0.04063866,0.07150256,inf,inf,inf,inf,0,1,0,1,1,2,1,1,0,0,1,1,0,0,1
21372000,21372000,4388000,47.3977508,8.5456073,-0.003349322,0.002248998,-0.029750185,-9.449665e-09,3.0882659e-09,0.005554609,-0.00964627,0.00541473,0.012581966,0.002970863,-2.3624161e-06,7.720664e-07,0.0010541603,-0.008523114,0.0072802207,0.0011883675,0.00030353747,0.0,488.059,0.10033045,0.012069648,0.2178148,0.035716563,0.07354587,inf,inf,inf,inf,0,1,0,1,1,2,1,1,0,0,1,1,0,0,1
21876000,21876000,4388000,47.3977508,8.5456073,-0.0042680097,0.002727017,-0.02976047,-9.449665e-09,3.0882659e-09,0.005554609,-0.0087039415,0.003827213,0.011053049,0.0006542206,-2.3624161e-06,7.720664e-07,0.0010541603,0.008818038,0.019562997,-0.007074326,0.0002128569,0.0,488.059,0.1,0.014460433,0.21712701,0.03921508,0.07104063,inf,inf,inf,inf,0,1,0,1,1,2,1,1,0,0,1,1,0,0,1
22372000,22372000,4388000,47.3977508,8.5456073,-0.0040038014,0.0016404773,-0.029458163,-9.449665e-09,3.0882659e-09,0.005554609,-0.0098034395,0.0017288344,0.012032388,0.0016453839,-2.3624161e-06,7.720664e-07,0.0010541603,-0.024914304,-0.0034606198,0.017203389,8.264974e-05,0.0,488.059,0.1,0.011096117,0.21905194,0.03391129,0.0728803,inf,inf,inf,inf,0,1,0,1,1,2,1,1,0,0,1,1,0,0,1
22876000,22876000,4388000,47.3977508,8.5456073,-0.003427764,0.00055985735,-0.028852664,-9.449665e-09,3.0882659e-09,0.005554609,-0.006713656,-5.9741782e-05,0.015765583,0.004634054,-2.3624161e-06,7.720664e-07,0.0010541603,0.022366919,0.02493274,0.016365198,0.00012163441,0.0,488.059,0.1,0.013286852,0.21349932,0.037447467,0.07000389,inf,inf,inf,inf,0,1,0,1,1,2,1,1,0,0,1,1,0,0,1
23372000,23372000,4388000,47.3977508,8.5456073,-0.00065054203,-0.0006816759,-0.029018225,-9.449665e-09,3.0882659e-09,0.005554609,6.6180335e-05,-0.0018101722,0.018057657,0.004614042,-2.3624161e-06,7.720664e-07,0.0010541603,-0.014535572,0.0008287897,0.019955447,5.1392195e-05,0.0,488.059,0.1,0.015695918,0.21585137,0.040825855,0.071871206,inf,inf,inf,inf,0,1,0,1,1,2,1,1,0,0,1,1,0,0,1
23868000,23868000,4388000,47.3977508,8.5456073,0.0013990299,-0.0003184494,-0.029717395,-9.449665e-09,3.0882659e-09,0.005554609,0.0023475264,0.0011818447,0.01808804,0.002698806,-2.3624161e-06,7.720664e-07,0.0010541603,-0.0112153785,0.02689559,0.0030864028,0.000118969016,0.0,488.059,0.1,0.012055941,0.21795559,0.03562296,0.07372435,inf,inf,inf,inf,0,1,0,1,1,2,1,1,0,0,1,1,0,0,1
24372000,24372000,4388000,47.3977508,8.5456073,0.0018200896,0.00021143106,-0.030475479,-9.449665e-09,3.0882659e-09,0.005554609,-0.00013862811,-0.00015055596,0.014805836,-0.0009640056,-2.3624161e-06,7.720664e-07,0.0010541603,-0.032086376,0.008751114,0.011287629,-2.6122769e-05,0.0,488.059,0.1,0.0144396685,0.21697946,0.03910478,0.0711529,inf,inf,inf,inf,0,1,0,1,1,2,1,1,0,0,1,1,0,0,1
24868000,24868000,4388000,47.3977508,8.5456073,-0.0006054684,-0.0008585743,-0.03078114,-9.449665e-09,3.0882659e-09,0.005554609,-0.0047107344,-0.0024275011,0.015256502,0.0001046962,-2.3624161e-06,7.720664e-07,0.0010541603,0.024950814,-0.005373309,0.024708917,1.1246968e-05,0.0,488.059,0.1,0.011087789,0.21450895,0.033842705,0.07265559,inf,inf,inf,inf,0,1,0,1,1,2,1,1,0,0,1,1,0,0,1
25372000,25372000,4388000,47.3977508,8.5456073,-0.0019252064,-0.0010732401,-0.030023146,-9.449665e-09,3.0882659e-09,0.005554609,-0.005916285,-0.00094800966,0.017394142,0.002677888,-2.3624161e-06,7.720664e-07,0.0010541603,0.0050145607,0.015666999,-0.014417804,0.0002331273,0.0,488.059,0.1,0.013273121,0.21373342,0.03736627,0.07012378,inf,inf,inf,inf,0,1,0,1,1,2,1,1,0,0,1,1,0,0,1
25868000,25868000,4388000,47.3977508,8.5456073,-0.0021061476,0.0004850521,-0.02929498,-9.449665e-09,3.0882659e-09,0.005554609,-0.005386265,0.0035155397,0.01633999,0.0017746275,-2.3624161e-06,7.720664e-07,0.0010541603,-0.015404365,0.04229284,-0.019675119,0.0004867819,0.0,488.059,0.1,0.015677141,0.21618913,0.040735863,0.07198276,inf,inf,inf,inf,0,1,0,1,1,2,1,1,0,0,1,1,0,0,1
26372000,26372000,4388000,47.3977508,8.5456073,-0.0019044884,0.0027149653,-0.029140161,-9.449665e-09,3.0882659e-09,0.005554609,-0.005089587,0.008598169,0.019403817,0.0040179277,-2.3624161e-06,7.720664e-07,0.0010541603,-0.026664287,0.03057002,0.017628072,0.0004190615,0.0,488.059,0.1,0.012201445,0.21580076,0.035621256,0.06944204,inf,inf,inf,inf,0,1,0,1,1,2,1,1,0,0,1,1,0,0,1
26876000,26876000,4388000,47.3977508,8.5456073,-0.0018205921,0.003314864,-0.028612796,-9.449665e-09,3.0882659e-09,0.005554609,-0.005456346,0.0075754765,0.023100317,0.006170713,-2.3624161e-06,7.720664e-07,0.0010541603,0.021771526,0.018487116,0.031186266,0.00027620592,0.0,488.059,0.1,0.014667403,0.21319163,0.039362203,0.0710982,inf,inf,inf,inf,0,1,0,1,1,2,1,1,0,0,1,1,0,0,1
27372000,27372000,4388000,47.3977508,8.5456073,-0.002436839,0.003632264,-0.028611215,-9.449665e-09,3.0882659e-09,0.005554609,-0.0061569177,0.009172087,0.025137711,0.0058687143,-2.3624161e-06,7.720664e-07,0.0010541603,0.0060440064,0.013361669,0.024840234,0.000257125,0.0,488.059,0.1,0.011266112,0.21572368,0.0341446,0.07296872,inf,inf,inf,inf,0,1,0,1,1,2,1,1,0,0,1,1,0,0,1
27868000,27868000,4388000,47.3977508,8.5456073,-0.0020917675,0.004290239,-0.026953604,-9.449665e-09,3.0882659e-09,0.005554609,-0.006298122,0.011388661,0.031303275,0.010774924,-2.3624161e-06,7.720664e-07,0.0010541603,-0.009243303,-0.009862982,0.010678544,0.00031154993,0.0,488.059,0.1,0.013263318,0.21504945,0.037306685,0.07025063,inf,inf,inf,inf,0,1,0,1,1,2,1,1,0,0,1,1,0,0,1
28372000,28372000,4388000,47.3977508,8.5456073,-0.0019120923,0.0038652667,-0.02481737,-9.449665e-09,3.0882659e-09,0.005554609,-0.004856964,0.008501178,0.033416197,0.0104080085,-2.3624161e-06,7.720664e-07,0.0010541603,0.005017136,0.009550771,0.05785841,0.00046833578,0.0,488.059,0.1,0.015920807,0.21742241,0.04099765,0.07226513,inf,inf,inf,inf,0,1,0,1,1,2,1,1,0,0,1,1,0,0,1
28876000,28876000,4388000,47.3977508,8.5456073,-0.0016742953,0.001694648,-0.024197334,-9.449665e-09,3.0882659e-09,0.005554609,-0.0068516317,0.0041718273,0.03414809,0.00831242,-2.3624161e-06,7.720664e-07,0.0010541603,-0.015161028,-0.020509396,0.020402482,0.00048493416,0.0,488.059,0.1,0.0124008125,0.21183558,0.0359265,0.06936421,inf,inf,inf,inf,0,1,0,1,1,2,1,1,0,0,1,1,0,0,1
29372000,29372000,4388000,47.3977508,8.5456073,-0.002012092,0.0001865798,-0.024173697,-9.449665e-09,3.0882659e-09,0.005554609,-0.0058354223,0.0016825349,0.03426753,0.0057074297,-2.3624161e-06,7.720664e-07,0.0010541603,-0.027314438,-0.059960306,0.046291385,0.00035937465,0.0,488.059,0.1,0.014657876,0.21431993,0.03931509,0.07122316,inf,inf,inf,inf,0,1,0,1,1,2,1,1,0,0,1,1,0,0,1
29876000,29876000,4388000,47.3977508,8.5456073,-0.0012711012,-0.0016104853,-0.023921773,-9.449665e-09,3.0882659e-09,0.005554609,-0.0046492293,-0.0043534595,0.032351114,0.0030139983,-2.3624161e-06,7.720664e-07,0.0010541603,-0.01096299,-0.014350239,0.0127740195,0.0003553735,0.0,488.059,0.1,0.011450902,0.21680875,0.03446978,0.073250264,inf,inf,inf,inf,0,1,0,1,1,2,1,1,0,0,1,1,0,0,1
30372000,30372000,4388000,47.3977508,8.5456073,-0.0016937385,-0.002969402,-0.024511537,-9.449665e-09,3.0882659e-09,0.005554609,-0.006442822,-0.0068296585,0.028365554,-0.00091937836,-2.3624161e-06,7.720664e-07,0.0010541603,-0.0051990063,-0.048378058,0.001169741,0.0005668212,0.0,488.059,0.1,0.013482781,0.21610637,0.03762322,0.07050224,inf,inf,inf,inf,0,1,0,1,1,2,1,1,0,0,1,1,0,0,1
30868000,30868000,4388000,47.3977508,8.5456073,-0.0016221979,-0.0045687067,-0.025559315,-9.449665e-09,3.0882659e-09,0.005554609,-0.0053621666,-0.010412213,0.027160361,-0.0013432564,-2.3624161e-06,7.720664e-07,0.0010541603,0.0039654984,-0.018373888,0.007644295,0.00060513703,0.0,488.059,0.1,0.015914915,0.2133432,0.040966596,0.07196724,inf,inf,inf,inf,0,1,0,1,1,2,1,1,0,0,1,1,0,0,1
31372000,31372000,4388000,47.3977508,8.5456073,-0.0005732968,-0.0040140827,-0.026269272,-9.449665e-09,3.0882659e-09,0.005554609,-0.0033299618,-0.007648877,0.025444908,-0.0019041364,-2.3624161e-06,7.720664e-07,0.0010541603,-0.023176732,0.009029303,0.00923965,0.0006927046,0.0,488.059,0.1,0.012397452,0.21308756,0.035902377,0.069456816,inf,inf,inf,inf,0,1,0,1,1,2,1,1,0,0,1,1,0,0,1
31876000,31876000,4388000,47.3977508,8.5456073,-0.00081629126,-0.0035387694,-0.02668914,-9.449665e-09,3.0882659e-09,0.005554609,-0.0041192495,-0.008289827,0.02266612,-0.0031214585,-2.3624161e-06,7.720664e-07,0.0010541603,-0.006889109,0.025783693,0.0414215,0.00039598133,0.0,488.059,0.1,0.014898031,0.21583068,0.039624948,0.07148552,inf,inf,inf,inf,0,1,0,1,1,2,1,1,0,0,1,1,0,0,1
32372000,32372000,4388000,47.3977508,8.5456073,-0.0010993083,-0.0031870615,-0.026052726,-9.449665e-09,3.0882659e-09,0.005554609,-0.0046353396,-0.007025677,0.021655504,-0.0016422546,-2.3624161e-06,7.720664e-07,0.0010541603,0.00038529103,-0.028032124,-0.00088661903,0.0004948194,0.0,488.059,0.10087255,0.017881358,0.21804419,0.06648711,0.073320895,inf,inf,inf,inf,0,1,0,1,1,2,1,1,0,0,1,1,0,0,1
32868000,32868000,4388000,47.3977508,8.5456073,-0.0038577765,-0.007327787,-0.018192608,-9.449665e-09,3.0882659e-09,0.005554609,-0.0067129373,-0.013999467,0.02603411,0.009173818,-2.3624161e-06,7.720664e-07,0.0010541603,-0.036582798,-0.038247276,0.012912787,0.00056268176,0.0,488.059,0.10256119,0.08067049,0.22377376,0.22930397,0.084019564,inf,inf,inf,inf,0,1,0,1,1,2,1,1,0,0,1,1,0,0,1
33372000,33372000,4388000,47.3977508,8.5456073,-0.009290074,-0.016629407,-0.0052554393,-9.449665e-09,3.0882659e-09,0.005554609,-0.012738648,-0.021967106,0.030480336,0.018514693,-2.3624161e-06,7.720664e-07,0.0010541603,0.012952208,0.013656623,-0.015872529,0.0007012853,0.0,488.059,0.101521425,0.23536725,0.23974596,0.40170965,0.09537414,inf,inf,inf,inf,0,1,0,1,1,2,1,1,0,0,1,1,0,0,1
33876000,33876000,4388000,47.3977508,8.5456073,-0.017933805,-0.0301701,0.009077803,-9.449665e-09,3.0882659e-09,0.005554609,-0.017930133,-0.030106477,0.033736575,0.024410058,-2.3624161e-06,7.720664e-07,0.0010541603,-0.050178986,-0.013549477,-0.0023758037,0.0008215962,0.0,488.059,0.10113162,0.47834015,0.2601874,0.5746822,0.10631344,inf,inf,inf,inf,0,1,0,1,1,2,1,1,0,0,1,1,0,0,1
34372000,34372000,4388000,47.3977508,8.5456073,-0.029397693,-0.04715675,0.022867253,-9.449665e-09,3.0882659e-09,0.005554609,-0.025863938,-0.038440872,0.035810124,0.02640508,-2.3624161e-06,7.720664e-07,0.0010541603,-0.033491567,-0.0049359365,-0.015590339,0.00079420774,0.0,488.059,0.1,0.8019278,0.28282115,0.7441483,0.11605847,inf,inf,inf,inf,0,1,0,1,1,2,1,1,0,0,1,1,0,0,1
34876000,34876000,4388000,47.3977508,8.5456073,-0.045846727,-0.066772334,0.028834995,-9.449665e-09,3.0882659e-09,0.005554609,-0.036026254,-0.036280748,-0.002679291,-0.016055351,-2.3624161e-06,7.720664e-07,0.0010541603,-0.0050054365,0.062136974,-0.3264742,0.00088551285,0.0,488.059,0.10091181,1.2092582,0.29518595,0.91123474,0.12172429,inf,inf,inf,inf,0,1,0,1,1,2,1,1,0,0,1,1,0,0,1
35372000,35372000,4388000,47.3977508,8.5456073,-0.07019956,-0.03703055,-0.026769185,-9.449665e-09,3.0882659e-09,0.005554609,-0.08416354,0.19963336,-0.23944263,-0.25656018,-2.3624161e-06,7.720664e-07,0.0010541603,-0.16674522,0.4176179,-0.88983864,0.0071487823,0.0,488.059,0.156516,1.684362,0.3191244,1.0761399,0.1280435,inf,inf,inf,inf,0,1,0,1,1,2,1,1,0,0,1,1,0,0,1
35868000,35868000,4388000,47.3977508,8.5456073,-0.117390744,0.0722772,-0.27046573,-9.449665e-09,3.0882659e-09,0.005554609,-0.09205564,0.18074115,-0.6892541,-0.7094719,-2.3624161e-06,7.720664e-07,0.0010541603,0.024622727,-0.26836336,-0.8348077,0.006707022,0.0,488.059,0.40021253,2.2215927,0.3407007,1.2376829,0.13279198,inf,inf,inf,inf,0,1,0,1,1,2,1,1,0,0,1,1,0,0,1
36372000,36372000,4388000,47.3977508,8.5456073,-0.15294686,0.124547735,-0.68512434,-9.449665e-09,3.0882659e-09,0.005554609,-0.07387027,0.03171463,-0.8677925,-0.88874155,-2.3624161e-06,7.720664e-07,0.0010541603,0.014807751,-0.30074686,-0.27346796,0.005828781,0.0,488.059,0.81487113,2.7603898,0.36270207,1.3512344,0.13697791,inf,inf,inf,inf,0,1,0,1,1,2,1,1,0,0,1,1,0,0,1
36868000,36868000,4388000,47.3977508,8.5456073,-0.17417178,0.0968795,-1.1655085,-9.449665e-09,3.0882659e-09,0.005554609,-0.058663387,-0.103784345,-1.0070727,-1.0310882,-2.3624161e-06,7.720664e-07,0.0010541603,0.014457574,-0.20435555,-0.24557112,0.0052206945,0.0,488.059,1.2952553,3.3139906,0.3559578,1.446954,0.13337348,inf,inf,inf,inf,0,1,0,1,1,2,1,1,0,0,1,1,0,0,1
37372000,37372000,4388000,47.3977508,8.5456073,-0.17870024,0.00961477,-1.7176498,-9.449665e-09,3.0882659e-09,0.005554609,-0.041735068,-0.19293353,-1.1219757,-1.1477087,-2.3624161e-06,7.720664e-07,0.0010541603,-0.012874312,-0.108064115,-0.21114385,0.0047816294,0.0,488.059,1.8473966,3.715419,0.37150124,1.4617336,0.13521816,inf,inf,inf,inf,0,1,0,1,1,2,1,1,0,0,1,1,0,0,1
37868000,37868000,4388000,47.3977508,8.5456073,-0.16816068,-0.09541801,-2.3091724,-9.449665e-09,3.0882659e-09,0.005554609,-0.030847399,-0.22656763,-1.2083899,-1.2336774,-2.3624161e-06,7.720664e-07,0.0010541603,-0.02084342,0.008304123,-0.13971607,0.0046432796,0.0,488.059,2.4389193,4.134383,0.3818265,1.4820608,0.13571432,inf,inf,inf,inf,0,1,0,1,1,2,1,1,0,0,1,1,0,0,1
38372000,38372000,4388000,47.3977508,8.5456073,-0.15131804,-0.18662106,-2.947685,-9.449665e-09,3.0882659e-09,0.005554609,-0.033449475,-0.21357839,-1.2760764,-1.29981,-2.3624161e-06,7.720664e-07,0.0010541603,-0.070543475,0.029668733,-0.1304075,0.0044001057,0.0,488.059,3.077432,4.280593,0.3932373,1.4080368,0.13652427,inf,inf,inf,inf,0,1,0,1,1,2,1,1,0,0,1,1,0,0,1
38868000,38868000,4388000,47.3977508,8.5456073,-0.14139988,-0.23916213,-3.61078,-9.449665e-09,3.0882659e-09,0.005554609,-0.05687325,-0.19520724,-1.3300124,-1.3570938,-2.3624161e-06,7.720664e-07,0.0010541603,-0.041507095,0.005234222,-0.11188629,0.0049270247,0.0,488.059,3.740527,4.5226526,0.3744006,1.3763611,0.13066772,inf,inf,inf,inf,0,1,0,1,1,2,1,1,0,0,1,1,0,0,1
39372000,39372000,4388000,47.3977508,8.5456073,-0.14209107,-0.2716997,-4.3071294,-9.449665e-09,3.0882659e-09,0.005554609,-0.06808576,-0.18072034,-1.3691752,-1.3980098,-2.3624161e-06,7.720664e-07,0.0010541603,-0.01253969,-0.0073924307,-0.09230989,0.006282875,0.0,488.059,4.4368763,4.7142425,0.3807094,1.3339524,0.1312835,inf,inf,inf,inf,0,1,0,1,1,2,1,1,0,0,1,1,0,0,1
39876000,39876000,4388000,47.3977508,8.5456073,-0.14411238,-0.2774693,-5.0241785,-9.449665e-09,3.0882659e-09,0.005554609,-0.069763355,-0.13970342,-1.39774,-1.4302397,-2.3624161e-06,7.720664e-07,0.0010541603,0.0019833385,0.02887481,-0.07728766,0.005723567,0.0,488.059,5.1539254,4.5965295,0.38641912,1.2168236,0.13210744,inf,inf,inf,inf,0,1,0,1,1,2,1,1,0,0,1,1,0,0,1
40372000,40372000,4388000,47.3977508,8.5456073,-0.14691076,-0.26271328,-5.7432294,-9.449665e-09,3.0882659e-09,0.005554609,-0.074218616,-0.10646049,-1.4184499,-1.4538025,-2.3624161e-06,7.720664e-07,0.0010541603,-0.022220409,0.045388903,-0.03306474,0.0054844297,0.0,488.059,5.8729763,4.679335,0.39318871,1.1654558,0.13349001,inf,inf,inf,inf,0,1,0,1,1,2,1,1,0,0,1,1,0,0,1
40868000,40868000,4388000,47.3977508,8.5456073,-0.15033469,-0.23729901,-6.476189,-9.449665e-09,3.0882659e-09,0.005554609,-0.068478845,-0.07771452,-1.4330747,-1.4743419,-2.3624161e-06,7.720664e-07,0.0010541603,-0.0064990013,-0.010633899,-0.0048596407,0.0057132803,0.0,488.059,6.605936,4.4887843,0.37245464,1.0576665,0.12911478,inf,inf,inf,inf,0,1,0,1,1,2,1,1,0,0,1,1,0,0,1
41372000,41372000,4388000,47.3977508,8.5456073,-0.14824244,-0.204181,-7.2307315,-9.449665e-09,3.0882659e-09,0.005554609,-0.05967319,-0.05743767,-1.4407957,-1.4888135,-2.3624161e-06,7.720664e-07,0.0010541603,0.0020922015,0.022618782,0.02111308,0.0063322284,0.0,488.059,7.3604784,4.5325694,0.3779816,1.0131531,0.13079056,inf,inf,inf,inf,0,1,0,1,1,2,1,1,0,0,1,1,0,0,1
41868000,41868000,4388000,47.3977508,8.5456073,-0.14584818,-0.17371453,-7.940144,-9.449665e-09,3.0882659e-09,0.005554609,-0.05991332,-0.038416963,-1.228455,-1.2859721,-2.3624161e-06,7.720664e-07,0.0010541603,-0.0088294465,0.0043884353,0.49446985,0.0066653616,0.0,488.059,8.069891,4.5528784,0.38499048,0.96841735,0.13285221,inf,inf,inf,inf,0,1,0,1,1,2,1,1,0,0,1,1,0,0,1
42372000,42372000,4388000,47.3977508,8.5456073,-0.14472277,-0.14322458,-8.547224,-9.449665e-09,3.0882659e-09,0.005554609,-0.061529133,-0.027629612,-1.001701,-1.0700439,-2.3624161e-06,7.720664e-07,0.0010541603,-0.022867475,0.002893357,0.4667239,0.0064494032,0.0,488.059,8.6769705,4.351062,0.3906953,0.88511574,0.1346375,inf,inf,inf,inf,0,1,0,1,1,2,1,1,0,0,1,1,0,0,1
42868000,42868000,4388000,47.3977508,8.5456073,-0.14779618,-0.11825772,-9.040669,-9.449665e-09,3.0882659e-09,0.005554609,-0.06720925,-0.02161621,-0.77258813,-0.85394907,-2.3624161e-06,7.720664e-07,0.0010541603,0.01848422,-0.0009731738,0.5320515,0.006594504,0.0,488.059,9.170416,4.3561797,0.3708141,0.85056734,0.13084686,inf,inf,inf,inf,0,1,0,1,1,2,1,1,0,0,1,1,0,0,1
43372000,43372000,4388000,47.3977508,8.5456073,-0.14579771,-0.11015921,-9.404273,-9.449665e-09,3.0882659e-09,0.005554609,0.025420425,-0.14590071,-0.4340493,-0.52503574,-2.3624161e-06,7.720664e-07,0.0010541603,0.749675,-0.97462535,0.8491212,-0.1430038,0.0,488.059,9.534019,4.168366,0.37694225,0.78563017,0.13274133,inf,inf,inf,inf,0,1,0,1,1,2,1,1,0,0,1,1,0,0,1
43868000,43868000,4388000,47.3977508,8.5456073,-0.014409069,-0.33823803,-9.583984,-9.449665e-09,3.0882659e-09,0.005554609,0.37590197,-1.0242766,-0.071060315,-0.17203996,-2.3624161e-06,7.720664e-07,0.0010541603,0.6023927,-2.5251553,0.7128417,-0.6364329,0.0,488.059,9.713731,4.168228,0.3844793,0.7603041,0.1322835,inf,inf,inf,inf,0,1,0,1,1,2,1,1,0,0,1,1,0,0,1
44372000,44372000,4388000,47.3977508,8.5456073,0.26559025,-1.1308296,-9.630148,-9.449665e-09,3.0882659e-09,0.005554609,0.7537455,-2.4209764,0.030910851,-0.07358447,-2.3624161e-06,7.720664e-07,0.0010541603,0.83045274,-2.630961,0.075587064,-1.0622349,0.0,488.059,9.759894,4.170834,0.3885085,0.7422003,0.12499328,inf,inf,inf,inf,0,1,0,1,1,2,1,1,0,0,1,1,0,0,1
44876000,44876000,4388000,47.3977508,8.5456073,0.6961517,-2.4249172,-9.668787,-9.449665e-09,3.0882659e-09,0.005554609,1.2144847,-3.6003613,0.1160118,-0.0005514787,-2.3624161e-06,7.720664e-07,0.0010541603,1.231764,-2.0492897,0.38849095,-1.3739544,0.0,488.059,9.798533,4.00456,0.36634564,0.7033795,0.11431818,inf,inf,inf,inf,0,1,0,1,1,2,1,1,0,0,1,1,0,0,1
45372000,45372000,4388000,47.3977508,8.5456073,1.3164883,-3.9113283,-9.65067,-9.449665e-09,3.0882659e-09,0.005554609,1.8194402,-4.0795274,0.19175364,0.070608616,-2.3624161e-06,7.720664e-07,0.0010541603,1.196388,-0.27439135,0.12151803,-1.2605951,0.0,488.059,9.7804165,4.0045404,0.36679396,0.69367987,0.109349325,inf,inf,inf,inf,0,1,0,1,1,2,1,1,0,0,1,1,0,0,1
45876000,45876000,4388000,47.3977508,8.5456073,2.091851,-5.1966987,-9.61731,-9.449665e-09,3.0882659e-09,0.005554609,2.1419406,-3.7986891,0.159358,0.038668744,-2.3624161e-06,7.720664e-07,0.0010541603,0.4727644,0.5243964,-0.12577604,-1.2043319,0.0,488.059,9.747056,3.85849,0.36688384,0.6637879,0.10444666,inf,inf,inf,inf,0,1,0,1,1,2,1,1,0,0,1,1,0,0,1
46372000,46372000,4388000,47.3977508,8.5456073,2.8208683,-6.041126,-9.606038,-9.449665e-09,3.0882659e-09,0.005554609,2.3433144,-3.491571,0.12208283,0.0063596396,-2.3624161e-06,7.720664e-07,0.0010541603,0.47098678,0.26909703,-0.04487857,-1.1980573,0.0,488.059,9.735785,3.8629308,0.36570832,0.6582733,0.10194159,inf,inf,inf,inf,0,1,0,1,1,2,1,1,0,0,1,1,0,0,1
46868000,46868000,4388000,47.3977508,8.5456073,3.5292237,-6.6551986,-9.618877,-9.449665e-09,3.0882659e-09,0.005554609,2.4689128,-3.2443867,0.08731068,-0.032117005,-2.3624161e-06,7.720664e-07,0.0010541603,0.34772253,0.119430706,0.00531692,-1.1970888,0.0,488.059,9.748624,3.868098,0.34455806,0.65508354,0.09895485,inf,inf,inf,inf,0,1,0,1,1,2,1,1,0,0,1,1,0,0,1
47372000,47372000,4388000,47.3977508,8.5456073,4.1502914,-7.0228925,-9.639319,-9.449665e-09,3.0882659e-09,0.005554609,2.512752,-3.0216498,0.07941732,-0.0401597,-2.3624161e-06,7.720664e-07,0.0010541603,0.22540216,0.012235133,0.029848887,-1.1985307,0.0,488.059,9.769066,3.743657,0.34671962,0.6368848,0.101848826,inf,inf,inf,inf,0,1,0,1,1,2,1,1,0,0,1,1,0,0,1
47868000,47868000,4388000,47.3977508,8.5456073,4.687173,-7.272539,-9.6547165,-9.449665e-09,3.0882659e-09,0.005554609,2.483095,-2.8277464,0.07223123,-0.04130433,-2.3624161e-06,7.720664e-07,0.0010541603,0.118302055,0.050540544,0.022170132,-1.2003667,0.0,488.059,9.784463,3.754648,0.34753424,0.63868153,0.10595508,inf,inf,inf,inf,0,1,0,1,1,2,1,1,0,0,1,1,0,0,1
48372000,48372000,4388000,47.3977508,8.5456073,5.137583,-7.427363,-9.668852,-9.449665e-09,3.0882659e-09,0.005554609,2.4135644,-2.640322,0.074013956,-0.03158144,-2.3624161e-06,7.720664e-07,0.0010541603,0.06476015,-0.026240477,0.016666947,-1.201958,0.0,488.059,9.798598,3.645321,0.35210708,0.6270497,0.1115468,inf,inf,inf,inf,0,1,0,1,1,2,1,1,0,0,1,1,0,0,1
48876000,48876000,4388000,47.3977508,8.5456073,5.4595194,-7.4469748,-9.68515,-9.449665e-09,3.0882659e-09,0.005554609,2.3339422,-2.4528382,0.06929541,-0.03496308,-2.3624161e-06,7.720664e-07,0.0010541603,0.08791318,0.04284794,0.014417804,-1.2027943,0.0,488.059,9.814897,3.666225,0.33670908,0.6336443,0.1143281,inf,inf,inf,inf,0,1,0,1,1,2,1,1,0,0,1,1,0,0,1
49372000,49372000,4388000,47.3977508,8.5456073,5.7453947,-7.4458356,-9.698317,-9.449665e-09,3.0882659e-09,0.005554609,2.2692673,-2.24066,0.073450744,-0.028162451,-2.3624161e-06,7.720664e-07,0.0010541603,0.09227334,0.16465503,0.036328096,-1.2030454,0.0,488.059,9.828063,3.685907,0.34430256,0.64145267,0.1205252,inf,inf,inf,inf,0,1,0,1,1,2,1,1,0,0,1,1,0,0,1
49868000,49868000,4388000,47.3977508,8.5456073,5.920427,-7.284259,-9.707109,-9.449665e-09,3.0882659e-09,0.005554609,2.2029996,-1.9679182,0.06923797,-0.027551241,-2.3624161e-06,7.720664e-07,0.0010541603,0.1844723,0.22769392,0.03335811,-1.2027122,0.0,488.059,9.836856,3.5892437,0.3518614,0.63658977,0.12621656,inf,inf,inf,inf,0,1,0,1,1,2,1,1,0,0,1,1,0,0,1
50372000,50372000,4388000,47.3977508,8.5456073,6.0817814,-7.057929,-9.715948,-9.449665e-09,3.0882659e-09,0.005554609,2.1572301,-1.6927464,0.06996335,-0.021179091,-2.3624161e-06,7.720664e-07,0.0010541603,0.19382387,0.21765718,-0.021902842,-1.2020489,0.0,488.059,9.845695,3.620006,0.36348838,0.6484666,0.13202703,inf,inf,inf,inf,0,1,0,1,1,2,1,1,0,0,1,1,0,0,1
50868000,50868000,4388000,47.3977508,8.5456073,6.211549,-6.7536583,-9.727642,-9.449665e-09,3.0882659e-09,0.005554609,2.1182628,-1.4184608,0.07729025,-0.015448444,-2.3624161e-06,7.720664e-07,0.0010541603,0.18696527,0.2537011,0.033564862,-1.2017425,0.0,488.059,9.8573885,3.5347562,0.35084593,0.64728296,0.1320025,inf,inf,inf,inf,0,1,0,1,1,2,1,1,0,0,1,1,0,0,1
51372000,51372000,4388000,47.3977508,8.5456073,6.2803965,-6.3278494,-9.730343,-9.449665e-09,3.0882659e-09,0.005554609,2.075155,-1.1346252,0.08239992,-0.008673019,-2.3624161e-06,7.720664e-07,0.0010541603,0.1961619,0.24411267,0.025405547,-1.2010642,0.0,488.059,9.860089,3.572585,0.36325794,0.6618739,0.13618556,inf,inf,inf,inf,0,1,0,1,1,2,1,1,0,0,1,1,0,0,1
51876000,51876000,4388000,47.3977508,8.5456073,6.376576,-5.887813,-9.730411,-9.449665e-09,3.0882659e-09,0.005554609,2.0327024,-0.8547604,0.08533087,-0.0028901948,-2.3624161e-06,7.720664e-07,0.0010541603,0.14913861,0.2901242,0.015087425,-1.2003467,0.0,488.059,9.860157,3.6144862,0.37610126,0.6775682,0.13969915,inf,inf,inf,inf,0,1,0,1,1,2,1,1,0,0,1,1,0,0,1
52372000,52372000,4388000,47.3977508,8.5456073,6.3728766,-5.325612,-9.729446,-9.449665e-09,3.0882659e-09,0.005554609,1.9676238,-0.56623197,0.09241516,0.006567301,-2.3624161e-06,7.720664e-07,0.0010541603,0.1615298,0.28789765,0.026292166,-1.1993027,0.0,488.059,9.859193,3.5419977,0.38569418,0.67970467,0.14181097,inf,inf,inf,inf,0,1,0,1,1,2,1,1,0,0,1,1,0,0,1
52868000,52868000,4388000,47.3977508,8.5456073,6.3738284,-4.7459435,-9.732004,-9.449665e-09,3.0882659e-09,0.005554609,1.8949442,-0.29009274,0.09647353,0.0058589997,-2.3624161e-06,7.720664e-07,0.0010541603,0.12900953,0.30325502,0.03135204,-1.1988854,0.0,488.059,9.861751,3.5865557,0.36995444,0.6961559,0.13762188,inf,inf,inf,inf,0,1,0,1,1,2,1,1,0,0,1,1,0,0,1
53372000,53372000,4388000,47.3977508,8.5456073,6.336965,-4.108947,-9.732918,-9.449665e-09,3.0882659e-09,0.005554609,1.8183856,-0.015094373,0.100214034,0.0051761726,-2.3624161e-06,7.720664e-07,0.0010541603,0.13444455,0.31401658,0.03671087,-1.1977797,0.0,488.059,9.862664,3.525702,0.37875903,0.6998559,0.13881694,inf,inf,inf,inf,0,1,0,1,1,2,1,1,0,0,1,1,0,0,1
53868000,53868000,4388000,47.3977508,8.5456073,6.240168,-3.4258447,-9.732366,-9.449665e-09,3.0882659e-09,0.005554609,1.7292409,0.26092052,0.10418294,0.007272602,-2.3624161e-06,7.720664e-07,0.0010541603,0.12855609,0.360238,0.07724668,-1.1970534,0.0,488.059,9.862112,3.5765848,0.38822907,0.7171138,0.14000402,inf,inf,inf,inf,0,1,0,1,1,2,1,1,0,0,1,1,0,0,1
54372000,54372000,4388000,47.3977508,8.5456073,6.1575007,-2.7269788,-9.729399,-9.449665e-09,3.0882659e-09,0.005554609,1.6424794,0.53122216,0.11164518,0.014874744,-2.3624161e-06,7.720664e-07,0.0010541603,0.09039155,0.4016659,-0.012069008,-1.1962297,0.0,488.059,9.859145,3.6359992,0.39562008,0.7353387,0.14061853,inf,inf,inf,inf,0,1,0,1,1,2,1,1,0,0,1,1,0,0,1
54876000,54876000,4388000,47.3977508,8.5456073,5.970156,-1.9688467,-9.736087,-9.449665e-09,3.0882659e-09,0.005554609,1.5324317,0.80614024,0.11476989,0.0074158427,-2.3624161e-06,7.720664e-07,0.0010541603,0.034430355,0.37894607,0.048313286,-1.1957033,0.0,488.059,9.865833,3.5816314,0.37653774,0.73860866,0.13525371,inf,inf,inf,inf,0,1,0,1,1,2,1,1,0,0,1,1,0,0,1
55372000,55372000,4388000,47.3977508,8.5456073,5.7927556,-1.2230928,-9.735999,-9.449665e-09,3.0882659e-09,0.005554609,1.4176778,1.0626717,0.12456342,0.012325792,-2.3624161e-06,7.720664e-07,0.0010541603,0.04648219,0.3935839,0.08047185,-1.1949403,0.0,488.059,9.865746,3.6413295,0.38211215,0.7559164,0.1357639,inf,inf,inf,inf,0,1,0,1,1,2,1,1,0,0,1,1,0,0,1
55876000,55876000,4388000,47.3977508,8.5456073,5.561035,-0.45216772,-9.725571,-9.449665e-09,3.0882659e-09,0.005554609,1.2912145,1.3074535,0.13813221,0.02724258,-2.3624161e-06,7.720664e-07,0.0010541603,0.0676178,0.4148191,0.05681533,-1.1942344,0.0,488.059,9.855317,3.589157,0.39054745,0.7578158,0.13701208,inf,inf,inf,inf,0,1,0,1,1,2,1,1,0,0,1,1,0,0,1
56372000,56372000,4388000,47.3977508,8.5456073,5.2891574,0.30396584,-9.713673,-9.449665e-09,3.0882659e-09,0.005554609,1.1680857,1.5321416,0.14040793,0.03021053,-2.3624161e-06,7.720664e-07,0.0010541603,0.08491461,0.41305807,0.022047197,-1.1929233,0.0,488.059,9.843419,3.6522715,0.3977302,0.7743651,0.13808529,inf,inf,inf,inf,0,1,0,1,1,2,1,1,0,0,1,1,0,0,1
56876000,56876000,4388000,47.3977508,8.5456073,5.0289197,1.0580424,-9.716602,-9.449665e-09,3.0882659e-09,0.005554609,1.0423076,1.7413564,0.12900709,0.00834255,-2.3624161e-06,7.720664e-07,0.0010541603,0.03346859,0.4566606,-0.008195638,-1.191587,0.0,488.059,9.846349,3.7229834,0.37494817,0.79141825,0.13263531,inf,inf,inf,inf,0,1,0,1,1,2,1,1,0,0,1,1,0,0,1
57372000,57372000,4388000,47.3977508,8.5456073,4.6776447,1.7723668,-9.719101,-9.449665e-09,3.0882659e-09,0.005554609,0.9002192,1.9399518,0.13162787,0.005454322,-2.3624161e-06,7.720664e-07,0.0010541603,-0.002122775,0.45345908,0.07528345,-1.1904526,0.0,488.059,9.848847,3.6650615,0.3819229,0.78985274,0.13404225,inf,inf,inf,inf,0,1,0,1,1,2,1,1,0,0,1,1,0,0,1
57876000,57876000,4388000,47.3977508,8.5456073,4.3434834,2.4878874,-9.719602,-9.449665e-09,3.0882659e-09,0.005554609,0.76802546,2.1373467,0.13872981,0.009770397,-2.3624161e-06,7.720664e-07,0.0010541603,-0.015642725,0.46771285,0.036643814,-1.1886382,0.0,488.059,9.849348,3.7373676,0.38746622,0.80564785,0.13521947,inf,inf,inf,inf,0,1,0,1,1,2,1,1,0,0,1,1,0,0,1
58372000,58372000,4388000,47.3977508,8.5456073,3.9821653,3.1601894,-9.716398,-9.449665e-09,3.0882659e-09,0.005554609,0.63374263,2.3050392,0.13606162,0.009449228,-2.3624161e-06,7.720664e-07,0.0010541603,-0.038599942,0.4683578,0.015011056,-1.1868241,0.0,488.059,9.846145,3.676934,0.3945725,0.80169386,0.13678417,inf,inf,inf,inf,0,1,0,1,1,2,1,1,0,0,1,1,0,0,1
58868000,58868000,4388000,47.3977508,8.5456073,3.600644,3.784548,-9.728538,-9.449665e-09,3.0882659e-09,0.005554609,0.49604592,2.4340026,0.12610248,-0.009249944,-2.3624161e-06,7.720664e-07,0.0010541603,-0.06967684,0.44952562,0.023448838,-1.1856875,0.0,488.059,9.858284,3.743769,0.37192464,0.8150857,0.13188823,inf,inf,inf,inf,0,1,0,1,1,2,1,1,0,0,1,1,0,0,1
59372000,59372000,4388000,47.3977508,8.5456073,3.2345035,4.400589,-9.737079,-9.449665e-09,3.0882659e-09,0.005554609,0.36525208,2.5405674,0.1251507,-0.012713337,-2.3624161e-06,7.720664e-07,0.0010541603,-0.0472769,0.41598684,0.02549961,-1.1843355,0.0,488.059,9.866825,3.817394,0.38020483,0.82874197,0.13389319,inf,inf,inf,inf,0,1,0,1,1,2,1,1,0,0,1,1,0,0,1
59868000,59868000,4388000,47.3977508,8.5456073,2.8187804,4.8938384,-9.742406,-9.449665e-09,3.0882659e-09,0.005554609,0.22287254,2.6122208,0.12210488,-0.013202929,-2.3624161e-06,7.720664e-07,0.0010541603,-0.05902402,0.43568328,0.014755874,-1.1830747,0.0,488.059,9.872152,3.7509449,0.38524544,0.82115626,0.135097,inf,inf,inf,inf,0,1,0,1,1,2,1,1,0,0,1,1,0,0,1
60372000,60372000,4388000,47.3977508,8.5456073,2.4219072,5.382039,-9.746613,-9.449665e-09,3.0882659e-09,0.005554609,0.08823196,2.6902294,0.11871572,-0.010932144,-2.3624161e-06,7.720664e-07,0.0010541603,-0.041053046,0.4548223,0.031114554,-1.1812083,0.0,488.059,9.876359,3.8229399,0.39357015,0.8333127,0.13702379,inf,inf,inf,inf,0,1,0,1,1,2,1,1,0,0,1,1,0,0,1
60868000,60868000,4388000,47.3977508,8.5456073,2.0216026,5.7921934,-9.760845,-9.449665e-09,3.0882659e-09,0.005554609,-0.040592764,2.7411022,0.1108739,-0.022322128,-2.3624161e-06,7.720664e-07,0.0010541603,-0.080462135,0.42389134,0.009393319,-1.1795397,0.0,488.059,9.890592,3.7520404,0.3712972,0.82361895,0.13220145,inf,inf,inf,inf,0,1,0,1,1,2,1,1,0,0,1,1,0,0,1
61372000,61372000,4388000,47.3977508,8.5456073,1.6152645,6.1475368,-9.767544,-9.449665e-09,3.0882659e-09,0.005554609,-0.1680015,2.767386,0.104346134,-0.024093542,-2.3624161e-06,7.720664e-07,0.0010541603,-0.15885189,0.3948627,0.0023553146,-1.1782786,0.0,488.059,9.89729,3.8218338,0.37948918,0.8343764,0.13411841,inf,inf,inf,inf,0,1,0,1,1,2,1,1,0,0,1,1,0,0,1
61868000,61868000,4388000,47.3977508,8.5456073,1.2324421,6.4904127,-9.774123,-9.449665e-09,3.0882659e-09,0.005554609,-0.2938415,2.7750282,0.09658989,-0.024553793,-2.3624161e-06,7.720664e-07,0.0010541603,-0.1303688,0.3482287,-0.0022761521,-1.17838,0.0,488.059,9.90387,3.8864064,0.3870168,0.84383744,0.13583168,inf,inf,inf,inf,0,1,0,1,1,2,1,1,0,0,1,1,0,0,1
62372000,62372000,4388000,47.3977508,8.5456073,0.814567,6.72333,-9.7726145,-9.449665e-09,3.0882659e-09,0.005554609,-0.5120952,3.01993,0.112073295,-3.169058e-06,-2.3624161e-06,7.720664e-07,0.0010541603,-0.5961353,1.8100636,-0.017669981,-1.1782873,0.0,488.059,9.902361,3.8143604,0.3928595,0.8333819,0.13718098,inf,inf,inf,inf,0,1,0,1,1,2,1,1,0,0,1,1,0,0,1
62876000,62876000,4388000,47.3977508,8.5456073,0.3247317,7.247025,-9.769593,-9.449665e-09,3.0882659e-09,0.005554609,-0.8913863,3.7100825,0.1273496,0.016824618,-2.3624161e-06,7.720664e-07,0.0010541603,-0.75687146,1.7232475,0.07829442,-1.1804256,0.0,488.059,9.89934,3.88268,0.3736189,0.84832186,0.13347104,inf,inf,inf,inf,0,1,0,1,1,2,1,1,0,0,1,1,0,0,1
63372000,63372000,4388000,47.3977508,8.5456073,-0.27658844,7.955533,-9.754639,-9.449665e-09,3.0882659e-09,0.005554609,-1.3027389,4.31292,0.151739,0.04053686,-2.3624161e-06,7.720664e-07,0.0010541603,-0.76465535,1.605346,0.11839251,-1.1906308,0.0,488.059,9.884385,3.8035688,0.37897706,0.8408035,0.13530117,inf,inf,inf,inf,0,1,0,1,1,2,1,1,0,0,1,1,0,0,1
63876000,63876000,4388000,47.3977508,8.5456073,-0.9909925,8.843472,-9.732039,-9.449665e-09,3.0882659e-09,0.005554609,-1.7219166,4.843118,0.1751856,0.06118866,-2.3624161e-06,7.720664e-07,0.0010541603,-0.8448798,1.4715503,0.10501872,-1.207749,0.0,488.059,9.861786,3.871775,0.38752428,0.855157,0.13785252,inf,inf,inf,inf,0,1,0,1,1,2,1,1,0,0,1,1,0,0,1
64372000,64372000,4388000,47.3977508,8.5456073,-1.7761871,9.84749,-9.7088375,-9.449665e-09,3.0882659e-09,0.005554609,-2.069232,5.2497053,0.18916692,0.06899069,-2.3624161e-06,7.720664e-07,0.0010541603,-0.5569457,1.2729402,0.047122125,-1.2290243,0.0,488.059,9.838584,3.7912767,0.39297178,0.84562707,0.13946241,inf,inf,inf,inf,0,1,0,1,1,2,1,1,0,0,1,1,0,0,1
64876000,64876000,4388000,47.3977508,8.5456073,-2.5093582,10.767471,-9.719274,-9.449665e-09,3.0882659e-09,0.005554609,-1.9739007,5.744323,0.14322014,0.001709688,-2.3624161e-06,7.720664e-07,0.0010541603,0.8712681,2.6580675,0.04510581,-0.923095,0.0,488.059,9.84902,3.8580787,0.3742468,0.85678476,0.1355187,inf,inf,inf,inf,0,1,0,1,1,2,1,1,0,0,1,1,0,0,1
65372000,65372000,4388000,47.3977508,8.5456073,-2.9336994,11.993985,-9.723663,-9.449665e-09,3.0882659e-09,0.005554609,-1.4408938,6.590533,0.21689947,0.058615055,-2.3624161e-06,7.720664e-07,0.0010541603,0.7988618,1.4628043,0.19200145,-0.4569326,0.0,488.059,9.85341,3.9205353,0.3815371,0.86912256,0.131274,inf,inf,inf,inf,0,1,0,1,1,2,1,1,0,0,1,1,0,0,1
65868000,65868000,4388000,47.3977508,8.5456073,-3.099034,13.151391,-9.705126,-9.449665e-09,3.0882659e-09,0.005554609,-1.4178803,6.56716,0.20578878,0.039705407,-2.3624161e-06,7.720664e-07,0.0010541603,-0.36815232,0.30247307,-0.057304274,-0.0392614,0.0,488.059,9.834872,3.8357499,0.38388687,0.85210264,0.12464331,inf,inf,inf,inf,0,1,0,1,1,2,1,1,0,0,1,1,0,0,1
66372000,66372000,4388000,47.3977508,8.5456073,-3.2147856,14.08847,-9.708505,-9.449665e-09,3.0882659e-09,0.005554609,-1.1085535,6.568025,0.14278258,-0.025116432,-2.3624161e-06,7.720664e-07,0.0010541603,1.1503214,0.84660983,-0.17661786,0.35761762,0.0,488.059,9.838251,3.90046,0.38740346,0.85636735,0.12083591,inf,inf,inf,inf,0,1,0,1,1,2,1,1,0,0,1,1,0,0,1
66876000,66876000,4388000,47.3977508,8.5456073,-2.9971638,14.90288,-9.766131,-9.449665e-09,3.0882659e-09,0.005554609,-0.118287064,6.44514,0.07605284,-0.10363418,-2.3624161e-06,7.720664e-07,0.0010541603,2.116526,0.45898727,0.05506072,0.5115786,0.0,488.059,9.895878,3.8163927,0.36232716,0.8347088,0.11131352,inf,inf,inf,inf,0,1,0,1,1,2,1,1,0,0,1,1,0,0,1
67372000,67372000,4388000,47.3977508,8.5456073,-2.3053207,15.349009,-9.817431,-9.449665e-09,3.0882659e-09,0.005554609,0.6866243,6.2192173,0.07593602,-0.101820834,-2.3624161e-06,7.720664e-07,0.0010541603,0.6818519,0.5092677,0.03461353,0.4075445,0.0,488.059,9.947178,3.8696606,0.36390603,0.8333808,0.10687378,inf,inf,inf,inf,0,1,0,1,1,2,1,1,0,0,1,1,0,0,1
67876000,67876000,4388000,47.3977508,8.5456073,-1.5301349,15.747855,-9.853486,-9.449665e-09,3.0882659e-09,0.005554609,0.7247744,5.888657,0.062362332,-0.098377496,-2.3624161e-06,7.720664e-07,0.0010541603,-0.6346779,-0.44000426,-0.09758118,0.39061642,0.0,488.059,9.9832325,3.926626,0.36352572,0.83321303,0.10293753,inf,inf,inf,inf,0,1,0,1,1,2,1,1,0,0,1,1,0,0,1
68372000,68372000,4388000,47.3977508,8.5456073,-0.96645945,15.699758,-9.887174,-9.449665e-09,3.0882659e-09,0.005554609,0.5338214,5.204738,0.033152413,-0.1043177,-2.3624161e-06,7.720664e-07,0.0010541603,-0.3057257,-0.256439,0.008882954,0.38604832,0.0,488.059,10.01692,3.8299677,0.36395288,0.8072751,0.100808464,inf,inf,inf,inf,0,1,0,1,1,2,1,1,0,0,1,1,0,0,1
68868000,68868000,4388000,47.3977508,8.5456073,-0.58676386,15.394021,-9.924711,-9.449665e-09,3.0882659e-09,0.005554609,0.40205878,4.586374,0.014630982,-0.10610239,-2.3624161e-06,7.720664e-07,0.0010541603,-0.28329515,-0.2856755,0.016525386,0.38826734,0.0,488.059,10.054458,3.8753164,0.3414508,0.8037083,0.09796339,inf,inf,inf,inf,0,1,0,1,1,2,1,1,0,0,1,1,0,0,1
69372000,69372000,4388000,47.3977508,8.5456073,-0.33542287,14.907009,-9.948245,-9.449665e-09,3.0882659e-09,0.005554609,0.28764638,3.9696121,0.010243544,-0.085827075,-2.3624161e-06,7.720664e-07,0.0010541603,-0.2548818,-0.32125142,0.042819414,0.3912615,0.0,488.059,10.0779915,3.7823768,0.34369606,0.78089035,0.1011345,inf,inf,inf,inf,0,1,0,1,1,2,1,1,0,0,1,1,0,0,1
69876000,69876000,4388000,47.3977508,8.5456073,-0.17948928,14.0788145,-9.959552,-9.449665e-09,3.0882659e-09,0.005554609,0.1842807,3.3209405,0.013018812,-0.058696866,-2.3624161e-06,7.720664e-07,0.0010541603,-0.23965245,-0.4317745,0.061707567,0.39403862,0.0,488.059,10.089298,3.8295302,0.34542722,0.7795679,0.10571324,inf,inf,inf,inf,0,1,0,1,1,2,1,1,0,0,1,1,0,0,1
70372000,70372000,4388000,47.3977508,8.5456073,-0.10031563,13.230428,-9.957306,-9.449665e-09,3.0882659e-09,0.005554609,0.09447363,2.7136676,0.022278855,-0.02785743,-2.3624161e-06,7.720664e-07,0.0010541603,-0.17865479,-0.43878183,0.043192875,0.39740205,0.0,488.059,10.087052,3.870303,0.34810463,0.77837133,0.11120192,inf,inf,inf,inf,0,1,0,1,1,2,1,1,0,0,1,1,0,0,1
70868000,70868000,4388000,47.3977508,8.5456073,-0.07338657,12.1415205,-9.945376,-9.449665e-09,3.0882659e-09,0.005554609,0.01405584,2.101973,0.026916835,-0.0052979337,-2.3624161e-06,7.720664e-07,0.0010541603,-0.17068511,-0.4759878,0.03570504,0.40171242,0.0,488.059,10.075123,3.770698,0.33457184,0.75872266,0.114409305,inf,inf,inf,inf,0,1,0,1,1,2,1,1,0,0,1,1,0,0,1
71372000,71372000,4388000,47.3977508,8.5456073,-0.14096361,10.953119,-9.921021,-9.449665e-09,3.0882659e-09,0.005554609,-0.4298714,1.3923246,0.04502246,0.02627078,-2.3624161e-06,7.720664e-07,0.0010541603,-1.6589804,-0.93040293,0.0043073664,0.3999598,0.0,488.059,10.050768,3.81481,0.3431999,0.7608868,0.12108661,inf,inf,inf,inf,0,1,0,1,1,2,1,1,0,0,1,1,0,0,1
71876000,71876000,4388000,47.3977508,8.5456073,-0.52963483,9.617098,-9.881354,-9.449665e-09,3.0882659e-09,0.005554609,-1.154863,0.585802,0.08345278,0.07585895,-2.3624161e-06,7.720664e-07,0.0010541603,-1.4347378,-1.0457387,0.11633708,0.40417916,0.0,488.059,10.011101,3.723513,0.35203198,0.7475828,0.1275419,inf,inf,inf,inf,0,1,0,1,1,2,1,1,0,0,1,1,0,0,1
72372000,72372000,4388000,47.3977508,8.5456073,-1.184827,8.071816,-9.821126,-9.449665e-09,3.0882659e-09,0.005554609,-1.8077383,-0.21403839,0.128847,0.12739947,-2.3624161e-06,7.720664e-07,0.0010541603,-1.2878045,-1.0770289,0.069672234,0.40593818,0.0,488.059,9.950872,3.7624786,0.36165747,0.75466406,0.13343611,inf,inf,inf,inf,0,1,0,1,1,2,1,1,0,0,1,1,0,0,1
72876000,72876000,4388000,47.3977508,8.5456073,-2.063146,6.44966,-9.750158,-9.449665e-09,3.0882659e-09,0.005554609,-2.399189,-0.98648596,0.17169684,0.1641901,-2.3624161e-06,7.720664e-07,0.0010541603,-1.2248417,-1.1102979,0.098343,0.40928668,0.0,488.059,9.879905,3.8074641,0.35078713,0.7644506,0.13430089,inf,inf,inf,inf,0,1,0,1,1,2,1,1,0,0,1,1,0,0,1
73372000,73372000,4388000,47.3977508,8.5456073,-3.0338614,4.6890025,-9.673708,-9.449665e-09,3.0882659e-09,0.005554609,-2.8963068,-1.711365,0.20559573,0.18398513,-2.3624161e-06,7.720664e-07,0.0010541603,-1.0668145,-0.93154824,0.06956606,0.41691113,0.0,488.059,9.803454,3.7164147,0.36358702,0.75754714,0.13897263,inf,inf,inf,inf,0,1,0,1,1,2,1,1,0,0,1,1,0,0,1
73868000,73868000,4388000,47.3977508,8.5456073,-4.0455284,2.9567719,-9.605389,-9.449665e-09,3.0882659e-09,0.005554609,-3.1521738,-2.1179097,0.16932572,0.13148259,-2.3624161e-06,7.720664e-07,0.0010541603,-1.0219996,0.14241157,-0.06637908,0.546014,0.0,488.059,9.735135,3.7592351,0.37440938,0.7666729,0.14203908,inf,inf,inf,inf,0,1,0,1,1,2,1,1,0,0,1,1,0,0,1
74372000,74372000,4388000,47.3977508,8.5456073,-5.1697907,1.4287946,-9.568376,-9.449665e-09,3.0882659e-09,0.005554609,-4.14637,-2.109114,0.1774394,0.11550567,-2.3624161e-06,7.720664e-07,0.0010541603,-2.7524638,0.00942446,0.16020423,1.0491655,0.0,488.059,9.698122,3.6788478,0.38792017,0.7597357,0.14495923,inf,inf,inf,inf,0,1,0,1,1,2,1,1,0,0,1,1,0,0,1
74876000,74876000,4388000,47.3977508,8.5456073,-6.579103,0.15187187,-9.542598,-9.449665e-09,3.0882659e-09,0.005554609,-4.883873,-2.1312807,0.21069649,0.11632369,-2.3624161e-06,7.720664e-07,0.0010541603,-0.8325096,-0.5146191,0.061960887,1.4690634,0.0,488.059,9.672344,3.7299068,0.37158972,0.7718156,0.14060408,inf,inf,inf,inf,0,1,0,1,1,2,1,1,0,0,1,1,0,0,1
75372000,75372000,4388000,47.3977508,8.5456073,-7.9689736,-0.98234916,-9.527748,-9.449665e-09,3.0882659e-09,0.005554609,-5.013791,-2.3842397,0.15642872,0.03923765,-2.3624161e-06,7.720664e-07,0.0010541603,-0.67252743,0.1652066,-0.062339935,1.8634933,0.0,488.059,9.657495,3.7781546,0.3800866,0.7789475,0.14139779,inf,inf,inf,inf,0,1,0,1,1,2,1,1,0,0,1,1,0,0,1
75876000,75876000,4388000,47.3977508,8.5456073,-9.141912,-1.9025986,-9.561234,-9.449665e-09,3.0882659e-09,0.005554609,-5.1125007,-1.8908598,0.03826533,-0.09474883,-2.3624161e-06,7.720664e-07,0.0010541603,-0.49493024,1.6869296,0.027507542,2.1469133,0.0,488.059,9.690981,3.7016876,0.3907682,0.76290834,0.14157058,inf,inf,inf,inf,0,1,0,1,1,2,1,1,0,0,1,1,0,0,1
76372000,76372000,4388000,47.3977508,8.5456073,-10.171032,-2.3089614,-9.626063,-9.449665e-09,3.0882659e-09,0.005554609,-5.111006,-1.1260805,0.008727715,-0.12710592,-2.3624161e-06,7.720664e-07,0.0010541603,-0.53459924,0.8069623,-0.055693086,2.0410967,0.0,488.059,9.75581,3.7486322,0.395457,0.7581238,0.13183953,inf,inf,inf,inf,0,1,0,1,1,2,1,1,0,0,1,1,0,0,1
76876000,76876000,4388000,47.3977508,8.5456073,-11.052399,-2.427594,-9.699995,-9.449665e-09,3.0882659e-09,0.005554609,-5.0864453,-1.0374854,-0.022597209,-0.1525495,-2.3624161e-06,7.720664e-07,0.0010541603,-0.23204634,-0.6749775,0.048215497,2.008606,0.0,488.059,9.8297415,3.6698792,0.37282488,0.7415969,0.11865334,inf,inf,inf,inf,0,1,0,1,1,2,1,1,0,0,1,1,0,0,1
77372000,77372000,4388000,47.3977508,8.5456073,-11.642503,-2.623544,-9.758376,-9.449665e-09,3.0882659e-09,0.005554609,-4.659446,-1.4121886,-0.0527135,-0.15925756,-2.3624161e-06,7.720664e-07,0.0010541603,0.17070696,-0.7526862,0.0117346635,2.0058055,0.0,488.059,9.888123,3.7140832,0.3732897,0.7420898,0.11357617,inf,inf,inf,inf,0,1,0,1,1,2,1,1,0,0,1,1,0,0,1
77876000,77876000,4388000,47.3977508,8.5456073,-12.043511,-2.9896517,-9.80304,-9.449665e-09,3.0882659e-09,0.005554609,-4.2875633,-1.7006023,-0.056548126,-0.13253401,-2.3624161e-06,7.720664e-07,0.0010541603,0.14343123,-0.6635086,-0.020427627,2.0091622,0.0,488.059,9.932786,3.76246,0.37526512,0.7431144,0.11166464,inf,inf,inf,inf,0,1,0,1,1,2,1,1,0,0,1,1,0,0,1
78372000,78372000,4388000,47.3977508,8.5456073,-12.073373,-3.4085798,-9.836649,-9.449665e-09,3.0882659e-09,0.005554609,-3.8982408,-1.9347179,-0.053450685,-0.10368728,-2.3624161e-06,7.720664e-07,0.0010541603,0.17092428,-0.6435145,0.042629424,2.0132122,0.0,488.059,9.966395,3.676996,0.37416294,0.7269859,0.11172042,inf,inf,inf,inf,0,1,0,1,1,2,1,1,0,0,1,1,0,0,1
78876000,78876000,4388000,47.3977508,8.5456073,-11.988427,-3.9029667,-9.862023,-9.449665e-09,3.0882659e-09,0.005554609,-3.5030117,-2.138911,-0.045507453,-0.07694898,-2.3624161e-06,7.720664e-07,0.0010541603,0.21243258,-0.59911036,0.019096768,2.0171142,0.0,488.059,9.99177,3.7226548,0.3514161,0.72854817,0.11024901,inf,inf,inf,inf,0,1,0,1,1,2,1,1,0,0,1,1,0,0,1
79372000,79372000,4388000,47.3977508,8.5456073,-11.718458,-4.4085393,-9.881136,-9.449665e-09,3.0882659e-09,0.005554609,-3.1001022,-2.3113859,-0.042019676,-0.060118172,-2.3624161e-06,7.720664e-07,0.0010541603,0.23707841,-0.5376866,-0.0020861623,2.0206456,0.0,488.059,10.010882,3.6376498,0.35463047,0.71373206,0.11439659,inf,inf,inf,inf,0,1,0,1,1,2,1,1,0,0,1,1,0,0,1
79876000,79876000,4388000,47.3977508,8.5456073,-11.252997,-4.910361,-9.895923,-9.449665e-09,3.0882659e-09,0.005554609,-2.682272,-2.4531915,-0.033858683,-0.043017793,-2.3624161e-06,7.720664e-07,0.0010541603,0.2884456,-0.54648143,0.013136304,2.0246491,0.0,488.059,10.025669,3.681837,0.3580424,0.7164734,0.119271554,inf,inf,inf,inf,0,1,0,1,1,2,1,1,0,0,1,1,0,0,1
80372000,80372000,4388000,47.3977508,8.5456073,-10.759913,-5.430431,-9.904406,-9.449665e-09,3.0882659e-09,0.005554609,-2.288101,-2.5793536,-0.022203946,-0.025350563,-2.3624161e-06,7.720664e-07,0.0010541603,0.2271036,-0.5322661,0.016449949,2.028595,0.0,488.059,10.034152,3.7213376,0.36442563,0.719327,0.12475848,inf,inf,inf,inf,0,1,0,1,1,2,1,1,0,0,1,1,0,0,1
80868000,80868000,4388000,47.3977508,8.5456073,-10.043675,-5.874795,-9.910333,-9.449665e-09,3.0882659e-09,0.005554609,-1.8815184,-2.6728518,-0.0052168192,-0.007936714,-2.3624161e-06,7.720664e-07,0.0010541603,0.3041126,-0.50828534,0.038469207,2.0328348,0.0,488.059,10.040079,3.6368637,0.34829015,0.7070659,0.12589033,inf,inf,inf,inf,0,1,0,1,1,2,1,1,0,0,1,1,0,0,1
81372000,81372000,4388000,47.3977508,8.5456073,-9.3053255,-6.333739,-9.905997,-9.449665e-09,3.0882659e-09,0.005554609,-1.4855882,-2.7481081,0.01963985,0.01658727,-2.3624161e-06,7.720664e-07,0.0010541603,0.32360604,-0.4378875,0.047169622,2.036692,0.0,488.059,10.035744,3.6806781,0.35808134,0.7119569,0.13118471,inf,inf,inf,inf,0,1,0,1,1,2,1,1,0,0,1,1,0,0,1
81876000,81876000,4388000,47.3977508,8.5456073,-8.478729,-6.74286,-9.894704,-9.449665e-09,3.0882659e-09,0.005554609,-1.1024932,-2.7958608,0.033007957,0.028127806,-2.3624161e-06,7.720664e-07,0.0010541603,0.3298917,-0.40487173,0.04540011,2.0411072,0.0,488.059,10.02445,3.603424,0.36924008,0.70234364,0.13604076,inf,inf,inf,inf,0,1,0,1,1,2,1,1,0,0,1,1,0,0,1
82372000,82372000,4388000,47.3977508,8.5456073,-7.597485,-7.0869136,-9.883794,-9.449665e-09,3.0882659e-09,0.005554609,-0.7358941,-2.8171902,0.043503772,0.033340447,-2.3624161e-06,7.720664e-07,0.0010541603,0.3435777,-0.38507962,0.030294059,2.0446837,0.0,488.059,10.01354,3.643257,0.37833336,0.70833606,0.13964742,inf,inf,inf,inf,0,1,0,1,1,2,1,1,0,0,1,1,0,0,1
82876000,82876000,4388000,47.3977508,8.5456073,-6.725804,-7.4453163,-9.8743305,-9.449665e-09,3.0882659e-09,0.005554609,-0.38559166,-2.8319168,0.050748505,0.032714583,-2.3624161e-06,7.720664e-07,0.0010541603,0.37438774,-0.33660382,0.021370126,2.0482483,0.0,488.059,10.004077,3.6886744,0.36515892,0.7157533,0.13764144,inf,inf,inf,inf,0,1,0,1,1,2,1,1,0,0,1,1,0,0,1
83372000,83372000,4388000,47.3977508,8.5456073,-5.7521863,-7.6571736,-9.865602,-9.449665e-09,3.0882659e-09,0.005554609,-0.045769833,-2.8124459,0.059701134,0.03317371,-2.3624161e-06,7.720664e-07,0.0010541603,0.3261221,-0.34178862,0.0061113383,2.052634,0.0,488.059,9.995348,3.6100998,0.3739249,0.7083288,0.13975441,inf,inf,inf,inf,0,1,0,1,1,2,1,1,0,0,1,1,0,0,1
83876000,83876000,4388000,47.3977508,8.5456073,-4.800391,-7.9081635,-9.848772,-9.449665e-09,3.0882659e-09,0.005554609,0.35537365,-2.979824,0.097517155,0.06344144,-2.3624161e-06,7.720664e-07,0.0010541603,0.81753933,-1.5769732,0.04746392,2.054208,0.0,488.059,9.9785185,3.6573374,0.38346907,0.71837515,0.14163625,inf,inf,inf,inf,0,1,0,1,1,2,1,1,0,0,1,1,0,0,1
84372000,84372000,4388000,47.3977508,8.5456073,-3.7456312,-8.321233,-9.819834,-9.449665e-09,3.0882659e-09,0.005554609,0.9345747,-3.60846,0.1311427,0.09089088,-2.3624161e-06,7.720664e-07,0.0010541603,1.0420172,-1.5920503,0.060046088,2.0593517,0.0,488.059,9.94958,3.583261,0.3939969,0.72078115,0.1437611,inf,inf,inf,inf,0,1,0,1,1,2,1,1,0,0,1,1,0,0,1
