timestamp,data_rate,rate_multiplier,tx_rate_avg,tx_error_rate_avg,tx_message_count,tx_buffer_overruns,rx_rate_avg,rx_message_count,rx_message_lost_count,rx_buffer_overruns,rx_parse_errors,rx_packet_drop_count,rx_message_lost_rate,type,mode,flow_control,forwarding,mavlink_v2,ftp,streams,heartbeat_type_antenna_tracker,heartbeat_type_gcs,heartbeat_type_onboard_controller,heartbeat_type_gimbal,heartbeat_type_adsb,heartbeat_type_camera,heartbeat_type_parachute,heartbeat_type_open_drone_id,heartbeat_component_telemetry_radio,heartbeat_component_log,heartbeat_component_osd,heartbeat_component_obstacle_avoidance,heartbeat_component_vio,heartbeat_component_pairing_manager,heartbeat_component_udp_bridge,heartbeat_component_uart_bridge,avoidance_system_healthy,open_drone_id_system_healthy,parachute_system_healthy
3452000,400000.0,1.0,0.0,0.0,2,0,0.0,0,0,0,0,0,0.0,0,10,0,0,1,1,5,0,0,0,0,0,0,0,0,0,0,0,0,0,0,0,0,0,0,0
4712000,400000.0,1.0,663.3466,0.0,29,0,0.0,0,0,0,0,0,0.0,0,10,0,0,1,1,5,0,0,0,0,0,0,0,0,0,0,0,0,0,0,0,0,0,0,0
5968000,400000.0,1.0,1636.4542,0.0,73,0,0.0,0,0,0,0,0,0.0,0,10,0,0,1,1,5,0,0,0,0,0,0,0,0,0,0,0,0,0,0,0,0,0,0,0
7224000,400000.0,1.0,1432.271,0.0,112,0,0.0,0,0,0,0,0,0.0,0,10,0,0,1,1,5,0,0,0,0,0,0,0,0,0,0,0,0,0,0,0,0,0,0,0
8224000,400000.0,1.0,1458.1674,0.0,143,0,0.0,0,0,0,0,0,0.0,0,10,0,0,1,1,5,0,0,0,0,0,0,0,0,0,0,0,0,0,0,0,0,0,0,0
8480000,400000.0,1.0,1445.2191,0.0,151,0,0.0,0,0,0,0,0,0.0,0,10,0,0,1,1,5,0,0,0,0,0,0,0,0,0,0,0,0,0,0,0,0,0,0,0
9740000,400000.0,1.0,1649.4025,0.0,197,0,0.0,0,0,0,0,0,0.0,0,10,0,0,1,1,5,0,0,0,0,0,0,0,0,0,0,0,0,0,0,0,0,0,0,0
10996000,400000.0,1.0,1432.271,0.0,239,0,0.0,0,0,0,0,0,0.0,0,10,0,0,1,1,5,0,0,0,0,0,0,0,0,0,0,0,0,0,0,0,0,0,0,0
12252000,400000.0,1.0,1576.6932,0.0,277,0,0.0,0,0,0,0,0,0.0,0,10,0,0,1,1,5,0,0,0,0,0,0,0,0,0,0,0,0,0,0,0,0,0,0,0
13252000,400000.0,1.0,1458.1674,0.0,309,0,0.0,0,0,0,0,0,0.0,0,10,0,0,1,1,5,0,0,0,0,0,0,0,0,0,0,0,0,0,0,0,0,0,0,0
13508000,400000.0,1.0,1497.012,0.0,318,0,0.0,0,0,0,0,0,0.0,0,10,0,0,1,1,5,0,0,0,0,0,0,0,0,0,0,0,0,0,0,0,0,0,0,0
14764000,400000.0,1.0,1445.2191,0.0,356,0,0.0,0,0,0,0,0,0.0,0,10,0,0,1,1,5,0,0,0,0,0,0,0,0,0,0,0,0,0,0,0,0,0,0,0
16024000,400000.0,1.0,1458.1674,0.0,395,0,0.0,0,0,0,0,0,0.0,0,10,0,0,1,1,5,0,0,0,0,0,0,0,0,0,0,0,0,0,0,0,0,0,0,0
17280000,400000.0,1.0,1445.2191,0.0,433,0,0.0,0,0,0,0,0,0.0,0,10,0,0,1,1,5,0,0,0,0,0,0,0,0,0,0,0,0,0,0,0,0,0,0,0
18280000,400000.0,1.0,1432.271,0.0,464,0,0.0,0,0,0,0,0,0.0,0,10,0,0,1,1,5,0,0,0,0,0,0,0,0,0,0,0,0,0,0,0,0,0,0,0
18536000,400000.0,1.0,1458.1674,0.0,474,0,0.0,0,0,0,0,0,0.0,0,10,0,0,1,1,5,0,0,0,0,0,0,0,0,0,0,0,0,0,0,0,0,0,0,0
19792000,400000.0,1.0,1445.2191,0.0,512,0,0.0,0,0,0,0,0,0.0,0,10,0,0,1,1,5,0,0,0,0,0,0,0,0,0,0,0,0,0,0,0,0,0,0,0
21052000,400000.0,1.0,1432.271,0.0,551,0,0.0,0,0,0,0,0,0.0,0,10,0,0,1,1,5,0,0,0,0,0,0,0,0,0,0,0,0,0,0,0,0,0,0,0
22308000,400000.0,1.0,1458.1674,0.0,590,0,0.0,0,0,0,0,0,0.0,0,10,0,0,1,1,5,0,0,0,0,0,0,0,0,0,0,0,0,0,0,0,0,0,0,0
23308000,400000.0,1.0,1445.2191,0.0,620,0,0.0,0,0,0,0,0,0.0,0,10,0,0,1,1,5,0,0,0,0,0,0,0,0,0,0,0,0,0,0,0,0,0,0,0
23564000,400000.0,1.0,1445.2191,0.0,629,0,0.0,0,0,0,0,0,0.0,0,10,0,0,1,1,5,0,0,0,0,0,0,0,0,0,0,0,0,0,0,0,0,0,0,0
24820000,400000.0,1.0,1445.2191,0.0,668,0,0.0,0,0,0,0,0,0.0,0,10,0,0,1,1,5,0,0,0,0,0,0,0,0,0,0,0,0,0,0,0,0,0,0,0
26076000,400000.0,1.0,1509.9602,0.0,706,0,0.0,0,0,0,0,0,0.0,0,10,0,0,1,1,5,0,0,0,0,0,0,0,0,0,0,0,0,0,0,0,0,0,0,0
27336000,400000.0,1.0,1445.2191,0.0,745,0,0.0,0,0,0,0,0,0.0,0,10,0,0,1,1,5,0,0,0,0,0,0,0,0,0,0,0,0,0,0,0,0,0,0,0
28336000,400000.0,1.0,1445.2191,0.0,777,0,0.0,0,0,0,0,0,0.0,0,10,0,0,1,1,5,0,0,0,0,0,0,0,0,0,0,0,0,0,0,0,0,0,0,0
28592000,400000.0,1.0,1445.2191,0.0,786,0,0.0,0,0,0,0,0,0.0,0,10,0,0,1,1,5,0,0,0,0,0,0,0,0,0,0,0,0,0,0,0,0,0,0,0
29848000,400000.0,1.0,1445.2191,0.0,824,0,0.0,0,0,0,0,0,0.0,0,10,0,0,1,1,5,0,0,0,0,0,0,0,0,0,0,0,0,0,0,0,0,0,0,0
31104000,400000.0,1.0,1524.9004,0.0,866,0,0.0,0,0,0,0,0,0.0,0,10,0,0,1,1,5,0,0,0,0,0,0,0,0,0,0,0,0,0,0,0,0,0,0,0
32364000,400000.0,1.0,1445.2191,0.0,905,0,0.0,0,0,0,0,0,0.0,0,10,0,0,1,1,5,0,0,0,0,0,0,0,0,0,0,0,0,0,0,0,0,0,0,0
33364000,400000.0,1.0,1470.1195,0.0,936,0,0.0,0,0,0,0,0,0.0,0,10,0,0,1,1,5,0,0,0,0,0,0,0,0,0,0,0,0,0,0,0,0,0,0,0
33620000,400000.0,1.0,1458.1674,0.0,945,0,0.0,0,0,0,0,0,0.0,0,10,0,0,1,1,5,0,0,0,0,0,0,0,0,0,0,0,0,0,0,0,0,0,0,0
34876000,400000.0,1.0,1432.271,0.0,983,0,0.0,0,0,0,0,0,0.0,0,10,0,0,1,1,5,0,0,0,0,0,0,0,0,0,0,0,0,0,0,0,0,0,0,0
36136000,400000.0,1.0,1445.2191,0.0,1022,0,0.0,0,0,0,0,0,0.0,0,10,0,0,1,1,5,0,0,0,0,0,0,0,0,0,0,0,0,0,0,0,0,0,0,0
37392000,400000.0,1.0,1458.1674,0.0,1062,0,0.0,0,0,0,0,0,0.0,0,10,0,0,1,1,5,0,0,0,0,0,0,0,0,0,0,0,0,0,0,0,0,0,0,0
38392000,400000.0,1.0,1432.271,0.0,1092,0,0.0,0,0,0,0,0,0.0,0,10,0,0,1,1,5,0,0,0,0,0,0,0,0,0,0,0,0,0,0,0,0,0,0,0
38648000,400000.0,1.0,1509.9602,0.0,1101,0,0.0,0,0,0,0,0,0.0,0,10,0,0,1,1,5,0,0,0,0,0,0,0,0,0,0,0,0,0,0,0,0,0,0,0
39904000,400000.0,1.0,1458.1674,0.0,1140,0,0.0,0,0,0,0,0,0.0,0,10,0,0,1,1,5,0,0,0,0,0,0,0,0,0,0,0,0,0,0,0,0,0,0,0
41164000,400000.0,1.0,1432.271,0.0,1178,0,0.0,0,0,0,0,0,0.0,0,10,0,0,1,1,5,0,0,0,0,0,0,0,0,0,0,0,0,0,0,0,0,0,0,0
42424000,400000.0,1.0,1445.2191,0.0,1216,0,0.0,0,0,0,0,0,0.0,0,10,0,0,1,1,5,0,0,0,0,0,0,0,0,0,0,0,0,0,0,0,0,0,0,0
43424000,400000.0,1.0,1458.1674,0.0,1254,0,0.0,0,0,0,0,0,0.0,0,10,0,0,1,1,5,0,0,0,0,0,0,0,0,0,0,0,0,0,0,0,0,0,0,0
43680000,400000.0,1.0,1522.9084,0.0,1264,0,0.0,0,0,0,0,0,0.0,0,10,0,0,1,1,5,0,0,0,0,0,0,0,0,0,0,0,0,0,0,0,0,0,0,0
44936000,400000.0,1.0,1497.012,0.0,1306,0,0.0,0,0,0,0,0,0.0,0,10,0,0,1,1,5,0,0,0,0,0,0,0,0,0,0,0,0,0,0,0,0,0,0,0
46196000,400000.0,1.0,1458.1674,0.0,1345,0,0.0,0,0,0,0,0,0.0,0,10,0,0,1,1,5,0,0,0,0,0,0,0,0,0,0,0,0,0,0,0,0,0,0,0
47196000,400000.0,1.0,1432.271,0.0,1376,0,0.0,0,0,0,0,0,0.0,0,10,0,0,1,1,5,0,0,0,0,0,0,0,0,0,0,0,0,0,0,0,0,0,0,0
47452000,400000.0,1.0,1432.271,0.0,1385,0,0.0,0,0,0,0,0,0.0,0,10,0,0,1,1,5,0,0,0,0,0,0,0,0,0,0,0,0,0,0,0,0,0,0,0
48708000,400000.0,1.0,1458.1674,0.0,1424,0,0.0,0,0,0,0,0,0.0,0,10,0,0,1,1,5,0,0,0,0,0,0,0,0,0,0,0,0,0,0,0,0,0,0,0
49964000,400000.0,1.0,1445.2191,0.0,1462,0,0.0,0,0,0,0,0,0.0,0,10,0,0,1,1,5,0,0,0,0,0,0,0,0,0,0,0,0,0,0,0,0,0,0,0
51224000,400000.0,1.0,1497.012,0.0,1500,0,0.0,0,0,0,0,0,0.0,0,10,0,0,1,1,5,0,0,0,0,0,0,0,0,0,0,0,0,0,0,0,0,0,0,0
52224000,400000.0,1.0,1458.1674,0.0,1532,0,0.0,0,0,0,0,0,0.0,0,10,0,0,1,1,5,0,0,0,0,0,0,0,0,0,0,0,0,0,0,0,0,0,0,0
52480000,400000.0,1.0,1458.1674,0.0,1540,0,0.0,0,0,0,0,0,0.0,0,10,0,0,1,1,5,0,0,0,0,0,0,0,0,0,0,0,0,0,0,0,0,0,0,0
53736000,400000.0,1.0,1432.271,0.0,1579,0,0.0,0,0,0,0,0,0.0,0,10,0,0,1,1,5,0,0,0,0,0,0,0,0,0,0,0,0,0,0,0,0,0,0,0
54996000,400000.0,1.0,1458.1674,0.0,1618,0,0.0,0,0,0,0,0,0.0,0,10,0,0,1,1,5,0,0,0,0,0,0,0,0,0,0,0,0,0,0,0,0,0,0,0
56252000,400000.0,1.0,1445.2191,0.0,1656,0,0.0,0,0,0,0,0,0.0,0,10,0,0,1,1,5,0,0,0,0,0,0,0,0,0,0,0,0,0,0,0,0,0,0,0
57252000,400000.0,1.0,1432.271,0.0,1687,0,0.0,0,0,0,0,0,0.0,0,10,0,0,1,1,5,0,0,0,0,0,0,0,0,0,0,0,0,0,0,0,0,0,0,0
57504000,400000.0,1.0,1432.271,0.0,1695,0,0.0,0,0,0,0,0,0.0,0,10,0,0,1,1,5,0,0,0,0,0,0,0,0,0,0,0,0,0,0,0,0,0,0,0
58760000,400000.0,1.0,1445.2191,0.0,1735,0,0.0,0,0,0,0,0,0.0,0,10,0,0,1,1,5,0,0,0,0,0,0,0,0,0,0,0,0,0,0,0,0,0,0,0
60016000,400000.0,1.0,1432.271,0.0,1773,0,0.0,0,0,0,0,0,0.0,0,10,0,0,1,1,5,0,0,0,0,0,0,0,0,0,0,0,0,0,0,0,0,0,0,0
61272000,400000.0,1.0,1458.1674,0.0,1812,0,0.0,0,0,0,0,0,0.0,0,10,0,0,1,1,5,0,0,0,0,0,0,0,0,0,0,0,0,0,0,0,0,0,0,0
62272000,400000.0,1.0,1445.2191,0.0,1842,0,0.0,0,0,0,0,0,0.0,0,10,0,0,1,1,5,0,0,0,0,0,0,0,0,0,0,0,0,0,0,0,0,0,0,0
62532000,400000.0,1.0,1445.2191,0.0,1852,0,0.0,0,0,0,0,0,0.0,0,10,0,0,1,1,5,0,0,0,0,0,0,0,0,0,0,0,0,0,0,0,0,0,0,0
63788000,400000.0,1.0,1522.9084,0.0,1891,0,0.0,0,0,0,0,0,0.0,0,10,0,0,1,1,5,0,0,0,0,0,0,0,0,0,0,0,0,0,0,0,0,0,0,0
65044000,400000.0,1.0,1509.9602,0.0,1937,0,0.0,0,0,0,0,0,0.0,0,10,0,0,1,1,5,0,0,0,0,0,0,0,0,0,0,0,0,0,0,0,0,0,0,0
66304000,400000.0,1.0,1509.9602,0.0,1978,0,0.0,0,0,0,0,0,0.0,0,10,0,0,1,1,5,0,0,0,0,0,0,0,0,0,0,0,0,0,0,0,0,0,0,0
67304000,400000.0,1.0,1458.1674,0.0,2010,0,0.0,0,0,0,0,0,0.0,0,10,0,0,1,1,5,0,0,0,0,0,0,0,0,0,0,0,0,0,0,0,0,0,0,0
67560000,400000.0,1.0,1458.1674,0.0,2018,0,0.0,0,0,0,0,0,0.0,0,10,0,0,1,1,5,0,0,0,0,0,0,0,0,0,0,0,0,0,0,0,0,0,0,0
68816000,400000.0,1.0,1432.271,0.0,2056,0,0.0,0,0,0,0,0,0.0,0,10,0,0,1,1,5,0,0,0,0,0,0,0,0,0,0,0,0,0,0,0,0,0,0,0
70076000,400000.0,1.0,1458.1674,0.0,2096,0,0.0,0,0,0,0,0,0.0,0,10,0,0,1,1,5,0,0,0,0,0,0,0,0,0,0,0,0,0,0,0,0,0,0,0
71332000,400000.0,1.0,1445.2191,0.0,2135,0,0.0,0,0,0,0,0,0.0,0,10,0,0,1,1,5,0,0,0,0,0,0,0,0,0,0,0,0,0,0,0,0,0,0,0
72332000,400000.0,1.0,1432.271,0.0,2165,0,0.0,0,0,0,0,0,0.0,0,10,0,0,1,1,5,0,0,0,0,0,0,0,0,0,0,0,0,0,0,0,0,0,0,0
72588000,400000.0,1.0,1432.271,0.0,2175,0,0.0,0,0,0,0,0,0.0,0,10,0,0,1,1,5,0,0,0,0,0,0,0,0,0,0,0,0,0,0,0,0,0,0,0
73848000,400000.0,1.0,1484.0638,0.0,2217,0,0.0,0,0,0,0,0,0.0,0,10,0,0,1,1,5,0,0,0,0,0,0,0,0,0,0,0,0,0,0,0,0,0,0,0
75104000,400000.0,1.0,1535.8566,0.0,2262,0,0.0,0,0,0,0,0,0.0,0,10,0,0,1,1,5,0,0,0,0,0,0,0,0,0,0,0,0,0,0,0,0,0,0,0
76360000,400000.0,1.0,1522.9084,0.0,2301,0,0.0,0,0,0,0,0,0.0,0,10,0,0,1,1,5,0,0,0,0,0,0,0,0,0,0,0,0,0,0,0,0,0,0,0
77360000,400000.0,1.0,1445.2191,0.0,2332,0,0.0,0,0,0,0,0,0.0,0,10,0,0,1,1,5,0,0,0,0,0,0,0,0,0,0,0,0,0,0,0,0,0,0,0
77616000,400000.0,1.0,1445.2191,0.0,2340,0,0.0,0,0,0,0,0,0.0,0,10,0,0,1,1,5,0,0,0,0,0,0,0,0,0,0,0,0,0,0,0,0,0,0,0
78876000,400000.0,1.0,1445.2191,0.0,2380,0,0.0,0,0,0,0,0,0.0,0,10,0,0,1,1,5,0,0,0,0,0,0,0,0,0,0,0,0,0,0,0,0,0,0,0
80132000,400000.0,1.0,1445.2191,0.0,2419,0,0.0,0,0,0,0,0,0.0,0,10,0,0,1,1,5,0,0,0,0,0,0,0,0,0,0,0,0,0,0,0,0,0,0,0
81388000,400000.0,1.0,1445.2191,0.0,2457,0,0.0,0,0,0,0,0,0.0,0,10,0,0,1,1,5,0,0,0,0,0,0,0,0,0,0,0,0,0,0,0,0,0,0,0
82388000,400000.0,1.0,1445.2191,0.0,2489,0,0.0,0,0,0,0,0,0.0,0,10,0,0,1,1,5,0,0,0,0,0,0,0,0,0,0,0,0,0,0,0,0,0,0,0
82644000,400000.0,1.0,1445.2191,0.0,2497,0,0.0,0,0,0,0,0,0.0,0,10,0,0,1,1,5,0,0,0,0,0,0,0,0,0,0,0,0,0,0,0,0,0,0,0
83900000,400000.0,1.0,1445.2191,0.0,2535,0,0.0,0,0,0,0,0,0.0,0,10,0,0,1,1,5,0,0,0,0,0,0,0,0,0,0,0,0,0,0,0,0,0,0,0
85160000,400000.0,1.0,1458.1674,0.0,2574,0,0.0,0,0,0,0,0,0.0,0,10,0,0,1,1,5,0,0,0,0,0,0,0,0,0,0,0,0,0,0,0,0,0,0,0
86416000,400000.0,1.0,1432.271,0.0,2616,0,0.0,0,0,0,0,0,0.0,0,10,0,0,1,1,5,0,0,0,0,0,0,0,0,0,0,0,0,0,0,0,0,0,0,0
87416000,400000.0,1.0,1548.8048,0.0,2654,0,0.0,0,0,0,0,0,0.0,0,10,0,0,1,1,5,0,0,0,0,0,0,0,0,0,0,0,0,0,0,0,0,0,0,0
87672000,400000.0,1.0,1548.8048,0.0,2664,0,0.0,0,0,0,0,0,0.0,0,10,0,0,1,1,5,0,0,0,0,0,0,0,0,0,0,0,0,0,0,0,0,0,0,0
88932000,400000.0,1.0,1497.012,0.0,2703,0,0.0,0,0,0,0,0,0.0,0,10,0,0,1,1,5,0,0,0,0,0,0,0,0,0,0,0,0,0,0,0,0,0,0,0
90188000,400000.0,1.0,1445.2191,0.0,2741,0,0.0,0,0,0,0,0,0.0,0,10,0,0,1,1,5,0,0,0,0,0,0,0,0,0,0,0,0,0,0,0,0,0,0,0
91188000,400000.0,1.0,1458.1674,0.0,2773,0,0.0,0,0,0,0,0,0.0,0,10,0,0,1,1,5,0,0,0,0,0,0,0,0,0,0,0,0,0,0,0,0,0,0,0
91444000,400000.0,1.0,1458.1674,0.0,2781,0,0.0,0,0,0,0,0,0.0,0,10,0,0,1,1,5,0,0,0,0,0,0,0,0,0,0,0,0,0,0,0,0,0,0,0
92704000,400000.0,1.0,1432.271,0.0,2819,0,0.0,0,0,0,0,0,0.0,0,10,0,0,1,1,5,0,0,0,0,0,0,0,0,0,0,0,0,0,0,0,0,0,0,0
93960000,400000.0,1.0,1458.1674,0.0,2858,0,0.0,0,0,0,0,0,0.0,0,10,0,0,1,1,5,0,0,0,0,0,0,0,0,0,0,0,0,0,0,0,0,0,0,0
95216000,400000.0,1.0,1445.2191,0.0,2897,0,0.0,0,0,0,0,0,0.0,0,10,0,0,1,1,5,0,0,0,0,0,0,0,0,0,0,0,0,0,0,0,0,0,0,0
96216000,400000.0,1.0,1575.6973,0.0,2938,0,0.0,0,0,0,0,0,0.0,0,10,0,0,1,1,5,0,0,0,0,0,0,0,0,0,0,0,0,0,0,0,0,0,0,0
96472000,400000.0,1.0,1575.6973,0.0,2950,0,0.0,0,0,0,0,0,0.0,0,10,0,0,1,1,5,0,0,0,0,0,0,0,0,0,0,0,0,0,0,0,0,0,0,0
97732000,400000.0,1.0,1574.7013,0.0,2992,0,0.0,0,0,0,0,0,0.0,0,10,0,0,1,1,5,0,0,0,0,0,0,0,0,0,0,0,0,0,0,0,0,0,0,0
98988000,400000.0,1.0,1432.271,0.0,3030,0,0.0,0,0,0,0,0,0.0,0,10,0,0,1,1,5,0,0,0,0,0,0,0,0,0,0,0,0,0,0,0,0,0,0,0
100244000,400000.0,1.0,1458.1674,0.0,3069,0,0.0,0,0,0,0,0,0.0,0,10,0,0,1,1,5,0,0,0,0,0,0,0,0,0,0,0,0,0,0,0,0,0,0,0
101244000,400000.0,1.0,1509.9602,0.0,3100,0,0.0,0,0,0,0,0,0.0,0,10,0,0,1,1,5,0,0,0,0,0,0,0,0,0,0,0,0,0,0,0,0,0,0,0
101504000,400000.0,1.0,1509.9602,0.0,3108,0,0.0,0,0,0,0,0,0.0,0,10,0,0,1,1,5,0,0,0,0,0,0,0,0,0,0,0,0,0,0,0,0,0,0,0
102760000,400000.0,1.0,1432.271,0.0,3147,0,0.0,0,0,0,0,0,0.0,0,10,0,0,1,1,5,0,0,0,0,0,0,0,0,0,0,0,0,0,0,0,0,0,0,0
104016000,400000.0,1.0,1445.2191,0.0,3186,0,0.0,0,0,0,0,0,0.0,0,10,0,0,1,1,5,0,0,0,0,0,0,0,0,0,0,0,0,0,0,0,0,0,0,0
105272000,400000.0,1.0,1445.2191,0.0,3224,0,0.0,0,0,0,0,0,0.0,0,10,0,0,1,1,5,0,0,0,0,0,0,0,0,0,0,0,0,0,0,0,0,0,0,0
106272000,400000.0,1.0,1445.2191,0.0,3255,0,0.0,0,0,0,0,0,0.0,0,10,0,0,1,1,5,0,0,0,0,0,0,0,0,0,0,0,0,0,0,0,0,0,0,0
106528000,400000.0,1.0,1445.2191,0.0,3265,0,0.0,0,0,0,0,0,0.0,0,10,0,0,1,1,5,0,0,0,0,0,0,0,0,0,0,0,0,0,0,0,0,0,0,0
107788000,400000.0,1.0,1475.0996,0.0,3304,0,0.0,0,0,0,0,0,0.0,0,10,0,0,1,1,5,0,0,0,0,0,0,0,0,0,0,0,0,0,0,0,0,0,0,0
109044000,400000.0,1.0,1445.2191,0.0,3343,0,0.0,0,0,0,0,0,0.0,0,10,0,0,1,1,5,0,0,0,0,0,0,0,0,0,0,0,0,0,0,0,0,0,0,0
110300000,400000.0,1.0,1445.2191,0.0,3381,0,0.0,0,0,0,0,0,0.0,0,10,0,0,1,1,5,0,0,0,0,0,0,0,0,0,0,0,0,0,0,0,0,0,0,0
111300000,400000.0,1.0,1445.2191,0.0,3412,0,0.0,0,0,0,0,0,0.0,0,10,0,0,1,1,5,0,0,0,0,0,0,0,0,0,0,0,0,0,0,0,0,0,0,0
111560000,400000.0,1.0,1445.2191,0.0,3420,0,0.0,0,0,0,0,0,0.0,0,10,0,0,1,1,5,0,0,0,0,0,0,0,0,0,0,0,0,0,0,0,0,0,0,0
112816000,400000.0,1.0,1445.2191,0.0,3459,0,0.0,0,0,0,0,0,0.0,0,10,0,0,1,1,5,0,0,0,0,0,0,0,0,0,0,0,0,0,0,0,0,0,0,0
114072000,400000.0,1.0,1509.9602,0.0,3498,0,0.0,0,0,0,0,0,0.0,0,10,0,0,1,1,5,0,0,0,0,0,0,0,0,0,0,0,0,0,0,0,0,0,0,0
115328000,400000.0,1.0,1458.1674,0.0,3537,0,0.0,0,0,0,0,0,0.0,0,10,0,0,1,1,5,0,0,0,0,0,0,0,0,0,0,0,0,0,0,0,0,0,0,0
116328000,400000.0,1.0,1432.271,0.0,3567,0,0.0,0,0,0,0,0,0.0,0,10,0,0,1,1,5,0,0,0,0,0,0,0,0,0,0,0,0,0,0,0,0,0,0,0
116588000,400000.0,1.0,1432.271,0.0,3577,0,0.0,0,0,0,0,0,0.0,0,10,0,0,1,1,5,0,0,0,0,0,0,0,0,0,0,0,0,0,0,0,0,0,0,0
117844000,400000.0,1.0,1445.2191,0.0,3616,0,0.0,0,0,0,0,0,0.0,0,10,0,0,1,1,5,0,0,0,0,0,0,0,0,0,0,0,0,0,0,0,0,0,0,0
119104000,400000.0,1.0,1462.1515,0.0,3655,0,0.0,0,0,0,0,0,0.0,0,10,0,0,1,1,5,0,0,0,0,0,0,0,0,0,0,0,0,0,0,0,0,0,0,0
120360000,400000.0,1.0,1445.2191,0.0,3693,0,0.0,0,0,0,0,0,0.0,0,10,0,0,1,1,5,0,0,0,0,0,0,0,0,0,0,0,0,0,0,0,0,0,0,0
121360000,400000.0,1.0,1458.1674,0.0,3725,0,0.0,0,0,0,0,0,0.0,0,10,0,0,1,1,5,0,0,0,0,0,0,0,0,0,0,0,0,0,0,0,0,0,0,0
121616000,400000.0,1.0,1458.1674,0.0,3733,0,0.0,0,0,0,0,0,0.0,0,10,0,0,1,1,5,0,0,0,0,0,0,0,0,0,0,0,0,0,0,0,0,0,0,0
122876000,400000.0,1.0,1432.271,0.0,3772,0,0.0,0,0,0,0,0,0.0,0,10,0,0,1,1,5,0,0,0,0,0,0,0,0,0,0,0,0,0,0,0,0,0,0,0
124132000,400000.0,1.0,1458.1674,0.0,3812,0,0.0,0,0,0,0,0,0.0,0,10,0,0,1,1,5,0,0,0,0,0,0,0,0,0,0,0,0,0,0,0,0,0,0,0
125388000,400000.0,1.0,1432.271,0.0,3850,0,0.0,0,0,0,0,0,0.0,0,10,0,0,1,1,5,0,0,0,0,0,0,0,0,0,0,0,0,0,0,0,0,0,0,0
126388000,400000.0,1.0,1509.9602,0.0,3881,0,0.0,0,0,0,0,0,0.0,0,10,0,0,1,1,5,0,0,0,0,0,0,0,0,0,0,0,0,0,0,0,0,0,0,0
126644000,400000.0,1.0,1509.9602,0.0,3890,0,0.0,0,0,0,0,0,0.0,0,10,0,0,1,1,5,0,0,0,0,0,0,0,0,0,0,0,0,0,0,0,0,0,0,0
127904000,400000.0,1.0,1458.1674,0.0,3928,0,0.0,0,0,0,0,0,0.0,0,10,0,0,1,1,5,0,0,0,0,0,0,0,0,0,0,0,0,0,0,0,0,0,0,0
129160000,400000.0,1.0,1445.2191,0.0,3966,0,0.0,0,0,0,0,0,0.0,0,10,0,0,1,1,5,0,0,0,0,0,0,0,0,0,0,0,0,0,0,0,0,0,0,0
130416000,400000.0,1.0,1458.1674,0.0,4005,0,0.0,0,0,0,0,0,0.0,0,10,0,0,1,1,5,0,0,0,0,0,0,0,0,0,0,0,0,0,0,0,0,0,0,0
131416000,400000.0,1.0,1445.2191,0.0,4036,0,0.0,0,0,0,0,0,0.0,0,10,0,0,1,1,5,0,0,0,0,0,0,0,0,0,0,0,0,0,0,0,0,0,0,0
131672000,400000.0,1.0,1445.2191,0.0,4045,0,0.0,0,0,0,0,0,0.0,0,10,0,0,1,1,5,0,0,0,0,0,0,0,0,0,0,0,0,0,0,0,0,0,0,0
132932000,400000.0,1.0,1432.271,0.0,4086,0,0.0,0,0,0,0,0,0.0,0,10,0,0,1,1,5,0,0,0,0,0,0,0,0,0,0,0,0,0,0,0,0,0,0,0
134188000,400000.0,1.0,1445.2191,0.0,4124,0,0.0,0,0,0,0,0,0.0,0,10,0,0,1,1,5,0,0,0,0,0,0,0,0,0,0,0,0,0,0,0,0,0,0,0
135188000,400000.0,1.0,1432.271,0.0,4155,0,0.0,0,0,0,0,0,0.0,0,10,0,0,1,1,5,0,0,0,0,0,0,0,0,0,0,0,0,0,0,0,0,0,0,0
135444000,400000.0,1.0,1432.271,0.0,4163,0,0.0,0,0,0,0,0,0.0,0,10,0,0,1,1,5,0,0,0,0,0,0,0,0,0,0,0,0,0,0,0,0,0,0,0
136704000,400000.0,1.0,1458.1674,0.0,4202,0,0.0,0,0,0,0,0,0.0,0,10,0,0,1,1,5,0,0,0,0,0,0,0,0,0,0,0,0,0,0,0,0,0,0,0
137960000,400000.0,1.0,1445.2191,0.0,4240,0,0.0,0,0,0,0,0,0.0,0,10,0,0,1,1,5,0,0,0,0,0,0,0,0,0,0,0,0,0,0,0,0,0,0,0
139216000,400000.0,1.0,1522.9084,0.0,4279,0,0.0,0,0,0,0,0,0.0,0,10,0,0,1,1,5,0,0,0,0,0,0,0,0,0,0,0,0,0,0,0,0,0,0,0
140216000,400000.0,1.0,1445.2191,0.0,4310,0,0.0,0,0,0,0,0,0.0,0,10,0,0,1,1,5,0,0,0,0,0,0,0,0,0,0,0,0,0,0,0,0,0,0,0
140476000,400000.0,1.0,1445.2191,0.0,4319,0,0.0,0,0,0,0,0,0.0,0,10,0,0,1,1,5,0,0,0,0,0,0,0,0,0,0,0,0,0,0,0,0,0,0,0
141732000,400000.0,1.0,1445.2191,0.0,4359,0,0.0,0,0,0,0,0,0.0,0,10,0,0,1,1,5,0,0,0,0,0,0,0,0,0,0,0,0,0,0,0,0,0,0,0
142988000,400000.0,1.0,1445.2191,0.0,4397,0,0.0,0,0,0,0,0,0.0,0,10,0,0,1,1,5,0,0,0,0,0,0,0,0,0,0,0,0,0,0,0,0,0,0,0
144244000,400000.0,1.0,1445.2191,0.0,4435,0,0.0,0,0,0,0,0,0.0,0,10,0,0,1,1,5,0,0,0,0,0,0,0,0,0,0,0,0,0,0,0,0,0,0,0
145244000,400000.0,1.0,1445.2191,0.0,4467,0,0.0,0,0,0,0,0,0.0,0,10,0,0,1,1,5,0,0,0,0,0,0,0,0,0,0,0,0,0,0,0,0,0,0,0
145504000,400000.0,1.0,1445.2191,0.0,4475,0,0.0,0,0,0,0,0,0.0,0,10,0,0,1,1,5,0,0,0,0,0,0,0,0,0,0,0,0,0,0,0,0,0,0,0
146760000,400000.0,1.0,1445.2191,0.0,4514,0,0.0,0,0,0,0,0,0.0,0,10,0,0,1,1,5,0,0,0,0,0,0,0,0,0,0,0,0,0,0,0,0,0,0,0
148020000,400000.0,1.0,1445.2191,0.0,4553,0,0.0,0,0,0,0,0,0.0,0,10,0,0,1,1,5,0,0,0,0,0,0,0,0,0,0,0,0,0,0,0,0,0,0,0
149276000,400000.0,1.0,1913.3467,0.0,4604,0,0.0,0,0,0,0,0,0.0,0,10,0,0,1,1,5,0,0,0,0,0,0,0,0,0,0,0,0,0,0,0,0,0,0,0
