timestamp,roll,pitch,yaw,thrust_body[0],thrust_body[1],thrust_body[2],reset_integral
4564000,0.12808678,0.15249477,0.00074642897,0.0,0.0,-0.001,0
4568000,0.12815602,0.15248178,0.00070512295,0.0,0.0,-0.001,0
4580000,0.12854123,0.15263464,0.000787735,0.0,0.0,-0.001,0
4604000,0.12897982,0.1528654,0.0006750822,0.0,0.0,-0.001,0
4620000,0.12913676,0.15327807,0.00072056055,0.0,0.0,-0.001,0
4640000,0.12929371,0.15356115,0.0007080436,0.0,0.0,-0.001,0
4664000,0.12943053,0.15376256,0.00069719553,0.0,0.0,-0.001,0
4684000,0.1295892,0.15385391,0.00061917305,0.0,0.0,-0.001,0
4704000,0.1295672,0.15353301,0.0006596446,0.0,0.0,-0.001,0
4724000,0.12968196,0.15361081,0.0005862117,0.0,0.0,-0.001,0
4744000,0.1297111,0.1534625,0.00059497356,0.0,0.0,-0.001,0
4764000,0.12971519,0.15335979,0.00053572655,0.0,0.0,-0.001,0
4784000,0.12968522,0.15321518,0.00061541796,0.0,0.0,-0.001,0
4804000,0.12967911,0.15299767,0.0005457401,0.0,0.0,-0.001,0
4820000,0.12965517,0.152872,0.0004284978,0.0,0.0,-0.001,0
4844000,0.12955296,0.15320167,0.0005373955,0.0,0.0,-0.001,0
4860000,0.12972748,0.15319955,0.00054448843,0.0,0.0,-0.001,0
4884000,0.12969685,0.15311787,0.0005732775,0.0,0.0,-0.001,0
4900000,0.1293531,0.15240002,0.00061917305,0.0,0.0,-0.001,0
4924000,0.12892306,0.15157369,0.0005607605,0.0,0.0,-0.001,0
4940000,0.12851335,0.15083219,0.00062668324,0.0,0.0,-0.001,0
4964000,0.12771457,0.1499368,0.00071054697,0.0,0.0,-0.001,0
4984000,0.12688981,0.14909197,0.0006700754,0.0,0.0,-0.001,0
5004000,0.12582803,0.14872666,0.00073474646,0.0,0.0,-0.001,0
5020000,0.12525247,0.14825392,0.0006763339,0.0,0.0,-0.001,0
5044000,0.12430616,0.14754766,0.00061792135,0.0,0.0,-0.001,0
5064000,0.12364219,0.14721875,0.0005953908,0.0,0.0,-0.001,0
5084000,0.123312786,0.1470303,0.0005373955,0.0,0.0,-0.001,0
5100000,0.12267682,0.14671555,0.0005457401,0.0,0.0,-0.001,0
5124000,0.12108149,0.14602897,0.0004852414,0.0,0.0,-0.001,0
5140000,0.1204818,0.1452686,0.00049066544,0.0,0.0,-0.001,0
5164000,0.119091295,0.14453007,0.00039470196,0.0,0.0,-0.001,0
5180000,0.1183849,0.14405699,0.0003851056,0.0,0.0,-0.001,0
5204000,0.11718194,0.14332205,0.0004723072,0.0,0.0,-0.001,0
5220000,0.11639327,0.14277856,0.0004017949,0.0,0.0,-0.001,0
5244000,0.11541048,0.14210352,0.00040096045,0.0,0.0,-0.001,0
5264000,0.114851646,0.14178072,0.0005373955,0.0,0.0,-0.001,0
5284000,0.1141715,0.14173596,0.0005119443,0.0,0.0,-0.001,0
5300000,0.11388179,0.14157242,0.0005373955,0.0,0.0,-0.001,0
5320000,0.11359792,0.141124,0.0005415678,0.0,0.0,-0.001,0
5344000,0.11329017,0.14076756,0.00056284666,0.0,0.0,-0.001,0
5364000,0.113154,0.14052427,0.0005428195,0.0,0.0,-0.001,0
5380000,0.11293767,0.14052604,0.0005144477,0.0,0.0,-0.001,0
5404000,0.11284024,0.14030133,0.0005736947,0.0,0.0,-0.001,0
5420000,0.11261038,0.14025685,0.00054991245,0.0,0.0,-0.001,0
5444000,0.11271611,0.14003222,0.0004698038,0.0,0.0,-0.001,0
5460000,0.112413414,0.13996547,0.00048565865,0.0,0.0,-0.001,0
5480000,0.11214868,0.13996221,0.0005841255,0.0,0.0,-0.001,0
5500000,0.11196483,0.13981026,0.00057661533,0.0,0.0,-0.001,0
5524000,0.11175129,0.13951184,0.0005156994,0.0,0.0,-0.001,0
5540000,0.11188013,0.13928446,0.00043308735,0.0,0.0,-0.001,0
5560000,0.112091616,0.13922699,0.00051778555,0.0,0.0,-0.001,0
5584000,0.11207205,0.13905421,0.0005286336,0.0,0.0,-0.001,0
5604000,0.11220091,0.13879545,0.00046813488,0.0,0.0,-0.001,0
5624000,0.112253614,0.13853139,0.00055491924,0.0,0.0,-0.001,0
5644000,0.11246054,0.13835149,0.00054365396,0.0,0.0,-0.001,0
5664000,0.11274765,0.13830657,0.0005557537,0.0,0.0,-0.001,0
5684000,0.11289162,0.13811322,0.0006663203,0.0,0.0,-0.001,0
5700000,0.11287968,0.13781531,0.000662148,0.0,0.0,-0.001,0
5720000,0.112984024,0.1375469,0.0005791187,0.0,0.0,-0.001,0
5740000,0.11330425,0.13738188,0.0005966425,0.0,0.0,-0.001,0
5764000,0.11381021,0.13701524,0.00059330463,0.0,0.0,-0.001,0
5784000,0.11442462,0.13711256,0.0005478263,0.0,0.0,-0.001,0
5804000,0.114826865,0.13708295,0.00063169,0.0,0.0,-0.001,0
5820000,0.11540216,0.13699272,0.0005624294,0.0,0.0,-0.001,0
5844000,0.11589899,0.13686593,0.00053071976,0.0,0.0,-0.001,0
5864000,0.11642558,0.1366505,0.0005040169,0.0,0.0,-0.001,0
5884000,0.11672193,0.13626382,0.0004351735,0.0,0.0,-0.001,0
5900000,0.11688765,0.13609205,0.000477314,0.0,0.0,-0.001,0
5924000,0.11712762,0.13621725,0.0004376769,0.0,0.0,-0.001,0
5940000,0.117502235,0.13617684,0.00046104193,0.0,0.0,-0.001,0
5964000,0.11799178,0.13600494,0.00047773123,0.0,0.0,-0.001,0
5980000,0.11828291,0.13608162,0.0004105568,0.0,0.0,-0.001,0
6004000,0.11892621,0.13579398,0.00050902367,0.0,0.0,-0.001,0
6020000,0.119041845,0.13598426,0.0005173683,0.0,0.0,-0.001,0
6040000,0.119019754,0.13617931,0.00053322315,0.0,0.0,-0.001,0
6060000,0.119139455,0.13632727,0.00052404404,0.0,0.0,-0.001,0
6084000,0.11920423,0.13611561,0.0005315542,0.0,0.0,-0.001,0
6104000,0.11918786,0.13587786,0.0004927516,0.0,0.0,-0.001,0
6120000,0.11917868,0.1357461,0.00051903725,0.0,0.0,-0.001,0
6144000,0.11946606,0.13567,0.0005069375,0.0,0.0,-0.001,0
6164000,0.1198437,0.13567984,0.0004531145,0.0,0.0,-0.001,0
6180000,0.11988655,0.13553405,0.0004927516,0.0,0.0,-0.001,0
6200000,0.11983289,0.13565728,0.0004981756,0.0,0.0,-0.001,0
6220000,0.11991231,0.13570505,0.0004698038,0.0,0.0,-0.001,0
6240000,0.11986117,0.13551822,0.0005303025,0.0,0.0,-0.001,0
6260000,0.119854204,0.13543232,0.00059330463,0.0,0.0,-0.001,0
6280000,0.12001669,0.13555166,0.00058954954,0.0,0.0,-0.001,0
6300000,0.11981315,0.13544664,0.00061416626,0.0,0.0,-0.001,0
6320000,0.119728245,0.13532527,0.00055992603,0.0,0.0,-0.001,0
6340000,0.11992125,0.13510083,0.0006300211,0.0,0.0,-0.001,0
6360000,0.119871795,0.13518657,0.0005532503,0.0,0.0,-0.001,0
6380000,0.11963918,0.13509506,0.0006058216,0.0,0.0,-0.001,0
6404000,0.119453385,0.13538432,0.00037801266,0.0,0.0,-0.001,0
6420000,0.119321465,0.13529053,0.0005015135,0.0,0.0,-0.001,0
6444000,0.118974365,0.13515644,0.00042808056,0.0,0.0,-0.001,0
6464000,0.11880334,0.13554607,0.00044727325,0.0,0.0,-0.001,0
6484000,0.118621826,0.13542935,0.0004889965,0.0,0.0,-0.001,0
6504000,0.118620895,0.13553065,0.00049734116,0.0,0.0,-0.001,0
6524000,0.118563674,0.13570578,0.00045979023,0.0,0.0,-0.001,0
6540000,0.11846441,0.13559765,0.00043433905,0.0,0.0,-0.001,0
6560000,0.11828581,0.13556619,0.0004581213,0.0,0.0,-0.001,0
6580000,0.11815267,0.13546957,0.00050860643,0.0,0.0,-0.001,0
6604000,0.11800176,0.13580115,0.0004698038,0.0,0.0,-0.001,0
6620000,0.11783433,0.13577186,0.00048732758,0.0,0.0,-0.001,0
6644000,0.117711015,0.13563569,0.00045228004,0.0,0.0,-0.001,0
6660000,0.11769031,0.13547745,0.000423491,0.0,0.0,-0.001,0
6684000,0.11762279,0.13554049,0.0005148649,0.0,0.0,-0.001,0
6704000,0.11735284,0.1356492,0.0005065203,0.0,0.0,-0.001,0
6724000,0.117153704,0.13558882,0.00048482418,0.0,0.0,-0.001,0
6740000,0.117084794,0.13547438,0.00046354532,0.0,0.0,-0.001,0
6764000,0.11655866,0.13540718,0.0005373955,0.0,0.0,-0.001,0
6780000,0.11639195,0.13549598,0.0005303025,0.0,0.0,-0.001,0
6804000,0.11632144,0.13565072,0.00032877922,0.0,0.0,-0.001,0
6820000,0.11610341,0.13599294,0.00025576353,0.0,0.0,-0.001,0
6844000,0.115908995,0.13628347,0.00033795834,0.0,0.0,-0.001,0
6860000,0.115623444,0.13632831,0.00033086538,0.0,0.0,-0.001,0
6884000,0.11560905,0.13648218,0.00039178133,0.0,0.0,-0.001,0
6904000,0.115544684,0.13672777,0.00048607588,0.0,0.0,-0.001,0
6924000,0.11513252,0.13663697,0.00041472912,0.0,0.0,-0.001,0
6944000,0.11495077,0.13670903,0.00032669306,0.0,0.0,-0.001,0
6964000,0.11485408,0.1366115,5.5491924e-05,0.0,0.0,-0.001,0
6984000,0.11477739,0.13675657,0.00030624866,0.0,0.0,-0.001,0
7004000,0.1146873,0.13693923,0.00018566847,0.0,0.0,-0.001,0
7024000,0.11462609,0.13714361,0.00035506487,0.0,0.0,-0.001,0
7044000,0.11440631,0.13723168,0.0002015233,0.0,0.0,-0.001,0
7064000,0.114320755,0.13725032,0.0003784299,0.0,0.0,-0.001,0
7084000,0.11421189,0.13754374,0.00017231703,0.0,0.0,-0.001,0
7100000,0.11444338,0.13768491,0.00018775463,0.0,0.0,-0.001,0
7124000,0.11426587,0.13813156,0.00028789043,0.0,0.0,-0.001,0
7140000,0.11425179,0.13819952,0.00026369095,0.0,0.0,-0.001,0
7164000,0.11422711,0.13819432,0.00038093328,0.0,0.0,-0.001,0
7180000,0.11425027,0.13814443,0.0005119443,0.0,0.0,-0.001,0
7204000,0.1141257,0.13830991,0.00048148632,0.0,0.0,-0.001,0
7220000,0.114040226,0.13847822,0.00047898293,0.0,0.0,-0.001,0
7244000,0.11433592,0.13855302,0.00047022104,0.0,0.0,-0.001,0
7264000,0.114575155,0.13861243,0.00053948164,0.0,0.0,-0.001,0
7284000,0.11482184,0.13873896,0.0005465746,0.0,0.0,-0.001,0
7300000,0.11471657,0.1386816,0.00060248375,0.0,0.0,-0.001,0
7324000,0.11458536,0.1383953,0.0005707741,0.0,0.0,-0.001,0
7344000,0.114474595,0.13857159,0.0005595088,0.0,0.0,-0.001,0
7364000,0.11464815,0.138629,0.00057786703,0.0,0.0,-0.001,0
7380000,0.11467178,0.13823414,0.0006058216,0.0,0.0,-0.001,0
7404000,0.1148708,0.13832757,0.00058829784,0.0,0.0,-0.001,0
7420000,0.11518069,0.1383653,0.00062167645,0.0,0.0,-0.001,0
7444000,0.11491724,0.1384621,0.0006016493,0.0,0.0,-0.001,0
7464000,0.114790395,0.13863726,0.00055491924,0.0,0.0,-0.001,0
7484000,0.11478565,0.13844669,0.0005565882,0.0,0.0,-0.001,0
7500000,0.11480369,0.13823977,0.0005056858,0.0,0.0,-0.001,0
7524000,0.11481786,0.13825224,0.0005044341,0.0,0.0,-0.001,0
7540000,0.11500301,0.13846566,0.00051862,0.0,0.0,-0.001,0
7564000,0.115161516,0.13856882,0.00047314167,0.0,0.0,-0.001,0
7584000,0.11538136,0.13872012,0.0005119443,0.0,0.0,-0.001,0
7604000,0.115675636,0.13884641,0.00049066544,0.0,0.0,-0.001,0
7624000,0.115925744,0.13901748,0.0005398989,0.0,0.0,-0.001,0
7644000,0.116146326,0.13918853,0.0005194545,0.0,0.0,-0.001,0
7660000,0.11608075,0.13939375,0.00054240227,0.0,0.0,-0.001,0
7684000,0.11665116,0.13946986,0.00053447485,0.0,0.0,-0.001,0
7700000,0.11704839,0.13938084,0.00056535006,0.0,0.0,-0.001,0
7724000,0.11728198,0.13906954,0.0005812049,0.0,0.0,-0.001,0
7744000,0.11721489,0.1390574,0.00055783987,0.0,0.0,-0.001,0
7764000,0.11732298,0.13904181,0.0005482435,0.0,0.0,-0.001,0
7780000,0.11725482,0.13894904,0.0006304383,0.0,0.0,-0.001,0
7804000,0.11736709,0.13902633,0.0006788373,0.0,0.0,-0.001,0
7824000,0.117839955,0.13891798,0.0006045699,0.0,0.0,-0.001,0
7844000,0.117862344,0.13855313,0.0006304383,0.0,0.0,-0.001,0
7864000,0.118061,0.13832594,0.000638783,0.0,0.0,-0.001,0
7884000,0.11838129,0.1381307,0.0007122159,0.0,0.0,-0.001,0
7900000,0.11851321,0.13835633,0.0006200075,0.0,0.0,-0.001,0
7924000,0.11868293,0.13814425,0.0007072091,0.0,0.0,-0.001,0
7944000,0.11873021,0.13805535,0.00076812506,0.0,0.0,-0.001,0
7964000,0.118844256,0.13812374,0.0009804964,0.0,0.0,-0.001,0
7984000,0.11870398,0.13812196,0.0007556081,0.0,0.0,-0.001,0
8004000,0.11840072,0.13788101,0.0009980202,0.0,0.0,-0.001,0
8020000,0.11854339,0.13766307,0.0008920431,0.0,0.0,-0.001,0
8044000,0.1185389,0.13756613,0.000888288,0.0,0.0,-0.001,0
8064000,0.11850023,0.13755266,0.00066131353,0.0,0.0,-0.001,0
8084000,0.11872527,0.13743243,0.0008202791,0.0,0.0,-0.001,0
8104000,0.11867866,0.13748054,0.0006592274,0.0,0.0,-0.001,0
8124000,0.11867303,0.13754676,0.0006596446,0.0,0.0,-0.001,0
8140000,0.11866991,0.13748628,0.0005878806,0.0,0.0,-0.001,0
8164000,0.11883024,0.13746926,0.0005887151,0.0,0.0,-0.001,0
8180000,0.1188797,0.1373558,0.0006003976,0.0,0.0,-0.001,0
8200000,0.11893741,0.137325,0.0005828738,0.0,0.0,-0.001,0
8224000,0.11895608,0.13699998,0.000531137,0.0,0.0,-0.001,0
8244000,0.11886494,0.13700059,0.0004990101,0.0,0.0,-0.001,0
8264000,0.118963756,0.13670367,0.0005273819,0.0,0.0,-0.001,0
8284000,0.118958004,0.13670255,0.00047314167,0.0,0.0,-0.001,0
8300000,0.11888931,0.13659848,0.00050109625,0.0,0.0,-0.001,0
8324000,0.11898005,0.13626264,0.00047814846,0.0,0.0,-0.001,0
8340000,0.11909806,0.13630122,0.000500679,0.0,0.0,-0.001,0
8364000,0.118812785,0.1365059,0.0007430911,0.0,0.0,-0.001,0
8384000,0.118812926,0.13633381,0.0006200075,0.0,0.0,-0.001,0
8404000,0.118743636,0.13608052,0.00073224306,0.0,0.0,-0.001,0
8420000,0.11878654,0.13592032,0.000662148,0.0,0.0,-0.001,0
8444000,0.11893229,0.13575816,0.00069218874,0.0,0.0,-0.001,0
8460000,0.118764654,0.1356771,0.0006517172,0.0,0.0,-0.001,0
8484000,0.11896348,0.13583738,0.0005745292,0.0,0.0,-0.001,0
8500000,0.11897208,0.13577615,0.00055783987,0.0,0.0,-0.001,0
8520000,0.118674174,0.13551821,0.00044935942,0.0,0.0,-0.001,0
8540000,0.11829391,0.13528223,0.0003721714,0.0,0.0,-0.001,0
8564000,0.11808793,0.13522163,0.00033795834,0.0,0.0,-0.001,0
8580000,0.117933534,0.13526213,0.0003734231,0.0,0.0,-0.001,0
8604000,0.11775902,0.13536035,0.00038343668,0.0,0.0,-0.001,0
8624000,0.1178494,0.1353552,0.00044685602,0.0,0.0,-0.001,0
8644000,0.117655054,0.13529389,0.0003684163,0.0,0.0,-0.001,0
8660000,0.117653385,0.13517725,0.0005711913,0.0,0.0,-0.001,0
8684000,0.11767206,0.13519959,0.0006045699,0.0,0.0,-0.001,0
8700000,0.11754229,0.13502789,0.0005736947,0.0,0.0,-0.001,0
8724000,0.11759025,0.13502514,0.0005874634,0.0,0.0,-0.001,0
8744000,0.117343515,0.13486575,0.00054866076,0.0,0.0,-0.001,0
8760000,0.11723943,0.13481577,0.0005515814,0.0,0.0,-0.001,0
8784000,0.11705814,0.13482355,0.0005211234,0.0,0.0,-0.001,0
8800000,0.116903424,0.13485497,0.0004981756,0.0,0.0,-0.001,0
8820000,0.11677684,0.13497965,0.00046563148,0.0,0.0,-0.001,0
8840000,0.116960764,0.13525887,0.00050109625,0.0,0.0,-0.001,0
8864000,0.11680592,0.13553764,0.00050777197,0.0,0.0,-0.001,0
8880000,0.11673446,0.13547698,0.00048357248,0.0,0.0,-0.001,0
8900000,0.11676491,0.13534354,0.00051152706,0.0,0.0,-0.001,0
8924000,0.116815686,0.135213,0.0004464388,0.0,0.0,-0.001,0
8940000,0.11683781,0.13533016,0.00035089254,0.0,0.0,-0.001,0
8960000,0.116759196,0.13519743,0.00045728683,0.0,0.0,-0.001,0
8984000,0.11682376,0.13504893,0.00048357248,0.0,0.0,-0.001,0
9004000,0.116793655,0.13504691,0.00040137768,0.0,0.0,-0.001,0
9024000,0.11679023,0.13507362,0.00048273802,0.0,0.0,-0.001,0
9044000,0.116643496,0.13506395,0.00042891502,0.0,0.0,-0.001,0
9060000,0.11664448,0.13469587,0.00041931868,0.0,0.0,-0.001,0
9084000,0.116546094,0.13486359,0.00057661533,0.0,0.0,-0.001,0
9104000,0.116326615,0.13485858,0.0005565882,0.0,0.0,-0.001,0
9124000,0.11647761,0.13487753,0.00062835217,0.0,0.0,-0.001,0
9144000,0.116491884,0.13482606,0.00055783987,0.0,0.0,-0.001,0
9164000,0.116329126,0.1347794,0.0005453229,0.0,0.0,-0.001,0
9184000,0.11613046,0.1347549,0.0005507469,0.0,0.0,-0.001,0
9204000,0.11628579,0.13444862,0.0005528331,0.0,0.0,-0.001,0
9224000,0.11648976,0.13434125,0.00046771765,0.0,0.0,-0.001,0
9244000,0.11635286,0.13416643,0.00044810772,0.0,0.0,-0.001,0
9260000,0.116480656,0.1341718,0.00042015314,0.0,0.0,-0.001,0
9284000,0.116452046,0.13396418,0.00039178133,0.0,0.0,-0.001,0
9304000,0.11645142,0.13380568,0.00044184923,0.0,0.0,-0.001,0
9320000,0.116413064,0.13356684,0.00049066544,0.0,0.0,-0.001,0
9344000,0.116640955,0.13388865,0.0005052686,0.0,0.0,-0.001,0
9360000,0.11668161,0.13422063,0.0005052686,0.0,0.0,-0.001,0
9380000,0.11656056,0.13433027,0.0005711913,0.0,0.0,-0.001,0
9404000,0.116571,0.13422887,0.0005816221,0.0,0.0,-0.001,0
9424000,0.11645551,0.13419174,0.0005386472,0.0,0.0,-0.001,0
9444000,0.11636196,0.13412018,0.00047814846,0.0,0.0,-0.001,0
9464000,0.116184905,0.13431767,0.000554502,0.0,0.0,-0.001,0
9484000,0.11587692,0.13429967,0.00054073334,0.0,0.0,-0.001,0
9500000,0.115826204,0.13444957,0.0005044341,0.0,0.0,-0.001,0
9524000,0.115879945,0.13421182,0.0007622838,0.0,0.0,-0.001,0
9540000,0.11590116,0.13434397,0.00074768066,0.0,0.0,-0.001,0
9564000,0.11601454,0.13456525,0.00066673756,0.0,0.0,-0.001,0
9580000,0.115983605,0.13475001,0.00068092346,0.0,0.0,-0.001,0
9604000,0.11593645,0.13440621,0.00059205294,0.0,0.0,-0.001,0
9620000,0.11586231,0.13399164,0.0006237626,0.0,0.0,-0.001,0
9644000,0.11586572,0.13372892,0.0005995631,0.0,0.0,-0.001,0
9664000,0.115828246,0.13387297,0.0005169511,0.0,0.0,-0.001,0
9680000,0.11569284,0.13376844,0.0004965067,0.0,0.0,-0.001,0
9700000,0.11562052,0.13363776,0.00045770407,0.0,0.0,-0.001,0
9724000,0.115621746,0.13350634,0.00047773123,0.0,0.0,-0.001,0
9740000,0.11538667,0.13330565,0.00044059753,0.0,0.0,-0.001,0
9764000,0.11519121,0.13339671,0.00041681528,0.0,0.0,-0.001,0
9784000,0.11514169,0.13350815,0.00047022104,0.0,0.0,-0.001,0
9800000,0.11493789,0.13358623,0.00046396255,0.0,0.0,-0.001,0
9820000,0.11487662,0.13331011,0.0005303025,0.0,0.0,-0.001,0
9840000,0.11515683,0.13306801,0.0005119443,0.0,0.0,-0.001,0
9860000,0.11523874,0.13298404,0.00045853853,0.0,0.0,-0.001,0
9884000,0.11548357,0.13264377,0.0005111098,0.0,0.0,-0.001,0
9904000,0.11544209,0.13243465,0.0004969239,0.0,0.0,-0.001,0
9920000,0.115486786,0.13225369,0.0004735589,0.0,0.0,-0.001,0
9940000,0.115416445,0.13222615,0.0005624294,0.0,0.0,-0.001,0
9960000,0.11525301,0.13240214,0.0005478263,0.0,0.0,-0.001,0
9980000,0.115265444,0.13252737,0.0005106926,0.0,0.0,-0.001,0
10004000,0.11535519,0.13251218,0.0005373955,0.0,0.0,-0.001,0
10020000,0.11522416,0.1324969,0.0005862117,0.0,0.0,-0.001,0
10040000,0.11530224,0.13261744,0.000513196,0.0,0.0,-0.001,0
10060000,0.1150592,0.13249786,0.00050860643,0.0,0.0,-0.001,0
10080000,0.115023226,0.13239262,0.0005223751,0.0,0.0,-0.001,0
10100000,0.11477763,0.13210166,0.00042307377,0.0,0.0,-0.001,0
10124000,0.114423424,0.1324214,0.00045478344,0.0,0.0,-0.001,0
10144000,0.114372455,0.13245502,0.00046896935,0.0,0.0,-0.001,0
10164000,0.11421066,0.13266681,0.00042307377,0.0,0.0,-0.001,0
10184000,0.11416282,0.13257715,0.0004543662,0.0,0.0,-0.001,0
10204000,0.11407545,0.13264413,0.0004105568,0.0,0.0,-0.001,0
10220000,0.11418373,0.13286373,0.00047522783,0.0,0.0,-0.001,0
10240000,0.11404929,0.13284492,0.00055241585,0.0,0.0,-0.001,0
10260000,0.11413592,0.13295045,0.00066298246,0.0,0.0,-0.001,0
10280000,0.114162266,0.13304688,0.0005661845,0.0,0.0,-0.001,0
10300000,0.11417651,0.13317622,0.00065755844,0.0,0.0,-0.001,0
10324000,0.1142206,0.13301566,0.0006354451,0.0,0.0,-0.001,0
10344000,0.1143235,0.133139,0.0005457401,0.0,0.0,-0.001,0
10364000,0.11447917,0.13319626,0.0005632639,0.0,0.0,-0.001,0
10384000,0.114564754,0.13308117,0.0005465746,0.0,0.0,-0.001,0
10404000,0.114581496,0.13286133,0.0005853772,0.0,0.0,-0.001,0
10420000,0.1146688,0.13296124,0.0006175041,0.0,0.0,-0.001,0
10444000,0.11490838,0.13295837,0.00056910515,0.0,0.0,-0.001,0
10460000,0.11495301,0.1329424,0.00059580803,0.0,0.0,-0.001,0
10480000,0.11480279,0.13275489,0.00052446127,0.0,0.0,-0.001,0
10500000,0.11508132,0.13236728,0.0005966425,0.0,0.0,-0.001,0
10524000,0.115097456,0.1320275,0.0005273819,0.0,0.0,-0.001,0
10540000,0.11524181,0.13207634,0.00048315525,0.0,0.0,-0.001,0
10564000,0.11537768,0.1322126,0.00047022104,0.0,0.0,-0.001,0
10584000,0.11569657,0.13234684,0.0004785657,0.0,0.0,-0.001,0
10604000,0.11563519,0.1322393,0.0005161166,0.0,0.0,-0.001,0
10620000,0.115624875,0.1322062,0.00045478344,0.0,0.0,-0.001,0
10644000,0.1155811,0.13198696,0.0004017949,0.0,0.0,-0.001,0
10660000,0.11535767,0.13207021,0.00047689676,0.0,0.0,-0.001,0
10680000,0.115081295,0.13209616,0.0005799532,0.0,0.0,-0.001,0
10700000,0.115233324,0.13183533,0.00068968534,0.0,0.0,-0.001,0
10720000,0.11525932,0.13210511,0.00064086914,0.0,0.0,-0.001,0
10744000,0.11534451,0.13195023,0.0006020665,0.0,0.0,-0.001,0
10764000,0.11537746,0.1320651,0.0006517172,0.0,0.0,-0.001,0
10780000,0.11523725,0.13215569,0.0006750822,0.0,0.0,-0.001,0
10804000,0.11496057,0.13230777,0.0006041527,0.0,0.0,-0.001,0
10820000,0.11485799,0.13245226,0.0007084608,0.0,0.0,-0.001,0
10844000,0.11478253,0.13244876,0.00066298246,0.0,0.0,-0.001,0
10864000,0.114898704,0.13243344,0.0005837083,0.0,0.0,-0.001,0
10884000,0.11509178,0.1323839,0.00060623884,0.0,0.0,-0.001,0
10904000,0.1149104,0.13200353,0.0005732775,0.0,0.0,-0.001,0
10924000,0.114620656,0.13166448,0.0005465746,0.0,0.0,-0.001,0
10944000,0.11441639,0.13157445,0.0004956722,0.0,0.0,-0.001,0
10964000,0.11423323,0.1312642,0.00050610304,0.0,0.0,-0.001,0
10984000,0.11432238,0.13115337,0.00047898293,0.0,0.0,-0.001,0
11004000,0.11419534,0.13101757,0.00046730042,0.0,0.0,-0.001,0
11020000,0.114051506,0.13109551,0.00050902367,0.0,0.0,-0.001,0
11040000,0.11383185,0.13119914,0.0005198717,0.0,0.0,-0.001,0
11060000,0.11365847,0.13128452,0.00049483776,0.0,0.0,-0.001,0
11080000,0.113708496,0.1314025,0.00052654743,0.0,0.0,-0.001,0
11104000,0.11366985,0.13145514,0.00050985813,0.0,0.0,-0.001,0
11120000,0.11380169,0.13137706,0.00048398972,0.0,0.0,-0.001,0
11144000,0.11396897,0.13142447,0.0005027652,0.0,0.0,-0.001,0
11164000,0.11392689,0.13155873,0.00053197145,0.0,0.0,-0.001,0
11180000,0.11374929,0.13183106,0.0005119443,0.0,0.0,-0.001,0
11204000,0.11365443,0.13177268,0.00045394897,0.0,0.0,-0.001,0
11220000,0.11366341,0.13124065,0.0005002618,0.0,0.0,-0.001,0
11244000,0.1137472,0.13104345,0.00055491924,0.0,0.0,-0.001,0
11260000,0.114034735,0.13089697,0.00053447485,0.0,0.0,-0.001,0
11284000,0.11425607,0.13079962,0.00053322315,0.0,0.0,-0.001,0
11300000,0.11441454,0.13086835,0.00056284666,0.0,0.0,-0.001,0
11324000,0.114215374,0.13069928,0.0005390644,0.0,0.0,-0.001,0
11344000,0.114175916,0.13056368,0.00049316883,0.0,0.0,-0.001,0
11364000,0.11426062,0.13043384,0.0005044341,0.0,0.0,-0.001,0
11384000,0.11434306,0.12986857,0.0004914999,0.0,0.0,-0.001,0
11404000,0.11435723,0.1298042,0.0004389286,0.0,0.0,-0.001,0
11424000,0.11431938,0.129753,0.00045353174,0.0,0.0,-0.001,0
11444000,0.11427319,0.12971066,0.0004118085,0.0,0.0,-0.001,0
11464000,0.11442292,0.1293615,0.00043058395,0.0,0.0,-0.001,0
11484000,0.114251144,0.12930332,0.00040763617,0.0,0.0,-0.001,0
11500000,0.114184804,0.1290832,0.00036925077,0.0,0.0,-0.001,0
11524000,0.11425871,0.12901781,0.00043308735,0.0,0.0,-0.001,0
11540000,0.11427647,0.12895812,0.0004506111,0.0,0.0,-0.001,0
11560000,0.114069134,0.12899736,0.00049859285,0.0,0.0,-0.001,0
11584000,0.11395589,0.12925291,0.00046563148,0.0,0.0,-0.001,0
11604000,0.11406245,0.12927258,0.0004735589,0.0,0.0,-0.001,0
11620000,0.11406328,0.12940347,0.00047188997,0.0,0.0,-0.001,0
11644000,0.11410381,0.12943831,0.00045603514,0.0,0.0,-0.001,0
11660000,0.11429411,0.12949583,0.0005136132,0.0,0.0,-0.001,0
11684000,0.11439359,0.12930338,0.00050902367,0.0,0.0,-0.001,0
11704000,0.11431986,0.12951392,0.0005148649,0.0,0.0,-0.001,0
11724000,0.11450257,0.12972008,0.0005261302,0.0,0.0,-0.001,0
11740000,0.11456001,0.12974246,0.0005298853,0.0,0.0,-0.001,0
11760000,0.11446762,0.12958021,0.0004864931,0.0,0.0,-0.001,0
11780000,0.114343554,0.1297579,0.0004643798,0.0,0.0,-0.001,0
11804000,0.11432939,0.12977263,0.00048941374,0.0,0.0,-0.001,0
11824000,0.114191994,0.12961099,0.00048190355,0.0,0.0,-0.001,0
11840000,0.11403579,0.12954426,0.00048816204,0.0,0.0,-0.001,0
11860000,0.11396993,0.1295222,0.0005173683,0.0,0.0,-0.001,0
11880000,0.1141672,0.12933883,0.0005052686,0.0,0.0,-0.001,0
11900000,0.11438231,0.12919265,0.0004451871,0.0,0.0,-0.001,0
11920000,0.11443593,0.12914482,0.00050485134,0.0,0.0,-0.001,0
11944000,0.11466063,0.12904002,0.00048732758,0.0,0.0,-0.001,0
11960000,0.11448382,0.1291004,0.00049066544,0.0,0.0,-0.001,0
11980000,0.11427716,0.12857112,0.0004944205,0.0,0.0,-0.001,0
12000000,0.114371054,0.1282964,0.0004685521,0.0,0.0,-0.001,0
12020000,0.11438692,0.12813766,0.00045228004,0.0,0.0,-0.001,0
12044000,0.11426184,0.12822148,0.00048357248,0.0,0.0,-0.001,0
12064000,0.11403719,0.12797047,0.0004864931,0.0,0.0,-0.001,0
12084000,0.113894925,0.12781706,0.0005211234,0.0,0.0,-0.001,0
12104000,0.11381157,0.12779799,0.00051653385,0.0,0.0,-0.001,0
12124000,0.11375861,0.12785338,0.00058078766,0.0,0.0,-0.001,0
12140000,0.11346743,0.12775092,0.00057661533,0.0,0.0,-0.001,0
12164000,0.113224015,0.12766919,0.0005803704,0.0,0.0,-0.001,0
12184000,0.11317118,0.12749302,0.00052821636,0.0,0.0,-0.001,0
12204000,0.11313309,0.12712198,0.0005469918,0.0,0.0,-0.001,0
12224000,0.1129681,0.12707087,0.0004940033,0.0,0.0,-0.001,0
12244000,0.11281142,0.12706603,0.00046104193,0.0,0.0,-0.001,0
12260000,0.11271534,0.1270144,0.00042432547,0.0,0.0,-0.001,0
12280000,0.11263919,0.12698375,0.00040638447,0.0,0.0,-0.001,0
12300000,0.11255547,0.12694182,0.00040638447,0.0,0.0,-0.001,0
12324000,0.1126084,0.12686574,0.00040262938,0.0,0.0,-0.001,0
12340000,0.11256089,0.12709045,0.00035214424,0.0,0.0,-0.001,0
12364000,0.112312295,0.12720008,0.000351727,0.0,0.0,-0.001,0
12380000,0.11236704,0.1271842,0.00043684244,0.0,0.0,-0.001,0
12400000,0.11245758,0.12737578,0.0004272461,0.0,0.0,-0.001,0
12420000,0.11221197,0.12760389,0.00043308735,0.0,0.0,-0.001,0
12440000,0.11202633,0.12763356,0.00041598082,0.0,0.0,-0.001,0
12460000,0.11202639,0.1277746,0.00039178133,0.0,0.0,-0.001,0
12484000,0.11194178,0.12809,0.0004464388,0.0,0.0,-0.001,0
12504000,0.111964494,0.12816991,0.00046730042,0.0,0.0,-0.001,0
12524000,0.111638635,0.12794697,0.00044435263,0.0,0.0,-0.001,0
12540000,0.1117228,0.12818144,0.00042307377,0.0,0.0,-0.001,0
12560000,0.11167886,0.12830485,0.00042891502,0.0,0.0,-0.001,0
12580000,0.11154075,0.12827258,0.0004118085,0.0,0.0,-0.001,0
12604000,0.11139837,0.12835403,0.00045228004,0.0,0.0,-0.001,0
12620000,0.1113707,0.12813677,0.00049191713,0.0,0.0,-0.001,0
12644000,0.11139376,0.12839587,0.00047147274,0.0,0.0,-0.001,0
12664000,0.11132725,0.12860163,0.00046145916,0.0,0.0,-0.001,0
12684000,0.111556344,0.12881818,0.0003450513,0.0,0.0,-0.001,0
12700000,0.111659706,0.12868123,0.0003387928,0.0,0.0,-0.001,0
12720000,0.11185669,0.12832409,0.0003863573,0.0,0.0,-0.001,0
12740000,0.11190259,0.1282496,0.00040471554,0.0,0.0,-0.001,0
12764000,0.11207669,0.1280933,0.00036090612,0.0,0.0,-0.001,0
12780000,0.11217247,0.12822857,0.00038176775,0.0,0.0,-0.001,0
12800000,0.111961864,0.12828386,0.00046145916,0.0,0.0,-0.001,0
12820000,0.11168651,0.128123,0.0003888607,0.0,0.0,-0.001,0
12840000,0.11147236,0.12817746,0.0005465746,0.0,0.0,-0.001,0
12860000,0.1114176,0.12820466,0.00055617094,0.0,0.0,-0.001,0
12884000,0.111425914,0.12826589,0.0006066561,0.0,0.0,-0.001,0
12900000,0.111299865,0.12868333,0.00056284666,0.0,0.0,-0.001,0
12920000,0.111076586,0.1287891,0.0005457401,0.0,0.0,-0.001,0
12940000,0.11130321,0.12867248,0.00058329105,0.0,0.0,-0.001,0
12960000,0.11109252,0.12868685,0.00054490566,0.0,0.0,-0.001,0
12984000,0.11110636,0.12869047,0.00049108267,0.0,0.0,-0.001,0
13004000,0.11081404,0.12887546,0.00045102835,0.0,0.0,-0.001,0
13024000,0.11064223,0.12863152,0.0005111098,0.0,0.0,-0.001,0
13044000,0.110441126,0.12860066,0.00045979023,0.0,0.0,-0.001,0
13060000,0.11040781,0.12885958,0.00041890144,0.0,0.0,-0.001,0
13084000,0.110376164,0.12885499,0.00044894218,0.0,0.0,-0.001,0
13100000,0.110265,0.12897283,0.00045019388,0.0,0.0,-0.001,0
13124000,0.1100028,0.12863469,0.00055241585,0.0,0.0,-0.001,0
13144000,0.109853104,0.12850526,0.0005069375,0.0,0.0,-0.001,0
13164000,0.10988299,0.12857142,0.00054490566,0.0,0.0,-0.001,0
13184000,0.109894514,0.12849581,0.00049984455,0.0,0.0,-0.001,0
13204000,0.1098893,0.12841678,0.0004981756,0.0,0.0,-0.001,0
13220000,0.110134624,0.12840195,0.00050860643,0.0,0.0,-0.001,0
13244000,0.11037713,0.12829344,0.00048607588,0.0,0.0,-0.001,0
13260000,0.11054408,0.12808658,0.00036883354,0.0,0.0,-0.001,0
13284000,0.11069415,0.12803441,0.00038552284,0.0,0.0,-0.001,0
13300000,0.11046053,0.12784833,0.00032919645,0.0,0.0,-0.001,0
13324000,0.1104219,0.12797043,0.000346303,0.0,0.0,-0.001,0
13344000,0.11041137,0.12828776,0.00040513277,0.0,0.0,-0.001,0
13364000,0.110379964,0.1278855,0.0004030466,0.0,0.0,-0.001,0
13384000,0.11031935,0.12776244,0.00040847063,0.0,0.0,-0.001,0
13404000,0.11045033,0.12769182,0.00041681528,0.0,0.0,-0.001,0
13424000,0.11049565,0.12763965,0.0004531145,0.0,0.0,-0.001,0
13444000,0.110620715,0.12742135,0.0004451871,0.0,0.0,-0.001,0
13460000,0.1107513,0.1273978,0.0005040169,0.0,0.0,-0.001,0
13484000,0.110761605,0.12761141,0.0005336404,0.0,0.0,-0.001,0
13504000,0.11062645,0.12756264,0.0004914999,0.0,0.0,-0.001,0
13520000,0.110706046,0.12747495,0.00053948164,0.0,0.0,-0.001,0
13540000,0.11093192,0.12749332,0.00047898293,0.0,0.0,-0.001,0
13564000,0.11086309,0.12753883,0.00038093328,0.0,0.0,-0.001,0
13580000,0.110992454,0.12711081,0.0003271103,0.0,0.0,-0.001,0
13604000,0.110697016,0.12702306,0.0003684163,0.0,0.0,-0.001,0
13620000,0.110667944,0.12718864,0.00042390823,0.0,0.0,-0.001,0
13640000,0.1104622,0.12711535,0.00043559074,0.0,0.0,-0.001,0
13660000,0.11032007,0.12688136,0.00033670664,0.0,0.0,-0.001,0
13684000,0.11007076,0.12704326,0.00037634373,0.0,0.0,-0.001,0
13700000,0.10979967,0.12698853,0.0004581213,0.0,0.0,-0.001,0
13724000,0.10952559,0.1272293,0.000495255,0.0,0.0,-0.001,0
13740000,0.10947212,0.12727797,0.00051277876,0.0,0.0,-0.001,0
13764000,0.10919096,0.12732957,0.00046813488,0.0,0.0,-0.001,0
13780000,0.108943604,0.12717958,0.00052779913,0.0,0.0,-0.001,0
13804000,0.10866268,0.12710837,0.00048983097,0.0,0.0,-0.001,0
13820000,0.1083865,0.12703916,0.0004956722,0.0,0.0,-0.001,0
13844000,0.10827245,0.12714846,0.0005286336,0.0,0.0,-0.001,0
13860000,0.108146176,0.12719524,0.00042808056,0.0,0.0,-0.001,0
13884000,0.10801704,0.1271686,0.00048816204,0.0,0.0,-0.001,0
13900000,0.108015575,0.12728879,0.00042557716,0.0,0.0,-0.001,0
13924000,0.10797782,0.12725207,0.00040763617,0.0,0.0,-0.001,0
13944000,0.10803929,0.12717706,0.00043725967,0.0,0.0,-0.001,0
13964000,0.10810209,0.12721868,0.00046396255,0.0,0.0,-0.001,0
13980000,0.1082072,0.12715018,0.00042140484,0.0,0.0,-0.001,0
14004000,0.10845889,0.1269511,0.0003746748,0.0,0.0,-0.001,0
14020000,0.1084241,0.12698308,0.0004222393,0.0,0.0,-0.001,0
14044000,0.10826479,0.12694456,0.0004464388,0.0,0.0,-0.001,0
14064000,0.108131975,0.1269013,0.0004631281,0.0,0.0,-0.001,0
14080000,0.10829117,0.12673375,0.00045019388,0.0,0.0,-0.001,0
14100000,0.1084717,0.12671773,0.00043058395,0.0,0.0,-0.001,0
14120000,0.108578704,0.12675439,0.00043141842,0.0,0.0,-0.001,0
14144000,0.10827866,0.12668753,0.00037425756,0.0,0.0,-0.001,0
14164000,0.10837728,0.12659733,0.00033795834,0.0,0.0,-0.001,0
14180000,0.10824898,0.1264619,0.00030875206,0.0,0.0,-0.001,0
14200000,0.108185135,0.12641683,0.00041389465,0.0,0.0,-0.001,0
14220000,0.10797114,0.12637605,0.00037676096,0.0,0.0,-0.001,0
14244000,0.10819943,0.12635636,0.00041222572,0.0,0.0,-0.001,0
14260000,0.10814994,0.12611929,0.0003567338,0.0,0.0,-0.001,0
14284000,0.10815054,0.12596972,0.0004426837,0.0,0.0,-0.001,0
14300000,0.108045995,0.12593795,0.00042641163,0.0,0.0,-0.001,0
14320000,0.107880205,0.12604709,0.00043809414,0.0,0.0,-0.001,0
14344000,0.10792503,0.12590194,0.0004760623,0.0,0.0,-0.001,0
14360000,0.10782872,0.12589276,0.00045019388,0.0,0.0,-0.001,0
14384000,0.107738875,0.12601459,0.00048565865,0.0,0.0,-0.001,0
14404000,0.10749246,0.12590195,0.0004643798,0.0,0.0,-0.001,0
14420000,0.107680194,0.1257875,0.0003246069,0.0,0.0,-0.001,0
14444000,0.10805912,0.1255767,0.00036132336,0.0,0.0,-0.001,0
14460000,0.10827945,0.12527756,0.0003004074,0.0,0.0,-0.001,0
14484000,0.10849012,0.12488861,0.00037509203,0.0,0.0,-0.001,0
14500000,0.108399525,0.12464592,0.00040596724,0.0,0.0,-0.001,0
14524000,0.10877243,0.124423996,0.0004030466,0.0,0.0,-0.001,0
14540000,0.108900234,0.12437154,0.0004068017,0.0,0.0,-0.001,0
14560000,0.10877505,0.12439639,0.0004451871,0.0,0.0,-0.001,0
14580000,0.108672544,0.124085136,0.00047397614,0.0,0.0,-0.001,0
14600000,0.108700305,0.12405102,0.00045979023,0.0,0.0,-0.001,0
14620000,0.108757585,0.124264866,0.000500679,0.0,0.0,-0.001,0
14644000,0.10889123,0.12417174,0.00052946806,0.0,0.0,-0.001,0
14660000,0.10869084,0.12390887,0.00044602156,0.0,0.0,-0.001,0
14680000,0.108921975,0.1238106,0.0004710555,0.0,0.0,-0.001,0
14700000,0.10870276,0.12400845,0.00060874224,0.0,0.0,-0.001,0
14724000,0.10861342,0.123778604,0.0005887151,0.0,0.0,-0.001,0
14744000,0.108616576,0.12335616,0.0005002618,0.0,0.0,-0.001,0
14764000,0.10858812,0.12322763,0.00062042475,0.0,0.0,-0.001,0
14780000,0.10868116,0.12312798,0.00057411194,0.0,0.0,-0.001,0
14804000,0.108490504,0.123032026,0.000608325,0.0,0.0,-0.001,0
14820000,0.10859211,0.122931585,0.0005273819,0.0,0.0,-0.001,0
14844000,0.10867322,0.122870386,0.0005328059,0.0,0.0,-0.001,0
14864000,0.108643904,0.12278294,0.0004643798,0.0,0.0,-0.001,0
14884000,0.10875905,0.122530416,0.0004556179,0.0,0.0,-0.001,0
14904000,0.108831614,0.12224918,0.00047147274,0.0,0.0,-0.001,0
14924000,0.108537644,0.12208427,0.00048398972,0.0,0.0,-0.001,0
14940000,0.10871475,0.121972114,0.00042682886,0.0,0.0,-0.001,0
14960000,0.10882796,0.1215719,0.00047814846,0.0,0.0,-0.001,0
14984000,0.10896771,0.12165527,0.0004389286,0.0,0.0,-0.001,0
15004000,0.109165356,0.12170335,0.00042307377,0.0,0.0,-0.001,0
15024000,0.10904102,0.121676736,0.00044602156,0.0,0.0,-0.001,0
15044000,0.10876936,0.121683374,0.00044101477,0.0,0.0,-0.001,0
15060000,0.10874951,0.12182744,0.0004981756,0.0,0.0,-0.001,0
15084000,0.10895122,0.12218519,0.0005182028,0.0,0.0,-0.001,0
15100000,0.10900709,0.122215375,0.0004723072,0.0,0.0,-0.001,0
15124000,0.10871371,0.12210304,0.00048565865,0.0,0.0,-0.001,0
15144000,0.108650476,0.12216027,0.00045853853,0.0,0.0,-0.001,0
15164000,0.10874887,0.12210429,0.0005686879,0.0,0.0,-0.001,0
15180000,0.1088497,0.12221613,0.00049066544,0.0,0.0,-0.001,0
15204000,0.10881465,0.12211073,0.0004339218,0.0,0.0,-0.001,0
15224000,0.10891807,0.122166894,0.00040096045,0.0,0.0,-0.001,0
15244000,0.10905436,0.12196128,0.00046020746,0.0,0.0,-0.001,0
15260000,0.109005615,0.122037314,0.0004581213,0.0,0.0,-0.001,0
15284000,0.10915315,0.121571064,0.0004760623,0.0,0.0,-0.001,0
15304000,0.109314054,0.12140142,0.00044894218,0.0,0.0,-0.001,0
15324000,0.10930541,0.12122424,0.00049608946,0.0,0.0,-0.001,0
15344000,0.10933562,0.12112817,0.00046020746,0.0,0.0,-0.001,0
15364000,0.109068975,0.120833874,0.0004885793,0.0,0.0,-0.001,0
15380000,0.10887331,0.120641015,0.00056535006,0.0,0.0,-0.001,0
15404000,0.10892445,0.120500825,0.0004977584,0.0,0.0,-0.001,0
15424000,0.1089629,0.12075064,0.00047773123,0.0,0.0,-0.001,0
15440000,0.1087811,0.120634675,0.00046938658,0.0,0.0,-0.001,0
15460000,0.10878742,0.12047611,0.00050359964,0.0,0.0,-0.001,0
15484000,0.108873904,0.12042303,0.000513196,0.0,0.0,-0.001,0
15500000,0.108963616,0.12019772,0.00053822994,0.0,0.0,-0.001,0
15520000,0.10870526,0.1200997,0.0004698038,0.0,0.0,-0.001,0
15540000,0.10844089,0.120172806,0.0004885793,0.0,0.0,-0.001,0
15564000,0.10842451,0.12004057,0.00059330463,0.0,0.0,-0.001,0
15580000,0.10843056,0.119972095,0.00054115057,0.0,0.0,-0.001,0
15604000,0.108288676,0.119574174,0.00053447485,0.0,0.0,-0.001,0
15620000,0.10807952,0.119409814,0.00055116415,0.0,0.0,-0.001,0
15640000,0.10797877,0.119060725,0.00047439337,0.0,0.0,-0.001,0
15660000,0.10795632,0.11866139,0.0006066561,0.0,0.0,-0.001,0
15680000,0.1077478,0.118295915,0.00045102835,0.0,0.0,-0.001,0
15700000,0.10760434,0.11820413,0.0004864931,0.0,0.0,-0.001,0
15724000,0.10737895,0.11792172,0.00048941374,0.0,0.0,-0.001,0
15740000,0.10724747,0.11772946,0.0005632639,0.0,0.0,-0.001,0
15764000,0.10736814,0.117553815,0.0005161166,0.0,0.0,-0.001,0
15780000,0.107323505,0.11733883,0.00048273802,0.0,0.0,-0.001,0
15804000,0.10708772,0.117622666,0.00041389465,0.0,0.0,-0.001,0
15820000,0.107183605,0.11735181,0.00044476986,0.0,0.0,-0.001,0
15844000,0.10729367,0.11712747,0.0004977584,0.0,0.0,-0.001,0
15860000,0.10736847,0.11684732,0.0005081892,0.0,0.0,-0.001,0
15884000,0.10718066,0.116805516,0.0005002618,0.0,0.0,-0.001,0
15900000,0.107063666,0.11671148,0.0004143119,0.0,0.0,-0.001,0
15924000,0.107119024,0.11662259,0.000495255,0.0,0.0,-0.001,0
15940000,0.107101396,0.11658836,0.0005081892,0.0,0.0,-0.001,0
15960000,0.106886856,0.11645187,0.00046229362,0.0,0.0,-0.001,0
15984000,0.106784515,0.11649911,0.00046229362,0.0,0.0,-0.001,0
16004000,0.10673382,0.11646618,0.0005144477,0.0,0.0,-0.001,0
16020000,0.10673657,0.11633723,0.0004531145,0.0,0.0,-0.001,0
16044000,0.10681504,0.11601872,0.00051152706,0.0,0.0,-0.001,0
16060000,0.10693278,0.11591057,0.00046521425,0.0,0.0,-0.001,0
16080000,0.10708074,0.11584935,0.00043851137,0.0,0.0,-0.001,0
16100000,0.10713954,0.115767546,0.00042766333,0.0,0.0,-0.001,0
16120000,0.10714552,0.115617715,0.00039845705,0.0,0.0,-0.001,0
16140000,0.10708005,0.11556345,0.00041139126,0.0,0.0,-0.001,0
16160000,0.1071363,0.11537109,0.0004118085,0.0,0.0,-0.001,0
16180000,0.10725187,0.11508168,0.00044310093,0.0,0.0,-0.001,0
16204000,0.10717228,0.11483919,0.0003759265,0.0,0.0,-0.001,0
16220000,0.10709601,0.11475687,0.00039094687,0.0,0.0,-0.001,0
16240000,0.10711403,0.11441668,0.00040596724,0.0,0.0,-0.001,0
16264000,0.10735375,0.114384614,0.00044602156,0.0,0.0,-0.001,0
16284000,0.10765868,0.11411524,0.00044852495,0.0,0.0,-0.001,0
16304000,0.10754028,0.11432594,0.0004310012,0.0,0.0,-0.001,0
16324000,0.10727672,0.11424679,0.0004760623,0.0,0.0,-0.001,0
16344000,0.107341915,0.114303686,0.00043183565,0.0,0.0,-0.001,0
16364000,0.10775681,0.11408055,0.000459373,0.0,0.0,-0.001,0
16384000,0.1077022,0.114312984,0.00047773123,0.0,0.0,-0.001,0
16404000,0.10782032,0.1139998,0.0005624294,0.0,0.0,-0.001,0
16420000,0.10784542,0.114173174,0.0005136132,0.0,0.0,-0.001,0
16444000,0.10784797,0.114312164,0.00050777197,0.0,0.0,-0.001,0
16460000,0.10798408,0.11436044,0.00051778555,0.0,0.0,-0.001,0
16480000,0.10774957,0.114290684,0.0004339218,0.0,0.0,-0.001,0
16500000,0.10786281,0.11426771,0.0004969239,0.0,0.0,-0.001,0
16524000,0.10765462,0.11388261,0.00043058395,0.0,0.0,-0.001,0
16540000,0.10764099,0.11395482,0.0004618764,0.0,0.0,-0.001,0
16564000,0.10743358,0.11376111,0.00033169985,0.0,0.0,-0.001,0
16584000,0.10725949,0.11383569,0.0003951192,0.0,0.0,-0.001,0
16604000,0.10740291,0.11382083,0.00036090612,0.0,0.0,-0.001,0
16624000,0.10765571,0.11389709,0.0003721714,0.0,0.0,-0.001,0
16644000,0.10771264,0.113677174,0.00037258863,0.0,0.0,-0.001,0
16664000,0.10780908,0.11327211,0.0003617406,0.0,0.0,-0.001,0
16684000,0.10762784,0.113345265,0.00043475628,0.0,0.0,-0.001,0
16704000,0.10755393,0.113505214,0.00041514635,0.0,0.0,-0.001,0
16724000,0.107573435,0.11355786,0.00043475628,0.0,0.0,-0.001,0
16744000,0.10756095,0.11356598,0.00043267012,0.0,0.0,-0.001,0
16764000,0.107446134,0.1137943,0.0004464388,0.0,0.0,-0.001,0
16784000,0.10734365,0.113636196,0.00044059753,0.0,0.0,-0.001,0
16800000,0.107317,0.11363244,0.00042432547,0.0,0.0,-0.001,0
16824000,0.10752085,0.11371696,0.0004197359,0.0,0.0,-0.001,0
16844000,0.10760343,0.113924176,0.00040388107,0.0,0.0,-0.001,0
16860000,0.10767551,0.113956414,0.0004030466,0.0,0.0,-0.001,0
16880000,0.10762363,0.11370237,0.00043308735,0.0,0.0,-0.001,0
16900000,0.1076734,0.11355937,0.00036633015,0.0,0.0,-0.001,0
16924000,0.107663535,0.11384283,0.00042515993,0.0,0.0,-0.001,0
16940000,0.107741125,0.11376683,0.00037258863,0.0,0.0,-0.001,0
16964000,0.10784768,0.11344714,0.00034213066,0.0,0.0,-0.001,0
16980000,0.107872866,0.11356524,0.0003709197,0.0,0.0,-0.001,0
17004000,0.10797019,0.11361118,0.00034880638,0.0,0.0,-0.001,0
17020000,0.10794925,0.1134296,0.00040388107,0.0,0.0,-0.001,0
17040000,0.10825344,0.11350172,0.00039762259,0.0,0.0,-0.001,0
17060000,0.10809905,0.11345663,0.00033462048,0.0,0.0,-0.001,0
17080000,0.10835053,0.113550775,0.00039803982,0.0,0.0,-0.001,0
17104000,0.10837759,0.113327615,0.0003951192,0.0,0.0,-0.001,0
17120000,0.10840492,0.11315769,0.00040638447,0.0,0.0,-0.001,0
17140000,0.10856687,0.113369144,0.00042766333,0.0,0.0,-0.001,0
17164000,0.10854697,0.11320521,0.00046938658,0.0,0.0,-0.001,0
17184000,0.10862694,0.11309144,0.00043016672,0.0,0.0,-0.001,0
17204000,0.10853252,0.113036536,0.00039595366,0.0,0.0,-0.001,0
17220000,0.108463965,0.113090776,0.00047272444,0.0,0.0,-0.001,0
17244000,0.10849628,0.113070786,0.00041556358,0.0,0.0,-0.001,0
17264000,0.108422965,0.11287906,0.00043684244,0.0,0.0,-0.001,0
17284000,0.10833296,0.11276042,0.00045144558,0.0,0.0,-0.001,0
17300000,0.10831721,0.112663925,0.00048190355,0.0,0.0,-0.001,0
17324000,0.10815534,0.11265862,0.0004785657,0.0,0.0,-0.001,0
17344000,0.10804514,0.112367034,0.00043475628,0.0,0.0,-0.001,0
17364000,0.10777217,0.11253139,0.00044894218,0.0,0.0,-0.001,0
17384000,0.10796207,0.11278984,0.00040847063,0.0,0.0,-0.001,0
17404000,0.10782056,0.11265349,0.00041264296,0.0,0.0,-0.001,0
17420000,0.10787692,0.11292999,0.00036758184,0.0,0.0,-0.001,0
17444000,0.107882276,0.112748325,0.00044935942,0.0,0.0,-0.001,0
17460000,0.10800558,0.11253001,0.00037425756,0.0,0.0,-0.001,0
17484000,0.10822064,0.11234991,0.0003771782,0.0,0.0,-0.001,0
17500000,0.10823494,0.112190135,0.00042891502,0.0,0.0,-0.001,0
17520000,0.10845151,0.11245473,0.00039970875,0.0,0.0,-0.001,0
17540000,0.10861977,0.11235328,0.0004810691,0.0,0.0,-0.001,0
17564000,0.10843501,0.11229633,0.00036215782,0.0,0.0,-0.001,0
17584000,0.10837666,0.11233926,0.0004143119,0.0,0.0,-0.001,0
17604000,0.10839875,0.11238005,0.00040972233,0.0,0.0,-0.001,0
17624000,0.10798136,0.11208466,0.0004310012,0.0,0.0,-0.001,0
17644000,0.10768917,0.11216212,0.0003913641,0.0,0.0,-0.001,0
17660000,0.10744646,0.112224214,0.00041097403,0.0,0.0,-0.001,0
17684000,0.10727976,0.11230601,0.00035256147,0.0,0.0,-0.001,0
17700000,0.10689158,0.11212939,0.0004259944,0.0,0.0,-0.001,0
17724000,0.106797956,0.112245776,0.00039678812,0.0,0.0,-0.001,0
17744000,0.10661819,0.112483814,0.0004297495,0.0,0.0,-0.001,0
17764000,0.10648999,0.112430535,0.00036257505,0.0,0.0,-0.001,0
17780000,0.106490456,0.11221443,0.00039303303,0.0,0.0,-0.001,0
17804000,0.106290214,0.11201118,0.000351727,0.0,0.0,-0.001,0
17820000,0.10621614,0.11201372,0.00041472912,0.0,0.0,-0.001,0
17840000,0.10617697,0.111922555,0.00033837557,0.0,0.0,-0.001,0
17860000,0.10617567,0.1118887,0.00035881996,0.0,0.0,-0.001,0
17884000,0.106016934,0.1118239,0.00035631657,0.0,0.0,-0.001,0
17904000,0.106050275,0.11186732,0.0003901124,0.0,0.0,-0.001,0
17924000,0.106129095,0.11148666,0.00035005808,0.0,0.0,-0.001,0
17940000,0.10617668,0.11144789,0.0003375411,0.0,0.0,-0.001,0
17964000,0.10608776,0.111156,0.00039720535,0.0,0.0,-0.001,0
17980000,0.106114045,0.11105624,0.000315845,0.0,0.0,-0.001,0
18004000,0.10579227,0.1109699,0.00042307377,0.0,0.0,-0.001,0
18020000,0.10561806,0.110827655,0.00040513277,0.0,0.0,-0.001,0
18044000,0.10543207,0.11073559,0.00041097403,0.0,0.0,-0.001,0
18064000,0.10519296,0.1104376,0.00041931868,0.0,0.0,-0.001,0
18084000,0.10526322,0.11024489,0.00042808056,0.0,0.0,-0.001,0
18100000,0.105151445,0.10988925,0.0003617406,0.0,0.0,-0.001,0
18124000,0.10509507,0.10973313,0.00044101477,0.0,0.0,-0.001,0
18140000,0.10526701,0.10978486,0.00035756826,0.0,0.0,-0.001,0
18164000,0.10529998,0.1097836,0.00040471554,0.0,0.0,-0.001,0
18180000,0.105408885,0.10989031,0.00039887428,0.0,0.0,-0.001,0
18204000,0.10548703,0.11009222,0.00041013956,0.0,0.0,-0.001,0
18220000,0.10553101,0.109945714,0.00037258863,0.0,0.0,-0.001,0
18244000,0.105397284,0.10996597,0.00038301945,0.0,0.0,-0.001,0
18264000,0.105212845,0.11006628,0.00038802624,0.0,0.0,-0.001,0
18284000,0.10526982,0.1099954,0.00037926435,0.0,0.0,-0.001,0
18300000,0.10518482,0.109835505,0.00036883354,0.0,0.0,-0.001,0
18324000,0.10534509,0.109797366,0.00029706955,0.0,0.0,-0.001,0
18344000,0.10557009,0.10953614,0.000387609,0.0,0.0,-0.001,0
18364000,0.105469346,0.10956737,0.00033670664,0.0,0.0,-0.001,0
18380000,0.10550257,0.10942128,0.00032168627,0.0,0.0,-0.001,0
18400000,0.10538183,0.109282665,0.00036466122,0.0,0.0,-0.001,0
18420000,0.105038255,0.10939588,0.00034755468,0.0,0.0,-0.001,0
18444000,0.10483222,0.109166026,0.00037050247,0.0,0.0,-0.001,0
18464000,0.104617834,0.10906442,0.0003771782,0.0,0.0,-0.001,0
18484000,0.10442266,0.10897824,0.00039052963,0.0,0.0,-0.001,0
18504000,0.10451036,0.10892747,0.00039553642,0.0,0.0,-0.001,0
18524000,0.104433164,0.10908988,0.0003504753,0.0,0.0,-0.001,0
18540000,0.10421791,0.10930663,0.00044810772,0.0,0.0,-0.001,0
18564000,0.10416506,0.10942569,0.00038135052,0.0,0.0,-0.001,0
18584000,0.10425244,0.10946569,0.0004451871,0.0,0.0,-0.001,0
18604000,0.10425082,0.10922678,0.00042766333,0.0,0.0,-0.001,0
18624000,0.10430334,0.10915379,0.0003851056,0.0,0.0,-0.001,0
18644000,0.10451386,0.10932172,0.0004376769,0.0,0.0,-0.001,0
18664000,0.10469766,0.109229356,0.00040471554,0.0,0.0,-0.001,0
18680000,0.104660705,0.10917949,0.0004401803,0.0,0.0,-0.001,0
18700000,0.104702085,0.10889465,0.00049859285,0.0,0.0,-0.001,0
18724000,0.10486606,0.10877422,0.0005169511,0.0,0.0,-0.001,0
18740000,0.105007395,0.108750336,0.00043976307,0.0,0.0,-0.001,0
18764000,0.104784995,0.10867141,0.00044101477,0.0,0.0,-0.001,0
18780000,0.104940236,0.10862675,0.00039803982,0.0,0.0,-0.001,0
18804000,0.104932256,0.108411685,0.00037676096,0.0,0.0,-0.001,0
18820000,0.10492951,0.10850217,0.00037133694,0.0,0.0,-0.001,0
18840000,0.10497309,0.10834801,0.00042140484,0.0,0.0,-0.001,0
18860000,0.10493123,0.10798791,0.0004197359,0.0,0.0,-0.001,0
18884000,0.10502653,0.1077209,0.00046396255,0.0,0.0,-0.001,0
18904000,0.104800716,0.10769021,0.00037634373,0.0,0.0,-0.001,0
18924000,0.10477846,0.10767467,0.00042515993,0.0,0.0,-0.001,0
18940000,0.10483822,0.10758628,0.00041598082,0.0,0.0,-0.001,0
18964000,0.10486118,0.107793756,0.00038927794,0.0,0.0,-0.001,0
18980000,0.10472974,0.107776344,0.00046563148,0.0,0.0,-0.001,0
19004000,0.10475065,0.1076315,0.00042057037,0.0,0.0,-0.001,0
19020000,0.10456181,0.107708156,0.00043600798,0.0,0.0,-0.001,0
19044000,0.10451154,0.107571915,0.00044977665,0.0,0.0,-0.001,0
19060000,0.10475477,0.107387125,0.00044935942,0.0,0.0,-0.001,0
19084000,0.104739584,0.107215025,0.0005323887,0.0,0.0,-0.001,0
19100000,0.104570396,0.10717225,0.00040388107,0.0,0.0,-0.001,0
19120000,0.10466289,0.10712662,0.0003671646,0.0,0.0,-0.001,0
19140000,0.104654886,0.10718326,0.00031125546,0.0,0.0,-0.001,0
19160000,0.10460579,0.10728873,0.00035715103,0.0,0.0,-0.001,0
19180000,0.10455982,0.10743315,0.00028330088,0.0,0.0,-0.001,0
19204000,0.10474239,0.107212506,0.00033128262,0.0,0.0,-0.001,0
19220000,0.10464027,0.10734914,0.00032669306,0.0,0.0,-0.001,0
19240000,0.104487516,0.107343756,0.00034588575,0.0,0.0,-0.001,0
19260000,0.104227364,0.107202664,0.00039970875,0.0,0.0,-0.001,0
19280000,0.10418474,0.10714812,0.00038009882,0.0,0.0,-0.001,0
19300000,0.104236834,0.107020095,0.00043600798,0.0,0.0,-0.001,0
19320000,0.10424981,0.10679558,0.00042808056,0.0,0.0,-0.001,0
19340000,0.10423221,0.106465384,0.000423491,0.0,0.0,-0.001,0
19364000,0.10415998,0.10636011,0.00043475628,0.0,0.0,-0.001,0
19384000,0.1042694,0.106369264,0.00039470196,0.0,0.0,-0.001,0
19404000,0.10402262,0.10598033,0.00052028894,0.0,0.0,-0.001,0
19420000,0.10397183,0.10592528,0.00052529573,0.0,0.0,-0.001,0
19444000,0.10400976,0.10594244,0.00047272444,0.0,0.0,-0.001,0
19460000,0.104283504,0.10587628,0.00048607588,0.0,0.0,-0.001,0
19484000,0.10413469,0.10575957,0.00053572655,0.0,0.0,-0.001,0
19500000,0.10410362,0.10576534,0.0004748106,0.0,0.0,-0.001,0
19524000,0.10410309,0.106022835,0.0004017949,0.0,0.0,-0.001,0
19544000,0.10389946,0.10590276,0.0004247427,0.0,0.0,-0.001,0
19564000,0.10397102,0.10586173,0.00040763617,0.0,0.0,-0.001,0
19584000,0.10385713,0.106137976,0.00037801266,0.0,0.0,-0.001,0
19604000,0.10376774,0.106097296,0.0003838539,0.0,0.0,-0.001,0
19620000,0.10383168,0.105982706,0.0003784299,0.0,0.0,-0.001,0
19644000,0.10379237,0.10574408,0.0003246069,0.0,0.0,-0.001,0
19664000,0.10357557,0.10578799,0.00040888786,0.0,0.0,-0.001,0
19684000,0.103628084,0.10573448,0.00037801266,0.0,0.0,-0.001,0
19704000,0.10372442,0.1055547,0.00033462048,0.0,0.0,-0.001,0
19724000,0.10386351,0.10532676,0.00035840273,0.0,0.0,-0.001,0
19744000,0.104057826,0.10527374,0.0003400445,0.0,0.0,-0.001,0
19764000,0.10397234,0.10531555,0.00029873848,0.0,0.0,-0.001,0
19784000,0.10416188,0.10518829,0.00034964085,0.0,0.0,-0.001,0
19804000,0.104431406,0.10518986,0.000333786,0.0,0.0,-0.001,0
19820000,0.10443495,0.10499608,0.00036925077,0.0,0.0,-0.001,0
19844000,0.10450976,0.10505665,0.00042557716,0.0,0.0,-0.001,0
19864000,0.10450253,0.10509722,0.00037509203,0.0,0.0,-0.001,0
19884000,0.104470104,0.10519868,0.0003963709,0.0,0.0,-0.001,0
19904000,0.104803436,0.105094396,0.00036883354,0.0,0.0,-0.001,0
19924000,0.104578644,0.10475938,0.00039887428,0.0,0.0,-0.001,0
19940000,0.10457729,0.104727335,0.00034046173,0.0,0.0,-0.001,0
19964000,0.10477179,0.10474301,0.0003926158,0.0,0.0,-0.001,0
19984000,0.104945324,0.10455116,0.00037509203,0.0,0.0,-0.001,0
20004000,0.10481551,0.10449777,0.00036674738,0.0,0.0,-0.001,0
20020000,0.10450777,0.104476206,0.00032669306,0.0,0.0,-0.001,0
20040000,0.10442544,0.10464188,0.0003746748,0.0,0.0,-0.001,0
20060000,0.10464168,0.10457791,0.00037759542,0.0,0.0,-0.001,0
20084000,0.104454,0.104285866,0.00032752752,0.0,0.0,-0.001,0
20100000,0.1043458,0.10434614,0.0002874732,0.0,0.0,-0.001,0
20124000,0.104549795,0.10418151,0.00031250715,0.0,0.0,-0.001,0
20144000,0.10468491,0.10427887,0.00036132336,0.0,0.0,-0.001,0
20164000,0.10465723,0.10421965,0.00029081106,0.0,0.0,-0.001,0
20180000,0.10465369,0.10391707,0.00038594007,0.0,0.0,-0.001,0
20200000,0.10459006,0.10394628,0.0003604889,0.0,0.0,-0.001,0
20220000,0.104305,0.10356439,0.00025826693,0.0,0.0,-0.001,0
20244000,0.10392949,0.103394,0.00033086538,0.0,0.0,-0.001,0
20260000,0.10391089,0.103398144,0.00033962727,0.0,0.0,-0.001,0
20284000,0.10375498,0.103265546,0.00025993586,0.0,0.0,-0.001,0
20300000,0.103663184,0.10320788,0.00033670664,0.0,0.0,-0.001,0
20324000,0.10347119,0.10287238,0.0003721714,0.0,0.0,-0.001,0
20344000,0.103482455,0.10303952,0.00031542778,0.0,0.0,-0.001,0
20364000,0.10352106,0.1031517,0.00034338236,0.0,0.0,-0.001,0
20380000,0.10344297,0.10295047,0.00036758184,0.0,0.0,-0.001,0
20404000,0.10308572,0.102674775,0.00032418966,0.0,0.0,-0.001,0
20424000,0.10274726,0.10262456,0.0003504753,0.0,0.0,-0.001,0
20444000,0.102520496,0.10246226,0.00032877922,0.0,0.0,-0.001,0
20464000,0.10231777,0.102372244,0.00037384033,0.0,0.0,-0.001,0
20484000,0.10228738,0.10205387,0.00039428473,0.0,0.0,-0.001,0
20500000,0.10223436,0.10197062,0.00030082464,0.0,0.0,-0.001,0
20524000,0.10206325,0.10193924,0.00036257505,0.0,0.0,-0.001,0
20544000,0.10174707,0.101952896,0.0003734231,0.0,0.0,-0.001,0
20560000,0.1014126,0.101891585,0.00033128262,0.0,0.0,-0.001,0
20580000,0.10160748,0.10206227,0.0003888607,0.0,0.0,-0.001,0
20604000,0.10181635,0.10225052,0.00038009882,0.0,0.0,-0.001,0
20624000,0.101743795,0.102209255,0.00037550926,0.0,0.0,-0.001,0
20644000,0.10168071,0.1021024,0.00038468838,0.0,0.0,-0.001,0
20664000,0.101554565,0.102111526,0.00037926435,0.0,0.0,-0.001,0
20684000,0.10130468,0.102203615,0.00035381317,0.0,0.0,-0.001,0
20704000,0.10115529,0.10204909,0.00034838915,0.0,0.0,-0.001,0
20724000,0.10121129,0.10181078,0.0003412962,0.0,0.0,-0.001,0
20740000,0.10135684,0.10176084,0.00035840273,0.0,0.0,-0.001,0
20764000,0.10155417,0.102037415,0.000274539,0.0,0.0,-0.001,0
20780000,0.1015988,0.102020614,0.0003554821,0.0,0.0,-0.001,0
20800000,0.10158573,0.102060236,0.00036090612,0.0,0.0,-0.001,0
20820000,0.101568684,0.10211317,0.0003041625,0.0,0.0,-0.001,0
20844000,0.101320624,0.10226284,0.0003258586,0.0,0.0,-0.001,0
20860000,0.1011363,0.1023435,0.00027954578,0.0,0.0,-0.001,0
20884000,0.101106666,0.10237531,0.00031125546,0.0,0.0,-0.001,0
20904000,0.10108099,0.10221354,0.00036007166,0.0,0.0,-0.001,0
20924000,0.101103336,0.10207197,0.0003016591,0.0,0.0,-0.001,0
20944000,0.10098952,0.10195617,0.0003450513,0.0,0.0,-0.001,0
20964000,0.10089488,0.10182087,0.00032293797,0.0,0.0,-0.001,0
20984000,0.10071122,0.10189459,0.00036674738,0.0,0.0,-0.001,0
21004000,0.100845866,0.10135036,0.00035005808,0.0,0.0,-0.001,0
21020000,0.10101205,0.10123966,0.00034046173,0.0,0.0,-0.001,0
21044000,0.10096571,0.101106666,0.00046646595,0.0,0.0,-0.001,0
21064000,0.101237915,0.10090883,0.00035339594,0.0,0.0,-0.001,0
21084000,0.101335965,0.10084894,0.00034213066,0.0,0.0,-0.001,0
21100000,0.10155086,0.100724414,0.00036674738,0.0,0.0,-0.001,0
21124000,0.10148852,0.10069373,0.00043183565,0.0,0.0,-0.001,0
21140000,0.10169963,0.100362204,0.0004389286,0.0,0.0,-0.001,0
21164000,0.10179623,0.10004444,0.00026744604,0.0,0.0,-0.001,0
21184000,0.10164419,0.09982126,0.0003659129,0.0,0.0,-0.001,0
21204000,0.10151405,0.0997752,0.0004080534,0.0,0.0,-0.001,0
21220000,0.101484284,0.09999961,0.0004247427,0.0,0.0,-0.001,0
21244000,0.10126035,0.10046506,0.00042933226,0.0,0.0,-0.001,0
21264000,0.101005115,0.100488394,0.00036466122,0.0,0.0,-0.001,0
21284000,0.10084825,0.10057167,0.00043308735,0.0,0.0,-0.001,0
21304000,0.10082871,0.10045398,0.00039428473,0.0,0.0,-0.001,0
21324000,0.10074504,0.100657806,0.00047439337,0.0,0.0,-0.001,0
21340000,0.10063055,0.10068265,0.00038927794,0.0,0.0,-0.001,0
21364000,0.100681014,0.10069881,0.0004005432,0.0,0.0,-0.001,0
21380000,0.10062567,0.100491084,0.00041472912,0.0,0.0,-0.001,0
21404000,0.10055987,0.100253984,0.00044184923,0.0,0.0,-0.001,0
21424000,0.100534715,0.10010713,0.0003504753,0.0,0.0,-0.001,0
21440000,0.10070608,0.09998629,0.00038218498,0.0,0.0,-0.001,0
21460000,0.10080152,0.09996989,0.0004118085,0.0,0.0,-0.001,0
21484000,0.10080463,0.10013881,0.00037801266,0.0,0.0,-0.001,0
21500000,0.10096581,0.100334845,0.0003838539,0.0,0.0,-0.001,0
21524000,0.101128995,0.10019816,0.00034672022,0.0,0.0,-0.001,0
21540000,0.101105854,0.10015276,0.00034338236,0.0,0.0,-0.001,0
21564000,0.100991234,0.1002077,0.00031000376,0.0,0.0,-0.001,0
21580000,0.10099278,0.10041605,0.00028538704,0.0,0.0,-0.001,0
21604000,0.10106293,0.100684546,0.0004105568,0.0,0.0,-0.001,0
21624000,0.100835636,0.10075162,0.00034213066,0.0,0.0,-0.001,0
21644000,0.100713834,0.10077499,0.00034213066,0.0,0.0,-0.001,0
21664000,0.10078981,0.10092529,0.00033044815,0.0,0.0,-0.001,0
21684000,0.100859076,0.10135308,0.00037884712,0.0,0.0,-0.001,0
21704000,0.100792065,0.10146729,0.00035089254,0.0,0.0,-0.001,0
21724000,0.100799754,0.101354815,0.00036215782,0.0,0.0,-0.001,0
21740000,0.100755006,0.101316884,0.00037300587,0.0,0.0,-0.001,0
21764000,0.10045331,0.10147278,0.00040763617,0.0,0.0,-0.001,0
21780000,0.10050312,0.10132476,0.00041347742,0.0,0.0,-0.001,0
21804000,0.10066378,0.10165178,0.00030499697,0.0,0.0,-0.001,0
21824000,0.10051969,0.1018227,0.00028914213,0.0,0.0,-0.001,0
21844000,0.10057583,0.1017562,0.00030332804,0.0,0.0,-0.001,0
21860000,0.100455515,0.101857334,0.00029623508,0.0,0.0,-0.001,0
21884000,0.100480646,0.10174429,0.0003362894,0.0,0.0,-0.001,0
21900000,0.10041084,0.10152175,0.0003325343,0.0,0.0,-0.001,0
21924000,0.10025961,0.101624854,0.0002862215,0.0,0.0,-0.001,0
21944000,0.100277476,0.10159438,0.00035464764,0.0,0.0,-0.001,0
21960000,0.10031536,0.10157882,0.00033837557,0.0,0.0,-0.001,0
21980000,0.100497,0.101613484,0.00037175417,0.0,0.0,-0.001,0
22004000,0.100352965,0.101596944,0.00036424398,0.0,0.0,-0.001,0
22020000,0.10013661,0.1014995,0.0002899766,0.0,0.0,-0.001,0
22044000,0.10017462,0.10154321,0.00035506487,0.0,0.0,-0.001,0
22060000,0.099887855,0.10172247,0.0003246069,0.0,0.0,-0.001,0
22084000,0.09985234,0.10149959,0.00035840273,0.0,0.0,-0.001,0
22104000,0.099777,0.10159795,0.00037801266,0.0,0.0,-0.001,0
22124000,0.09981317,0.10150289,0.00043016672,0.0,0.0,-0.001,0
22144000,0.100003384,0.10147632,0.00042182207,0.0,0.0,-0.001,0
22164000,0.09987628,0.10159514,0.00038260221,0.0,0.0,-0.001,0
22184000,0.099797316,0.10136235,0.00036132336,0.0,0.0,-0.001,0
22204000,0.099676445,0.101449415,0.00038009882,0.0,0.0,-0.001,0
22224000,0.09966128,0.1013971,0.00039428473,0.0,0.0,-0.001,0
22244000,0.099674016,0.10146371,0.0004543662,0.0,0.0,-0.001,0
22260000,0.09961471,0.1012851,0.00042933226,0.0,0.0,-0.001,0
22280000,0.09964806,0.10131137,0.00032293797,0.0,0.0,-0.001,0
22300000,0.099749416,0.10126303,0.00043350458,0.0,0.0,-0.001,0
22324000,0.099524066,0.1013056,0.0004476905,0.0,0.0,-0.001,0
22340000,0.099360056,0.101398446,0.00041806698,0.0,0.0,-0.001,0
22364000,0.0993152,0.10139195,0.0003604889,0.0,0.0,-0.001,0
22380000,0.09932288,0.101326846,0.0003437996,0.0,0.0,-0.001,0
22404000,0.09908539,0.101274945,0.00036090612,0.0,0.0,-0.001,0
22420000,0.098902255,0.10124601,0.00031626225,0.0,0.0,-0.001,0
22444000,0.09874105,0.10127631,0.0003296137,0.0,0.0,-0.001,0
22464000,0.09861656,0.10130889,0.00033670664,0.0,0.0,-0.001,0
22480000,0.098477766,0.10126325,0.00030708313,0.0,0.0,-0.001,0
22500000,0.09852382,0.10132447,0.0002899766,0.0,0.0,-0.001,0
22520000,0.09839912,0.10122268,0.00038260221,0.0,0.0,-0.001,0
22544000,0.098263994,0.10124992,0.00040596724,0.0,0.0,-0.001,0
22564000,0.09827643,0.10117427,0.00040137768,0.0,0.0,-0.001,0
22584000,0.09830115,0.10130594,0.00036424398,0.0,0.0,-0.001,0
22600000,0.09829186,0.10115814,0.00039678812,0.0,0.0,-0.001,0
22620000,0.09814699,0.1011242,0.00046730042,0.0,0.0,-0.001,0
22640000,0.09823659,0.10084031,0.00036758184,0.0,0.0,-0.001,0
22660000,0.098044254,0.10075443,0.00043350458,0.0,0.0,-0.001,0
22684000,0.09792784,0.100466,0.00034838915,0.0,0.0,-0.001,0
22700000,0.09791708,0.10020391,0.000328362,0.0,0.0,-0.001,0
22724000,0.097919025,0.100107215,0.00036132336,0.0,0.0,-0.001,0
22744000,0.09766118,0.100097835,0.00032418966,0.0,0.0,-0.001,0
22764000,0.09778594,0.09994125,0.0003041625,0.0,0.0,-0.001,0
22784000,0.0980329,0.10001559,0.00035965443,0.0,0.0,-0.001,0
22804000,0.09817589,0.10015823,0.00029414892,0.0,0.0,-0.001,0
22820000,0.09827233,0.100491874,0.00022822618,0.0,0.0,-0.001,0
22844000,0.098098695,0.10071218,0.00024366379,0.0,0.0,-0.001,0
22864000,0.09802914,0.10073639,0.00030624866,0.0,0.0,-0.001,0
22884000,0.098217666,0.10072445,0.00026118755,0.0,0.0,-0.001,0
22900000,0.09822254,0.10067267,0.00031208992,0.0,0.0,-0.001,0
22924000,0.0982548,0.10043098,0.00027662516,0.0,0.0,-0.001,0
22940000,0.098178044,0.100638226,0.00025993586,0.0,0.0,-0.001,0
22964000,0.098032355,0.10075479,0.00034087896,0.0,0.0,-0.001,0
22980000,0.098214634,0.10044465,0.00033962727,0.0,0.0,-0.001,0
23004000,0.098178744,0.10055732,0.00035506487,0.0,0.0,-0.001,0
23020000,0.09806203,0.10038174,0.00035631657,0.0,0.0,-0.001,0
23044000,0.098297775,0.10022524,0.0003746748,0.0,0.0,-0.001,0
23060000,0.09825953,0.10020645,0.00033921003,0.0,0.0,-0.001,0
23084000,0.09825912,0.10013175,0.00032043457,0.0,0.0,-0.001,0
23100000,0.098272234,0.100205384,0.0002837181,0.0,0.0,-0.001,0
23120000,0.09839231,0.100133546,0.00030833483,0.0,0.0,-0.001,0
23140000,0.09836209,0.1005427,0.00023823977,0.0,0.0,-0.001,0
23164000,0.098552346,0.100679874,0.00028789043,0.0,0.0,-0.001,0
23180000,0.09857325,0.10049175,0.00027745962,0.0,0.0,-0.001,0
23204000,0.09849329,0.10023687,0.0003183484,0.0,0.0,-0.001,0
23220000,0.09845762,0.100193664,0.00034421682,0.0,0.0,-0.001,0
23244000,0.09827672,0.10025431,0.00027370453,0.0,0.0,-0.001,0
23260000,0.098162726,0.100367844,0.00031626225,0.0,0.0,-0.001,0
23284000,0.09828675,0.10047274,0.00034672022,0.0,0.0,-0.001,0
23300000,0.09835492,0.10023993,0.0003784299,0.0,0.0,-0.001,0
23324000,0.098477356,0.09999693,0.00036925077,0.0,0.0,-0.001,0
23340000,0.09843752,0.10016974,0.00034087896,0.0,0.0,-0.001,0
23360000,0.09847697,0.10055625,0.00035256147,0.0,0.0,-0.001,0
23380000,0.09847683,0.100693144,0.00030249357,0.0,0.0,-0.001,0
23404000,0.09835017,0.10075504,0.00041764975,0.0,0.0,-0.001,0
23420000,0.0984737,0.10064268,0.00027871132,0.0,0.0,-0.001,0
23440000,0.098447904,0.10073188,0.00028955936,0.0,0.0,-0.001,0
23460000,0.098385684,0.10071225,0.000310421,0.0,0.0,-0.001,0
23484000,0.09839341,0.100686505,0.00033587217,0.0,0.0,-0.001,0
23500000,0.09819246,0.100553244,0.00029414892,0.0,0.0,-0.001,0
23524000,0.098429225,0.10024142,0.00030332804,0.0,0.0,-0.001,0
23544000,0.09831368,0.099913746,0.0003221035,0.0,0.0,-0.001,0
23564000,0.098167285,0.09981717,0.0002899766,0.0,0.0,-0.001,0
23580000,0.09808772,0.09989065,0.0003412962,0.0,0.0,-0.001,0
23600000,0.0981842,0.09995036,0.00032126904,0.0,0.0,-0.001,0
23620000,0.09816171,0.0998553,0.00029331446,0.0,0.0,-0.001,0
23644000,0.098054156,0.09970384,0.00032669306,0.0,0.0,-0.001,0
23660000,0.09828019,0.09951134,0.00032502413,0.0,0.0,-0.001,0
23684000,0.09818975,0.09937927,0.0002645254,0.0,0.0,-0.001,0
23700000,0.09817063,0.09948497,0.00028455257,0.0,0.0,-0.001,0
23724000,0.0981069,0.099481024,0.00025326014,0.0,0.0,-0.001,0
23740000,0.09793304,0.099655226,0.00028413534,0.0,0.0,-0.001,0
23764000,0.097961366,0.099778645,0.0003029108,0.0,0.0,-0.001,0
23780000,0.09792806,0.09978107,0.00022155046,0.0,0.0,-0.001,0
23804000,0.09803248,0.09989728,0.00028580427,0.0,0.0,-0.001,0
23820000,0.098042734,0.10009025,0.00031083822,0.0,0.0,-0.001,0
23844000,0.09806095,0.10017831,0.00029289722,0.0,0.0,-0.001,0
23860000,0.09801373,0.099861465,0.00030207634,0.0,0.0,-0.001,0
23884000,0.097897165,0.09987548,0.0004105568,0.0,0.0,-0.001,0
23904000,0.09806489,0.09954049,0.00033921003,0.0,0.0,-0.001,0
23924000,0.097964294,0.099666715,0.00031125546,0.0,0.0,-0.001,0
23944000,0.09795916,0.0998698,0.0003746748,0.0,0.0,-0.001,0
23964000,0.09769903,0.0998014,0.00034213066,0.0,0.0,-0.001,0
23980000,0.09750106,0.09958126,0.00030332804,0.0,0.0,-0.001,0
