timestamp,timestamp_sample,lat,lon,alt,alt_ellipsoid,delta_alt,eph,epv,terrain_alt,lat_lon_reset_counter,alt_reset_counter,terrain_alt_valid,dead_reckoning
8788000,8788000,47.397750804342955,8.545607397803055,488.10025,488.10303,-0.00549623,1.7320508,1.4142135,nan,2,2,0,0
8796000,8796000,47.39775080292861,8.54560739790271,488.09982,488.1026,-0.00549623,1.7320541,1.4142181,nan,2,2,0,0
8804000,8804000,47.39775080144538,8.545607397997601,488.0994,488.10217,-0.00549623,1.7320641,1.4142319,nan,2,2,0,0
8812000,8812000,47.397750799911954,8.545607398094663,488.09897,488.10175,-0.00549623,1.7320807,1.4142549,nan,2,2,0,0
8820000,8820000,47.39775079833081,8.545607398194727,488.0985,488.1013,-0.00549623,1.7321041,1.4142869,nan,2,2,0,0
8828000,8828000,47.39775079670554,8.545607398306663,488.09805,488.10083,-0.00549623,1.732134,1.4143282,nan,2,2,0,0
8836000,8836000,47.39775079504481,8.545607398426876,488.09738,488.10016,-0.00549623,1.7321706,1.3874192,nan,2,2,0,0
8844000,8844000,47.39775079334908,8.545607398542636,488.0967,488.0995,-0.00549623,1.7322137,1.3874757,nan,2,2,0,0
8852000,8852000,47.39775079161764,8.545607398657063,488.096,488.0988,-0.00549623,1.7322637,1.3875415,nan,2,2,0,0
8860000,8860000,47.397750789830965,8.54560739878134,488.0953,488.09808,-0.00549623,1.7323202,1.3876168,nan,2,2,0,0
8868000,8868000,47.397750787995626,8.545607398923512,488.0946,488.09738,-0.00549623,1.7323835,1.3877013,nan,2,2,0,0
8876000,8876000,47.39775078617603,8.545607399069931,488.09393,488.0967,-0.00549623,1.7324533,1.3877952,nan,2,2,0,0
8884000,8884000,47.39775078437403,8.545607399211285,488.09323,488.096,-0.00549623,1.7325299,1.3878984,nan,2,2,0,0
8892000,8892000,47.39775078259382,8.545607399352466,488.09262,488.0954,-0.00549623,1.7326131,1.3643411,nan,2,2,0,0
8900000,8900000,47.397750780818136,8.545607399497309,488.09204,488.09482,-0.00549623,1.732703,1.3644568,nan,2,2,0,0
8908000,8908000,47.39775077903079,8.545607399653175,488.09143,488.0942,-0.00549623,1.7327994,1.3645818,nan,2,2,0,0
8916000,8916000,47.39775077724448,8.545607399821149,488.09085,488.09363,-0.00549623,1.7329026,1.3647165,nan,2,2,0,0
8924000,8924000,47.39775077546509,8.545607399997635,488.09027,488.09305,-0.00549623,1.7330126,1.3648607,nan,2,2,0,0
8932000,8932000,47.39775077369072,8.545607400165265,488.0897,488.09247,-0.00549623,1.733129,1.3650142,nan,2,2,0,0
8940000,8940000,47.397750771928315,8.545607400330901,488.0891,488.0919,-0.00549623,1.7332522,1.3651773,nan,2,2,0,0
8948000,8948000,47.39775077017224,8.545607400522007,488.08856,488.09134,-0.00549623,1.733382,1.3653499,nan,2,2,0,0
8956000,8956000,47.397750768412216,8.54560740072152,488.0878,488.09058,-0.00549623,1.7335184,1.3444998,nan,2,2,0,0
8964000,8964000,47.397750766651626,8.545607400931516,488.08707,488.08984,-0.00549623,1.7336614,1.3446819,nan,2,2,0,0
8972000,8972000,47.39775076489823,8.545607401165725,488.0863,488.08908,-0.00549623,1.7338113,1.3448735,nan,2,2,0,0
8980000,8980000,47.39775076315531,8.545607401432413,488.0856,488.08838,-0.00549623,1.7339677,1.3450748,nan,2,2,0,0
8988000,8988000,47.397750761407856,8.545607401709113,488.08487,488.08765,-0.00549623,1.7341307,1.3452857,nan,2,2,0,0
8996000,8996000,47.397750759646854,8.54560740199258,488.08417,488.08694,-0.00549623,1.7343004,1.3455061,nan,2,2,0,0
9004000,9004000,47.397750757883124,8.545607402284066,488.08344,488.0862,-0.00549623,1.7344768,1.3268993,nan,2,2,0,0
9012000,9012000,47.397750756114945,8.54560740257956,488.08273,488.0855,-0.00549623,1.7346598,1.3271275,nan,2,2,0,0
9020000,9020000,47.39775075434417,8.545607402873928,488.08203,488.0848,-0.00549623,1.7348495,1.3273655,nan,2,2,0,0
9028000,9028000,47.39775075257419,8.54560740317285,488.08133,488.0841,-0.00549623,1.7350458,1.3276132,nan,2,2,0,0
9036000,9036000,47.3977507508112,8.545607403461279,488.08066,488.08344,-0.00549623,1.7352487,1.3278707,nan,2,2,0,0
9044000,9044000,47.39775074904628,8.545607403742551,488.07996,488.08273,-0.00549623,1.7354583,1.3281379,nan,2,2,0,0
9052000,9052000,47.39775074727188,8.54560740402277,488.07928,488.08206,-0.00549623,1.7356746,1.3284148,nan,2,2,0,0
9060000,9060000,47.39775074548811,8.545607404295058,488.07874,488.0815,-0.00549623,1.7358975,1.311658,nan,2,2,0,0
9068000,9068000,47.39775074369961,8.545607404577554,488.07822,488.081,-0.00549623,1.7361271,1.3119408,nan,2,2,0,0
9076000,9076000,47.397750741919985,8.545607404858577,488.07767,488.08044,-0.00549623,1.7363633,1.3122334,nan,2,2,0,0
9084000,9084000,47.397750740157214,8.545607405135653,488.07712,488.0799,-0.00549623,1.7366061,1.3125358,nan,2,2,0,0
9092000,9092000,47.397750738400795,8.5456074054134,488.0766,488.07938,-0.00549623,1.7368556,1.312848,nan,2,2,0,0
9100000,9100000,47.397750736641726,8.545607405690959,488.07608,488.07886,-0.00549623,1.7371117,1.3131701,nan,2,2,0,0
9108000,9108000,47.39775073488519,8.545607405977377,488.07556,488.07834,-0.00549623,1.7373744,1.3135018,nan,2,2,0,0
9116000,9116000,47.39775073314346,8.545607406299146,488.07504,488.07782,-0.00549623,1.7376438,1.3138435,nan,2,2,0,0
9124000,9124000,47.39775073140928,8.54560740664211,488.0746,488.07736,-0.00549623,1.7379199,1.2986093,nan,2,2,0,0
9132000,9132000,47.39775072966008,8.545607406986486,488.0741,488.07687,-0.00549623,1.7382026,1.2989545,nan,2,2,0,0
9140000,9140000,47.39775072791128,8.545607407351648,488.07364,488.07642,-0.00549623,1.7384919,1.2993096,nan,2,2,0,0
9148000,9148000,47.39775072616847,8.545607407717442,488.07318,488.07596,-0.00549623,1.7387878,1.2996746,nan,2,2,0,0
9156000,9156000,47.3977507244293,8.54560740808722,488.07272,488.0755,-0.00549623,1.7390903,1.3000495,nan,2,2,0,0
9164000,9164000,47.39775072267975,8.545607408472897,488.07227,488.07504,-0.00549623,1.7393994,1.3004342,nan,2,2,0,0
9172000,9172000,47.39775072092412,8.545607408877851,488.0718,488.0746,-0.00549623,1.7397153,1.3008288,nan,2,2,0,0
9180000,9180000,47.397750719168826,8.545607409292941,488.0714,488.0742,-0.00549623,1.7400378,1.2868955,nan,2,2,0,0
9188000,9188000,47.39775071740773,8.545607409708277,488.071,488.0738,-0.00549623,1.7403668,1.2872922,nan,2,2,0,0
9196000,9196000,47.3977507182128,8.54560740977346,488.07114,488.0752,-0.00549623,1.4168667,1.1802349,nan,2,2,0,0
9204000,9204000,47.397750719005806,8.545607409841365,488.0713,488.07535,-0.00549623,1.4169724,1.180374,nan,2,2,0,0
9212000,9212000,47.39775071977621,8.545607409910074,488.07144,488.0755,-0.00549623,1.4170822,1.1805186,nan,2,2,0,0
9220000,9220000,47.39775072052389,8.545607409977558,488.07156,488.07562,-0.00549623,1.4171962,1.1806687,nan,2,2,0,0
9228000,9228000,47.39775072126119,8.54560741004388,488.07172,488.07578,-0.00549623,1.417314,1.1808242,nan,2,2,0,0
9236000,9236000,47.397750721984075,8.545607410134984,488.07184,488.0759,-0.00549623,1.417436,1.1809851,nan,2,2,0,0
9244000,9244000,47.39775072268717,8.545607410254487,488.0721,488.07617,-0.00549623,1.417562,1.1759166,nan,2,2,0,0
9252000,9252000,47.3977507233821,8.545607410363955,488.07236,488.07642,-0.00549623,1.4176921,1.1760838,nan,2,2,0,0
9260000,9260000,47.39775072406462,8.545607410471268,488.0726,488.07666,-0.00549623,1.4178262,1.1762564,nan,2,2,0,0
9268000,9268000,47.397750724720254,8.545607410587664,488.07288,488.07693,-0.00549623,1.4179643,1.1764345,nan,2,2,0,0
9276000,9276000,47.39775072534565,8.545607410720184,488.07312,488.07718,-0.00549623,1.4181067,1.1766181,nan,2,2,0,0
9284000,9284000,47.397750725945166,8.54560741085249,488.07336,488.07742,-0.00549623,1.4182531,1.176807,nan,2,2,0,0
9292000,9292000,47.397750726529544,8.545607410985331,488.07358,488.07764,-0.00549623,1.4184035,1.1770015,nan,2,2,0,0
9300000,9300000,47.397750727100146,8.545607411115228,488.07382,488.07788,-0.00549623,1.418558,1.1721909,nan,2,2,0,0
9308000,9308000,47.39775072764977,8.545607411251396,488.07407,488.07812,-0.00549623,1.4187165,1.1723909,nan,2,2,0,0
9316000,9316000,47.39775072816695,8.545607411408847,488.0743,488.07837,-0.00549623,1.4188792,1.1725962,nan,2,2,0,0
9324000,9324000,47.39775072864274,8.545607411573561,488.07455,488.0786,-0.00549623,1.4190459,1.1728071,nan,2,2,0,0
9332000,9332000,47.397750729074765,8.545607411729094,488.0748,488.07886,-0.00549623,1.4192166,1.1730235,nan,2,2,0,0
9340000,9340000,47.39775072947686,8.545607411888328,488.075,488.07907,-0.00549623,1.4193915,1.1732452,nan,2,2,0,0
9348000,9348000,47.39775072986238,8.54560741205663,488.07526,488.0793,-0.00549623,1.4195704,1.1734724,nan,2,2,0,0
9356000,9356000,47.39775073024114,8.545607412233048,488.07547,488.07953,-0.00549623,1.4197534,1.173705,nan,2,2,0,0
9364000,9364000,47.397750730600954,8.545607412436443,488.07568,488.07974,-0.00549623,1.4199405,1.1691141,nan,2,2,0,0
9372000,9372000,47.39775073093428,8.545607412643758,488.0759,488.07996,-0.00549623,1.4201317,1.1693515,nan,2,2,0,0
9380000,9380000,47.39775073124458,8.545607412831968,488.0761,488.08017,-0.00549623,1.420327,1.1695942,nan,2,2,0,0
9388000,9388000,47.39775073154536,8.545607413036352,488.07632,488.08038,-0.00549623,1.4205263,1.1698422,nan,2,2,0,0
9396000,9396000,47.39775073183847,8.545607413243742,488.07654,488.0806,-0.00549623,1.4207296,1.1700959,nan,2,2,0,0
9404000,9404000,47.39775073212918,8.545607413439736,488.07672,488.08078,-0.00549623,1.4209371,1.1703551,nan,2,2,0,0
9412000,9412000,47.397750732408674,8.545607413649586,488.07693,488.081,-0.00549623,1.4211485,1.1706195,nan,2,2,0,0
9420000,9420000,47.39775073266042,8.545607413852423,488.07706,488.08112,-0.00549623,1.4213642,1.1662276,nan,2,2,0,0
9428000,9428000,47.39775073288816,8.545607414036798,488.07718,488.08124,-0.00549623,1.421584,1.166496,nan,2,2,0,0
9436000,9436000,47.39775073311219,8.545607414234723,488.07733,488.0814,-0.00549623,1.4218078,1.16677,nan,2,2,0,0
9444000,9444000,47.397750733325196,8.545607414463248,488.07745,488.0815,-0.00549623,1.4220357,1.1670493,nan,2,2,0,0
9452000,9452000,47.39775073351166,8.545607414699877,488.07758,488.08163,-0.00549623,1.4222677,1.1673341,nan,2,2,0,0
9460000,9460000,47.39775073368235,8.545607414947417,488.07767,488.08173,-0.00549623,1.4225037,1.1676244,nan,2,2,0,0
9468000,9468000,47.397750733845804,8.545607415217155,488.0778,488.08185,-0.00549623,1.422744,1.16792,nan,2,2,0,0
9476000,9476000,47.397750733985156,8.545607415489332,488.0779,488.08197,-0.00549623,1.4229882,1.1682211,nan,2,2,0,0
9484000,9484000,47.39775073408967,8.54560741576501,488.07797,488.08203,-0.00549623,1.4232366,1.1639931,nan,2,2,0,0
9492000,9492000,47.39775073416077,8.545607416055029,488.07806,488.08212,-0.00549623,1.423489,1.1642973,nan,2,2,0,0
9500000,9500000,47.39775073420263,8.545607416353624,488.07812,488.08218,-0.00549623,1.4237455,1.1646069,nan,2,2,0,0
9508000,9508000,47.39775073422893,8.545607416636528,488.07822,488.08228,-0.00549623,1.4240062,1.164922,nan,2,2,0,0
9516000,9516000,47.39775073423747,8.545607416916019,488.07828,488.08234,-0.00549623,1.424271,1.1652426,nan,2,2,0,0
9524000,9524000,47.397750734222164,8.545607417200209,488.07834,488.0824,-0.00549623,1.4245398,1.1655685,nan,2,2,0,0
9532000,9532000,47.3977507341801,8.54560741746944,488.0784,488.08246,-0.00549623,1.4248127,1.1658999,nan,2,2,0,0
9540000,9540000,47.39775073410254,8.545607417741543,488.07846,488.08252,-0.00549623,1.4250898,1.1618239,nan,2,2,0,0
9548000,9548000,47.39775073399528,8.545607418023234,488.07852,488.08258,-0.00549623,1.4253709,1.1621577,nan,2,2,0,0
9556000,9556000,47.39775073387586,8.5456074183038,488.07858,488.08264,-0.00549623,1.4256562,1.1624969,nan,2,2,0,0
9564000,9564000,47.39775073374052,8.545607418572908,488.0786,488.08267,-0.00549623,1.4259455,1.1628416,nan,2,2,0,0
9572000,9572000,47.39775073357578,8.545607418856605,488.07867,488.08273,-0.00549623,1.426239,1.1631917,nan,2,2,0,0
9580000,9580000,47.39775073338231,8.545607419174118,488.07874,488.0828,-0.00549623,1.4265366,1.1635473,nan,2,2,0,0
9588000,9588000,47.3977507343508,8.54560741739499,488.07895,488.08374,-0.00549623,1.2957467,1.1210487,nan,2,2,0,0
9596000,9596000,47.3977507352939,8.545607415625748,488.07916,488.08395,-0.00549623,1.2958945,1.1212382,nan,2,2,0,0
9604000,9604000,47.39775073622092,8.54560741384318,488.07935,488.08414,-0.00549623,1.2960454,1.1190659,nan,2,2,0,0
9612000,9612000,47.39775073713087,8.545607412062557,488.07956,488.08435,-0.00549623,1.2961993,1.1192592,nan,2,2,0,0
9620000,9620000,47.39775073802097,8.545607410304228,488.07974,488.08453,-0.00549623,1.2963562,1.1194564,nan,2,2,0,0
9628000,9628000,47.397750738882884,8.545607408568925,488.07993,488.08472,-0.00549623,1.296516,1.1196573,nan,2,2,0,0
9636000,9636000,47.39775073970263,8.545607406855687,488.08008,488.08487,-0.00549623,1.2966789,1.1198618,nan,2,2,0,0
9644000,9644000,47.39775074049239,8.54560740517093,488.08026,488.08505,-0.00549623,1.2968447,1.1200702,nan,2,2,0,0
9652000,9652000,47.39775074125526,8.545607403501387,488.08044,488.08524,-0.00549623,1.2970135,1.1202823,nan,2,2,0,0
9660000,9660000,47.39775074199259,8.545607401848605,488.08063,488.08542,-0.00549623,1.2971854,1.1181688,nan,2,2,0,0
9668000,9668000,47.3977507427103,8.545607400211695,488.0808,488.0856,-0.00549623,1.2973603,1.1183845,nan,2,2,0,0
9676000,9676000,47.39775074341083,8.545607398601247,488.081,488.0858,-0.00549623,1.2975382,1.1186038,nan,2,2,0,0
9684000,9684000,47.39775074409292,8.545607397021369,488.08118,488.08597,-0.00549623,1.297719,1.118827,nan,2,2,0,0
9692000,9692000,47.397750744733955,8.54560739545836,488.08133,488.08612,-0.00549623,1.2979028,1.1190537,nan,2,2,0,0
9700000,9700000,47.39775074534673,8.54560739392428,488.0815,488.0863,-0.00549623,1.2980897,1.1192844,nan,2,2,0,0
9708000,9708000,47.39775074594046,8.545607392401706,488.08167,488.08646,-0.00549623,1.2982796,1.1195188,nan,2,2,0,0
9716000,9716000,47.39775074651994,8.545607390904403,488.08182,488.0866,-0.00549623,1.2984726,1.1197568,nan,2,2,0,0
9724000,9724000,47.3977507470635,8.545607389445552,488.0819,488.0867,-0.00549623,1.2986685,1.1176885,nan,2,2,0,0
9732000,9732000,47.397750747579025,8.545607388017253,488.082,488.0868,-0.00549623,1.2988676,1.1179297,nan,2,2,0,0
9740000,9740000,47.397750748078245,8.545607386605198,488.0821,488.08688,-0.00549623,1.2990695,1.1181746,nan,2,2,0,0
9748000,9748000,47.39775074855377,8.545607385197679,488.08218,488.08698,-0.00549623,1.2992746,1.1184231,nan,2,2,0,0
9756000,9756000,47.397750749000906,8.545607383793916,488.08224,488.08704,-0.00549623,1.2994826,1.1186754,nan,2,2,0,0
9764000,9764000,47.39775074942243,8.54560738241042,488.08234,488.08713,-0.00549623,1.2996937,1.1189314,nan,2,2,0,0
9772000,9772000,47.397750749806534,8.545607381034255,488.0824,488.0872,-0.00549623,1.2999079,1.1191912,nan,2,2,0,0
9780000,9780000,47.397750750152376,8.54560737967128,488.08243,488.08722,-0.00549623,1.3001251,1.1171657,nan,2,2,0,0
9788000,9788000,47.39775075047745,8.545607378341435,488.08246,488.08725,-0.00549623,1.3003454,1.1174281,nan,2,2,0,0
9796000,9796000,47.39775075077332,8.545607377044702,488.0825,488.08728,-0.00549623,1.3005687,1.1176941,nan,2,2,0,0
9804000,9804000,47.397750751034486,8.545607375768329,488.08252,488.0873,-0.00549623,1.300795,1.117964,nan,2,2,0,0
9812000,9812000,47.39775075125972,8.545607374508126,488.08252,488.0873,-0.00549623,1.3010244,1.1182377,nan,2,2,0,0
9820000,9820000,47.39775075145405,8.545607373266881,488.08255,488.08734,-0.00549623,1.3012569,1.118515,nan,2,2,0,0
9828000,9828000,47.397750751623505,8.545607372050235,488.08258,488.08737,-0.00549623,1.3014925,1.1187961,nan,2,2,0,0
9836000,9836000,47.39775075176944,8.545607370859546,488.0826,488.0874,-0.00549623,1.301731,1.1190809,nan,2,2,0,0
9844000,9844000,47.39775075188341,8.54560736970094,488.08264,488.08743,-0.00549623,1.3019727,1.1170837,nan,2,2,0,0
9852000,9852000,47.39775075197513,8.54560736858411,488.08267,488.08746,-0.00549623,1.3022175,1.1173707,nan,2,2,0,0
9860000,9860000,47.39775075204654,8.545607367494389,488.0827,488.0875,-0.00549623,1.3024653,1.1176614,nan,2,2,0,0
9868000,9868000,47.397750752107605,8.545607366412083,488.0827,488.0875,-0.00549623,1.3027161,1.1179558,nan,2,2,0,0
9876000,9876000,47.39775075214733,8.545607365338293,488.08273,488.08752,-0.00549623,1.3029702,1.1182538,nan,2,2,0,0
9884000,9884000,47.39775075215487,8.545607364287381,488.08276,488.08755,-0.00549623,1.3032273,1.1185558,nan,2,2,0,0
9892000,9892000,47.39775075213471,8.545607363261041,488.08273,488.08752,-0.00549623,1.3034875,1.116595,nan,2,2,0,0
9900000,9900000,47.39775075210125,8.545607362263409,488.0827,488.0875,-0.00549623,1.3037508,1.1168988,nan,2,2,0,0
9908000,9908000,47.3977507520479,8.545607361289646,488.08267,488.08746,-0.00549623,1.3040172,1.1172062,nan,2,2,0,0
9916000,9916000,47.39775075197445,8.5456073603452,488.0826,488.0874,-0.00549623,1.3042867,1.1175172,nan,2,2,0,0
9924000,9924000,47.39775075189778,8.545607359439067,488.08258,488.08737,-0.00549623,1.3045594,1.1178322,nan,2,2,0,0
9932000,9932000,47.39775075180875,8.545607358556667,488.08255,488.08734,-0.00549623,1.3048351,1.1181506,nan,2,2,0,0
9940000,9940000,47.39775075170955,8.545607357692852,488.0825,488.08728,-0.00549623,1.3051139,1.1184728,nan,2,2,0,0
9948000,9948000,47.397750751605535,8.545607356837754,488.08246,488.08725,-0.00549623,1.3053958,1.1165352,nan,2,2,0,0
9956000,9956000,47.39775075147528,8.54560735599766,488.0824,488.0872,-0.00549623,1.305681,1.1168588,nan,2,2,0,0
9964000,9964000,47.397750751327344,8.545607355182126,488.08234,488.08713,-0.00549623,1.3059692,1.1171863,nan,2,2,0,0
9972000,9972000,47.39775075116443,8.545607354398983,488.08228,488.08707,-0.00549623,1.3062606,1.1175174,nan,2,2,0,0
9980000,9980000,47.397750750986006,8.54560735366212,488.0822,488.087,-0.00549623,1.3065552,1.1178522,nan,2,2,0,0
9988000,9988000,47.39775075077799,8.545607352961357,488.08215,488.08694,-0.00549623,1.3068528,1.1181908,nan,2,2,0,0
9996000,9996000,47.39775075035889,8.545607353739696,488.08234,488.0873,-0.00549623,1.2322534,1.09324,nan,2,2,0,0
10004000,10004000,47.39775074992919,8.545607354493306,488.08252,488.0875,-0.00549623,1.2324301,1.093455,nan,2,2,0,0
10012000,10012000,47.397750749483926,8.545607355214074,488.08273,488.0877,-0.00549623,1.232609,1.0922613,nan,2,2,0,0
10020000,10020000,47.39775074902561,8.545607355907137,488.08292,488.0879,-0.00549623,1.2327906,1.0924786,nan,2,2,0,0
10028000,10028000,47.39775074856477,8.545607356572717,488.08313,488.0881,-0.00549623,1.2329744,1.0926989,nan,2,2,0,0
10036000,10036000,47.39775074809301,8.545607357225524,488.0833,488.0883,-0.00549623,1.2331609,1.092922,nan,2,2,0,0
10044000,10044000,47.39775074760427,8.545607357866142,488.0835,488.08847,-0.00549623,1.2333497,1.0931479,nan,2,2,0,0
10052000,10052000,47.39775074709916,8.54560735849589,488.08368,488.08865,-0.00549623,1.2335409,1.0933765,nan,2,2,0,0
10060000,10060000,47.39775074657659,8.545607359136687,488.0839,488.08887,-0.00549623,1.2337346,1.0921986,nan,2,2,0,0
10068000,10068000,47.39775074603188,8.545607359775833,488.0841,488.08908,-0.00549623,1.2339308,1.0924295,nan,2,2,0,0
10076000,10076000,47.397750745464286,8.545607360385542,488.0843,488.08926,-0.00549623,1.2341295,1.0926633,nan,2,2,0,0
10084000,10084000,47.39775074488095,8.545607360970264,488.08447,488.08945,-0.00549623,1.2343308,1.0928999,nan,2,2,0,0
10092000,10092000,47.39775074427961,8.545607361545649,488.0847,488.08966,-0.00549623,1.2345344,1.0931393,nan,2,2,0,0
10100000,10100000,47.39775074365623,8.545607362123844,488.08487,488.08984,-0.00549623,1.2347405,1.0933814,nan,2,2,0,0
10108000,10108000,47.3977507430174,8.54560736271617,488.08505,488.09003,-0.00549623,1.2349491,1.0936265,nan,2,2,0,0
10116000,10116000,47.39775074236991,8.545607363309948,488.08517,488.09015,-0.00549623,1.2351602,1.092457,nan,2,2,0,0
10124000,10124000,47.39775074171076,8.545607363895709,488.08533,488.0903,-0.00549623,1.235374,1.092704,nan,2,2,0,0
10132000,10132000,47.39775074104821,8.545607364479613,488.08548,488.09045,-0.00549623,1.2355901,1.0929539,nan,2,2,0,0
10140000,10140000,47.39775074038365,8.54560736506665,488.0856,488.09058,-0.00549623,1.2358088,1.0932065,nan,2,2,0,0
10148000,10148000,47.39775073970709,8.545607365644571,488.08575,488.09073,-0.00549623,1.2360301,1.093462,nan,2,2,0,0
10156000,10156000,47.397750739016104,8.54560736621017,488.08588,488.09085,-0.00549623,1.2362537,1.0937202,nan,2,2,0,0
10164000,10164000,47.39775073829959,8.545607366772385,488.086,488.09097,-0.00549623,1.2364801,1.0939813,nan,2,2,0,0
10172000,10172000,47.39775073756558,8.545607367321594,488.08612,488.0911,-0.00549623,1.2367089,1.0942452,nan,2,2,0,0
10180000,10180000,47.39775073681213,8.545607367862205,488.08624,488.09122,-0.00549623,1.2369403,1.0930755,nan,2,2,0,0
10188000,10188000,47.39775073603296,8.545607368402877,488.08633,488.0913,-0.00549623,1.2371742,1.0933411,nan,2,2,0,0
10196000,10196000,47.3977507352387,8.545607368952346,488.08643,488.0914,-0.00549623,1.2374105,1.0936095,nan,2,2,0,0
10204000,10204000,47.397750734425,8.545607369494615,488.08652,488.0915,-0.00549623,1.2376497,1.0938807,nan,2,2,0,0
10212000,10212000,47.39775073358885,8.54560737003227,488.08658,488.09155,-0.00549623,1.2378912,1.0941546,nan,2,2,0,0
10220000,10220000,47.397750732751994,8.545607370579628,488.08667,488.09164,-0.00549623,1.2381353,1.0944314,nan,2,2,0,0
10228000,10228000,47.39775073191271,8.545607371136473,488.0868,488.09177,-0.00549623,1.2383822,1.0932688,nan,2,2,0,0
10236000,10236000,47.397750731062544,8.545607371683047,488.0869,488.0919,-0.00549623,1.2386315,1.093547,nan,2,2,0,0
10244000,10244000,47.39775073019755,8.545607372221623,488.087,488.09198,-0.00549623,1.2388835,1.0938281,nan,2,2,0,0
10252000,10252000,47.397750729316705,8.545607372780063,488.08713,488.0921,-0.00549623,1.2391381,1.0941119,nan,2,2,0,0
10260000,10260000,47.39775072843528,8.545607373338202,488.08722,488.0922,-0.00549623,1.2393953,1.0943986,nan,2,2,0,0
10268000,10268000,47.397750727551205,8.545607373888481,488.08734,488.09232,-0.00549623,1.2396551,1.094688,nan,2,2,0,0
10276000,10276000,47.39775072666272,8.5456073744436,488.08743,488.0924,-0.00549623,1.2399175,1.0949804,nan,2,2,0,0
10284000,10284000,47.3977507257763,8.545607375003234,488.0875,488.09247,-0.00549623,1.2401825,1.093816,nan,2,2,0,0
10292000,10292000,47.397750724897115,8.54560737557406,488.0876,488.09256,-0.00549623,1.2404503,1.0941095,nan,2,2,0,0
10300000,10300000,47.39775072402105,8.545607376143105,488.08765,488.09262,-0.00549623,1.2407206,1.0944058,nan,2,2,0,0
10308000,10308000,47.39775072314886,8.5456073766963,488.0877,488.09268,-0.00549623,1.2409936,1.0947049,nan,2,2,0,0
10316000,10316000,47.39775072226638,8.545607377222971,488.08777,488.09274,-0.00549623,1.2412694,1.0950067,nan,2,2,0,0
10324000,10324000,47.39775072137798,8.545607377733564,488.08783,488.0928,-0.00549623,1.2415477,1.0953113,nan,2,2,0,0
10332000,10332000,47.39775072048701,8.545607378247528,488.0879,488.09286,-0.00549623,1.2418287,1.0956187,nan,2,2,0,0
10340000,10340000,47.39775071959829,8.545607378765018,488.08795,488.09293,-0.00549623,1.2421124,1.0959289,nan,2,2,0,0
10348000,10348000,47.39775071871035,8.545607379260721,488.08798,488.09296,-0.00549623,1.2423987,1.0947531,nan,2,2,0,0
10356000,10356000,47.39775071782102,8.545607379755785,488.08804,488.09302,-0.00549623,1.2426878,1.0950643,nan,2,2,0,0
10364000,10364000,47.39775071692647,8.545607380266377,488.08807,488.09305,-0.00549623,1.2429796,1.095378,nan,2,2,0,0
10372000,10372000,47.39775071602953,8.54560738078679,488.0881,488.09308,-0.00549623,1.2432741,1.0956948,nan,2,2,0,0
10380000,10380000,47.39775071513339,8.54560738130402,488.08813,488.0931,-0.00549623,1.2435714,1.0960143,nan,2,2,0,0
10388000,10388000,47.397750714228884,8.545607381815941,488.0882,488.09317,-0.00549623,1.2438713,1.0963365,nan,2,2,0,0
10396000,10396000,47.39775071592904,8.545607383671642,488.08826,488.09314,-0.00549623,1.1935635,1.0784123,nan,2,2,0,0
10404000,10404000,47.397750717583676,8.545607385484153,488.08838,488.09326,-0.00549623,1.1937585,1.0776411,nan,2,2,0,0
10412000,10412000,47.39775071919981,8.545607387262756,488.08847,488.09335,-0.00549623,1.1939555,1.0778655,nan,2,2,0,0
10420000,10420000,47.39775072078048,8.545607389011947,488.0886,488.09348,-0.00549623,1.1941549,1.0780921,nan,2,2,0,0
10428000,10428000,47.39775072232171,8.545607390736135,488.08868,488.09357,-0.00549623,1.1943563,1.0783209,nan,2,2,0,0
10436000,10436000,47.39775072382723,8.545607392437596,488.0888,488.0937,-0.00549623,1.1945599,1.0785519,nan,2,2,0,0
10444000,10444000,47.3977507252993,8.545607394094098,488.0889,488.09378,-0.00549623,1.1947658,1.0787852,nan,2,2,0,0
10452000,10452000,47.39775072673137,8.545607395716672,488.089,488.09387,-0.00549623,1.1949738,1.0790207,nan,2,2,0,0
10460000,10460000,47.397750728130895,8.545607397331018,488.08908,488.09396,-0.00549623,1.1951841,1.0792584,nan,2,2,0,0
10468000,10468000,47.39775072950242,8.545607398945846,488.0891,488.094,-0.00549623,1.1953965,1.0784806,nan,2,2,0,0
10476000,10476000,47.3977507308484,8.54560740056141,488.08917,488.09406,-0.00549623,1.1956112,1.0787199,nan,2,2,0,0
10484000,10484000,47.397750732164695,8.54560740216483,488.08923,488.09412,-0.00549623,1.1958282,1.0789613,nan,2,2,0,0
10492000,10492000,47.39775073345352,8.545607403776732,488.08926,488.09415,-0.00549623,1.1960474,1.079205,nan,2,2,0,0
10500000,10500000,47.397750734714464,8.54560740538671,488.08932,488.0942,-0.00549623,1.1962688,1.079451,nan,2,2,0,0
10508000,10508000,47.397750735946616,8.545607406974854,488.08936,488.09424,-0.00549623,1.1964926,1.0796992,nan,2,2,0,0
10516000,10516000,47.39775073714691,8.545607408540876,488.08942,488.0943,-0.00549623,1.1967185,1.0799495,nan,2,2,0,0
10524000,10524000,47.39775073831172,8.545607410073712,488.08945,488.09433,-0.00549623,1.1969467,1.0791663,nan,2,2,0,0
10532000,10532000,47.39775073944716,8.545607411590586,488.0895,488.0944,-0.00549623,1.1971773,1.0794181,nan,2,2,0,0
10540000,10540000,47.39775074055757,8.545607413079436,488.08954,488.09442,-0.00549623,1.1974101,1.079672,nan,2,2,0,0
10548000,10548000,47.397750741637104,8.545607414531895,488.0896,488.09448,-0.00549623,1.1976453,1.0799282,nan,2,2,0,0
10556000,10556000,47.39775074268118,8.545607415957603,488.08963,488.0945,-0.00549623,1.1978827,1.0801865,nan,2,2,0,0
10564000,10564000,47.39775074370146,8.545607417380934,488.08966,488.09454,-0.00549623,1.1981225,1.0804471,nan,2,2,0,0
10572000,10572000,47.39775074469761,8.545607418807954,488.0897,488.09457,-0.00549623,1.1983646,1.0807098,nan,2,2,0,0
10580000,10580000,47.39775074567303,8.545607420221263,488.08972,488.0946,-0.00549623,1.198609,1.0809749,nan,2,2,0,0
10588000,10588000,47.397750746615934,8.54560742161032,488.08975,488.09464,-0.00549623,1.1988559,1.0801797,nan,2,2,0,0
10596000,10596000,47.397750747535966,8.54560742298224,488.08978,488.09467,-0.00549623,1.199105,1.0804458,nan,2,2,0,0
10604000,10604000,47.39775074843725,8.545607424343745,488.0898,488.0947,-0.00549623,1.1993566,1.0807141,nan,2,2,0,0
10612000,10612000,47.39775074931391,8.5456074256805,488.08984,488.09473,-0.00549623,1.1996105,1.0809847,nan,2,2,0,0
10620000,10620000,47.397750750171596,8.545607426976064,488.08987,488.09476,-0.00549623,1.1998668,1.0812575,nan,2,2,0,0
10628000,10628000,47.397750751001816,8.545607428243603,488.08987,488.09476,-0.00549623,1.2001255,1.0815325,nan,2,2,0,0
10636000,10636000,47.397750751796856,8.545607429490639,488.0899,488.0948,-0.00549623,1.2003865,1.0818098,nan,2,2,0,0
10644000,10644000,47.397750752572435,8.5456074306938,488.0899,488.0948,-0.00549623,1.2006501,1.0810046,nan,2,2,0,0
10652000,10652000,47.397750753316814,8.545607431882853,488.08994,488.09482,-0.00549623,1.200916,1.0812827,nan,2,2,0,0
10660000,10660000,47.397750754032344,8.545607433061479,488.08994,488.09482,-0.00549623,1.2011845,1.081563,nan,2,2,0,0
10668000,10668000,47.397750754722054,8.545607434223559,488.08994,488.09482,-0.00549623,1.2014552,1.0818456,nan,2,2,0,0
10676000,10676000,47.39775075538885,8.545607435386518,488.08994,488.09482,-0.00549623,1.2017286,1.0821303,nan,2,2,0,0
10684000,10684000,47.39775075603617,8.545607436568137,488.08994,488.09482,-0.00549623,1.2020044,1.0824174,nan,2,2,0,0
10692000,10692000,47.39775075666269,8.545607437754173,488.08994,488.09482,-0.00549623,1.2022827,1.0827066,nan,2,2,0,0
10700000,10700000,47.39775075726982,8.545607438924185,488.08994,488.09482,-0.00549623,1.2025634,1.082998,nan,2,2,0,0
10708000,10708000,47.39775075784881,8.54560744009281,488.08997,488.09485,-0.00549623,1.2028466,1.0821753,nan,2,2,0,0
10716000,10716000,47.39775075840277,8.545607441242618,488.08997,488.09485,-0.00549623,1.2031325,1.0824673,nan,2,2,0,0
10724000,10724000,47.397750758943715,8.545607442372997,488.09,488.09488,-0.00549623,1.2034208,1.0827616,nan,2,2,0,0
10732000,10732000,47.39775075947701,8.545607443507734,488.09,488.09488,-0.00549623,1.2037116,1.0830581,nan,2,2,0,0
10740000,10740000,47.3977507599988,8.545607444638039,488.09003,488.0949,-0.00549623,1.204005,1.0833569,nan,2,2,0,0
10748000,10748000,47.39775076050975,8.545607445766118,488.09003,488.0949,-0.00549623,1.2043009,1.0836577,nan,2,2,0,0
10756000,10756000,47.39775076099401,8.54560744690839,488.09003,488.0949,-0.00549623,1.2045995,1.0839609,nan,2,2,0,0
10764000,10764000,47.39775076144747,8.545607448046887,488.09003,488.0949,-0.00549623,1.2049005,1.0831238,nan,2,2,0,0
10772000,10772000,47.397750761874406,8.545607449185955,488.09006,488.09494,-0.00549623,1.2052042,1.0834274,nan,2,2,0,0
10780000,10780000,47.397750762275855,8.545607450319638,488.09006,488.09494,-0.00549623,1.2055106,1.0837332,nan,2,2,0,0
10788000,10788000,47.39775076311258,8.54560745058095,488.09003,488.09497,-0.00549623,1.1678592,1.069457,nan,2,2,0,0
10796000,10796000,47.397750763913926,8.545607450839704,488.08997,488.0949,-0.00549623,1.1680684,1.0696833,nan,2,2,0,0
10804000,10804000,47.39775076469674,8.545607451110703,488.08994,488.09488,-0.00549623,1.1682796,1.0699115,nan,2,2,0,0
10812000,10812000,47.39775076546848,8.545607451403196,488.0899,488.09485,-0.00549623,1.1684929,1.0701414,nan,2,2,0,0
10820000,10820000,47.397750766216795,8.545607451737068,488.08984,488.0948,-0.00549623,1.1687084,1.0703733,nan,2,2,0,0
10828000,10828000,47.397750766938714,8.545607452090167,488.08978,488.09473,-0.00549623,1.1689259,1.0698035,nan,2,2,0,0
10836000,10836000,47.397750767634214,8.54560745246352,488.08972,488.09467,-0.00549623,1.1691456,1.0700364,nan,2,2,0,0
10844000,10844000,47.39775076830661,8.545607452855853,488.08963,488.09457,-0.00549623,1.1693673,1.0702711,nan,2,2,0,0
10852000,10852000,47.39775076897866,8.545607453250181,488.08957,488.0945,-0.00549623,1.1695912,1.0705078,nan,2,2,0,0
10860000,10860000,47.39775076965156,8.545607453658587,488.0895,488.09445,-0.00549623,1.1698173,1.0707462,nan,2,2,0,0
10868000,10868000,47.39775077031994,8.545607454095256,488.08942,488.09436,-0.00549623,1.1700455,1.0709865,nan,2,2,0,0
10876000,10876000,47.39775077098742,8.545607454557054,488.08932,488.09427,-0.00549623,1.1702759,1.0704111,nan,2,2,0,0
10884000,10884000,47.39775077164162,8.545607455020054,488.0892,488.09415,-0.00549623,1.1705085,1.0706524,nan,2,2,0,0
10892000,10892000,47.39775077226758,8.545607455501289,488.0891,488.09406,-0.00549623,1.1707432,1.0708954,nan,2,2,0,0
10900000,10900000,47.3977507728684,8.545607456003511,488.089,488.09393,-0.00549623,1.1709803,1.0711403,nan,2,2,0,0
10908000,10908000,47.39775077345414,8.545607456497605,488.0889,488.09384,-0.00549623,1.1712195,1.071387,nan,2,2,0,0
10916000,10916000,47.39775077403672,8.545607457007275,488.08878,488.09372,-0.00549623,1.171461,1.0716356,nan,2,2,0,0
10924000,10924000,47.397750774624235,8.545607457537834,488.08868,488.09363,-0.00549623,1.1717046,1.0718861,nan,2,2,0,0
10932000,10932000,47.39775077521533,8.54560745807407,488.08856,488.0935,-0.00549623,1.1719506,1.0713,nan,2,2,0,0
10940000,10940000,47.397750775785596,8.545607458628321,488.08847,488.0934,-0.00549623,1.1721989,1.0715512,nan,2,2,0,0
10948000,10948000,47.397750776335506,8.545607459205737,488.08835,488.0933,-0.00549623,1.1724494,1.0718044,nan,2,2,0,0
10956000,10956000,47.3977507768669,8.545607459782273,488.08823,488.09317,-0.00549623,1.1727021,1.0720593,nan,2,2,0,0
10964000,10964000,47.39775077737714,8.545607460362385,488.08813,488.09308,-0.00549623,1.1729572,1.072316,nan,2,2,0,0
10972000,10972000,47.39775077787147,8.545607460947485,488.088,488.09296,-0.00549623,1.1732147,1.0725747,nan,2,2,0,0
10980000,10980000,47.39775077834671,8.545607461540477,488.0879,488.09283,-0.00549623,1.1734743,1.0728352,nan,2,2,0,0
10988000,10988000,47.39775077879941,8.545607462149235,488.08777,488.0927,-0.00549623,1.1737365,1.0730975,nan,2,2,0,0
10996000,10996000,47.39775077924349,8.545607462772432,488.08765,488.0926,-0.00549623,1.1740009,1.0724947,nan,2,2,0,0
11004000,11004000,47.39775077968726,8.545607463414733,488.0875,488.09244,-0.00549623,1.1742678,1.0727577,nan,2,2,0,0
11012000,11012000,47.397750780114386,8.545607464076868,488.08734,488.0923,-0.00549623,1.174537,1.0730225,nan,2,2,0,0
11020000,11020000,47.397750780521115,8.545607464733758,488.08722,488.09216,-0.00549623,1.1748085,1.0732892,nan,2,2,0,0
11028000,11028000,47.39775078090159,8.545607465383865,488.08707,488.092,-0.00549623,1.1750826,1.0735576,nan,2,2,0,0
11036000,11036000,47.39775078125903,8.545607466030892,488.0869,488.09186,-0.00549623,1.175359,1.073828,nan,2,2,0,0
11044000,11044000,47.397750781623614,8.545607466666326,488.08676,488.0917,-0.00549623,1.175638,1.0741,nan,2,2,0,0
11052000,11052000,47.397750781981216,8.54560746730875,488.08667,488.0916,-0.00549623,1.1759193,1.0734833,nan,2,2,0,0
11060000,11060000,47.39775078230978,8.54560746795391,488.08655,488.0915,-0.00549623,1.176203,1.0737559,nan,2,2,0,0
11068000,11068000,47.39775078262398,8.54560746860877,488.08643,488.09137,-0.00549623,1.1764894,1.0740304,nan,2,2,0,0
11076000,11076000,47.39775078293904,8.545607469267058,488.08633,488.09128,-0.00549623,1.1767782,1.0743067,nan,2,2,0,0
11084000,11084000,47.397750783258346,8.545607469930628,488.0862,488.09116,-0.00549623,1.1770694,1.0745848,nan,2,2,0,0
11092000,11092000,47.39775078357377,8.545607470585066,488.08612,488.09106,-0.00549623,1.1773633,1.0748649,nan,2,2,0,0
11100000,11100000,47.39775078388965,8.545607471230635,488.086,488.09094,-0.00549623,1.1776596,1.0751467,nan,2,2,0,0
11108000,11108000,47.39775078419774,8.545607471885322,488.08588,488.09082,-0.00549623,1.1779586,1.0754303,nan,2,2,0,0
11116000,11116000,47.39775078449604,8.545607472541011,488.08575,488.0907,-0.00549623,1.1782601,1.0747929,nan,2,2,0,0
11124000,11124000,47.39775078478181,8.545607473194844,488.08563,488.09058,-0.00549623,1.1785641,1.0750768,nan,2,2,0,0
11132000,11132000,47.39775078505533,8.545607473844642,488.0855,488.09045,-0.00549623,1.1788708,1.0753626,nan,2,2,0,0
11140000,11140000,47.39775078533071,8.54560747448354,488.08542,488.09036,-0.00549623,1.1791801,1.0756502,nan,2,2,0,0
11148000,11148000,47.397750785608864,8.545607475117354,488.0853,488.09024,-0.00549623,1.179492,1.0759397,nan,2,2,0,0
11156000,11156000,47.39775078588033,8.545607475758194,488.08517,488.09012,-0.00549623,1.1798066,1.076231,nan,2,2,0,0
11164000,11164000,47.397750786138495,8.54560747639437,488.08505,488.09,-0.00549623,1.1801238,1.0765241,nan,2,2,0,0
11172000,11172000,47.39775078640124,8.545607477026042,488.08493,488.08987,-0.00549623,1.1804436,1.0758693,nan,2,2,0,0
11180000,11180000,47.39775078666548,8.545607477669272,488.08484,488.08978,-0.00549623,1.1807663,1.0761626,nan,2,2,0,0
11188000,11188000,47.397750787727375,8.545607475486735,488.08478,488.09,-0.00549623,1.1501671,1.0639238,nan,2,2,0,0
11196000,11196000,47.3977507887618,8.545607473349115,488.08475,488.08997,-0.00549623,1.1503927,1.0641494,nan,2,2,0,0
11204000,11204000,47.397750789785725,8.545607471231934,488.0847,488.0899,-0.00549623,1.1506202,1.0643765,nan,2,2,0,0
11212000,11212000,47.39775079080158,8.545607469132175,488.08466,488.08987,-0.00549623,1.15085,1.0646052,nan,2,2,0,0
11220000,11220000,47.39775079180024,8.545607467054133,488.0846,488.0898,-0.00549623,1.1510819,1.0648354,nan,2,2,0,0
11228000,11228000,47.39775079277773,8.545607465016797,488.08453,488.08975,-0.00549623,1.151316,1.0650673,nan,2,2,0,0
11236000,11236000,47.39775079374181,8.54560746301542,488.08447,488.0897,-0.00549623,1.1515524,1.0646133,nan,2,2,0,0
11244000,11244000,47.397750794695106,8.545607461044678,488.0844,488.08963,-0.00549623,1.1517909,1.0648459,nan,2,2,0,0
11252000,11252000,47.39775079563661,8.545607459119358,488.08432,488.08954,-0.00549623,1.1520315,1.06508,nan,2,2,0,0
11260000,11260000,47.397750796563116,8.545607457223799,488.08426,488.08948,-0.00549623,1.1522745,1.0653157,nan,2,2,0,0
11268000,11268000,47.39775079747047,8.545607455352835,488.08417,488.0894,-0.00549623,1.1525196,1.065553,nan,2,2,0,0
11276000,11276000,47.39775079836362,8.545607453517718,488.0841,488.08932,-0.00549623,1.152767,1.0657917,nan,2,2,0,0
11284000,11284000,47.39775079925036,8.545607451736721,488.084,488.08923,-0.00549623,1.1530167,1.0653294,nan,2,2,0,0
11292000,11292000,47.39775080012186,8.545607450036288,488.08392,488.08914,-0.00549623,1.1532686,1.0655688,nan,2,2,0,0
11300000,11300000,47.39775080095951,8.545607448397028,488.08386,488.08908,-0.00549623,1.1535228,1.0658098,nan,2,2,0,0
11308000,11308000,47.39775080178208,8.545607446827146,488.08377,488.089,-0.00549623,1.1537795,1.0660524,nan,2,2,0,0
11316000,11316000,47.397750802594544,8.545607445317561,488.08368,488.0889,-0.00549623,1.1540383,1.0662965,nan,2,2,0,0
11324000,11324000,47.397750803396356,8.54560744384821,488.0836,488.0888,-0.00549623,1.1542996,1.0665421,nan,2,2,0,0
11332000,11332000,47.397750804189826,8.545607442403684,488.0835,488.0887,-0.00549623,1.1545632,1.0667894,nan,2,2,0,0
11340000,11340000,47.397750804965376,8.545607440961655,488.08344,488.08865,-0.00549623,1.1548291,1.0663141,nan,2,2,0,0
11348000,11348000,47.39775080572951,8.545607439529798,488.08337,488.0886,-0.00549623,1.1550975,1.0665618,nan,2,2,0,0
11356000,11356000,47.397750806482954,8.54560743812233,488.0833,488.08853,-0.00549623,1.1553682,1.0668112,nan,2,2,0,0
11364000,11364000,47.39775080722834,8.545607436736178,488.08325,488.08847,-0.00549623,1.1556414,1.067062,nan,2,2,0,0
11372000,11372000,47.39775080796807,8.545607435358702,488.08316,488.08838,-0.00549623,1.155917,1.0673145,nan,2,2,0,0
11380000,11380000,47.39775080870232,8.545607433986003,488.0831,488.08832,-0.00549623,1.1561952,1.0675685,nan,2,2,0,0
11388000,11388000,47.39775080943586,8.545607432632359,488.083,488.08823,-0.00549623,1.1564758,1.0678241,nan,2,2,0,0
11396000,11396000,47.3977508101546,8.545607431315709,488.08295,488.08817,-0.00549623,1.1567588,1.0680813,nan,2,2,0,0
11404000,11404000,47.39775081085897,8.545607430021171,488.08282,488.08804,-0.00549623,1.1570443,1.0675876,nan,2,2,0,0
11412000,11412000,47.39775081155796,8.545607428769607,488.08273,488.08795,-0.00549623,1.1573324,1.0678452,nan,2,2,0,0
11420000,11420000,47.39775081225524,8.545607427550893,488.0826,488.08783,-0.00549623,1.157623,1.0681043,nan,2,2,0,0
11428000,11428000,47.39775081295795,8.54560742636154,488.0825,488.0877,-0.00549623,1.1579162,1.0683649,nan,2,2,0,0
11436000,11436000,47.39775081365209,8.545607425192221,488.08237,488.0876,-0.00549623,1.158212,1.0686271,nan,2,2,0,0
11444000,11444000,47.397750814335666,8.545607424041165,488.08228,488.0875,-0.00549623,1.1585103,1.0688909,nan,2,2,0,0
11452000,11452000,47.39775081501437,8.545607422919645,488.08212,488.08734,-0.00549623,1.1588113,1.068386,nan,2,2,0,0
11460000,11460000,47.397750815696945,8.545607421828203,488.08197,488.0872,-0.00549623,1.1591148,1.06865,nan,2,2,0,0
11468000,11468000,47.397750816375364,8.54560742076522,488.08185,488.08707,-0.00549623,1.1594211,1.0689156,nan,2,2,0,0
11476000,11476000,47.397750817044574,8.545607419728816,488.0817,488.0869,-0.00549623,1.15973,1.0691829,nan,2,2,0,0
11484000,11484000,47.39775081769712,8.545607418703721,488.08154,488.08676,-0.00549623,1.1600416,1.0694516,nan,2,2,0,0
11492000,11492000,47.39775081835062,8.545607417700687,488.08142,488.08664,-0.00549623,1.1603559,1.0697219,nan,2,2,0,0
11500000,11500000,47.39775081901425,8.545607416723042,488.08127,488.0865,-0.00549623,1.1606729,1.0699939,nan,2,2,0,0
11508000,11508000,47.39775081968118,8.54560741575531,488.08115,488.08636,-0.00549623,1.1609926,1.0694722,nan,2,2,0,0
11516000,11516000,47.39775082035504,8.545607414802735,488.081,488.0862,-0.00549623,1.1613151,1.0697442,nan,2,2,0,0
11524000,11524000,47.39775082103187,8.545607413859365,488.08087,488.0861,-0.00549623,1.1616404,1.0700178,nan,2,2,0,0
11532000,11532000,47.39775082170286,8.545607412908387,488.08075,488.08597,-0.00549623,1.1619685,1.0702931,nan,2,2,0,0
11540000,11540000,47.39775082237145,8.545607411964003,488.0806,488.08582,-0.00549623,1.1622993,1.0705698,nan,2,2,0,0
11548000,11548000,47.39775082304884,8.545607411047866,488.08044,488.08566,-0.00549623,1.162633,1.0708481,nan,2,2,0,0
11556000,11556000,47.3977508237203,8.54560741018642,488.08032,488.08554,-0.00549623,1.1629695,1.0703135,nan,2,2,0,0
11564000,11564000,47.39775082437314,8.545607409372069,488.08017,488.0854,-0.00549623,1.163309,1.0705918,nan,2,2,0,0
11572000,11572000,47.39775082501935,8.545607408588898,488.08002,488.08524,-0.00549623,1.1636512,1.0708717,nan,2,2,0,0
11580000,11580000,47.39775082564779,8.545607407848673,488.07986,488.08508,-0.00549623,1.1639965,1.0711533,nan,2,2,0,0
11588000,11588000,47.397750826264755,8.545607407142736,488.0797,488.08493,-0.00549623,1.1643445,1.0714363,nan,2,2,0,0
11596000,11596000,47.39775082717437,8.545607406433632,488.07968,488.08603,-0.00549623,1.1377312,1.0604275,nan,2,2,0,0
11604000,11604000,47.39775082808407,8.545607405731047,488.07965,488.086,-0.00549623,1.1379763,1.0606511,nan,2,2,0,0
11612000,11612000,47.3977508290047,8.545607405046887,488.0796,488.08594,-0.00549623,1.1382235,1.060876,nan,2,2,0,0
11620000,11620000,47.3977508299252,8.545607404378009,488.07953,488.08588,-0.00549623,1.138473,1.0605005,nan,2,2,0,0
11628000,11628000,47.39775083083759,8.545607403724585,488.07944,488.0858,-0.00549623,1.1387249,1.0607258,nan,2,2,0,0
11636000,11636000,47.39775083175095,8.545607403093623,488.07938,488.08572,-0.00549623,1.1389791,1.0609527,nan,2,2,0,0
11644000,11644000,47.39775083266066,8.545607402475902,488.07928,488.08563,-0.00549623,1.1392356,1.0611808,nan,2,2,0,0
11652000,11652000,47.39775083355561,8.545607401873772,488.0792,488.08554,-0.00549623,1.1394944,1.0614103,nan,2,2,0,0
11660000,11660000,47.39775083443665,8.545607401301485,488.0791,488.08545,-0.00549623,1.1397557,1.0616412,nan,2,2,0,0
11668000,11668000,47.397750835312706,8.545607400756174,488.079,488.08536,-0.00549623,1.1400193,1.0618734,nan,2,2,0,0
11676000,11676000,47.397750836176385,8.545607400227224,488.07892,488.08527,-0.00549623,1.1402854,1.0614854,nan,2,2,0,0
11684000,11684000,47.39775083703377,8.545607399720888,488.07883,488.08517,-0.00549623,1.1405538,1.0617181,nan,2,2,0,0
11692000,11692000,47.39775083790021,8.545607399246443,488.0787,488.08505,-0.00549623,1.1408248,1.0619521,nan,2,2,0,0
11700000,11700000,47.39775083877056,8.545607398781392,488.0786,488.08496,-0.00549623,1.1410981,1.0621876,nan,2,2,0,0
11708000,11708000,47.39775083964499,8.54560739831723,488.0785,488.08484,-0.00549623,1.1413741,1.0624243,nan,2,2,0,0
11716000,11716000,47.39775084051992,8.545607397857331,488.07837,488.08472,-0.00549623,1.1416525,1.0626625,nan,2,2,0,0
11724000,11724000,47.397750841402825,8.545607397411619,488.07828,488.08463,-0.00549623,1.1419333,1.062902,nan,2,2,0,0
11732000,11732000,47.397750842293796,8.545607396971231,488.07816,488.0845,-0.00549623,1.1422168,1.0631428,nan,2,2,0,0
11740000,11740000,47.39775084318903,8.545607396533455,488.07803,488.08438,-0.00549623,1.1425028,1.0627377,nan,2,2,0,0
11748000,11748000,47.39775084407358,8.545607396108833,488.0779,488.08426,-0.00549623,1.1427914,1.0629789,nan,2,2,0,0
11756000,11756000,47.397750844962374,8.545607395685968,488.07776,488.0841,-0.00549623,1.1430826,1.0632215,nan,2,2,0,0
11764000,11764000,47.39775084586196,8.545607395259859,488.07764,488.08398,-0.00549623,1.1433764,1.0634652,nan,2,2,0,0
11772000,11772000,47.397750846760246,8.545607394832466,488.0775,488.08386,-0.00549623,1.1436728,1.0637106,nan,2,2,0,0
11780000,11780000,47.39775084765132,8.545607394422648,488.0774,488.08374,-0.00549623,1.1439719,1.0639572,nan,2,2,0,0
11788000,11788000,47.397750848529355,8.545607394017749,488.07724,488.0836,-0.00549623,1.1442736,1.0642053,nan,2,2,0,0
11796000,11796000,47.397750849395706,8.54560739359526,488.07712,488.08347,-0.00549623,1.1445781,1.0637854,nan,2,2,0,0
11804000,11804000,47.397750850259456,8.545607393172265,488.07697,488.0833,-0.00549623,1.1448853,1.0640336,nan,2,2,0,0
11812000,11812000,47.39775085111079,8.545607392758022,488.07684,488.0832,-0.00549623,1.1451951,1.0642833,nan,2,2,0,0
11820000,11820000,47.39775085195332,8.545607392360715,488.0767,488.08304,-0.00549623,1.1455078,1.0645343,nan,2,2,0,0
11828000,11828000,47.397750852788214,8.545607391983644,488.07657,488.08292,-0.00549623,1.1458232,1.0647867,nan,2,2,0,0
11836000,11836000,47.39775085362087,8.545607391624914,488.07642,488.08276,-0.00549623,1.1461415,1.0650403,nan,2,2,0,0
11844000,11844000,47.39775085444954,8.545607391279963,488.07626,488.0826,-0.00549623,1.1464626,1.0652955,nan,2,2,0,0
11852000,11852000,47.397750855275,8.545607390928337,488.0761,488.08246,-0.00549623,1.1467865,1.065552,nan,2,2,0,0
11860000,11860000,47.39775085608807,8.545607390566095,488.076,488.08234,-0.00549623,1.1471132,1.0651122,nan,2,2,0,0
11868000,11868000,47.397750856887114,8.545607390189884,488.07584,488.08218,-0.00549623,1.1474428,1.0653688,nan,2,2,0,0
11876000,11876000,47.39775085767958,8.545607389811309,488.0757,488.08206,-0.00549623,1.1477754,1.0656269,nan,2,2,0,0
11884000,11884000,47.397750858469365,8.545607389444488,488.07556,488.0819,-0.00549623,1.1481107,1.0658861,nan,2,2,0,0
11892000,11892000,47.39775085925932,8.545607389076572,488.0754,488.08176,-0.00549623,1.1484492,1.0661469,nan,2,2,0,0
11900000,11900000,47.39775086004922,8.545607388710105,488.07526,488.0816,-0.00549623,1.1487906,1.066409,nan,2,2,0,0
11908000,11908000,47.397750860846344,8.54560738834632,488.07513,488.08148,-0.00549623,1.149135,1.0666723,nan,2,2,0,0
11916000,11916000,47.39775086164863,8.545607387978226,488.07495,488.0813,-0.00549623,1.1494823,1.0662158,nan,2,2,0,0
11924000,11924000,47.397750862455766,8.545607387623575,488.0748,488.08115,-0.00549623,1.1498327,1.0664792,nan,2,2,0,0
11932000,11932000,47.397750863254906,8.545607387263312,488.07462,488.08096,-0.00549623,1.1501861,1.0667441,nan,2,2,0,0
11940000,11940000,47.39775086404866,8.545607386898984,488.07446,488.0808,-0.00549623,1.1505426,1.0670103,nan,2,2,0,0
11948000,11948000,47.39775086483446,8.545607386543525,488.0743,488.08066,-0.00549623,1.1509023,1.0672779,nan,2,2,0,0
11956000,11956000,47.3977508656181,8.545607386219546,488.07413,488.08047,-0.00549623,1.151265,1.0675468,nan,2,2,0,0
11964000,11964000,47.39775086639489,8.54560738591427,488.07397,488.08032,-0.00549623,1.1516309,1.0678172,nan,2,2,0,0
11972000,11972000,47.39775086717505,8.545607385611946,488.0738,488.08014,-0.00549623,1.1519998,1.068089,nan,2,2,0,0
11980000,11980000,47.39775086794605,8.545607385314089,488.07364,488.08,-0.00549623,1.1523721,1.0676098,nan,2,2,0,0
11988000,11988000,47.39775086871567,8.545607385034785,488.0735,488.07983,-0.00549623,1.1527475,1.0678815,nan,2,2,0,0
11996000,11996000,47.397750868220896,8.545607384859608,488.07358,488.08115,-0.00549623,1.1285349,1.0578169,nan,2,2,0,0
12004000,12004000,47.39775086774891,8.545607384695742,488.07364,488.0812,-0.00549623,1.1287987,1.0580357,nan,2,2,0,0
12012000,12012000,47.39775086730936,8.545607384521544,488.07373,488.0813,-0.00549623,1.1290652,1.0582557,nan,2,2,0,0
12020000,12020000,47.39775086689878,8.545607384322103,488.0738,488.08136,-0.00549623,1.129334,1.0584769,nan,2,2,0,0
12028000,12028000,47.39775086651851,8.545607384102903,488.07385,488.08142,-0.00549623,1.1296053,1.0586994,nan,2,2,0,0
12036000,12036000,47.39775086616088,8.545607383881439,488.0739,488.08148,-0.00549623,1.1298791,1.0583633,nan,2,2,0,0
12044000,12044000,47.39775086581378,8.545607383671697,488.07397,488.08154,-0.00549623,1.1301554,1.0585861,nan,2,2,0,0
12052000,12052000,47.39775086546562,8.545607383451143,488.07404,488.0816,-0.00549623,1.1304343,1.05881,nan,2,2,0,0
12060000,12060000,47.39775086511802,8.545607383232543,488.07407,488.08163,-0.00549623,1.1307157,1.0590352,nan,2,2,0,0
12068000,12068000,47.39775086477499,8.54560738302006,488.07413,488.0817,-0.00549623,1.1309998,1.0592616,nan,2,2,0,0
12076000,12076000,47.397750864441065,8.545607382794742,488.07416,488.08173,-0.00549623,1.1312864,1.0594893,nan,2,2,0,0
12084000,12084000,47.39775086411695,8.545607382569251,488.07422,488.0818,-0.00549623,1.1315757,1.059718,nan,2,2,0,0
12092000,12092000,47.39775086379616,8.545607382345182,488.07425,488.08182,-0.00549623,1.1318676,1.0599481,nan,2,2,0,0
12100000,12100000,47.39775086349049,8.545607382124144,488.07428,488.08185,-0.00549623,1.1321623,1.0595957,nan,2,2,0,0
12108000,12108000,47.3977508631962,8.545607381909726,488.07428,488.08185,-0.00549623,1.1324596,1.059826,nan,2,2,0,0
12116000,12116000,47.39775086292056,8.545607381711369,488.0743,488.08188,-0.00549623,1.1327596,1.0600575,nan,2,2,0,0
12124000,12124000,47.39775086267147,8.545607381520602,488.0743,488.08188,-0.00549623,1.1330624,1.0602902,nan,2,2,0,0
12132000,12132000,47.39775086245484,8.545607381318082,488.07434,488.0819,-0.00549623,1.1333678,1.0605242,nan,2,2,0,0
12140000,12140000,47.3977508622704,8.5456073811001,488.07434,488.0819,-0.00549623,1.1336762,1.0607593,nan,2,2,0,0
12148000,12148000,47.397750862110854,8.545607380870141,488.0743,488.08188,-0.00549623,1.1339872,1.0609957,nan,2,2,0,0
12156000,12156000,47.397750861966855,8.545607380624839,488.07428,488.08185,-0.00549623,1.1343011,1.0606292,nan,2,2,0,0
12164000,12164000,47.397750861840166,8.545607380379927,488.07425,488.08182,-0.00549623,1.1346178,1.0608658,nan,2,2,0,0
12172000,12172000,47.39775086172205,8.545607380144915,488.07422,488.0818,-0.00549623,1.1349375,1.0611036,nan,2,2,0,0
12180000,12180000,47.39775086161564,8.54560737990568,488.07416,488.08173,-0.00549623,1.13526,1.0613426,nan,2,2,0,0
12188000,12188000,47.39775086152232,8.545607379685919,488.07413,488.0817,-0.00549623,1.1355853,1.0615828,nan,2,2,0,0
12196000,12196000,47.39775086144748,8.545607379504759,488.07407,488.08163,-0.00549623,1.1359137,1.0618242,nan,2,2,0,0
12204000,12204000,47.39775086138444,8.545607379346734,488.074,488.08157,-0.00549623,1.136245,1.0620669,nan,2,2,0,0
12212000,12212000,47.397750861328355,8.545607379203975,488.07394,488.0815,-0.00549623,1.1365793,1.0623109,nan,2,2,0,0
12220000,12220000,47.397750861281175,8.545607379064553,488.07388,488.08145,-0.00549623,1.1369165,1.0619258,nan,2,2,0,0
12228000,12228000,47.39775086124905,8.545607378919062,488.0738,488.08136,-0.00549623,1.1372569,1.0621697,nan,2,2,0,0
12236000,12236000,47.39775086123384,8.545607378772164,488.07373,488.0813,-0.00549623,1.1376002,1.0624149,nan,2,2,0,0
12244000,12244000,47.397750861229774,8.545607378627205,488.07367,488.08124,-0.00549623,1.1379466,1.0626613,nan,2,2,0,0
12252000,12252000,47.397750861238826,8.545607378471306,488.07358,488.08115,-0.00549623,1.138296,1.062909,nan,2,2,0,0
12260000,12260000,47.397750861264676,8.545607378308453,488.0735,488.08105,-0.00549623,1.1386486,1.0631579,nan,2,2,0,0
12268000,12268000,47.3977508613104,8.54560737814603,488.07343,488.081,-0.00549623,1.1390043,1.0634081,nan,2,2,0,0
12276000,12276000,47.39775086138271,8.54560737798851,488.07336,488.08093,-0.00549623,1.1393633,1.063007,nan,2,2,0,0
12284000,12284000,47.39775086147695,8.545607377818111,488.07327,488.08084,-0.00549623,1.1397253,1.0632571,nan,2,2,0,0
12292000,12292000,47.39775086158555,8.545607377628452,488.0732,488.08078,-0.00549623,1.1400906,1.0635085,nan,2,2,0,0
12300000,12300000,47.397750861699116,8.54560737743995,488.07312,488.0807,-0.00549623,1.1404592,1.063761,nan,2,2,0,0
12308000,12308000,47.397750861833934,8.545607377271734,488.07306,488.08063,-0.00549623,1.1408309,1.0640149,nan,2,2,0,0
12316000,12316000,47.3977508619995,8.545607377098186,488.07297,488.08054,-0.00549623,1.141206,1.06427,nan,2,2,0,0
12324000,12324000,47.397750862178036,8.545607376916823,488.07288,488.08044,-0.00549623,1.1415843,1.0645263,nan,2,2,0,0
12332000,12332000,47.397750862369136,8.545607376741035,488.07278,488.08035,-0.00549623,1.141966,1.0647839,nan,2,2,0,0
12340000,12340000,47.39775086257265,8.545607376565773,488.07272,488.0803,-0.00549623,1.142351,1.0643617,nan,2,2,0,0
12348000,12348000,47.39775086279139,8.54560737639773,488.07263,488.0802,-0.00549623,1.1427395,1.0646192,nan,2,2,0,0
12356000,12356000,47.397750863033814,8.54560737624029,488.07257,488.08014,-0.00549623,1.1431314,1.0648779,nan,2,2,0,0
12364000,12364000,47.397750863289545,8.545607376092404,488.07248,488.08005,-0.00549623,1.1435266,1.0651377,nan,2,2,0,0
12372000,12372000,47.39775086355517,8.54560737594382,488.0724,488.07996,-0.00549623,1.1439253,1.065399,nan,2,2,0,0
12380000,12380000,47.39775086383525,8.545607375785847,488.0723,488.07986,-0.00549623,1.1443275,1.0656614,nan,2,2,0,0
12388000,12388000,47.39775086413781,8.54560737562617,488.0722,488.07977,-0.00549623,1.1447332,1.0659252,nan,2,2,0,0
12396000,12396000,47.39775086370838,8.545607375687048,488.07227,488.08066,-0.00549623,1.1218083,1.055872,nan,2,2,0,0
12404000,12404000,47.39775086328843,8.545607375743241,488.07233,488.08072,-0.00549623,1.1220919,1.0560853,nan,2,2,0,0
12412000,12412000,47.39775086288768,8.545607375786783,488.0724,488.08078,-0.00549623,1.1223781,1.0562997,nan,2,2,0,0
12420000,12420000,47.39775086251181,8.545607375842136,488.07245,488.08084,-0.00549623,1.122667,1.0565152,nan,2,2,0,0
12428000,12428000,47.39775086215878,8.54560737589484,488.07248,488.08087,-0.00549623,1.1229587,1.0567319,nan,2,2,0,0
12436000,12436000,47.397750861820334,8.545607375937509,488.07254,488.08093,-0.00549623,1.1232529,1.0569496,nan,2,2,0,0
12444000,12444000,47.39775086150507,8.545607375981806,488.07257,488.08096,-0.00549623,1.1235498,1.0571685,nan,2,2,0,0
12452000,12452000,47.39775086120691,8.545607376026574,488.0726,488.081,-0.00549623,1.1238495,1.0573883,nan,2,2,0,0
12460000,12460000,47.39775086092547,8.545607376054939,488.07263,488.08102,-0.00549623,1.1241521,1.0570747,nan,2,2,0,0
12468000,12468000,47.39775086066885,8.545607376077854,488.0727,488.0811,-0.00549623,1.1244574,1.0572947,nan,2,2,0,0
12476000,12476000,47.397750860433135,8.545607376111242,488.0727,488.0811,-0.00549623,1.1247654,1.057516,nan,2,2,0,0
12484000,12484000,47.39775086022155,8.545607376147263,488.07272,488.08112,-0.00549623,1.1250763,1.0577383,nan,2,2,0,0
12492000,12492000,47.3977508600429,8.54560737619576,488.07275,488.08115,-0.00549623,1.1253899,1.0579618,nan,2,2,0,0
12500000,12500000,47.397750859898856,8.545607376258982,488.07275,488.08115,-0.00549623,1.1257066,1.0581864,nan,2,2,0,0
12508000,12508000,47.397750859774355,8.545607376317538,488.07275,488.08115,-0.00549623,1.1260262,1.0584121,nan,2,2,0,0
12516000,12516000,47.39775085966865,8.545607376362714,488.07278,488.08118,-0.00549623,1.1263485,1.058085,nan,2,2,0,0
12524000,12524000,47.397750859581265,8.545607376390572,488.07278,488.08118,-0.00549623,1.1266739,1.0583109,nan,2,2,0,0
12532000,12532000,47.397750859505166,8.545607376405785,488.07278,488.08118,-0.00549623,1.1270022,1.0585377,nan,2,2,0,0
12540000,12540000,47.39775085944019,8.545607376422655,488.07278,488.08118,-0.00549623,1.1273335,1.0587658,nan,2,2,0,0
12548000,12548000,47.39775085939298,8.545607376447855,488.07275,488.08115,-0.00549623,1.1276679,1.058995,nan,2,2,0,0
12556000,12556000,47.39775085935563,8.545607376471159,488.07275,488.08115,-0.00549623,1.1280051,1.0592253,nan,2,2,0,0
12564000,12564000,47.39775085932881,8.545607376488427,488.07272,488.08112,-0.00549623,1.1283456,1.0594568,nan,2,2,0,0
12572000,12572000,47.39775085930938,8.545607376503868,488.07272,488.08112,-0.00549623,1.1286892,1.0596893,nan,2,2,0,0
12580000,12580000,47.39775085930027,8.5456073765313,488.0727,488.0811,-0.00549623,1.1290357,1.0593446,nan,2,2,0,0
12588000,12588000,47.397750859297965,8.545607376577594,488.0727,488.0811,-0.00549623,1.1293854,1.0595773,nan,2,2,0,0
12596000,12596000,47.397750859293474,8.545607376613688,488.07266,488.08105,-0.00549623,1.1297382,1.059811,nan,2,2,0,0
12604000,12604000,47.39775085928888,8.545607376640254,488.07263,488.08102,-0.00549623,1.1300943,1.0600458,nan,2,2,0,0
12612000,12612000,47.397750859296366,8.545607376656433,488.0726,488.081,-0.00549623,1.1304535,1.0602819,nan,2,2,0,0
12620000,12620000,47.397750859319466,8.545607376678698,488.07254,488.08093,-0.00549623,1.130816,1.060519,nan,2,2,0,0
12628000,12628000,47.39775085934185,8.545607376729912,488.0725,488.0809,-0.00549623,1.1311816,1.0607572,nan,2,2,0,0
12636000,12636000,47.397750859352556,8.545607376795093,488.07245,488.08084,-0.00549623,1.1315507,1.0603975,nan,2,2,0,0
12644000,12644000,47.39775085934781,8.545607376869626,488.07242,488.0808,-0.00549623,1.1319228,1.0606357,nan,2,2,0,0
12652000,12652000,47.39775085934516,8.54560737695781,488.07236,488.08075,-0.00549623,1.1322985,1.060875,nan,2,2,0,0
12660000,12660000,47.39775085934455,8.545607377037884,488.07233,488.08072,-0.00549623,1.1326773,1.0611156,nan,2,2,0,0
12668000,12668000,47.39775085935308,8.54560737711062,488.07227,488.08066,-0.00549623,1.1330597,1.0613573,nan,2,2,0,0
12676000,12676000,47.397750859355675,8.54560737719119,488.0722,488.0806,-0.00549623,1.1334454,1.0616,nan,2,2,0,0
12684000,12684000,47.39775085935549,8.545607377276815,488.07214,488.08054,-0.00549623,1.1338345,1.061844,nan,2,2,0,0
12692000,12692000,47.39775085936094,8.545607377359467,488.07208,488.08047,-0.00549623,1.134227,1.0620891,nan,2,2,0,0
12700000,12700000,47.39775085938094,8.545607377439369,488.07202,488.0804,-0.00549623,1.134623,1.0617098,nan,2,2,0,0
12708000,12708000,47.39775085941241,8.545607377531779,488.072,488.08038,-0.00549623,1.1350225,1.0619546,nan,2,2,0,0
12716000,12716000,47.39775085945227,8.545607377649437,488.07193,488.08032,-0.00549623,1.1354256,1.0622008,nan,2,2,0,0
12724000,12724000,47.39775085949706,8.545607377763154,488.07187,488.08026,-0.00549623,1.1358322,1.062448,nan,2,2,0,0
12732000,12732000,47.397750859542434,8.545607377853413,488.0718,488.0802,-0.00549623,1.1362423,1.0626965,nan,2,2,0,0
12740000,12740000,47.397750859589344,8.545607377919547,488.07175,488.08014,-0.00549623,1.1366562,1.062946,nan,2,2,0,0
12748000,12748000,47.397750859626825,8.545607377983536,488.0717,488.08008,-0.00549623,1.1370735,1.0631967,nan,2,2,0,0
12756000,12756000,47.397750859662374,8.545607378057634,488.07162,488.08002,-0.00549623,1.1374946,1.0628005,nan,2,2,0,0
12764000,12764000,47.397750859698284,8.545607378143183,488.07153,488.07993,-0.00549623,1.1379192,1.0630511,nan,2,2,0,0
12772000,12772000,47.39775085972736,8.545607378237067,488.07147,488.07986,-0.00549623,1.1383476,1.0633026,nan,2,2,0,0
12780000,12780000,47.39775085974952,8.545607378344009,488.0714,488.0798,-0.00549623,1.1387798,1.0635555,nan,2,2,0,0
12788000,12788000,47.397750859774,8.545607378479955,488.07132,488.0797,-0.00549623,1.1392157,1.0638095,nan,2,2,0,0
12796000,12796000,47.397750858392314,8.545607379791452,488.0716,488.0809,-0.00549623,1.1168787,1.0548453,nan,2,2,0,0
12804000,12804000,47.397750857039455,8.545607381102043,488.07184,488.08115,-0.00549623,1.1171818,1.0550549,nan,2,2,0,0
12812000,12812000,47.397750855709226,8.545607382417183,488.07205,488.08136,-0.00549623,1.1174874,1.0552655,nan,2,2,0,0
12820000,12820000,47.39775085440083,8.545607383724354,488.0723,488.0816,-0.00549623,1.117796,1.0549814,nan,2,2,0,0
12828000,12828000,47.397750853126595,8.545607385012989,488.07254,488.08185,-0.00549623,1.1181073,1.0551921,nan,2,2,0,0
12836000,12836000,47.39775085188223,8.545607386288335,488.07275,488.08206,-0.00549623,1.1184216,1.0554041,nan,2,2,0,0
12844000,12844000,47.397750850658326,8.54560738755312,488.07297,488.08228,-0.00549623,1.1187387,1.055617,nan,2,2,0,0
12852000,12852000,47.39775084944887,8.5456073888058,488.07315,488.08246,-0.00549623,1.1190586,1.0558308,nan,2,2,0,0
12860000,12860000,47.3977508482514,8.545607390024976,488.07333,488.08264,-0.00549623,1.1193815,1.0560458,nan,2,2,0,0
12868000,12868000,47.39775084705169,8.545607391223708,488.07352,488.08282,-0.00549623,1.1197073,1.0562618,nan,2,2,0,0
12876000,12876000,47.397750845858745,8.545607392397574,488.0737,488.083,-0.00549623,1.1200361,1.055965,nan,2,2,0,0
12884000,12884000,47.397750844689256,8.545607393564556,488.07388,488.0832,-0.00549623,1.1203679,1.0561811,nan,2,2,0,0
