timestamp,timestamp_sample,gps_hvel[0],gps_hvel[1],gps_vvel,gps_hpos[0],gps_hpos[1],gps_vpos,ev_hvel[0],ev_hvel[1],ev_vvel,ev_hpos[0],ev_hpos[1],ev_vpos,rng_vpos,baro_vpos,aux_hvel[0],aux_hvel[1],aux_vvel,flow[0],flow[1],terr_flow[0],terr_flow[1],heading,mag_field[0],mag_field[1],mag_field[2],gravity[0],gravity[1],gravity[2],drag[0],drag[1],airspeed,beta,hagl,hagl_rate
3708000,3628000,0.0012072969,-0.0032024286,-0.05313043,0.00011195562,-0.00030243932,488.0999,0.0,0.0,0.0,0.0,0.0,0.0,0.0,0.014233547,0.0,0.0,nan,0.0,0.0,0.0,0.0,0.0,0.0,0.0,0.0,-0.028276226,0.022775257,0.0010526134,0.0,0.0,0.0,0.0,0.0,0.0
4212000,4132000,0.0021149465,-0.0017038311,0.010223608,-0.00036860973,0.000307459,488.12244,0.0,0.0,0.0,0.0,0.0,0.0,0.0,0.14065798,0.0,0.0,nan,0.0,0.0,0.0,0.0,0.0,0.0,0.0,0.0,0.002372545,0.015118639,0.00022763653,0.0,0.0,0.0,0.0,0.0,0.0
4708000,4628000,0.00092815096,0.00058472785,0.03204854,4.958706e-05,6.593341e-05,-7.0702285e-05,0.0,0.0,0.0,0.0,0.0,0.0,0.0,-0.00012524426,0.0,0.0,nan,0.0,0.0,0.0,0.0,0.0,0.0,0.0,0.0,-0.012220698,0.027197653,0.00077430037,0.0,0.0,0.0,0.0,0.0,0.0
5212000,5132000,0.001060333,-0.002174127,-0.010213865,0.000115450086,-0.007849861,-0.0019198433,0.0,0.0,0.0,0.0,0.0,0.0,0.0,-0.036698487,0.0,0.0,nan,0.0,0.0,0.0,0.0,0.0,0.0,0.0,0.0,-0.0028395036,-0.01330443,-0.00019833034,0.0,0.0,0.0,0.0,0.0,0.0
5716000,5636000,0.011318655,-0.0076921806,-0.050567083,0.00020463066,-0.007448346,-0.010574922,0.0,0.0,0.0,0.0,0.0,0.0,0.0,-0.01861807,0.0,0.0,nan,0.0,0.0,0.0,0.0,0.0,0.0,0.0,0.0,-0.030066816,0.021425232,0.0009652304,0.0,0.0,0.0,0.0,0.0,0.0
6212000,6132000,0.0007634676,-0.009214897,-0.0040569566,0.0001241233,-0.007316348,-0.009687901,0.0,0.0,0.0,0.0,0.0,0.0,0.0,-0.0074256994,0.0,0.0,nan,0.0,0.0,0.0,0.0,0.0,0.0,0.0,0.0,-0.024812847,-0.010108585,0.000295109,0.0,0.0,0.0,0.0,0.0,0.0
6716000,6636000,0.0004895714,-0.00025593094,-0.021123536,8.1926526e-05,-0.007519358,-0.014066458,0.0,0.0,0.0,0.0,0.0,0.0,0.0,0.0489201,0.0,0.0,nan,0.0,0.0,0.0,0.0,0.0,0.0,0.0,0.0,0.008574687,0.005240262,-9.24339e-05,0.0,0.0,0.0,0.0,0.0,0.0
7212000,7132000,0.009115489,0.013795471,-0.0022579264,-0.00021118487,-0.007243489,0.0019204244,0.0,0.0,0.0,0.0,0.0,0.0,0.0,-0.030385345,0.0,0.0,nan,0.0,0.0,0.0,0.0,0.0,0.0,0.0,0.0,-0.023116603,-0.0051723383,0.0003667939,0.0,0.0,0.0,0.0,0.0,0.0
7708000,7628000,-0.008508594,0.006884454,-0.05885972,7.096678e-05,-0.005906248,-0.0006420575,0.0,0.0,0.0,0.0,0.0,0.0,0.0,-0.025336754,0.0,0.0,nan,0.0,0.0,0.0,0.0,0.0,0.0,0.0,0.0,-0.010789105,0.025246412,0.0006402944,0.0,0.0,0.0,0.0,0.0,0.0
8212000,8132000,-0.009100218,0.002265976,-0.02597015,0.00035103227,-0.006591063,-0.0031756759,0.0,0.0,0.0,0.0,0.0,0.0,0.0,0.0108453445,0.0,0.0,nan,0.0,0.0,0.0,0.0,0.0,0.0,0.0,0.0,0.016499406,-0.005943656,-0.0004696178,0.0,0.0,0.0,0.0,0.0,0.0
8716000,8636000,-0.02156552,0.00079838815,-0.0070159137,-7.816918e-05,-0.0072826776,-0.002303008,0.0,0.0,0.0,0.0,0.0,0.0,0.0,0.031717937,0.0,0.0,nan,0.0,0.0,0.0,0.0,0.0,0.0,0.0,0.0,-0.00447006,-0.0021275668,5.2415973e-05,0.0,0.0,0.0,0.0,0.0,0.0
9212000,9132000,0.0024296832,0.002358595,0.005843723,0.00032037185,-0.0071507855,0.010080248,0.0,0.0,0.0,0.0,0.0,0.0,0.0,0.015175376,0.0,0.0,nan,0.0,0.0,0.0,0.0,0.0,0.0,0.0,0.0,-0.016646838,-0.028007101,-0.00021120792,0.0,0.0,0.0,0.0,0.0,0.0
9716000,9636000,0.003069074,0.022144262,-0.00325758,0.00070945366,-0.0070228605,0.0001843758,0.0,0.0,0.0,0.0,0.0,0.0,0.0,0.038067926,0.0,0.0,nan,0.0,0.0,0.0,0.0,0.0,0.0,0.0,0.0,-0.018899066,-0.021204768,-4.102227e-05,0.0,0.0,0.0,0.0,0.0,0.0
10212000,10132000,0.02350876,-0.0075968658,0.029147891,0.00073474576,-0.0070458944,-0.0045438334,0.0,0.0,0.0,0.0,0.0,0.0,0.0,-0.055369195,0.0,0.0,nan,0.0,0.0,0.0,0.0,0.0,0.0,0.0,0.0,0.0005670872,0.024382388,0.00039254586,0.0,0.0,0.0,0.0,0.0,0.0
10716000,10636000,-0.019838009,-0.010183882,0.0021495223,0.0003467722,-0.014838742,-0.0037125424,0.0,0.0,0.0,0.0,0.0,0.0,0.0,0.030958556,0.0,0.0,nan,0.0,0.0,0.0,0.0,0.0,0.0,0.0,0.0,0.025336942,-6.7660556e-05,-0.00052701024,0.0,0.0,0.0,0.0,0.0,0.0
11212000,11132000,-0.010407079,0.016877396,-0.0029147286,-6.5358865e-05,-0.008037308,0.0049974434,0.0,0.0,0.0,0.0,0.0,0.0,0.0,0.033327885,0.0,0.0,nan,0.0,0.0,0.0,0.0,0.0,0.0,0.0,0.0,0.017990034,0.010052557,-0.00019663139,0.0,0.0,0.0,0.0,0.0,0.0
11716000,11636000,-0.012261638,-0.003687036,-0.009622086,-0.00029417893,-0.00813957,0.023056677,0.0,0.0,0.0,0.0,0.0,0.0,0.0,-0.01297472,0.0,0.0,nan,0.0,0.0,0.0,0.0,0.0,0.0,0.0,0.0,-0.0050554927,0.022977846,0.0004629968,0.0,0.0,0.0,0.0,0.0,0.0
12212000,12132000,-0.0031122318,-0.002487963,0.013907239,0.010703939,-0.0081348885,0.020642996,0.0,0.0,0.0,0.0,0.0,0.0,0.0,-0.07778811,0.0,0.0,nan,0.0,0.0,0.0,0.0,0.0,0.0,0.0,0.0,0.031521924,0.033635013,-0.00014398809,0.0,0.0,0.0,0.0,0.0,0.0
12716000,12636000,-0.0026107458,-0.0006010704,0.012134828,-0.0005032002,-0.007727548,0.012029344,0.0,0.0,0.0,0.0,0.0,0.0,0.0,0.05897808,0.0,0.0,nan,0.0,0.0,0.0,0.0,0.0,0.0,0.0,0.0,-0.0082672825,-0.050352823,-0.0008058486,0.0,0.0,0.0,0.0,0.0,0.0
13212000,13132000,-0.009499899,0.004926224,0.0024970528,5.980363e-05,-0.0064592655,0.014958795,0.0,0.0,0.0,0.0,0.0,0.0,0.0,0.096724786,0.0,0.0,nan,0.0,0.0,0.0,0.0,0.0,0.0,0.0,0.0,0.006341826,-0.015480975,-0.00039477178,0.0,0.0,0.0,0.0,0.0,0.0
13716000,13636000,0.0317255,0.0036510536,0.032365683,0.00026557644,-0.0065018255,0.021013381,0.0,0.0,0.0,0.0,0.0,0.0,0.0,0.069698736,0.0,0.0,nan,0.0,0.0,0.0,0.0,0.0,0.0,0.0,0.0,0.0029584544,-0.005696115,-0.00015569944,0.0,0.0,0.0,0.0,0.0,0.0
14212000,14132000,0.013189178,0.0012678507,0.020176547,0.0007608773,-0.014380119,0.019925455,0.0,0.0,0.0,0.0,0.0,0.0,0.0,0.038169585,0.0,0.0,nan,0.0,0.0,0.0,0.0,0.0,0.0,0.0,0.0,0.00037547387,-0.00603694,-0.0001109855,0.0,0.0,0.0,0.0,0.0,0.0
14708000,14628000,-0.008407559,-0.0016677708,0.020002918,0.00040522224,-4.558407e-05,0.021840414,0.0,0.0,0.0,0.0,0.0,0.0,0.0,-0.12977815,0.0,0.0,nan,0.0,0.0,0.0,0.0,0.0,0.0,0.0,0.0,-0.009875722,0.008655205,0.00031775667,0.0,0.0,0.0,0.0,0.0,0.0
15212000,15132000,-0.018269947,0.00017648807,0.026351068,0.0005353602,-0.007717087,0.017860647,0.0,0.0,0.0,0.0,0.0,0.0,0.0,-0.005039979,0.0,0.0,nan,0.0,0.0,0.0,0.0,0.0,0.0,0.0,0.0,-0.0017357705,-0.030557161,-0.0005216441,0.0,0.0,0.0,0.0,0.0,0.0
15708000,15628000,0.011324945,0.010116148,0.0068987757,0.00031105988,-0.007530936,0.024327014,0.0,0.0,0.0,0.0,0.0,0.0,0.0,0.050817624,0.0,0.0,nan,0.0,0.0,0.0,0.0,0.0,0.0,0.0,0.0,-0.012840924,-0.0020776421,0.00018402778,0.0,0.0,0.0,0.0,0.0,0.0
16212000,16132000,-0.00053364405,-0.0007305244,0.017873058,0.0002237624,-5.8150268e-05,0.0059432276,0.0,0.0,0.0,0.0,0.0,0.0,0.0,0.03770233,0.0,0.0,nan,0.0,0.0,0.0,0.0,0.0,0.0,0.0,0.0,0.012913451,-0.0060622683,-0.0003347634,0.0,0.0,0.0,0.0,0.0,0.0
16716000,16636000,0.00039361627,-0.011889956,0.01909084,7.5377626e-05,-0.00035572494,0.011769991,0.0,0.0,0.0,0.0,0.0,0.0,0.0,0.036158342,0.0,0.0,nan,0.0,0.0,0.0,0.0,0.0,0.0,0.0,0.0,0.00879727,0.004785769,-7.706321e-05,0.0,0.0,0.0,0.0,0.0,0.0
17212000,17132000,-0.0004900914,-0.0028259172,0.013426542,-0.000104597806,-0.008109352,0.008216772,0.0,0.0,0.0,0.0,0.0,0.0,0.0,-0.10504734,0.0,0.0,nan,0.0,0.0,0.0,0.0,0.0,0.0,0.0,0.0,-0.004494786,0.0008303385,8.772099e-05,0.0,0.0,0.0,0.0,0.0,0.0
17708000,17628000,-0.0014238348,-0.0029039816,0.0034605917,-0.00012461244,-0.008109698,0.013886947,0.0,0.0,0.0,0.0,0.0,0.0,0.0,0.033359524,0.0,0.0,nan,0.0,0.0,0.0,0.0,0.0,0.0,0.0,0.0,0.007584913,-0.002460816,-0.00016962526,0.0,0.0,0.0,0.0,0.0,0.0
18212000,18132000,0.008413359,0.010184666,0.0601959,-0.00023826794,-0.0077788453,0.012628298,0.0,0.0,0.0,0.0,0.0,0.0,0.0,0.008656427,0.0,0.0,nan,0.0,0.0,0.0,0.0,0.0,0.0,0.0,0.0,0.009338593,-0.0072058374,-0.00027753005,0.0,0.0,0.0,0.0,0.0,0.0
18716000,18636000,0.002172953,-0.0022069872,0.0123666,-4.0165804e-05,-0.007918523,0.011085965,0.0,0.0,0.0,0.0,0.0,0.0,0.0,-0.04607676,0.0,0.0,nan,0.0,0.0,0.0,0.0,0.0,0.0,0.0,0.0,-0.0011756073,-0.0137200495,-0.00020499683,0.0,0.0,0.0,0.0,0.0,0.0
19212000,19132000,0.009706573,-0.006482364,0.013460845,0.0006378882,-0.009122126,0.008838844,0.0,0.0,0.0,0.0,0.0,0.0,0.0,-0.078892365,0.0,0.0,nan,0.0,0.0,0.0,0.0,0.0,0.0,0.0,0.0,0.03650996,-0.0020628413,-0.00068439596,0.0,0.0,0.0,0.0,0.0,0.0
19716000,19636000,-0.019824581,-0.0042986195,0.012424961,-9.990311e-05,-0.008783908,0.012198042,0.0,0.0,0.0,0.0,0.0,0.0,0.0,0.01298921,0.0,0.0,nan,0.0,0.0,0.0,0.0,0.0,0.0,0.0,0.0,-0.0020416412,-0.014274408,-0.00019493153,0.0,0.0,0.0,0.0,0.0,0.0
20212000,20132000,-0.019484753,-0.0022081344,0.041036136,0.00011285677,-0.008382362,0.006318856,0.0,0.0,0.0,0.0,0.0,0.0,0.0,-0.033868644,0.0,0.0,nan,0.0,0.0,0.0,0.0,0.0,0.0,0.0,0.0,-0.017689865,-0.016165905,-1.0278505e-06,0.0,0.0,0.0,0.0,0.0,0.0
20708000,20628000,0.011412888,-0.0014677246,0.019754114,0.00028113363,-0.008046703,0.020559464,0.0,0.0,0.0,0.0,0.0,0.0,0.0,0.03252703,0.0,0.0,nan,0.0,0.0,0.0,0.0,0.0,0.0,0.0,0.0,-0.0007036756,0.01004907,0.00015273535,0.0,0.0,0.0,0.0,0.0,0.0
21212000,21132000,-0.005345797,0.0028176687,0.041308135,-0.0008864059,-0.007277225,0.015601002,0.0,0.0,0.0,0.0,0.0,0.0,0.0,-0.09164636,0.0,0.0,nan,0.0,0.0,0.0,0.0,0.0,0.0,0.0,0.0,0.006308718,0.005067276,-2.45485e-05,0.0,0.0,0.0,0.0,0.0,0.0
21716000,21636000,0.0035631773,0.0037378615,0.012700707,-0.0012733086,-0.0069249286,0.024343481,0.0,0.0,0.0,0.0,0.0,0.0,0.0,0.02353293,0.0,0.0,nan,0.0,0.0,0.0,0.0,0.0,0.0,0.0,0.0,0.019932127,0.0017266865,-0.00029896828,0.0,0.0,0.0,0.0,0.0,0.0
22212000,22132000,-0.0040921313,0.0010617207,0.02127506,-0.0010847406,-0.014666493,0.012043204,0.0,0.0,0.0,0.0,0.0,0.0,0.0,-0.016299112,0.0,0.0,nan,0.0,0.0,0.0,0.0,0.0,0.0,0.0,0.0,0.030767102,-0.0009034131,-0.0005447395,0.0,0.0,0.0,0.0,0.0,0.0
22716000,22636000,-0.0052755247,-1.9548519e-05,0.002139939,-0.0010808203,-0.007338207,0.008622995,0.0,0.0,0.0,0.0,0.0,0.0,0.0,0.06195132,0.0,0.0,nan,0.0,0.0,0.0,0.0,0.0,0.0,0.0,0.0,-0.020714842,-0.008573255,0.00017355234,0.0,0.0,0.0,0.0,0.0,0.0
23212000,23132000,-0.021158313,-0.01141214,0.01703392,-0.00052215636,-0.007657987,0.018653097,0.0,0.0,0.0,0.0,0.0,0.0,0.0,0.050863095,0.0,0.0,nan,0.0,0.0,0.0,0.0,0.0,0.0,0.0,0.0,-0.0034102758,0.033010326,0.0004824373,0.0,0.0,0.0,0.0,0.0,0.0
23716000,23636000,-0.009805809,-0.01045498,0.017513447,-0.00015706944,-0.00037406452,0.0135803,0.0,0.0,0.0,0.0,0.0,0.0,0.0,0.019304516,0.0,0.0,nan,0.0,0.0,0.0,0.0,0.0,0.0,0.0,0.0,-0.009991987,-0.012344144,-3.6547277e-05,0.0,0.0,0.0,0.0,0.0,0.0
24212000,24132000,-0.008188415,-0.018894851,0.026136236,0.00019931262,8.531687e-05,0.013539825,0.0,0.0,0.0,0.0,0.0,0.0,0.0,-0.04759383,0.0,0.0,nan,0.0,0.0,0.0,0.0,0.0,0.0,0.0,0.0,-0.018739566,0.006475635,0.00036125391,0.0,0.0,0.0,0.0,0.0,0.0
24716000,24636000,0.009193131,0.009640283,0.0640842,0.00018277169,-0.007400882,0.013908727,0.0,0.0,0.0,0.0,0.0,0.0,0.0,-0.014163967,0.0,0.0,nan,0.0,0.0,0.0,0.0,0.0,0.0,0.0,0.0,-0.014031658,0.0011012064,0.00021735593,0.0,0.0,0.0,0.0,0.0,0.0
25212000,25132000,-0.0049674166,0.007956503,-0.014711341,-0.001142255,-0.00806324,0.0037944317,0.0,0.0,0.0,0.0,0.0,0.0,0.0,-0.07253051,0.0,0.0,nan,0.0,0.0,0.0,0.0,0.0,0.0,0.0,0.0,0.015017379,0.006100826,-0.00015633642,0.0,0.0,0.0,0.0,0.0,0.0
25716000,25636000,-0.004296894,-0.0091401655,0.0056812,-0.0010645506,-0.0076420708,0.013039194,0.0,0.0,0.0,0.0,0.0,0.0,0.0,0.045716405,0.0,0.0,nan,0.0,0.0,0.0,0.0,0.0,0.0,0.0,0.0,0.00050184183,-0.017875439,-0.00027621185,0.0,0.0,0.0,0.0,0.0,0.0
26212000,26132000,-0.00442837,0.013149421,0.034381133,-0.0009489274,-0.0070875697,0.01523285,0.0,0.0,0.0,0.0,0.0,0.0,0.0,-0.011151083,0.0,0.0,nan,0.0,0.0,0.0,0.0,0.0,0.0,0.0,0.0,0.017625507,-0.010767155,-0.0004552494,0.0,0.0,0.0,0.0,0.0,0.0
26708000,26628000,-0.023276284,0.0059665097,0.037615247,-0.0009349132,-0.006511231,0.004870463,0.0,0.0,0.0,0.0,0.0,0.0,0.0,0.056132063,0.0,0.0,nan,0.0,0.0,0.0,0.0,0.0,0.0,0.0,0.0,0.035697673,-0.023467157,-0.0009962162,0.0,0.0,0.0,0.0,0.0,0.0
27212000,27132000,-0.0054751453,0.0051812036,-0.016831852,-0.0010068114,-0.0065228185,0.015912598,0.0,0.0,0.0,0.0,0.0,0.0,0.0,0.015113497,0.0,0.0,nan,0.0,0.0,0.0,0.0,0.0,0.0,0.0,0.0,0.022677861,-0.053045813,-0.0012984091,0.0,0.0,0.0,0.0,0.0,0.0
27716000,27636000,-0.0042958437,-0.0034548156,0.024775103,-0.00090750726,-0.006414637,0.008216443,0.0,0.0,0.0,0.0,0.0,0.0,0.0,0.010654654,0.0,0.0,nan,0.0,0.0,0.0,0.0,0.0,0.0,0.0,0.0,0.0338218,0.0060273367,-0.0005181816,0.0,0.0,0.0,0.0,0.0,0.0
28212000,28132000,-0.0042784065,-0.013621613,0.020445464,-0.011905642,0.0012343179,0.0038413033,0.0,0.0,0.0,0.0,0.0,0.0,0.0,-0.011827899,0.0,0.0,nan,0.0,0.0,0.0,0.0,0.0,0.0,0.0,0.0,0.007253459,-0.020877685,-0.00045226936,0.0,0.0,0.0,0.0,0.0,0.0
28716000,28636000,0.005604077,0.016906813,0.051418502,-0.0017026648,-0.005215034,0.022998817,0.0,0.0,0.0,0.0,0.0,0.0,0.0,0.047064785,0.0,0.0,nan,0.0,0.0,0.0,0.0,0.0,0.0,0.0,0.0,0.008076665,-0.015367857,-0.0003780816,0.0,0.0,0.0,0.0,0.0,0.0
29212000,29132000,-0.0064744283,0.002083584,0.07332286,-0.0018584806,-0.006693064,0.019349433,0.0,0.0,0.0,0.0,0.0,0.0,0.0,-0.08880001,0.0,0.0,nan,0.0,0.0,0.0,0.0,0.0,0.0,0.0,0.0,0.022158876,0.016088178,-0.00016776985,0.0,0.0,0.0,0.0,0.0,0.0
29716000,29636000,0.015820596,-0.001051216,-0.03848216,-0.0014214584,-0.0071319286,0.02582069,0.0,0.0,0.0,0.0,0.0,0.0,0.0,-0.024073726,0.0,0.0,nan,0.0,0.0,0.0,0.0,0.0,0.0,0.0,0.0,0.011029394,-0.028493699,-0.00067059696,0.0,0.0,0.0,0.0,0.0,0.0
30212000,30132000,-0.004542674,-0.00281031,0.019939432,-0.0011297615,-0.007849233,0.013461139,0.0,0.0,0.0,0.0,0.0,0.0,0.0,-0.055156298,0.0,0.0,nan,0.0,0.0,0.0,0.0,0.0,0.0,0.0,0.0,-0.0023929663,0.005845152,0.00012831695,0.0,0.0,0.0,0.0,0.0,0.0
30716000,30636000,-0.005448469,-0.023181219,0.026934825,0.00968917,-0.000590312,0.014244605,0.0,0.0,0.0,0.0,0.0,0.0,0.0,0.0075422246,0.0,0.0,nan,0.0,0.0,0.0,0.0,0.0,0.0,0.0,0.0,-0.007191154,0.023239257,0.00045018355,0.0,0.0,0.0,0.0,0.0,0.0
31212000,31132000,-0.0025026556,-0.014264446,-0.036571156,-0.0008394169,-0.008679478,0.020996733,0.0,0.0,0.0,0.0,0.0,0.0,0.0,0.025655251,0.0,0.0,nan,0.0,0.0,0.0,0.0,0.0,0.0,0.0,0.0,-0.0029814215,-0.005240467,-3.188938e-05,0.0,0.0,0.0,0.0,0.0,0.0
31716000,31636000,-0.003702296,0.0049819313,0.0027627647,-0.0007485955,-0.008485177,0.015418058,0.0,0.0,0.0,0.0,0.0,0.0,0.0,-0.0035267863,0.0,0.0,nan,0.0,0.0,0.0,0.0,0.0,0.0,0.0,0.0,0.008628022,0.024305647,0.00018487366,0.0,0.0,0.0,0.0,0.0,0.0
32212000,32132000,-0.0036127772,-0.014232019,0.0037205182,-0.0008054375,-0.008532217,0.019082129,0.0,0.0,0.0,0.0,0.0,0.0,0.0,0.09415476,0.0,0.0,nan,0.0,0.0,0.0,0.0,0.0,0.0,0.0,0.0,-0.01631723,0.016481929,0.0005084572,0.0,0.0,0.0,0.0,0.0,0.0
32716000,32636000,-0.035908602,-0.0052972925,0.023035914,-0.0016162542,-0.009544762,0.02340216,0.0,0.0,0.0,0.0,0.0,0.0,0.0,0.00075263344,0.0,0.0,nan,0.0,0.0,0.0,0.0,0.0,0.0,0.0,0.0,-0.0010137905,0.02232657,0.00032546927,0.0,0.0,0.0,0.0,0.0,0.0
33212000,33132000,-0.020080123,-0.019232886,-0.0074693337,-0.0075463136,-0.019430345,0.026605945,0.0,0.0,0.0,0.0,0.0,0.0,0.0,0.055052392,0.0,0.0,nan,0.0,0.0,0.0,0.0,0.0,0.0,0.0,0.0,0.008011983,-0.016934395,-0.0004163947,0.0,0.0,0.0,0.0,0.0,0.0
33716000,33636000,-0.006171411,-0.01559497,0.03455456,-0.012898775,-0.03585479,0.038080703,0.0,0.0,0.0,0.0,0.0,0.0,0.0,-0.0,0.0,0.0,nan,0.0,0.0,0.0,0.0,0.0,0.0,0.0,0.0,0.023168672,0.024889117,-9.859273e-05,0.0,0.0,0.0,0.0,0.0,0.0
34212000,34132000,-0.019486392,-0.0113471225,0.13695268,-0.019806445,-0.039555132,0.04289224,0.0,0.0,0.0,0.0,0.0,0.0,0.0,0.24277048,0.0,0.0,nan,0.0,0.0,0.0,0.0,0.0,0.0,0.0,0.0,0.0058723334,0.01772647,0.00014709891,0.0,0.0,0.0,0.0,0.0,0.0
34708000,34628000,-0.035156652,-0.037628353,0.04743108,-0.028564855,-0.052593857,0.07187271,0.0,0.0,0.0,0.0,0.0,0.0,0.0,0.04311118,0.0,0.0,nan,0.0,0.0,0.0,0.0,0.0,0.0,0.0,0.0,-0.011849945,0.02763376,0.00058433466,0.0,0.0,0.0,0.0,0.0,0.0
35212000,35132000,-0.0068371613,0.022723876,-0.021946594,-0.05486624,-0.07734814,0.06932549,0.0,0.0,0.0,0.0,0.0,0.0,0.0,0.05082886,0.0,0.0,nan,0.0,0.0,0.0,0.0,0.0,0.0,0.0,0.0,0.10147024,-0.7330226,0.016560847,0.0,0.0,0.0,0.0,0.0,0.0
35716000,35636000,0.17004246,0.28856674,-0.03264168,-0.00462424,-0.0054589733,0.06586079,0.0,0.0,0.0,0.0,0.0,0.0,0.0,0.09241694,0.0,0.0,nan,0.0,0.0,0.0,0.0,0.0,0.0,0.0,0.0,0.010381695,0.0766214,0.0006763189,0.0,0.0,0.0,0.0,0.0,0.0
36212000,36132000,0.120581634,0.1879051,0.031013012,0.07013085,0.09474681,0.053742856,0.0,0.0,0.0,0.0,0.0,0.0,0.0,0.002955377,0.0,0.0,nan,0.0,0.0,0.0,0.0,0.0,0.0,0.0,0.0,-0.048363082,0.29727817,0.007877552,0.0,0.0,0.0,0.0,0.0,0.0
36716000,36636000,0.067458875,0.07863863,0.021171689,0.123069376,0.14791195,0.068481386,0.0,0.0,0.0,0.0,0.0,0.0,0.0,0.03774011,0.0,0.0,nan,0.0,0.0,0.0,0.0,0.0,0.0,0.0,0.0,0.0065008327,0.24945642,0.006984711,0.0,0.0,0.0,0.0,0.0,0.0
37212000,37132000,-0.09544182,-0.1563592,0.015659928,0.124772355,0.09124541,0.049232483,0.0,0.0,0.0,0.0,0.0,0.0,0.0,0.03130114,0.0,0.0,nan,0.0,0.0,0.0,0.0,0.0,0.0,0.0,0.0,0.024686888,0.15033923,0.0036015788,0.0,0.0,0.0,0.0,0.0,0.0
37708000,37628000,-0.15161447,-0.21718861,0.011959672,0.08555141,0.0035987832,0.052490592,0.0,0.0,0.0,0.0,0.0,0.0,0.0,0.030720472,0.0,0.0,nan,0.0,0.0,0.0,0.0,0.0,0.0,0.0,0.0,0.010599902,0.04223281,0.0008382671,0.0,0.0,0.0,0.0,0.0,0.0
38212000,38132000,-0.15435858,-0.2733819,0.036533475,0.05303642,-0.07660353,0.046020985,0.0,0.0,0.0,0.0,0.0,0.0,0.0,0.0035777092,0.0,0.0,nan,0.0,0.0,0.0,0.0,0.0,0.0,0.0,0.0,0.029030427,-0.02463849,-0.0010822616,0.0,0.0,0.0,0.0,0.0,0.0
38708000,38628000,-0.10437725,-0.2280406,0.06245601,0.022833586,-0.15000735,0.05873537,0.0,0.0,0.0,0.0,0.0,0.0,0.0,-0.0,0.0,0.0,nan,0.0,0.0,0.0,0.0,0.0,0.0,0.0,0.0,0.05976222,0.006096014,-0.0008622835,0.0,0.0,0.0,0.0,0.0,0.0
39212000,39132000,-0.16325542,-0.1731835,0.061858296,-0.058028765,-0.24467203,0.06096077,0.0,0.0,0.0,0.0,0.0,0.0,0.0,-0.0,0.0,0.0,nan,0.0,0.0,0.0,0.0,0.0,0.0,0.0,0.0,0.048285868,0.010108318,-0.00066510413,0.0,0.0,0.0,0.0,0.0,0.0
39716000,39636000,-0.12757283,-0.16528438,0.08242619,-0.102450795,-0.25205263,0.083005905,0.0,0.0,0.0,0.0,0.0,0.0,0.0,0.07087278,0.0,0.0,nan,0.0,0.0,0.0,0.0,0.0,0.0,0.0,0.0,0.03234803,-0.026128026,-0.0009799126,0.0,0.0,0.0,0.0,0.0,0.0
40212000,40132000,-0.129603,-0.11150442,0.08059263,-0.12742218,-0.24618879,0.07463503,0.0,0.0,0.0,0.0,0.0,0.0,0.0,0.010274887,0.0,0.0,nan,0.0,0.0,0.0,0.0,0.0,0.0,0.0,0.0,0.04216467,-0.029931383,-0.0012336719,0.0,0.0,0.0,0.0,0.0,0.0
40708000,40628000,-0.09306614,-0.08584501,0.053158164,-0.151527,-0.22868548,0.09103775,0.0,0.0,0.0,0.0,0.0,0.0,0.0,-0.0,0.0,0.0,nan,0.0,0.0,0.0,0.0,0.0,0.0,0.0,0.0,0.025965014,-0.04870628,-0.0013037773,0.0,0.0,0.0,0.0,0.0,0.0
41212000,41132000,-0.07621699,-0.06494643,0.101700544,-0.1530585,-0.1764715,0.112859726,0.0,0.0,0.0,0.0,0.0,0.0,0.0,0.09185314,0.0,0.0,nan,0.0,0.0,0.0,0.0,0.0,0.0,0.0,0.0,-0.010622244,0.00517445,0.0002887475,0.0,0.0,0.0,0.0,0.0,0.0
41716000,41636000,-0.056621347,-0.06058778,0.117704034,-0.15034555,-0.15532666,0.15684032,0.0,0.0,0.0,0.0,0.0,0.0,0.0,0.23710775,0.0,0.0,nan,0.0,0.0,0.0,0.0,0.0,0.0,0.0,0.0,0.03297398,-0.001961453,-0.00071500824,0.0,0.0,0.0,0.0,0.0,0.0
42212000,42132000,-0.058447264,-0.04645601,0.1296475,-0.1372069,-0.13363658,0.1843605,0.0,0.0,0.0,0.0,0.0,0.0,0.0,0.2914858,0.0,0.0,nan,0.0,0.0,0.0,0.0,0.0,0.0,0.0,0.0,0.023676913,0.0061730254,-0.00036962732,0.0,0.0,0.0,0.0,0.0,0.0
42716000,42636000,-0.060036194,-0.029098038,0.15811229,-0.13682485,-0.11300924,0.19902802,0.0,0.0,0.0,0.0,0.0,0.0,0.0,0.19790554,0.0,0.0,nan,0.0,0.0,0.0,0.0,0.0,0.0,0.0,0.0,0.052732065,0.00529239,-0.0010076885,0.0,0.0,0.0,0.0,0.0,0.0
43212000,43132000,-0.06815913,-0.021909524,0.15869379,-0.14049035,-0.08000506,0.24973297,0.0,0.0,0.0,0.0,0.0,0.0,0.0,0.09236717,0.0,0.0,nan,0.0,0.0,0.0,0.0,0.0,0.0,0.0,0.0,-0.06296757,0.08810147,0.0034466472,0.0,0.0,0.0,0.0,0.0,0.0
43708000,43628000,-0.104576856,-0.46886027,0.15982473,-0.15161572,-0.13990693,0.26722717,0.0,0.0,0.0,0.0,0.0,0.0,0.0,0.0751133,0.0,0.0,nan,0.0,0.0,0.0,0.0,0.0,0.0,0.0,0.0,-1.4326383,1.4301388,0.3067465,0.0,0.0,0.0,0.0,0.0,0.0
44212000,44132000,-0.69125974,-1.5264946,0.17919552,-0.28186092,-0.51813656,0.2791605,0.0,0.0,0.0,0.0,0.0,0.0,0.0,0.17577267,0.0,0.0,nan,0.0,0.0,0.0,0.0,0.0,0.0,0.0,0.0,-2.6062813,1.1522137,0.6926975,0.0,0.0,0.0,0.0,0.0,0.0
44708000,44628000,-1.5462667,-2.9007282,0.16880879,-0.7261407,-1.3239667,0.28704643,0.0,0.0,0.0,0.0,0.0,0.0,0.0,0.13227749,0.0,0.0,nan,0.0,0.0,0.0,0.0,0.0,0.0,0.0,0.0,-2.4873989,-0.124032855,0.67419934,0.0,0.0,0.0,0.0,0.0,0.0
45212000,45132000,-2.6247532,-5.1708035,0.1478146,-2.6644783,-4.0370626,0.290205,0.0,0.0,0.0,0.0,0.0,0.0,0.0,0.19115543,0.0,0.0,nan,0.0,0.0,0.0,0.0,0.0,0.0,0.0,0.0,-1.3413413,-1.0070381,0.3802743,0.0,0.0,0.0,0.0,0.0,0.0
45716000,45636000,-2.4217744,-5.6478977,0.08420459,-3.8878436,-5.6925936,0.29398918,0.0,0.0,0.0,0.0,0.0,0.0,0.0,0.10338879,0.0,0.0,nan,0.0,0.0,0.0,0.0,0.0,0.0,0.0,0.0,0.16563085,-0.7121571,-0.011054993,0.0,0.0,0.0,0.0,0.0,0.0
46212000,46132000,-2.110476,-5.48566,0.12577118,-5.0725517,-7.2103596,0.28627586,0.0,0.0,0.0,0.0,0.0,0.0,0.0,-0.009117126,0.0,0.0,nan,0.0,0.0,0.0,0.0,0.0,0.0,0.0,0.0,0.039067537,-0.60532,0.006343603,0.0,0.0,0.0,0.0,0.0,0.0
46708000,46628000,-1.8814521,-5.3438044,0.0656499,-6.207906,-8.581054,0.28596497,0.0,0.0,0.0,0.0,0.0,0.0,0.0,0.068834305,0.0,0.0,nan,0.0,0.0,0.0,0.0,0.0,0.0,0.0,0.0,0.044971853,-0.4308325,0.0004272461,0.0,0.0,0.0,0.0,0.0,0.0
47212000,47132000,-1.6771843,-5.0987115,0.06491701,-8.526871,-11.002626,0.2714262,0.0,0.0,0.0,0.0,0.0,0.0,0.0,0.03833103,0.0,0.0,nan,0.0,0.0,0.0,0.0,0.0,0.0,0.0,0.0,0.009486884,-0.2779923,0.002816677,0.0,0.0,0.0,0.0,0.0,0.0
47716000,47636000,-1.7165918,-4.9270406,0.08116431,-9.757368,-12.073917,0.2760496,0.0,0.0,0.0,0.0,0.0,0.0,0.0,0.07419872,0.0,0.0,nan,0.0,0.0,0.0,0.0,0.0,0.0,0.0,0.0,-0.0027424693,-0.14399928,0.0015323162,0.0,0.0,0.0,0.0,0.0,0.0
48212000,48132000,-1.7854002,-4.7474475,0.123563126,-11.045177,-13.052314,0.27048683,0.0,0.0,0.0,0.0,0.0,0.0,0.0,0.009394646,0.0,0.0,nan,0.0,0.0,0.0,0.0,0.0,0.0,0.0,0.0,0.008180797,-0.0985052,-0.0014944077,0.0,0.0,0.0,0.0,0.0,0.0
48716000,48636000,-1.9169438,-4.534906,0.064433604,-12.420686,-13.975859,0.26563263,0.0,0.0,0.0,0.0,0.0,0.0,0.0,0.018634796,0.0,0.0,nan,0.0,0.0,0.0,0.0,0.0,0.0,0.0,0.0,-0.032250404,-0.062045515,0.0065336227,0.0,0.0,0.0,0.0,0.0,0.0
49212000,49132000,-2.1506681,-4.220681,0.07608485,-15.118218,-16.007145,0.24729347,0.0,0.0,0.0,0.0,0.0,0.0,0.0,0.025492668,0.0,0.0,nan,0.0,0.0,0.0,0.0,0.0,0.0,0.0,0.0,0.04828596,-0.10132581,-0.009533882,0.0,0.0,0.0,0.0,0.0,0.0
49716000,49636000,-2.2281902,-3.9983919,0.0485088,-16.723042,-16.71401,0.25008202,0.0,0.0,0.0,0.0,0.0,0.0,0.0,0.07699394,0.0,0.0,nan,0.0,0.0,0.0,0.0,0.0,0.0,0.0,0.0,0.15529108,-0.2124694,-0.030498266,0.0,0.0,0.0,0.0,0.0,0.0
50212000,50132000,-2.2986422,-3.7464495,0.082110025,-18.379814,-17.298695,0.24591064,0.0,0.0,0.0,0.0,0.0,0.0,0.0,-0.011443138,0.0,0.0,nan,0.0,0.0,0.0,0.0,0.0,0.0,0.0,0.0,0.1342057,-0.23504025,-0.026197433,0.0,0.0,0.0,0.0,0.0,0.0
50716000,50636000,-2.3476756,-3.5263264,0.1124519,-20.070862,-17.830711,0.24403,0.0,0.0,0.0,0.0,0.0,0.0,0.0,-0.021767616,0.0,0.0,nan,0.0,0.0,0.0,0.0,0.0,0.0,0.0,0.0,0.15300947,-0.2652341,-0.029550076,0.0,0.0,0.0,0.0,0.0,0.0
51212000,51132000,-2.4575152,-3.095922,0.0699697,-23.528276,-18.758966,0.24469185,0.0,0.0,0.0,0.0,0.0,0.0,0.0,0.022180557,0.0,0.0,nan,0.0,0.0,0.0,0.0,0.0,0.0,0.0,0.0,0.17482546,-0.29218143,-0.03367734,0.0,0.0,0.0,0.0,0.0,0.0
51716000,51636000,-2.505598,-2.8939228,0.08857231,-25.334698,-19.152016,0.2545719,0.0,0.0,0.0,0.0,0.0,0.0,0.0,0.14156628,0.0,0.0,nan,0.0,0.0,0.0,0.0,0.0,0.0,0.0,0.0,0.15746224,-0.27566385,-0.029383183,0.0,0.0,0.0,0.0,0.0,0.0
52212000,52132000,-2.5473607,-2.6765947,0.09908117,-27.111332,-19.498919,0.2624979,0.0,0.0,0.0,0.0,0.0,0.0,0.0,-0.0031232834,0.0,0.0,nan,0.0,0.0,0.0,0.0,0.0,0.0,0.0,0.0,0.2350511,-0.29199255,-0.04537773,0.0,0.0,0.0,0.0,0.0,0.0
52708000,52628000,-2.608412,-2.4642844,0.11558126,-28.916073,-19.834545,0.25771236,0.0,0.0,0.0,0.0,0.0,0.0,0.0,0.092490196,0.0,0.0,nan,0.0,0.0,0.0,0.0,0.0,0.0,0.0,0.0,0.24276924,-0.25606012,-0.04667616,0.0,0.0,0.0,0.0,0.0,0.0
53212000,53132000,-2.7562819,-2.0149283,0.085265666,-32.664932,-20.399359,0.27600098,0.0,0.0,0.0,0.0,0.0,0.0,0.0,0.059548378,0.0,0.0,nan,0.0,0.0,0.0,0.0,0.0,0.0,0.0,0.0,0.25156894,-0.24348497,-0.048112154,0.0,0.0,0.0,0.0,0.0,0.0
53708000,53628000,-2.8335934,-1.7946409,0.106520765,-34.585457,-20.654507,0.29086208,0.0,0.0,0.0,0.0,0.0,0.0,0.0,0.052588463,0.0,0.0,nan,0.0,0.0,0.0,0.0,0.0,0.0,0.0,0.0,0.2482427,-0.25160533,-0.046887875,0.0,0.0,0.0,0.0,0.0,0.0
54212000,54132000,-2.9396005,-1.5862887,0.11892994,-36.49881,-20.881819,0.28650284,0.0,0.0,0.0,0.0,0.0,0.0,0.0,0.0698576,0.0,0.0,nan,0.0,0.0,0.0,0.0,0.0,0.0,0.0,0.0,0.30578962,-0.21773958,-0.058137655,0.0,0.0,0.0,0.0,0.0,0.0
54708000,54628000,-3.0163198,-1.4032708,0.124050245,-38.455826,-21.100918,0.29554844,0.0,0.0,0.0,0.0,0.0,0.0,0.0,0.10175896,0.0,0.0,nan,0.0,0.0,0.0,0.0,0.0,0.0,0.0,0.0,0.3415258,-0.22704262,-0.06467748,0.0,0.0,0.0,0.0,0.0,0.0
55212000,55132000,-3.1330006,-0.996645,0.17567854,-42.071095,-21.634386,0.31081867,0.0,0.0,0.0,0.0,0.0,0.0,0.0,0.059448242,0.0,0.0,nan,0.0,0.0,0.0,0.0,0.0,0.0,0.0,0.0,0.35003805,-0.20074183,-0.06599808,0.0,0.0,0.0,0.0,0.0,0.0
55708000,55628000,-3.215743,-0.7678096,0.16504106,-44.13531,-21.806698,0.3247881,0.0,0.0,0.0,0.0,0.0,0.0,0.0,-0.02985859,0.0,0.0,nan,0.0,0.0,0.0,0.0,0.0,0.0,0.0,0.0,0.3900104,-0.16575295,-0.07401061,0.0,0.0,0.0,0.0,0.0,0.0
56212000,56132000,-3.3083973,-0.5949489,0.15226969,-46.156002,-21.948622,0.3355646,0.0,0.0,0.0,0.0,0.0,0.0,0.0,0.07002258,0.0,0.0,nan,0.0,0.0,0.0,0.0,0.0,0.0,0.0,0.0,0.37018442,-0.24732298,-0.07054877,0.0,0.0,0.0,0.0,0.0,0.0
56716000,56636000,-3.4490256,-0.44657683,0.10128691,-48.23951,-22.11597,0.34046745,0.0,0.0,0.0,0.0,0.0,0.0,0.0,-0.11117172,0.0,0.0,nan,0.0,0.0,0.0,0.0,0.0,0.0,0.0,0.0,0.37355947,-0.18842876,-0.070862055,0.0,0.0,0.0,0.0,0.0,0.0
57212000,57132000,-3.7051785,-0.09788871,0.15489726,-52.46353,-22.504965,0.3472767,0.0,0.0,0.0,0.0,0.0,0.0,0.0,0.08500767,0.0,0.0,nan,0.0,0.0,0.0,0.0,0.0,0.0,0.0,0.0,0.43559143,-0.13891965,-0.08207369,0.0,0.0,0.0,0.0,0.0,0.0
57708000,57628000,-3.7966247,0.06908381,0.1583091,-54.597393,-22.72007,0.34855556,0.0,0.0,0.0,0.0,0.0,0.0,0.0,0.03415203,0.0,0.0,nan,0.0,0.0,0.0,0.0,0.0,0.0,0.0,0.0,0.4498261,-0.20528,-0.08376384,0.0,0.0,0.0,0.0,0.0,0.0
58212000,58132000,-3.8652325,0.18719184,0.12138204,-56.716587,-22.945139,0.34735584,0.0,0.0,0.0,0.0,0.0,0.0,0.0,0.1324892,0.0,0.0,nan,0.0,0.0,0.0,0.0,0.0,0.0,0.0,0.0,0.41870597,-0.17597985,-0.07748556,0.0,0.0,0.0,0.0,0.0,0.0
58716000,58636000,-3.942854,0.33185852,0.13732761,-58.859673,-23.217083,0.34871864,0.0,0.0,0.0,0.0,0.0,0.0,0.0,0.11141682,0.0,0.0,nan,0.0,0.0,0.0,0.0,0.0,0.0,0.0,0.0,0.4057126,-0.14798665,-0.07585573,0.0,0.0,0.0,0.0,0.0,0.0
59212000,59132000,-4.1918845,0.4895476,0.11163716,-63.15367,-23.823717,0.35551834,0.0,0.0,0.0,0.0,0.0,0.0,0.0,0.033249855,0.0,0.0,nan,0.0,0.0,0.0,0.0,0.0,0.0,0.0,0.0,0.3759219,-0.13271874,-0.070865154,0.0,0.0,0.0,0.0,0.0,0.0
59716000,59636000,-4.3304834,0.5752162,0.13927619,-65.325066,-24.17375,0.34209824,0.0,0.0,0.0,0.0,0.0,0.0,0.0,0.022777557,0.0,0.0,nan,0.0,0.0,0.0,0.0,0.0,0.0,0.0,0.0,0.40639234,-0.108793736,-0.07702589,0.0,0.0,0.0,0.0,0.0,0.0
60212000,60132000,-4.4098845,0.69270813,0.12444544,-67.26454,-24.236881,0.33998585,0.0,0.0,0.0,0.0,0.0,0.0,0.0,0.08560467,0.0,0.0,nan,0.0,0.0,0.0,0.0,0.0,0.0,0.0,0.0,0.42461503,-0.06538886,-0.078959465,0.0,0.0,0.0,0.0,0.0,0.0
60716000,60636000,-4.4800344,0.72845113,0.121943824,-69.44118,-24.629827,0.34105682,0.0,0.0,0.0,0.0,0.0,0.0,0.0,0.08434963,0.0,0.0,nan,0.0,0.0,0.0,0.0,0.0,0.0,0.0,0.0,0.40343437,-0.050313473,-0.07497525,0.0,0.0,0.0,0.0,0.0,0.0
61212000,61132000,-4.665384,0.7785944,0.08627415,-73.79826,-25.56068,0.3131628,0.0,0.0,0.0,0.0,0.0,0.0,0.0,0.009210587,0.0,0.0,nan,0.0,0.0,0.0,0.0,0.0,0.0,0.0,0.0,0.4254526,-0.04698658,-0.08005476,0.0,0.0,0.0,0.0,0.0,0.0
61708000,61628000,-4.798484,0.81420195,0.11621114,-75.97353,-26.101887,0.30286026,0.0,0.0,0.0,0.0,0.0,0.0,0.0,-0.07967663,0.0,0.0,nan,0.0,0.0,0.0,0.0,0.0,0.0,0.0,0.0,0.4033916,0.0032714605,-0.07637358,0.0,0.0,0.0,0.0,0.0,0.0
62212000,62132000,-4.871255,0.80910194,0.08951119,-78.11445,-26.624714,0.28766346,0.0,0.0,0.0,0.0,0.0,0.0,0.0,-0.05764103,0.0,0.0,nan,0.0,0.0,0.0,0.0,0.0,0.0,0.0,0.0,0.8325318,-0.031367183,-0.13176918,0.0,0.0,0.0,0.0,0.0,0.0
62716000,62636000,-4.9134426,1.0095099,0.09701285,-80.262924,-27.219267,0.2872715,0.0,0.0,0.0,0.0,0.0,0.0,0.0,-0.027076721,0.0,0.0,nan,0.0,0.0,0.0,0.0,0.0,0.0,0.0,0.0,1.8947618,-0.015312605,-0.16031218,0.0,0.0,0.0,0.0,0.0,0.0
63212000,63132000,-4.3875613,2.4578114,0.14452903,-84.167946,-27.769445,0.30095768,0.0,0.0,0.0,0.0,0.0,0.0,0.0,0.08588219,0.0,0.0,nan,0.0,0.0,0.0,0.0,0.0,0.0,0.0,0.0,1.8370616,0.10898091,-0.10402036,0.0,0.0,0.0,0.0,0.0,0.0
63708000,63628000,-4.155364,3.1486535,0.16098051,-85.87663,-27.760294,0.31629372,0.0,0.0,0.0,0.0,0.0,0.0,0.0,-0.06234455,0.0,0.0,nan,0.0,0.0,0.0,0.0,0.0,0.0,0.0,0.0,1.7172896,0.2350768,-0.055863857,0.0,0.0,0.0,0.0,0.0,0.0
64212000,64132000,-3.9611683,3.8269334,0.1953939,-87.402245,-27.569395,0.34428215,0.0,0.0,0.0,0.0,0.0,0.0,0.0,0.08141327,0.0,0.0,nan,0.0,0.0,0.0,0.0,0.0,0.0,0.0,0.0,1.5576298,0.26878923,-0.03090787,0.0,0.0,0.0,0.0,0.0,0.0
64708000,64628000,-3.7828932,4.340069,0.18337071,-88.78161,-27.29217,0.3551464,0.0,0.0,0.0,0.0,0.0,0.0,0.0,0.06968212,0.0,0.0,nan,0.0,0.0,0.0,0.0,0.0,0.0,0.0,0.0,1.2025814,-0.6683814,0.002311945,0.0,0.0,0.0,0.0,0.0,0.0
65212000,65132000,-2.1961112,5.0796924,0.19073574,-90.960495,-25.753681,0.38575745,0.0,0.0,0.0,0.0,0.0,0.0,0.0,0.054471016,0.0,0.0,nan,0.0,0.0,0.0,0.0,0.0,0.0,0.0,0.0,0.7628047,-2.5080764,0.32464743,0.0,0.0,0.0,0.0,0.0,0.0
65716000,65636000,-1.1287662,4.9808183,0.23918442,-91.23681,-25.33844,0.39334202,0.0,0.0,0.0,0.0,0.0,0.0,0.0,0.09335899,0.0,0.0,nan,0.0,0.0,0.0,0.0,0.0,0.0,0.0,0.0,0.387046,-0.528217,0.00043097138,0.0,0.0,0.0,0.0,0.0,0.0
66212000,66132000,-1.0379801,4.850149,0.17673813,-91.25078,-25.196373,0.3932724,0.0,0.0,0.0,0.0,0.0,0.0,0.0,0.09523392,0.0,0.0,nan,0.0,0.0,0.0,0.0,0.0,0.0,0.0,0.0,-0.7007731,-0.88925594,0.13243552,0.0,0.0,0.0,0.0,0.0,0.0
66716000,66636000,-0.4809916,4.509187,0.17466025,-91.1366,-25.305351,0.38296986,0.0,0.0,0.0,0.0,0.0,0.0,0.0,-0.00310421,0.0,0.0,nan,0.0,0.0,0.0,0.0,0.0,0.0,0.0,0.0,-1.8681413,0.4481859,0.4299143,0.0,0.0,0.0,0.0,0.0,0.0
67212000,67132000,1.6154933,2.542694,0.07445442,-89.88785,-26.484406,0.32667828,0.0,0.0,0.0,0.0,0.0,0.0,0.0,-0.014802933,0.0,0.0,nan,0.0,0.0,0.0,0.0,0.0,0.0,0.0,0.0,-1.5181139,0.17722791,0.38315916,0.0,0.0,0.0,0.0,0.0,0.0
67708000,67628000,2.2716486,1.7811112,0.01472443,-88.77827,-27.811169,0.27607918,0.0,0.0,0.0,0.0,0.0,0.0,0.0,-0.06979561,0.0,0.0,nan,0.0,0.0,0.0,0.0,0.0,0.0,0.0,0.0,-0.12689123,-0.4124648,0.028222382,0.0,0.0,0.0,0.0,0.0,0.0
68212000,68132000,2.3420377,1.3768234,0.018444892,-87.60865,-29.388569,0.2265644,0.0,0.0,0.0,0.0,0.0,0.0,0.0,-0.10727692,0.0,0.0,nan,0.0,0.0,0.0,0.0,0.0,0.0,0.0,0.0,0.5258572,0.22186726,-0.08200523,0.0,0.0,0.0,0.0,0.0,0.0
68716000,68636000,2.108081,0.88960695,-0.031113874,-86.56584,-31.136385,0.19833088,0.0,0.0,0.0,0.0,0.0,0.0,0.0,-0.05091381,0.0,0.0,nan,0.0,0.0,0.0,0.0,0.0,0.0,0.0,0.0,0.40770552,0.18031384,-0.06607729,0.0,0.0,0.0,0.0,0.0,0.0
69212000,69132000,1.9384305,-0.12533951,-0.02082324,-84.79633,-35.145096,0.11190224,0.0,0.0,0.0,0.0,0.0,0.0,0.0,-0.15685749,0.0,0.0,nan,0.0,0.0,0.0,0.0,0.0,0.0,0.0,0.0,0.35457394,0.23667674,-0.05657938,0.0,0.0,0.0,0.0,0.0,0.0
69708000,69628000,1.8220038,-0.613271,0.016777758,-84.003654,-37.343887,0.094693184,0.0,0.0,0.0,0.0,0.0,0.0,0.0,-0.1499548,0.0,0.0,nan,0.0,0.0,0.0,0.0,0.0,0.0,0.0,0.0,0.34737834,0.30784252,-0.05350676,0.0,0.0,0.0,0.0,0.0,0.0
70212000,70132000,1.7485577,-0.9968076,-0.006650975,-83.27137,-38.7058,0.07969093,0.0,0.0,0.0,0.0,0.0,0.0,0.0,-0.17891312,0.0,0.0,nan,0.0,0.0,0.0,0.0,0.0,0.0,0.0,0.0,0.36517122,0.30384436,-0.05644253,0.0,0.0,0.0,0.0,0.0,0.0
70716000,70636000,1.6757585,-1.5117595,0.00072860904,-82.56287,-41.164085,0.06078911,0.0,0.0,0.0,0.0,0.0,0.0,0.0,-0.308877,0.0,0.0,nan,0.0,0.0,0.0,0.0,0.0,0.0,0.0,0.0,0.33188438,0.329058,-0.048520625,0.0,0.0,0.0,0.0,0.0,0.0
71212000,71132000,1.459452,-2.531064,0.00096259266,-81.25845,-46.401627,0.051151276,0.0,0.0,0.0,0.0,0.0,0.0,0.0,-0.089206696,0.0,0.0,nan,0.0,0.0,0.0,0.0,0.0,0.0,0.0,0.0,1.1293466,0.31277484,-0.13967471,0.0,0.0,0.0,0.0,0.0,0.0
71708000,71628000,0.791614,-2.7299395,0.032095477,-80.781654,-49.061287,0.045708656,0.0,0.0,0.0,0.0,0.0,0.0,0.0,-0.16813469,0.0,0.0,nan,0.0,0.0,0.0,0.0,0.0,0.0,0.0,0.0,1.6506002,0.37765354,-0.11927879,0.0,0.0,0.0,0.0,0.0,0.0
72212000,72132000,0.04298675,-2.8558834,0.07540175,-80.56248,-51.643955,0.070661545,0.0,0.0,0.0,0.0,0.0,0.0,0.0,-0.23576736,0.0,0.0,nan,0.0,0.0,0.0,0.0,0.0,0.0,0.0,0.0,1.6895975,0.4214264,-0.0855701,0.0,0.0,0.0,0.0,0.0,0.0
72716000,72636000,-0.6080936,-3.0142307,0.119270705,-80.55161,-54.107048,0.087617874,0.0,0.0,0.0,0.0,0.0,0.0,0.0,0.0487957,0.0,0.0,nan,0.0,0.0,0.0,0.0,0.0,0.0,0.0,0.0,1.5905136,0.50181764,-0.044153303,0.0,0.0,0.0,0.0,0.0,0.0
73212000,73132000,-1.8702061,-3.3617227,0.16400325,-81.07968,-58.66609,0.18194675,0.0,0.0,0.0,0.0,0.0,0.0,0.0,-0.021989822,0.0,0.0,nan,0.0,0.0,0.0,0.0,0.0,0.0,0.0,0.0,1.5101771,0.6238625,-0.010274231,0.0,0.0,0.0,0.0,0.0,0.0
73716000,73636000,-2.416711,-3.527523,0.19981094,-81.57555,-60.7807,0.2290926,0.0,0.0,0.0,0.0,0.0,0.0,0.0,0.0023899078,0.0,0.0,nan,0.0,0.0,0.0,0.0,0.0,0.0,0.0,0.0,0.67298234,0.3582734,-0.022585332,0.0,0.0,0.0,0.0,0.0,0.0
74212000,74132000,-2.5002708,-3.562851,0.21514283,-82.04724,-62.74168,0.2796564,0.0,0.0,0.0,0.0,0.0,0.0,0.0,0.1322155,0.0,0.0,nan,0.0,0.0,0.0,0.0,0.0,0.0,0.0,0.0,1.4586074,-1.8094242,0.15461719,0.0,0.0,0.0,0.0,0.0,0.0
74708000,74628000,-2.8205457,-2.75869,0.18656805,-82.4533,-64.35385,0.30223274,0.0,0.0,0.0,0.0,0.0,0.0,0.0,0.08631039,0.0,0.0,nan,0.0,0.0,0.0,0.0,0.0,0.0,0.0,0.0,0.34175903,-1.7063978,0.15392494,0.0,0.0,0.0,0.0,0.0,0.0
75212000,75132000,-3.258625,-1.742662,0.19687526,-83.759315,-66.19084,0.3373556,0.0,0.0,0.0,0.0,0.0,0.0,0.0,0.037614822,0.0,0.0,nan,0.0,0.0,0.0,0.0,0.0,0.0,0.0,0.0,0.6130957,-0.6247293,-0.008191109,0.0,0.0,0.0,0.0,0.0,0.0
75708000,75628000,-3.0511909,-1.4743435,0.16270399,-84.02046,-66.8488,0.32898617,0.0,0.0,0.0,0.0,0.0,0.0,0.0,0.076087,0.0,0.0,nan,0.0,0.0,0.0,0.0,0.0,0.0,0.0,0.0,-1.0643604,-0.21470118,0.16684532,0.0,0.0,0.0,0.0,0.0,0.0
76212000,76132000,-2.353253,-0.71625113,0.08503445,-84.01343,-67.204384,0.29976368,0.0,0.0,0.0,0.0,0.0,0.0,0.0,0.0846138,0.0,0.0,nan,0.0,0.0,0.0,0.0,0.0,0.0,0.0,0.0,-1.4995636,0.3085754,0.3495016,0.0,0.0,0.0,0.0,0.0,0.0
76708000,76628000,-1.4169805,0.079327226,-0.009762939,-83.44664,-67.10996,0.25021553,0.0,0.0,0.0,0.0,0.0,0.0,0.0,0.059473038,0.0,0.0,nan,0.0,0.0,0.0,0.0,0.0,0.0,0.0,0.0,-0.23321033,-0.43356317,0.047801495,0.0,0.0,0.0,0.0,0.0,0.0
77212000,77132000,-0.6197796,0.39461553,-0.047075458,-81.4096,-66.28098,0.13171005,0.0,0.0,0.0,0.0,0.0,0.0,0.0,-0.113687515,0.0,0.0,nan,0.0,0.0,0.0,0.0,0.0,0.0,0.0,0.0,1.1205533,-0.00025704503,-0.14478016,0.0,0.0,0.0,0.0,0.0,0.0
77716000,77636000,-0.30208492,0.07365692,-0.048499443,-80.12572,-65.93181,0.08967972,0.0,0.0,0.0,0.0,0.0,0.0,0.0,-0.2895708,0.0,0.0,nan,0.0,0.0,0.0,0.0,0.0,0.0,0.0,0.0,0.7281658,-0.13586208,-0.10779381,0.0,0.0,0.0,0.0,0.0,0.0
78212000,78132000,-0.023093224,-0.1292274,-0.021453077,-78.642075,-65.63376,0.06278229,0.0,0.0,0.0,0.0,0.0,0.0,0.0,-0.18519592,0.0,0.0,nan,0.0,0.0,0.0,0.0,0.0,0.0,0.0,0.0,0.64497006,-0.122509986,-0.098068714,0.0,0.0,0.0,0.0,0.0,0.0
78716000,78636000,0.33623123,-0.29018116,-0.030871663,-77.0287,-65.36518,0.037506104,0.0,0.0,0.0,0.0,0.0,0.0,0.0,-0.008942604,0.0,0.0,nan,0.0,0.0,0.0,0.0,0.0,0.0,0.0,0.0,0.5946374,-0.09701574,-0.091843605,0.0,0.0,0.0,0.0,0.0,0.0
79212000,79132000,1.0151932,-0.57022095,-0.020992663,-73.43884,-64.86465,0.010093689,0.0,0.0,0.0,0.0,0.0,0.0,0.0,-0.23462868,0.0,0.0,nan,0.0,0.0,0.0,0.0,0.0,0.0,0.0,0.0,0.59530544,-0.01137656,-0.093583584,0.0,0.0,0.0,0.0,0.0,0.0
79708000,79628000,1.362875,-0.6831007,-0.03586808,-71.453545,-64.596825,-0.0014381409,0.0,0.0,0.0,0.0,0.0,0.0,0.0,-0.16487408,0.0,0.0,nan,0.0,0.0,0.0,0.0,0.0,0.0,0.0,0.0,0.58888036,-0.03230089,-0.09443903,0.0,0.0,0.0,0.0,0.0,0.0
80212000,80132000,1.7474778,-0.78518534,-0.030340448,-69.3413,-64.30251,0.012011528,0.0,0.0,0.0,0.0,0.0,0.0,0.0,-0.12506104,0.0,0.0,nan,0.0,0.0,0.0,0.0,0.0,0.0,0.0,0.0,0.56021416,0.027962565,-0.09017563,0.0,0.0,0.0,0.0,0.0,0.0
80708000,80628000,1.9746385,-0.9039103,0.020316944,-67.886925,-64.33357,0.032078743,0.0,0.0,0.0,0.0,0.0,0.0,0.0,-0.046915054,0.0,0.0,nan,0.0,0.0,0.0,0.0,0.0,0.0,0.0,0.0,0.58896774,0.04313588,-0.09725809,0.0,0.0,0.0,0.0,0.0,0.0
81212000,81132000,2.6592283,-1.0523804,0.04174166,-63.311646,-63.759884,0.020524979,0.0,0.0,0.0,0.0,0.0,0.0,0.0,-0.0666275,0.0,0.0,nan,0.0,0.0,0.0,0.0,0.0,0.0,0.0,0.0,0.5503276,0.05676341,-0.09215021,0.0,0.0,0.0,0.0,0.0,0.0
81716000,81636000,2.992076,-1.0557123,0.036687434,-60.911842,-63.38989,0.04629135,0.0,0.0,0.0,0.0,0.0,0.0,0.0,-0.13609219,0.0,0.0,nan,0.0,0.0,0.0,0.0,0.0,0.0,0.0,0.0,0.5144893,0.08953476,-0.08705282,0.0,0.0,0.0,0.0,0.0,0.0
82212000,82132000,3.3729765,-1.0658425,0.035193842,-58.443027,-62.99709,0.061593056,0.0,0.0,0.0,0.0,0.0,0.0,0.0,-0.050751686,0.0,0.0,nan,0.0,0.0,0.0,0.0,0.0,0.0,0.0,0.0,0.4913733,0.13063312,-0.08301115,0.0,0.0,0.0,0.0,0.0,0.0
82708000,82628000,3.6771345,-1.0811175,0.05368969,-55.96839,-62.588005,0.06794357,0.0,0.0,0.0,0.0,0.0,0.0,0.0,0.059116364,0.0,0.0,nan,0.0,0.0,0.0,0.0,0.0,0.0,0.0,0.0,0.49538374,0.15584701,-0.0845952,0.0,0.0,0.0,0.0,0.0,0.0
83212000,83132000,4.2786984,-1.0792159,0.08755932,-50.917027,-61.6798,0.105690956,0.0,0.0,0.0,0.0,0.0,0.0,0.0,-0.013669014,0.0,0.0,nan,0.0,0.0,0.0,0.0,0.0,0.0,0.0,0.0,0.48944318,0.18527025,-0.08388901,0.0,0.0,0.0,0.0,0.0,0.0
83716000,83636000,4.555376,-1.0872844,0.06698989,-48.350834,-61.13524,0.11755276,0.0,0.0,0.0,0.0,0.0,0.0,0.0,-0.037106514,0.0,0.0,nan,0.0,0.0,0.0,0.0,0.0,0.0,0.0,0.0,0.7560557,0.1870541,-0.11838722,0.0,0.0,0.0,0.0,0.0,0.0
84212000,84132000,4.73372,-1.3309201,0.107017025,-45.783806,-60.605125,0.12167168,0.0,0.0,0.0,0.0,0.0,0.0,0.0,0.037698746,0.0,0.0,nan,0.0,0.0,0.0,0.0,0.0,0.0,0.0,0.0,1.9469215,0.07135601,-0.1545825,0.0,0.0,0.0,0.0,0.0,0.0
84716000,84636000,4.615843,-2.0143452,0.13636135,-43.325073,-60.30279,0.1552248,0.0,0.0,0.0,0.0,0.0,0.0,0.0,-0.0012969971,0.0,0.0,nan,0.0,0.0,0.0,0.0,0.0,0.0,0.0,0.0,1.846802,0.1851417,-0.10541105,0.0,0.0,0.0,0.0,0.0,0.0
85212000,85132000,4.55173,-3.2577996,0.1661819,-38.863712,-60.226604,0.21102333,0.0,0.0,0.0,0.0,0.0,0.0,0.0,0.18968582,0.0,0.0,nan,0.0,0.0,0.0,0.0,0.0,0.0,0.0,0.0,1.7302611,0.25477418,-0.06131506,0.0,0.0,0.0,0.0,0.0,0.0
85716000,85636000,4.4858756,-3.9130833,0.22744276,-36.953156,-61.004482,0.2544546,0.0,0.0,0.0,0.0,0.0,0.0,0.0,0.016237259,0.0,0.0,nan,0.0,0.0,0.0,0.0,0.0,0.0,0.0,0.0,1.5934234,0.31471258,-0.02431345,0.0,0.0,0.0,0.0,0.0,0.0
86212000,86132000,4.457171,-4.422284,0.22303566,-34.99814,-61.411,0.28158283,0.0,0.0,0.0,0.0,0.0,0.0,0.0,0.10944748,0.0,0.0,nan,0.0,0.0,0.0,0.0,0.0,0.0,0.0,0.0,0.8768959,0.045958284,-0.03644705,0.0,0.0,0.0,0.0,0.0,0.0
86708000,86628000,4.3238564,-4.5531154,0.20583366,-33.26267,-61.777447,0.3222828,0.0,0.0,0.0,0.0,0.0,0.0,0.0,0.20952034,0.0,0.0,nan,0.0,0.0,0.0,0.0,0.0,0.0,0.0,0.0,1.2324567,-2.137993,0.22419548,0.0,0.0,0.0,0.0,0.0,0.0
87212000,87132000,2.3895009,-4.9992514,0.24303369,-30.909859,-62.46897,0.34770584,0.0,0.0,0.0,0.0,0.0,0.0,0.0,0.16608047,0.0,0.0,nan,0.0,0.0,0.0,0.0,0.0,0.0,0.0,0.0,-0.09372425,-1.7037826,0.17670727,0.0,0.0,0.0,0.0,0.0,0.0
87708000,87628000,1.986072,-4.9000072,0.21268563,-30.415943,-62.711784,0.37234497,0.0,0.0,0.0,0.0,0.0,0.0,0.0,0.09432793,0.0,0.0,nan,0.0,0.0,0.0,0.0,0.0,0.0,0.0,0.0,0.21575576,-0.55373,0.004511833,0.0,0.0,0.0,0.0,0.0,0.0
88212000,88132000,1.6481286,-4.6662874,0.19607453,-30.09245,-62.773907,0.36350727,0.0,0.0,0.0,0.0,0.0,0.0,0.0,0.12045956,0.0,0.0,nan,0.0,0.0,0.0,0.0,0.0,0.0,0.0,0.0,-1.4799012,0.11882037,0.27730083,0.0,0.0,0.0,0.0,0.0,0.0
88716000,88636000,0.74150443,-3.9178882,0.13659112,-30.090643,-62.539448,0.35156345,0.0,0.0,0.0,0.0,0.0,0.0,0.0,0.20745468,0.0,0.0,nan,0.0,0.0,0.0,0.0,0.0,0.0,0.0,0.0,-1.8236876,0.4222882,0.4676447,0.0,0.0,0.0,0.0,0.0,0.0
89212000,89132000,-0.98439574,-2.102634,0.091488406,-31.270782,-60.682114,0.293005,0.0,0.0,0.0,0.0,0.0,0.0,0.0,0.08320522,0.0,0.0,nan,0.0,0.0,0.0,0.0,0.0,0.0,0.0,0.0,-0.51869464,-0.22746539,0.11031532,0.0,0.0,0.0,0.0,0.0,0.0
89708000,89628000,-1.2497917,-1.6902833,0.08729299,-32.18006,-59.296364,0.25258446,0.0,0.0,0.0,0.0,0.0,0.0,0.0,-0.15417576,0.0,0.0,nan,0.0,0.0,0.0,0.0,0.0,0.0,0.0,0.0,0.6967299,0.21580233,-0.1039896,0.0,0.0,0.0,0.0,0.0,0.0
90212000,90132000,-1.1119624,-1.2271233,0.038700536,-33.04935,-57.604332,0.20998001,0.0,0.0,0.0,0.0,0.0,0.0,0.0,-0.10397625,0.0,0.0,nan,0.0,0.0,0.0,0.0,0.0,0.0,0.0,0.0,0.2891034,0.10081917,-0.04837036,0.0,0.0,0.0,0.0,0.0,0.0
90716000,90636000,-1.1079733,-0.7714834,0.05007031,-33.85707,-55.82982,0.19568825,0.0,0.0,0.0,0.0,0.0,0.0,0.0,0.05047512,0.0,0.0,nan,0.0,0.0,0.0,0.0,0.0,0.0,0.0,0.0,0.24646986,0.13469855,-0.042136192,0.0,0.0,0.0,0.0,0.0,0.0
91212000,91132000,-1.1551611,-0.009757042,0.043561198,-35.252716,-52.819336,0.17847443,0.0,0.0,0.0,0.0,0.0,0.0,0.0,-0.008981705,0.0,0.0,nan,0.0,0.0,0.0,0.0,0.0,0.0,0.0,0.0,0.21524346,0.16659375,-0.0364542,0.0,0.0,0.0,0.0,0.0,0.0
91716000,91636000,-1.2017028,0.48915005,0.034437854,-36.047096,-50.493164,0.15824509,0.0,0.0,0.0,0.0,0.0,0.0,0.0,-0.17647934,0.0,0.0,nan,0.0,0.0,0.0,0.0,0.0,0.0,0.0,0.0,0.16438234,0.24025361,-0.026432991,0.0,0.0,0.0,0.0,0.0,0.0
92212000,92132000,-1.2512734,0.98134756,0.058065753,-36.83292,-48.067078,0.13834572,0.0,0.0,0.0,0.0,0.0,0.0,0.0,-0.11916542,0.0,0.0,nan,0.0,0.0,0.0,0.0,0.0,0.0,0.0,0.0,0.16610658,0.32882398,-0.026036263,0.0,0.0,0.0,0.0,0.0,0.0
92716000,92636000,-1.3206291,1.4785714,0.04445142,-37.61598,-45.560997,0.14244366,0.0,0.0,0.0,0.0,0.0,0.0,0.0,-0.12320709,0.0,0.0,nan,0.0,0.0,0.0,0.0,0.0,0.0,0.0,0.0,0.13186455,0.31984317,-0.018404007,0.0,0.0,0.0,0.0,0.0,0.0
93212000,93132000,-1.291784,2.3885393,0.03790879,-39.16052,-40.252033,0.13143158,0.0,0.0,0.0,0.0,0.0,0.0,0.0,-0.058852196,0.0,0.0,nan,0.0,0.0,0.0,0.0,0.0,0.0,0.0,0.0,1.3062596,0.2508015,-0.15136433,0.0,0.0,0.0,0.0,0.0,0.0
93708000,93628000,-0.6968415,2.5018249,0.06518211,-39.763515,-37.583233,0.13942051,0.0,0.0,0.0,0.0,0.0,0.0,0.0,-0.13024902,0.0,0.0,nan,0.0,0.0,0.0,0.0,0.0,0.0,0.0,0.0,1.3952184,0.38258964,-0.11473751,0.0,0.0,0.0,0.0,0.0,0.0
94212000,94132000,-0.1508025,2.6957138,0.11674516,-40.129692,-34.992386,0.14535618,0.0,0.0,0.0,0.0,0.0,0.0,0.0,-0.025780678,0.0,0.0,nan,0.0,0.0,0.0,0.0,0.0,0.0,0.0,0.0,1.3839856,0.41729707,-0.08627701,0.0,0.0,0.0,0.0,0.0,0.0
94716000,94636000,0.36653656,2.8587587,0.07395762,-40.32299,-32.507233,0.17930126,0.0,0.0,0.0,0.0,0.0,0.0,0.0,0.010966301,0.0,0.0,nan,0.0,0.0,0.0,0.0,0.0,0.0,0.0,0.0,1.2967597,0.5054248,-0.052018166,0.0,0.0,0.0,0.0,0.0,0.0
95212000,95132000,1.3362107,3.1917324,0.14537178,-40.23249,-27.888372,0.21088123,0.0,0.0,0.0,0.0,0.0,0.0,0.0,0.092710495,0.0,0.0,nan,0.0,0.0,0.0,0.0,0.0,0.0,0.0,0.0,1.1907495,0.52502006,-0.027532578,0.0,0.0,0.0,0.0,0.0,0.0
95716000,95636000,1.6939011,3.3014736,0.11949617,-40.04088,-25.789856,0.23845291,0.0,0.0,0.0,0.0,0.0,0.0,0.0,0.00060272217,0.0,0.0,nan,0.0,0.0,0.0,0.0,0.0,0.0,0.0,0.0,0.96431637,0.37280184,-0.018559456,0.0,0.0,0.0,0.0,0.0,0.0
96212000,96132000,1.9931568,3.3713493,0.095812485,-39.746403,-23.820518,0.26218796,0.0,0.0,0.0,0.0,0.0,0.0,0.0,0.02319622,0.0,0.0,nan,0.0,0.0,0.0,0.0,0.0,0.0,0.0,0.0,0.8706498,0.4437443,0.0006685257,0.0,0.0,0.0,0.0,0.0,0.0
96708000,96628000,2.30397,3.3964567,0.063949764,-39.17142,-22.256863,0.26504612,0.0,0.0,0.0,0.0,0.0,0.0,0.0,0.05738449,0.0,0.0,nan,0.0,0.0,0.0,0.0,0.0,0.0,0.0,0.0,0.7234922,0.40557855,0.009224892,0.0,0.0,0.0,0.0,0.0,0.0
97212000,97132000,2.7588608,3.3862805,0.10221386,-38.382137,-19.065681,0.22826004,0.0,0.0,0.0,0.0,0.0,0.0,0.0,0.113474846,0.0,0.0,nan,0.0,0.0,0.0,0.0,0.0,0.0,0.0,0.0,0.81978875,0.3981831,0.017775536,0.0,0.0,0.0,0.0,0.0,0.0
97708000,97628000,2.9561498,3.3464088,0.1731534,-37.928658,-17.752043,0.21879959,0.0,0.0,0.0,0.0,0.0,0.0,0.0,0.115317345,0.0,0.0,nan,0.0,0.0,0.0,0.0,0.0,0.0,0.0,0.0,-0.11382115,0.5215931,0.019851685,0.0,0.0,0.0,0.0,0.0,0.0
98212000,98132000,2.6747124,3.4315329,0.13564253,-37.582577,-16.62495,0.24366951,0.0,0.0,0.0,0.0,0.0,0.0,0.0,0.09816265,0.0,0.0,nan,0.0,0.0,0.0,0.0,0.0,0.0,0.0,0.0,-0.08220664,0.36153063,0.011631012,0.0,0.0,0.0,0.0,0.0,0.0
98708000,98628000,2.412063,3.4668736,0.11004615,-37.41027,-15.661428,0.27868462,0.0,0.0,0.0,0.0,0.0,0.0,0.0,0.14092445,0.0,0.0,nan,0.0,0.0,0.0,0.0,0.0,0.0,0.0,0.0,-0.17054138,0.34921932,0.013314247,0.0,0.0,0.0,0.0,0.0,0.0
99212000,99132000,1.9068043,3.440536,0.10869551,-37.377728,-14.074366,0.26835632,0.0,0.0,0.0,0.0,0.0,0.0,0.0,0.04618454,0.0,0.0,nan,0.0,0.0,0.0,0.0,0.0,0.0,0.0,0.0,-0.20932287,0.34266922,0.013911247,0.0,0.0,0.0,0.0,0.0,0.0
99708000,99628000,1.6049463,3.362921,0.19407392,-37.505062,-13.44747,0.2412014,0.0,0.0,0.0,0.0,0.0,0.0,0.0,0.10816002,0.0,0.0,nan,0.0,0.0,0.0,0.0,0.0,0.0,0.0,0.0,-0.23857853,0.2836197,0.013284683,0.0,0.0,0.0,0.0,0.0,0.0
100212000,100132000,1.328846,3.2660918,0.12375498,-37.72629,-12.997899,0.27629852,0.0,0.0,0.0,0.0,0.0,0.0,0.0,0.10919571,0.0,0.0,nan,0.0,0.0,0.0,0.0,0.0,0.0,0.0,0.0,-0.29213706,0.28566846,0.0145254135,0.0,0.0,0.0,0.0,0.0,0.0
100716000,100636000,1.0254331,3.1164265,0.14605498,-38.01101,-12.620499,0.27350235,0.0,0.0,0.0,0.0,0.0,0.0,0.0,0.10370636,0.0,0.0,nan,0.0,0.0,0.0,0.0,0.0,0.0,0.0,0.0,-0.34850568,0.277699,0.015930176,0.0,0.0,0.0,0.0,0.0,0.0
101212000,101132000,0.4782126,2.8704877,0.13802195,-38.453777,-11.747772,0.28791428,0.0,0.0,0.0,0.0,0.0,0.0,0.0,0.16741943,0.0,0.0,nan,0.0,0.0,0.0,0.0,0.0,0.0,0.0,0.0,-0.3542663,0.24615084,0.016695976,0.0,0.0,0.0,0.0,0.0,0.0
101708000,101628000,0.2107841,2.7197125,0.12721181,-38.944565,-11.683556,0.26241875,0.0,0.0,0.0,0.0,0.0,0.0,0.0,0.1615467,0.0,0.0,nan,0.0,0.0,0.0,0.0,0.0,0.0,0.0,0.0,-0.4376722,0.23045617,0.01981163,0.0,0.0,0.0,0.0,0.0,0.0
102212000,102132000,-0.039502405,2.5176005,0.14093661,-39.488,-11.724155,0.28290558,0.0,0.0,0.0,0.0,0.0,0.0,0.0,0.12589455,0.0,0.0,nan,0.0,0.0,0.0,0.0,0.0,0.0,0.0,0.0,-0.4727098,0.2174603,0.02218914,0.0,0.0,0.0,0.0,0.0,0.0
102716000,102636000,-0.30593586,2.2973235,0.16330063,-40.038986,-11.872037,0.31524467,0.0,0.0,0.0,0.0,0.0,0.0,0.0,0.11089134,0.0,0.0,nan,0.0,0.0,0.0,0.0,0.0,0.0,0.0,0.0,-0.5233023,0.2029517,0.024547577,0.0,0.0,0.0,0.0,0.0,0.0
103212000,103132000,-0.8044827,1.8149266,0.16784775,-41.19533,-12.354615,0.3255787,0.0,0.0,0.0,0.0,0.0,0.0,0.0,0.08454895,0.0,0.0,nan,0.0,0.0,0.0,0.0,0.0,0.0,0.0,0.0,-0.54443395,0.11830629,0.02643776,0.0,0.0,0.0,0.0,0.0,0.0
103716000,103636000,-1.0788261,1.5672321,0.20723295,-41.797653,-12.680788,0.31900787,0.0,0.0,0.0,0.0,0.0,0.0,0.0,0.02459526,0.0,0.0,nan,0.0,0.0,0.0,0.0,0.0,0.0,0.0,0.0,-0.58484316,0.057985913,0.030612946,0.0,0.0,0.0,0.0,0.0,0.0
104212000,104132000,-1.3076922,1.3635457,0.10795188,-42.405655,-13.075085,0.34303474,0.0,0.0,0.0,0.0,0.0,0.0,0.0,0.018554688,0.0,0.0,nan,0.0,0.0,0.0,0.0,0.0,0.0,0.0,0.0,-0.63334966,0.099518746,0.03236103,0.0,0.0,0.0,0.0,0.0,0.0
104716000,104636000,-1.5212587,1.0982602,0.12229079,-43.010677,-13.504974,0.35489273,0.0,0.0,0.0,0.0,0.0,0.0,0.0,0.003068924,0.0,0.0,nan,0.0,0.0,0.0,0.0,0.0,0.0,0.0,0.0,-0.6542109,0.0870519,0.03425312,0.0,0.0,0.0,0.0,0.0,0.0
105212000,105132000,-1.9112408,0.6197985,0.14198887,-44.172516,-14.491514,0.35902405,0.0,0.0,0.0,0.0,0.0,0.0,0.0,0.1036644,0.0,0.0,nan,0.0,0.0,0.0,0.0,0.0,0.0,0.0,0.0,-0.6393119,0.030837193,0.03448391,0.0,0.0,0.0,0.0,0.0,0.0
105716000,105636000,-2.0756536,0.37398958,0.1576204,-44.746788,-15.013653,0.3598957,0.0,0.0,0.0,0.0,0.0,0.0,0.0,0.0013751984,0.0,0.0,nan,0.0,0.0,0.0,0.0,0.0,0.0,0.0,0.0,-0.66207427,-0.004646674,0.036266327,0.0,0.0,0.0,0.0,0.0,0.0
106212000,106132000,-2.2242756,0.08744752,0.12627932,-45.30594,-15.574289,0.35562706,0.0,0.0,0.0,0.0,0.0,0.0,0.0,0.051086426,0.0,0.0,nan,0.0,0.0,0.0,0.0,0.0,0.0,0.0,0.0,-0.674269,-0.032086074,0.037210464,0.0,0.0,0.0,0.0,0.0,0.0
106716000,106636000,-2.3967297,-0.111141376,0.102814734,-46.01207,-15.876751,0.35459137,0.0,0.0,0.0,0.0,0.0,0.0,0.0,0.07705879,0.0,0.0,nan,0.0,0.0,0.0,0.0,0.0,0.0,0.0,0.0,-1.0132276,0.47706667,0.08976078,0.0,0.0,0.0,0.0,0.0,0.0
107212000,107132000,-2.6212478,0.3510913,0.081564546,-47.067047,-16.944674,0.3448124,0.0,0.0,0.0,0.0,0.0,0.0,0.0,0.11540413,0.0,0.0,nan,0.0,0.0,0.0,0.0,0.0,0.0,0.0,0.0,-1.9014434,1.4747607,0.42997932,0.0,0.0,0.0,0.0,0.0,0.0
107716000,107636000,-2.2648904,1.3677802,0.08968796,-47.408154,-16.989517,0.3331566,0.0,0.0,0.0,0.0,0.0,0.0,0.0,-0.092536926,0.0,0.0,nan,0.0,0.0,0.0,0.0,0.0,0.0,0.0,0.0,-2.6792643,0.56701314,0.6753187,0.0,0.0,0.0,0.0,0.0,0.0
108212000,108132000,-1.9005735,2.3569098,0.011341311,-47.450134,-16.603447,0.30608368,0.0,0.0,0.0,0.0,0.0,0.0,0.0,0.006620407,0.0,0.0,nan,0.0,0.0,0.0,0.0,0.0,0.0,0.0,0.0,-2.4598596,-0.6508678,0.7086668,0.0,0.0,0.0,0.0,0.0,0.0
108708000,108628000,-1.6331403,3.1878276,-0.0011317618,-47.20573,-15.869568,0.2851162,0.0,0.0,0.0,0.0,0.0,0.0,0.0,0.04691124,0.0,0.0,nan,0.0,0.0,0.0,0.0,0.0,0.0,0.0,0.0,-0.67021847,-2.0673633,0.3897705,0.0,0.0,0.0,0.0,0.0,0.0
109212000,109132000,-2.0181866,3.2897277,0.09343319,-46.25862,-14.024927,0.23148918,0.0,0.0,0.0,0.0,0.0,0.0,0.0,-0.081199646,0.0,0.0,nan,0.0,0.0,0.0,0.0,0.0,0.0,0.0,0.0,0.4343735,-1.0383736,-0.019870281,0.0,0.0,0.0,0.0,0.0,0.0
109716000,109636000,-2.0876179,2.8529234,0.058210276,-45.593124,-13.29222,0.21874428,0.0,0.0,0.0,0.0,0.0,0.0,0.0,-0.053512573,0.0,0.0,nan,0.0,0.0,0.0,0.0,0.0,0.0,0.0,0.0,0.111726284,-0.98111075,0.024851799,0.0,0.0,0.0,0.0,0.0,0.0
110212000,110132000,-2.0477037,2.462251,0.087544285,-44.825882,-12.693804,0.19831848,0.0,0.0,0.0,0.0,0.0,0.0,0.0,-0.12846756,0.0,0.0,nan,0.0,0.0,0.0,0.0,0.0,0.0,0.0,0.0,0.048584104,-0.92460895,0.029418945,0.0,0.0,0.0,0.0,0.0,0.0
110708000,110628000,-1.9606462,2.0982583,0.024315361,-43.865154,-12.215431,0.16960526,0.0,0.0,0.0,0.0,0.0,0.0,0.0,-0.14573097,0.0,0.0,nan,0.0,0.0,0.0,0.0,0.0,0.0,0.0,0.0,0.06302917,-0.900321,0.024830818,0.0,0.0,0.0,0.0,0.0,0.0
111212000,111132000,-1.7200842,1.387078,-0.041567698,-41.48628,-11.503528,0.09854889,0.0,0.0,0.0,0.0,0.0,0.0,0.0,-0.1445198,0.0,0.0,nan,0.0,0.0,0.0,0.0,0.0,0.0,0.0,0.0,0.08710408,-0.9103362,0.018252373,0.0,0.0,0.0,0.0,0.0,0.0
111716000,111636000,-1.5907407,1.0516446,-0.012645856,-40.19066,-11.245032,0.06442261,0.0,0.0,0.0,0.0,0.0,0.0,0.0,-0.27223396,0.0,0.0,nan,0.0,0.0,0.0,0.0,0.0,0.0,0.0,0.0,0.1224457,-0.947331,0.013646126,0.0,0.0,0.0,0.0,0.0,0.0
112212000,112132000,-1.6422462,0.7543018,-0.06223596,-39.770706,-10.957901,0.043603897,0.0,0.0,0.0,0.0,0.0,0.0,0.0,-0.21602821,0.0,0.0,nan,0.0,0.0,0.0,0.0,0.0,0.0,0.0,0.0,0.06443679,-0.97165674,0.026865005,0.0,0.0,0.0,0.0,0.0,0.0
112716000,112636000,-1.5267825,0.46193016,-0.024582349,-38.241924,-10.822748,0.012659073,0.0,0.0,0.0,0.0,0.0,0.0,0.0,-0.25795937,0.0,0.0,nan,0.0,0.0,0.0,0.0,0.0,0.0,0.0,0.0,0.09666884,-0.9766817,0.019059181,0.0,0.0,0.0,0.0,0.0,0.0
113212000,113132000,-1.2237644,-0.10570979,-0.018654238,-34.95884,-10.609257,-0.030155182,0.0,0.0,0.0,0.0,0.0,0.0,0.0,-0.23924446,0.0,0.0,nan,0.0,0.0,0.0,0.0,0.0,0.0,0.0,0.0,0.05642891,-0.9619841,0.02619934,0.0,0.0,0.0,0.0,0.0,0.0
113716000,113636000,-1.0778475,-0.32786918,0.0054645017,-33.20803,-10.495884,-0.03393364,0.0,0.0,0.0,0.0,0.0,0.0,0.0,-0.20462799,0.0,0.0,nan,0.0,0.0,0.0,0.0,0.0,0.0,0.0,0.0,0.10437155,-0.9670114,0.015372276,0.0,0.0,0.0,0.0,0.0,0.0
114212000,114132000,-0.8825884,-0.583827,0.004583299,-31.364307,-10.3726015,-0.038002014,0.0,0.0,0.0,0.0,0.0,0.0,0.0,-0.21339607,0.0,0.0,nan,0.0,0.0,0.0,0.0,0.0,0.0,0.0,0.0,0.09320891,-0.86121356,0.016332626,0.0,0.0,0.0,0.0,0.0,0.0
114716000,114636000,-0.7183738,-0.78269124,0.053081818,-29.423874,-10.218685,-0.041858673,0.0,0.0,0.0,0.0,0.0,0.0,0.0,-0.21405602,0.0,0.0,nan,0.0,0.0,0.0,0.0,0.0,0.0,0.0,0.0,0.13219881,-0.8512254,0.007042885,0.0,0.0,0.0,0.0,0.0,0.0
115212000,115132000,-0.3848586,-1.1821871,0.019171305,-25.525501,-9.905987,-0.031105042,0.0,0.0,0.0,0.0,0.0,0.0,0.0,-0.12377548,0.0,0.0,nan,0.0,0.0,0.0,0.0,0.0,0.0,0.0,0.0,0.16074193,-0.888565,-0.0012350082,0.0,0.0,0.0,0.0,0.0,0.0
115708000,115628000,-0.15157938,-1.4698219,0.06214643,-23.480232,-9.718892,0.0025749207,0.0,0.0,0.0,0.0,0.0,0.0,0.0,-0.11419487,0.0,0.0,nan,0.0,0.0,0.0,0.0,0.0,0.0,0.0,0.0,1.5298624,-0.98158383,-0.12963104,0.0,0.0,0.0,0.0,0.0,0.0
116212000,116132000,-0.14001894,-2.2699177,0.10999135,-21.419329,-9.636941,0.007675171,0.0,0.0,0.0,0.0,0.0,0.0,0.0,-0.07318878,0.0,0.0,nan,0.0,0.0,0.0,0.0,0.0,0.0,0.0,0.0,1.6151798,-0.82932997,-0.10964012,0.0,0.0,0.0,0.0,0.0,0.0
116716000,116636000,-0.04775262,-3.0549304,0.08926529,-19.441153,-9.805577,0.037334442,0.0,0.0,0.0,0.0,0.0,0.0,0.0,0.052093506,0.0,0.0,nan,0.0,0.0,0.0,0.0,0.0,0.0,0.0,0.0,1.590079,-0.78916407,-0.06923485,0.0,0.0,0.0,0.0,0.0,0.0
117212000,117132000,-0.032346725,-4.5868754,0.17205173,-16.55838,-11.188762,0.121032715,0.0,0.0,0.0,0.0,0.0,0.0,0.0,-0.018447876,0.0,0.0,nan,0.0,0.0,0.0,0.0,0.0,0.0,0.0,0.0,1.4739482,-0.6930864,-0.034710884,0.0,0.0,0.0,0.0,0.0,0.0
117716000,117636000,0.065211296,-5.2186255,0.17369056,-14.722107,-11.8171425,0.16703415,0.0,0.0,0.0,0.0,0.0,0.0,0.0,0.022010803,0.0,0.0,nan,0.0,0.0,0.0,0.0,0.0,0.0,0.0,0.0,1.2613306,-0.8068685,-0.0074357986,0.0,0.0,0.0,0.0,0.0,0.0
118212000,118132000,0.09421039,-5.713581,0.19273335,-12.980369,-12.464959,0.20992279,0.0,0.0,0.0,0.0,0.0,0.0,0.0,0.035287857,0.0,0.0,nan,0.0,0.0,0.0,0.0,0.0,0.0,0.0,0.0,1.0830021,-0.7562083,0.0017881393,0.0,0.0,0.0,0.0,0.0,0.0
118708000,118628000,0.15823376,-6.152425,0.28828886,-11.414276,-13.246019,0.24805832,0.0,0.0,0.0,0.0,0.0,0.0,0.0,0.14380074,0.0,0.0,nan,0.0,0.0,0.0,0.0,0.0,0.0,0.0,0.0,1.7906699,-0.3878771,0.06837082,0.0,0.0,0.0,0.0,0.0,0.0
119212000,119132000,0.07868588,-6.967685,0.21723628,-8.676166,-14.747716,0.3741684,0.0,0.0,0.0,0.0,0.0,0.0,0.0,0.24408913,0.0,0.0,nan,0.0,0.0,0.0,0.0,0.0,0.0,0.0,0.0,1.6570786,0.49469376,0.12528896,0.0,0.0,0.0,0.0,0.0,0.0
119716000,119636000,-0.034625117,-7.2699685,0.2496767,-7.5988216,-15.543744,0.39413643,0.0,0.0,0.0,0.0,0.0,0.0,0.0,0.20024109,0.0,0.0,nan,0.0,0.0,0.0,0.0,0.0,0.0,0.0,0.0,0.60588264,-0.36739445,0.009842873,0.0,0.0,0.0,0.0,0.0,0.0
120212000,120132000,-0.09862256,-7.1698694,0.25975358,-6.7010007,-16.18343,0.3924904,0.0,0.0,0.0,0.0,0.0,0.0,0.0,0.16637802,0.0,0.0,nan,0.0,0.0,0.0,0.0,0.0,0.0,0.0,0.0,0.6799156,-0.13052239,0.009571075,0.0,0.0,0.0,0.0,0.0,0.0
120716000,120636000,-0.18239658,-6.9476757,0.27033997,-5.9534025,-16.728354,0.41320992,0.0,0.0,0.0,0.0,0.0,0.0,0.0,0.18850327,0.0,0.0,nan,0.0,0.0,0.0,0.0,0.0,0.0,0.0,0.0,0.6805699,-0.06398174,0.010533899,0.0,0.0,0.0,0.0,0.0,0.0
121212000,121132000,-0.36294922,-6.2796884,0.2615211,-4.840319,-17.365189,0.4419632,0.0,0.0,0.0,0.0,0.0,0.0,0.0,0.16164589,0.0,0.0,nan,0.0,0.0,0.0,0.0,0.0,0.0,0.0,0.0,0.68904227,-0.06505116,0.010217994,0.0,0.0,0.0,0.0,0.0,0.0
121716000,121636000,-0.48275128,-5.929145,0.2155981,-4.456026,-17.354527,0.43643188,0.0,0.0,0.0,0.0,0.0,0.0,0.0,0.1971016,0.0,0.0,nan,0.0,0.0,0.0,0.0,0.0,0.0,0.0,0.0,0.62978625,-0.17951119,0.008579105,0.0,0.0,0.0,0.0,0.0,0.0
122212000,122132000,-0.60222363,-5.5378304,0.25506473,-4.1676574,-17.301083,0.460577,0.0,0.0,0.0,0.0,0.0,0.0,0.0,0.03961563,0.0,0.0,nan,0.0,0.0,0.0,0.0,0.0,0.0,0.0,0.0,0.5739376,-0.23223284,0.0070235133,0.0,0.0,0.0,0.0,0.0,0.0
122708000,122628000,-0.7729465,-5.363202,0.24787569,-4.1999497,-18.218248,0.45778847,0.0,0.0,0.0,0.0,0.0,0.0,0.0,0.14418602,0.0,0.0,nan,0.0,0.0,0.0,0.0,0.0,0.0,0.0,0.0,0.47014636,-0.23348756,0.0054789186,0.0,0.0,0.0,0.0,0.0,0.0
123212000,123132000,-0.96765834,-4.594403,0.23927772,-3.9219906,-17.408758,0.4716606,0.0,0.0,0.0,0.0,0.0,0.0,0.0,0.18614006,0.0,0.0,nan,0.0,0.0,0.0,0.0,0.0,0.0,0.0,0.0,0.45135683,-0.2659333,0.0032165647,0.0,0.0,0.0,0.0,0.0,0.0
123716000,123636000,-1.0286283,-4.2288814,0.28586566,-3.8495939,-16.90426,0.48753548,0.0,0.0,0.0,0.0,0.0,0.0,0.0,0.11171913,0.0,0.0,nan,0.0,0.0,0.0,0.0,0.0,0.0,0.0,0.0,0.37227833,-0.27270097,0.0031214952,0.0,0.0,0.0,0.0,0.0,0.0
124212000,124132000,-1.116326,-3.8581738,0.21848595,-3.8103921,-16.271051,0.47071266,0.0,0.0,0.0,0.0,0.0,0.0,0.0,0.09466934,0.0,0.0,nan,0.0,0.0,0.0,0.0,0.0,0.0,0.0,0.0,0.33509353,-0.2750276,0.0025902987,0.0,0.0,0.0,0.0,0.0,0.0
124716000,124636000,-1.2015616,-3.4868362,0.19741106,-3.8110824,-15.639158,0.48795128,0.0,0.0,0.0,0.0,0.0,0.0,0.0,0.1500454,0.0,0.0,nan,0.0,0.0,0.0,0.0,0.0,0.0,0.0,0.0,0.3399373,-0.28882375,0.0014800429,0.0,0.0,0.0,0.0,0.0,0.0
125212000,125132000,-1.3399749,-2.791843,0.23262227,-3.8655276,-14.159582,0.4910679,0.0,0.0,0.0,0.0,0.0,0.0,0.0,0.17875862,0.0,0.0,nan,0.0,0.0,0.0,0.0,0.0,0.0,0.0,0.0,0.2868557,-0.31363535,0.0025424957,0.0,0.0,0.0,0.0,0.0,0.0
125716000,125636000,-1.4298198,-2.4530995,0.21793509,-3.9311333,-13.393362,0.48505592,0.0,0.0,0.0,0.0,0.0,0.0,0.0,0.05690956,0.0,0.0,nan,0.0,0.0,0.0,0.0,0.0,0.0,0.0,0.0,0.29861557,-0.35238674,0.0017633438,0.0,0.0,0.0,0.0,0.0,0.0
126212000,126132000,-1.5012716,-2.117592,0.2143923,-4.0233283,-12.605067,0.50839806,0.0,0.0,0.0,0.0,0.0,0.0,0.0,0.0344944,0.0,0.0,nan,0.0,0.0,0.0,0.0,0.0,0.0,0.0,0.0,0.25416496,-0.35790566,0.0025286674,0.0,0.0,0.0,0.0,0.0,0.0
126716000,126636000,-1.5621539,-1.7920932,0.20927668,-4.125809,-11.788496,0.5046463,0.0,0.0,0.0,0.0,0.0,0.0,0.0,0.17743492,0.0,0.0,nan,0.0,0.0,0.0,0.0,0.0,0.0,0.0,0.0,0.23472509,-0.3822652,0.0026732683,0.0,0.0,0.0,0.0,0.0,0.0
127212000,127132000,-1.7362603,-1.2693208,0.19566381,-4.607065,-10.799878,0.49825668,0.0,0.0,0.0,0.0,0.0,0.0,0.0,0.1233654,0.0,0.0,nan,0.0,0.0,0.0,0.0,0.0,0.0,0.0,0.0,0.18589267,-0.3988849,0.0042638183,0.0,0.0,0.0,0.0,0.0,0.0
127716000,127636000,-1.8164972,-0.927416,0.18066716,-4.7473626,-9.907274,0.49306297,0.0,0.0,0.0,0.0,0.0,0.0,0.0,-0.0,0.0,0.0,nan,0.0,0.0,0.0,0.0,0.0,0.0,0.0,0.0,0.14050579,-0.43779978,0.004787624,0.0,0.0,0.0,0.0,0.0,0.0
128212000,128132000,-1.8209738,-0.6562513,0.15468287,-4.8579764,-8.989824,0.46886253,0.0,0.0,0.0,0.0,0.0,0.0,0.0,-0.0,0.0,0.0,nan,0.0,0.0,0.0,0.0,0.0,0.0,0.0,0.0,0.13570783,-0.43436772,0.0054899454,0.0,0.0,0.0,0.0,0.0,0.0
128716000,128636000,-1.8784527,-0.34153712,0.15255189,-4.9789987,-8.088491,0.46978378,0.0,0.0,0.0,0.0,0.0,0.0,0.0,0.06837654,0.0,0.0,nan,0.0,0.0,0.0,0.0,0.0,0.0,0.0,0.0,0.10752195,-0.48014212,0.0061614513,0.0,0.0,0.0,0.0,0.0,0.0
129212000,129132000,-1.8459477,0.21646748,0.14415574,-5.187493,-6.28258,0.44134998,0.0,0.0,0.0,0.0,0.0,0.0,0.0,-0.0,0.0,0.0,nan,0.0,0.0,0.0,0.0,0.0,0.0,0.0,0.0,0.03893926,-0.49371594,0.007450342,0.0,0.0,0.0,0.0,0.0,0.0
129708000,129628000,-1.8616595,0.49430978,0.16144168,-5.27056,-5.38998,0.43448544,0.0,0.0,0.0,0.0,0.0,0.0,0.0,0.04136753,0.0,0.0,nan,0.0,0.0,0.0,0.0,0.0,0.0,0.0,0.0,0.061835587,-0.43287322,0.0061011314,0.0,0.0,0.0,0.0,0.0,0.0
130212000,130132000,-1.8977586,0.74440885,0.14507782,-5.3548865,-4.509669,0.42324734,0.0,0.0,0.0,0.0,0.0,0.0,0.0,-0.0,0.0,0.0,nan,0.0,0.0,0.0,0.0,0.0,0.0,0.0,0.0,0.004365884,-0.44592908,0.0063713193,0.0,0.0,0.0,0.0,0.0,0.0
130708000,130628000,-1.8755668,0.9458568,0.088199496,-5.4052596,-3.6602988,0.41351128,0.0,0.0,0.0,0.0,0.0,0.0,0.0,-0.0,0.0,0.0,nan,0.0,0.0,0.0,0.0,0.0,0.0,0.0,0.0,-0.046404786,-0.45417646,0.006852269,0.0,0.0,0.0,0.0,0.0,0.0
131212000,131132000,-1.810622,1.389549,0.04799944,-5.4517884,-2.0162692,0.34252167,0.0,0.0,0.0,0.0,0.0,0.0,0.0,0.021346092,0.0,0.0,nan,0.0,0.0,0.0,0.0,0.0,0.0,0.0,0.0,-0.047218986,-0.42443937,0.0061367154,0.0,0.0,0.0,0.0,0.0,0.0
131708000,131628000,-1.7883041,1.5457617,0.04093653,-5.4405456,-1.2567737,0.3202114,0.0,0.0,0.0,0.0,0.0,0.0,0.0,0.041387558,0.0,0.0,nan,0.0,0.0,0.0,0.0,0.0,0.0,0.0,0.0,-0.089377515,-0.42458373,0.006758094,0.0,0.0,0.0,0.0,0.0,0.0
132212000,132132000,-1.7024928,1.7256618,0.083372295,-5.4183965,-0.5156805,0.29444027,0.0,0.0,0.0,0.0,0.0,0.0,0.0,-0.0,0.0,0.0,nan,0.0,0.0,0.0,0.0,0.0,0.0,0.0,0.0,-0.11116792,-0.43302286,0.007518053,0.0,0.0,0.0,0.0,0.0,0.0
132708000,132628000,-1.7271146,1.8986588,0.017319918,-5.738818,0.20430662,0.2733307,0.0,0.0,0.0,0.0,0.0,0.0,0.0,-0.0,0.0,0.0,nan,0.0,0.0,0.0,0.0,0.0,0.0,0.0,0.0,0.0044826567,-0.51708186,0.0041968822,0.0,0.0,0.0,0.0,0.0,0.0
