timestamp,timestamp_sample,device_id,magnetometer_ga[0],magnetometer_ga[1],magnetometer_ga[2],calibration_count
3324000,3320000,197388,0.011217158,-0.20997937,0.4273909,0
3452000,3390909,197388,0.0076781046,-0.21528386,0.42834878,0
3460000,3460000,197388,0.016584555,-0.21678011,0.42892292,0
3584000,3529200,197388,0.010356781,-0.21734492,0.42832088,0
3596000,3596000,197388,0.012662404,-0.2208443,0.42743695,0
3728000,3666545,197388,0.008857775,-0.21389131,0.4285528,0
3740000,3740000,197388,0.010165687,-0.21654108,0.42757124,0
3872000,3812000,197388,0.010099129,-0.21675973,0.4295082,0
3884000,3884000,197388,0.003462465,-0.21183299,0.42760217,0
4016000,3955272,197388,0.010888887,-0.21749772,0.42997167,0
4028000,4028000,197388,0.012772626,-0.22128722,0.4299018,0
4160000,4099636,197388,0.012779201,-0.21504419,0.42934626,0
4172000,4172000,197388,0.010802907,-0.21566938,0.42910835,0
4300000,4242545,197388,0.009917139,-0.21602196,0.42941433,0
4312000,4312000,197388,0.007231662,-0.21685575,0.4296651,0
4436000,4381600,197388,0.011150447,-0.21787858,0.42812577,0
4460000,4452000,197388,0.014970513,-0.2121627,0.42916214,0
4568000,4518666,197388,0.009711359,-0.21574779,0.42902395,0
4604000,4590666,197388,0.010106217,-0.21402764,0.42800888,0
4700000,4658000,197388,0.009481061,-0.21805646,0.42632106,0
4748000,4730000,197388,0.010234211,-0.21798316,0.4285852,0
4844000,4802000,197388,0.012487581,-0.21527961,0.4319436,0
4892000,4874000,197388,0.011587353,-0.21362394,0.42798916,0
4988000,4945500,197388,0.008364423,-0.21703763,0.43136322,0
5036000,5017000,197388,0.008666268,-0.21604905,0.42568156,0
5132000,5089500,197388,0.008170203,-0.2164442,0.4272483,0
5180000,5162000,197388,0.012354575,-0.21798992,0.4320932,0
5276000,5233500,197388,0.010267179,-0.21667929,0.42843246,0
5324000,5305000,197388,0.009433987,-0.21592398,0.42765188,0
5420000,5377500,197388,0.011812012,-0.21588992,0.42895672,0
5468000,5449000,197388,0.009483062,-0.21496086,0.42988855,0
5564000,5521000,197388,0.01229671,-0.21596436,0.42903498,0
5600000,5588000,197388,0.012343145,-0.21900335,0.42967033,0
5708000,5659111,197388,0.009326998,-0.21358098,0.42997387,0
5732000,5726000,197388,0.009935278,-0.21896699,0.43294817,0
5852000,5797600,197388,0.008062832,-0.21611486,0.43006015,0
5876000,5870000,197388,0.010550527,-0.21755031,0.42489126,0
5996000,5940400,197388,0.010361284,-0.2150224,0.42904902,0
6008000,6008000,197388,0.008784853,-0.21525435,0.42559958,0
6140000,6079272,197388,0.00981936,-0.2164536,0.42731443,0
6152000,6152000,197388,0.011631881,-0.2077737,0.4310736,0
6284000,6224000,197388,0.009829279,-0.21572012,0.42949414,0
6296000,6296000,197388,0.007708369,-0.21116191,0.43173984,0
6428000,6366545,197388,0.010627935,-0.21364598,0.4292457,0
6436000,6436000,197388,0.00848913,-0.21504512,0.42758507,0
6560000,6504800,197388,0.009204738,-0.2163533,0.42729554,0
6572000,6572000,197388,0.009645332,-0.22416125,0.43466383,0
6704000,6643636,197388,0.010424283,-0.21557698,0.42935997,0
6716000,6716000,197388,0.0054610367,-0.21231653,0.4319994,0
6844000,6787272,197388,0.0105250785,-0.21762085,0.4269039,0
6860000,6860000,197388,0.00060439704,-0.21949978,0.4369037,0
6988000,6931636,197388,0.010045794,-0.21615216,0.43060535,0
7000000,7000000,197388,0.00588824,-0.21735843,0.42946404,0
7124000,7069600,197388,0.011316824,-0.21633907,0.42972466,0
7148000,7142000,197388,0.008274551,-0.21527502,0.42966115,0
7268000,7212800,197388,0.010710001,-0.2139099,0.42857963,0
7280000,7280000,197388,0.0102055175,-0.21823364,0.4308085,0
7412000,7350545,197388,0.009859844,-0.21510667,0.42983404,0
7424000,7424000,197388,0.008679099,-0.2133046,0.43374676,0
7556000,7495636,197388,0.009557594,-0.2136039,0.43281028,0
7564000,7564000,197388,0.009841133,-0.2108094,0.43551046,0
7684000,7633200,197388,0.009243398,-0.21728142,0.43038955,0
7700000,7700000,197388,0.012434333,-0.21520542,0.4352715,0
7832000,7771636,197388,0.011741137,-0.21540025,0.42851576,0
7844000,7844000,197388,0.019211145,-0.21862443,0.4303684,0
7976000,7915272,197388,0.009637286,-0.21529838,0.42735577,0
7988000,7988000,197388,0.009773954,-0.21216011,0.42974904,0
8116000,8059272,197388,0.010759866,-0.21632576,0.42931488,0
8132000,8132000,197388,0.0079511935,-0.20995997,0.42956594,0
8264000,8203636,197388,0.010581842,-0.21787333,0.4273735,0
8276000,8276000,197388,0.015311014,-0.21670856,0.43058854,0
8404000,8346545,197388,0.0073340544,-0.21666488,0.43023908,0
8420000,8420000,197388,0.00471861,-0.21155635,0.42742297,0
8548000,8490545,197388,0.010059209,-0.21632631,0.4284804,0
8564000,8564000,197388,0.013574279,-0.21360017,0.42507362,0
8696000,8636000,197388,0.008420631,-0.21408388,0.42957163,0
8708000,8708000,197388,0.00765257,-0.21759647,0.43505022,0
8840000,8779636,197388,0.010026203,-0.21669473,0.42762098,0
8852000,8852000,197388,0.006064358,-0.21317986,0.4293004,0
8984000,8923272,197388,0.009935566,-0.21636799,0.42895514,0
8996000,8996000,197388,0.013349015,-0.22001146,0.43421534,0
9128000,9067636,197388,0.00790318,-0.2152264,0.42688873,0
9140000,9140000,197388,0.0063860808,-0.21617322,0.42313918,0
9272000,9211272,197388,0.009269306,-0.2157351,0.430062,0
9284000,9284000,197388,0.01271855,-0.22045527,0.4270669,0
9416000,9355636,197388,0.008970546,-0.2166213,0.42909858,0
9428000,9428000,197388,0.015544773,-0.21945697,0.43399605,0
9556000,9498545,197388,0.008476,-0.21571797,0.42905053,0
9572000,9572000,197388,0.0073896116,-0.21937042,0.43212155,0
9704000,9643636,197388,0.008829288,-0.21578328,0.4306375,0
9716000,9716000,197388,0.01115999,-0.21506317,0.4346391,0
9844000,9787272,197388,0.008576182,-0.21525288,0.42768857,0
9860000,9860000,197388,0.0100808805,-0.2180678,0.42941278,0
9992000,9931272,197388,0.010144235,-0.21680836,0.4278489,0
10004000,10004000,197388,0.007030607,-0.2139015,0.43144014,0
10132000,10074909,197388,0.008602706,-0.21693365,0.42860353,0
10148000,10148000,197388,0.014932785,-0.22079116,0.43189722,0
10276000,10219272,197388,0.00890146,-0.21647461,0.4300657,0
10292000,10292000,197388,0.010719893,-0.21724771,0.42760715,0
10424000,10363636,197388,0.010097546,-0.21476877,0.42829308,0
10436000,10436000,197388,0.008010298,-0.21004076,0.4273562,0
10564000,10507272,197388,0.010140191,-0.2157945,0.4293101,0
10580000,10580000,197388,0.017293926,-0.21214804,0.437036,0
10712000,10650909,197388,0.00863326,-0.21498245,0.42945862,0
10724000,10724000,197388,0.012869426,-0.2144132,0.42863578,0
10856000,10794545,197388,0.008871242,-0.21591295,0.42980075,0
10868000,10868000,197388,0.010902314,-0.21408793,0.43356484,0
10996000,10938909,197388,0.009571639,-0.21421584,0.42935464,0
11012000,11012000,197388,0.0104713105,-0.21724881,0.43100715,0
11140000,11083636,197388,0.008894472,-0.21748422,0.42900404,0
11156000,11156000,197388,0.012180447,-0.21007553,0.4286775,0
11288000,11227636,197388,0.008234822,-0.21655281,0.42992598,0
11300000,11300000,197388,0.0072647217,-0.21806352,0.4394099,0
11428000,11370181,197388,0.009719498,-0.21655543,0.42961097,0
11444000,11444000,197388,0.009848465,-0.22153762,0.43021926,0
11576000,11514909,197388,0.009991032,-0.21559042,0.43029752,0
11588000,11588000,197388,0.0100811375,-0.2096976,0.42866442,0
11720000,11659272,197388,0.008275834,-0.21635501,0.42973372,0
11732000,11732000,197388,0.01020868,-0.21675241,0.4247113,0
11864000,11803636,197388,0.008426809,-0.21635193,0.4289251,0
11876000,11876000,197388,0.009329486,-0.21481659,0.42441458,0
12008000,11947636,197388,0.00949585,-0.21497601,0.4300591,0
12020000,12020000,197388,0.012497788,-0.21677819,0.42054942,0
12152000,12090545,197388,0.010074579,-0.21453626,0.42759547,0
12164000,12164000,197388,0.004879938,-0.21935719,0.43457127,0
12296000,12236000,197388,0.008597025,-0.21416664,0.4288308,0
12308000,12308000,197388,0.008761586,-0.21049003,0.42796037,0
12440000,12379272,197388,0.0100366445,-0.21767585,0.42888677,0
12452000,12452000,197388,0.00710775,-0.22420448,0.427024,0
12580000,12523272,197388,0.010659928,-0.2170943,0.42920998,0
12596000,12596000,197388,0.0033400813,-0.2143264,0.4245207,0
12728000,12666909,197388,0.00965611,-0.21664193,0.42908713,0
12740000,12740000,197388,0.015868215,-0.21119565,0.42544195,0
12868000,12811272,197388,0.0105604185,-0.21671575,0.427338,0
12884000,12884000,197388,0.0067589083,-0.22149931,0.42833123,0
13016000,12955636,197388,0.009247571,-0.2161364,0.4277598,0
13028000,13028000,197388,0.014185695,-0.2186848,0.42904714,0
13160000,13098909,197388,0.008436076,-0.21498466,0.4291479,0
13172000,13172000,197388,0.004180836,-0.21123336,0.4313056,0
13300000,13242909,197388,0.009215461,-0.21529691,0.42850044,0
13316000,13316000,197388,0.011793492,-0.22074705,0.4288667,0
13448000,13388000,197388,0.009941699,-0.2161897,0.42826456,0
13460000,13460000,197388,0.0031983147,-0.22166738,0.4253915,0
13592000,13531636,197388,0.00896727,-0.21737364,0.43208194,0
13604000,13604000,197388,0.014570699,-0.21713595,0.43308666,0
13736000,13675272,197388,0.009716647,-0.21637559,0.43051937,0
13748000,13748000,197388,0.0067222593,-0.21530037,0.42720923,0
13880000,13819636,197388,0.008169498,-0.21709833,0.42981574,0
13892000,13892000,197388,0.009019811,-0.21489178,0.42845407,0
14024000,13963636,197388,0.010924404,-0.21608838,0.42941436,0
14036000,14036000,197388,0.0026499121,-0.21814518,0.41912267,0
14168000,14107636,197388,0.010809434,-0.21629465,0.42964578,0
14180000,14180000,197388,0.009971449,-0.22255306,0.427206,0
14308000,14251272,197388,0.010101741,-0.21613349,0.43012187,0
14324000,14324000,197388,-4.4517346e-05,-0.21591233,0.42928684,0
14456000,14395636,197388,0.012091538,-0.21522371,0.42781305,0
14468000,14468000,197388,0.010953331,-0.21522139,0.4303931,0
14600000,14539636,197388,0.007851839,-0.21497822,0.43000218,0
14612000,14612000,197388,0.017512685,-0.21545222,0.42725423,0
14740000,14682181,197388,0.008950211,-0.21646218,0.4290918,0
14756000,14756000,197388,0.009521082,-0.21067758,0.42892173,0
14888000,14827272,197388,0.010061963,-0.21558003,0.42954338,0
14900000,14900000,197388,0.009366915,-0.22085537,0.4251265,0
15028000,14971272,197388,0.011700204,-0.21578376,0.42952946,0
15044000,15044000,197388,0.009867457,-0.21494976,0.43380767,0
15176000,15115636,197388,0.007788553,-0.21593551,0.43095738,0
15188000,15188000,197388,0.011389497,-0.21378554,0.42554873,0
15320000,15258909,197388,0.009627087,-0.21440408,0.43034267,0
15328000,15328000,197388,0.0120339375,-0.21804895,0.43376356,0
15452000,15397200,197388,0.009678801,-0.21477513,0.4314053,0
15464000,15464000,197388,0.014997411,-0.21547991,0.42680916,0
15596000,15535272,197388,0.012433737,-0.21406698,0.43120354,0
15608000,15608000,197388,0.010691349,-0.21743199,0.43061158,0
15740000,15679636,197388,0.010299989,-0.21631874,0.42959198,0
15748000,15748000,197388,0.01378153,-0.21162769,0.4263618,0
15872000,15817200,197388,0.010161242,-0.21557967,0.42983213,0
15884000,15884000,197388,0.011799461,-0.22078745,0.4327837,0
16016000,15955636,197388,0.00992477,-0.21537638,0.42975432,0
16028000,16028000,197388,0.006707663,-0.21875907,0.43125525,0
16156000,16099272,197388,0.010808136,-0.21615775,0.42891377,0
16172000,16172000,197388,0.012269268,-0.21769644,0.43848354,0
16304000,16243272,197388,0.011020747,-0.21687953,0.42985386,0
16316000,16316000,197388,0.012415771,-0.21544446,0.42722103,0
16444000,16387636,197388,0.010986678,-0.21499017,0.43152064,0
16460000,16460000,197388,0.0033522001,-0.21808477,0.4306428,0
16592000,16531636,197388,0.009700377,-0.21656932,0.4290813,0
16604000,16604000,197388,0.014433957,-0.21917944,0.4288216,0
16732000,16674181,197388,0.00912319,-0.2178317,0.42762294,0
16748000,16748000,197388,0.006521792,-0.20972285,0.42615747,0
16880000,16819636,197388,0.009409036,-0.21663745,0.4288895,0
16892000,16892000,197388,0.007954788,-0.21587989,0.42933553,0
17024000,16963272,197388,0.009200429,-0.21606715,0.43075186,0
17036000,17036000,197388,0.01039969,-0.21206586,0.42802906,0
17168000,17108000,197388,0.01038297,-0.21590976,0.43007192,0
17180000,17180000,197388,0.0118725635,-0.2127271,0.42911386,0
17312000,17250909,197388,0.0084775025,-0.21465012,0.42832762,0
17320000,17320000,197388,0.007499363,-0.21621192,0.42341584,0
17444000,17389200,197388,0.010605893,-0.2141817,0.43123785,0
17468000,17460000,197388,0.007164976,-0.22010528,0.42425874,0
17572000,17527555,197388,0.010143253,-0.21572788,0.43153837,0
17612000,17600000,197388,0.0068111913,-0.21625964,0.43525812,0
17720000,17671111,197388,0.00941057,-0.21553521,0.42854252,0
17744000,17738000,197388,0.005919509,-0.21490991,0.428149,0
17864000,17809200,197388,0.010111393,-0.2175596,0.43005124,0
17876000,17876000,197388,0.010858326,-0.21822408,0.42105505,0
18008000,17947636,197388,0.009529611,-0.21603926,0.4291874,0
18020000,18020000,197388,0.009706304,-0.21673192,0.43380153,0
18148000,18091636,197388,0.009896136,-0.21670917,0.42976913,0
18164000,18164000,197388,0.006251286,-0.21813662,0.43479154,0
18296000,18235636,197388,0.008513952,-0.21507281,0.4304533,0
18308000,18308000,197388,0.008748285,-0.2154347,0.42558166,0
18440000,18379272,197388,0.009839223,-0.21567781,0.43014228,0
18452000,18452000,197388,0.0136964135,-0.20868224,0.43515775,0
18580000,18523272,197388,0.009992081,-0.21526706,0.42998302,0
18596000,18596000,197388,0.013258335,-0.211399,0.43366024,0
18728000,18667636,197388,0.007715351,-0.21610694,0.42823598,0
18740000,18740000,197388,0.013132982,-0.21449836,0.42555234,0
18872000,18811636,197388,0.009638152,-0.21586089,0.43101487,0
18884000,18884000,197388,0.011323846,-0.20911078,0.42707527,0
19016000,18956000,197388,0.0107269,-0.21486716,0.4290216,0
19028000,19028000,197388,0.0032195817,-0.21519585,0.43217802,0
19160000,19099272,197388,0.009872936,-0.21598773,0.42955574,0
19172000,19172000,197388,0.013742636,-0.22312747,0.4277696,0
19300000,19242181,197388,0.009710775,-0.21598676,0.42890793,0
19316000,19316000,197388,0.0144524565,-0.21821985,0.42815125,0
19444000,19387636,197388,0.010874207,-0.21551737,0.42824036,0
19460000,19460000,197388,0.008677928,-0.21622628,0.42993668,0
19592000,19531272,197388,0.009337822,-0.2153706,0.4286333,0
19604000,19604000,197388,0.0052186116,-0.21277414,0.42848864,0
19736000,19675636,197388,0.009088948,-0.21466967,0.429833,0
19748000,19748000,197388,0.011539515,-0.21217854,0.43168765,0
19880000,19818909,197388,0.01033854,-0.21738076,0.42889318,0
19888000,19888000,197388,0.0077510956,-0.21492171,0.4305514,0
20012000,19958000,197388,0.009740806,-0.21500897,0.42940566,0
20036000,20030000,197388,0.0063878903,-0.21419704,0.4319335,0
20156000,20101200,197388,0.008226516,-0.21480358,0.43026915,0
20180000,20172000,197388,0.0075425766,-0.21994314,0.42976576,0
20284000,20238666,197388,0.009139186,-0.21518639,0.42906848,0
20320000,20309333,197388,0.009837842,-0.21402249,0.43098664,0
20420000,20377000,197388,0.010156447,-0.21716124,0.4310431,0
20456000,20444000,197388,0.008181455,-0.21750718,0.42706537,0
20564000,20515555,197388,0.011029467,-0.21450013,0.4286032,0
20600000,20588000,197388,0.008425139,-0.21593551,0.42689884,0
20708000,20660000,197388,0.0076951003,-0.21341613,0.43112054,0
20744000,20732000,197388,0.007548649,-0.21682167,0.4294034,0
20852000,20803555,197388,0.008434001,-0.2161469,0.43002114,0
20884000,20874666,197388,0.0111550465,-0.2146275,0.4282782,0
20996000,20947111,197388,0.009900601,-0.2147964,0.4277886,0
21020000,21014000,197388,0.011241853,-0.21383241,0.43027267,0
21140000,21086000,197388,0.010533725,-0.21282096,0.42936325,0
21164000,21158000,197388,0.013126595,-0.21282,0.4306275,0
21284000,21229200,197388,0.009715279,-0.21412411,0.42930108,0
21296000,21296000,197388,0.012607628,-0.21678773,0.43474096,0
21428000,21366545,197388,0.008935225,-0.21428464,0.42967772,0
21436000,21436000,197388,0.007584733,-0.20993216,0.4273952,0
21560000,21506000,197388,0.009720748,-0.21678977,0.42754245,0
21584000,21578000,197388,0.010579063,-0.21193373,0.43150696,0
21704000,21649200,197388,0.009086299,-0.21648577,0.42952776,0
21716000,21716000,197388,0.005027418,-0.21866228,0.42798406,0
21848000,21787636,197388,0.008889037,-0.21517496,0.4300634,0
21860000,21860000,197388,0.012293938,-0.21695498,0.43004465,0
21988000,21931272,197388,0.008735004,-0.21370848,0.42871568,0
22004000,22004000,197388,0.014498743,-0.21648468,0.42814842,0
22136000,22075636,197388,0.007892971,-0.21425483,0.43011713,0
22148000,22148000,197388,0.014661798,-0.21266642,0.42172068,0
22276000,22218909,197388,0.010142833,-0.21561679,0.42889288,0
22292000,22292000,197388,0.0042153527,-0.21434377,0.42809582,0
22424000,22362909,197388,0.009081164,-0.21317701,0.43102634,0
22436000,22436000,197388,0.020881556,-0.21842743,0.4320175,0
22568000,22507636,197388,0.00923149,-0.21571559,0.4295765,0
22580000,22580000,197388,0.007908446,-0.21220861,0.43425244,0
22708000,22650909,197388,0.010626773,-0.21526241,0.4283776,0
22724000,22724000,197388,0.0017133092,-0.2142148,0.4328768,0
22856000,22794545,197388,0.009954434,-0.21543111,0.42875117,0
22868000,22868000,197388,0.011950903,-0.21489434,0.4351384,0
23000000,22939272,197388,0.008763097,-0.21480931,0.4286929,0
23012000,23012000,197388,0.0034361824,-0.22130896,0.43508753,0
23144000,23083272,197388,0.009318517,-0.21466482,0.4295618,0
23156000,23156000,197388,0.011939407,-0.22065957,0.43047816,0
23284000,23226909,197388,0.0074262554,-0.21523345,0.4279809,0
23300000,23300000,197388,0.008266221,-0.2166395,0.42743224,0
23428000,23370545,197388,0.009602377,-0.21583684,0.4294871,0
23444000,23444000,197388,0.0065339035,-0.21357355,0.42997435,0
23576000,23515272,197388,0.008645927,-0.21290617,0.43037164,0
23588000,23588000,197388,0.0067739934,-0.21514305,0.43157575,0
23720000,23659272,197388,0.006430792,-0.21605806,0.43044868,0
23732000,23732000,197388,0.011052189,-0.21285763,0.43800336,0
23860000,23802545,197388,0.008601787,-0.21608417,0.4309698,0
23876000,23876000,197388,0.010046998,-0.21804374,0.42791623,0
24008000,23947636,197388,0.00933266,-0.21643941,0.42788896,0
24020000,24020000,197388,0.011929697,-0.21233185,0.42811146,0
24152000,24091636,197388,0.009281695,-0.21488015,0.42987913,0
24164000,24164000,197388,0.0058794226,-0.21779837,0.42700648,0
24292000,24234545,197388,0.008462463,-0.2155118,0.427319,0
24308000,24308000,197388,0.012689908,-0.21402031,0.42752796,0
24440000,24379272,197388,0.009501313,-0.21531175,0.42835873,0
24452000,24452000,197388,0.015328343,-0.21647385,0.4247004,0
24584000,24523272,197388,0.011085823,-0.21425557,0.4297957,0
24596000,24596000,197388,0.0045067077,-0.21118516,0.42449975,0
24728000,24667272,197388,0.01017137,-0.21592815,0.43077606,0
24740000,24740000,197388,0.012379472,-0.22003685,0.41910267,0
24868000,24810909,197388,0.009483637,-0.21467456,0.4297243,0
24884000,24884000,197388,0.007858313,-0.21080147,0.42646047,0
25016000,24955636,197388,0.010499781,-0.21460918,0.43070513,0
25028000,25028000,197388,0.008202298,-0.22247896,0.43444553,0
25160000,25099636,197388,0.009414905,-0.21490347,0.42937946,0
25172000,25172000,197388,0.010220339,-0.21242565,0.42912132,0
25304000,25243272,197388,0.008824539,-0.21357884,0.42931128,0
25316000,25316000,197388,0.011508225,-0.21411394,0.4282477,0
25448000,25387636,197388,0.0103239585,-0.21565323,0.43041322,0
25460000,25460000,197388,0.012290716,-0.2168122,0.429848,0
25588000,25530909,197388,0.008798686,-0.21560049,0.4302168,0
25604000,25604000,197388,0.013701182,-0.21767889,0.43151867,0
25732000,25674545,197388,0.009227445,-0.21353868,0.42754698,0
25748000,25748000,197388,0.011178857,-0.2162122,0.43595397,0
25876000,25819272,197388,0.009305075,-0.21468118,0.42909506,0
25892000,25892000,197388,0.010392273,-0.21755601,0.42652467,0
26024000,25963272,197388,0.008834761,-0.21577103,0.43112755,0
26036000,26036000,197388,0.006494693,-0.2197386,0.42700446,0
26168000,26107272,197388,0.009182636,-0.21583939,0.42893362,0
26180000,26180000,197388,0.0108122425,-0.21484429,0.428827,0
26312000,26252000,197388,0.009219271,-0.21387526,0.42962712,0
26324000,26324000,197388,0.013208405,-0.213522,0.42756867,0
26456000,26396000,197388,0.009605275,-0.21429825,0.42770213,0
26468000,26468000,197388,0.006807612,-0.21479146,0.42803106,0
26600000,26539636,197388,0.009376836,-0.21414554,0.42704505,0
26612000,26612000,197388,0.010899657,-0.21461941,0.43166974,0
26744000,26683636,197388,0.010373163,-0.21510446,0.42925662,0
26756000,26756000,197388,0.012209138,-0.21352017,0.4348825,0
26888000,26827636,197388,0.008905264,-0.21361832,0.4274033,0
26900000,26900000,197388,0.003439179,-0.21677814,0.43731835,0
27032000,26971636,197388,0.009208264,-0.213149,0.4293451,0
27044000,27044000,197388,0.013228414,-0.21869339,0.42239386,0
27176000,27115636,197388,0.007644419,-0.21512316,0.4273092,0
27188000,27188000,197388,0.005780026,-0.21498658,0.43125242,0
27320000,27260000,197388,0.009899458,-0.21510571,0.43093294,0
27332000,27332000,197388,0.014094597,-0.21760839,0.4238387,0
27464000,27403272,197388,0.007952926,-0.21473989,0.4282995,0
27476000,27476000,197388,0.002738696,-0.21600355,0.42784107,0
27604000,27546545,197388,0.009478311,-0.21498594,0.4268228,0
27620000,27620000,197388,0.012181571,-0.21516602,0.42921385,0
27748000,27690181,197388,0.008687596,-0.21814768,0.42995852,0
27764000,27764000,197388,0.010929758,-0.2161088,0.42212042,0
27896000,27835272,197388,0.010188841,-0.21638636,0.42975166,0
27908000,27908000,197388,0.012780896,-0.21206135,0.4230042,0
28036000,27979636,197388,0.010073504,-0.21378247,0.43097293,0
28052000,28052000,197388,0.0047256476,-0.22420342,0.4318344,0
28180000,28123272,197388,0.010114962,-0.21555012,0.43149373,0
28196000,28196000,197388,0.012194757,-0.22081317,0.42548075,0
28324000,28266909,197388,0.010998311,-0.21606524,0.4284225,0
28340000,28340000,197388,0.014652805,-0.21576688,0.43355355,0
28472000,28412000,197388,0.010349947,-0.2141723,0.43100405,0
28484000,28484000,197388,0.013820938,-0.22033156,0.42683977,0
28612000,28554545,197388,0.008454847,-0.21452212,0.4295324,0
28628000,28628000,197388,0.008862663,-0.2211474,0.4284401,0
28760000,28699636,197388,0.01226549,-0.21577899,0.43002957,0
28768000,28768000,197388,0.014269468,-0.21857981,0.42530864,0
28888000,28836800,197388,0.008256726,-0.2168833,0.4296484,0
28916000,28908000,197388,0.009411713,-0.21715054,0.43303835,0
29032000,28980000,197388,0.009431716,-0.21445766,0.42728662,0
29048000,29048000,197388,0.007713003,-0.21508074,0.43582273,0
29180000,29118909,197388,0.009968199,-0.21659648,0.42885253,0
29192000,29192000,197388,0.015280323,-0.22296783,0.43717498,0
29324000,29263636,197388,0.009271255,-0.21485743,0.4304498,0
29336000,29336000,197388,0.015815305,-0.21982746,0.4358476,0
29468000,29407272,197388,0.010801448,-0.21496718,0.43168217,0
29480000,29480000,197388,0.009896136,-0.22031711,0.42535055,0
29612000,29550909,197388,0.00921022,-0.21520498,0.43236786,0
29624000,29624000,197388,0.01569155,-0.21353313,0.43114865,0
29756000,29695272,197388,0.009801656,-0.21463646,0.42829406,0
29768000,29768000,197388,0.0016616482,-0.21412897,0.4367195,0
29900000,29839636,197388,0.010031566,-0.21537396,0.4290666,0
29908000,29908000,197388,0.0059238165,-0.21593772,0.43452507,0
30032000,29978000,197388,0.009735682,-0.21565406,0.430593,0
30052000,30048000,197388,0.005504951,-0.21549883,0.4313445,0
30164000,30114666,197388,0.007897721,-0.21529068,0.43111402,0
30200000,30186666,197388,0.006923303,-0.21572328,0.4298837,0
30308000,30259111,197388,0.010502481,-0.21422763,0.42729542,0
30332000,30326000,197388,0.0049298797,-0.21130183,0.4255885,0
30452000,30397600,197388,0.009811486,-0.21799584,0.430845,0
30476000,30470000,197388,0.009698932,-0.21535012,0.4266647,0
30592000,30540400,197388,0.009311845,-0.2158011,0.42966715,0
30608000,30608000,197388,0.00933347,-0.21229604,0.41812852,0
30740000,30679636,197388,0.008116476,-0.21516363,0.4281941,0
30752000,30752000,197388,0.013581845,-0.21409295,0.42674616,0
30884000,30823272,197388,0.010554221,-0.21433924,0.4324836,0
30892000,30892000,197388,0.0053980215,-0.21764131,0.4352322,0
31012000,30961600,197388,0.010327681,-0.21612465,0.4300765,0
31040000,31034000,197388,0.014866374,-0.21275087,0.43151897,0
31160000,31106000,197388,0.009685048,-0.21537785,0.42860776,0
31180000,31176000,197388,0.0074947933,-0.22094649,0.42796403,0
31292000,31243555,197388,0.008663107,-0.21416445,0.42739737,0
31328000,31316000,197388,0.007007028,-0.21659708,0.42488846,0
31436000,31387555,197388,0.010235145,-0.21477662,0.42973188,0
31472000,31458666,197388,0.010161691,-0.2162581,0.43030304,0
31568000,31525500,197388,0.007966111,-0.21475875,0.42992154,0
31616000,31598000,197388,0.009791886,-0.21380652,0.42937684,0
31708000,31669500,197388,0.010313015,-0.21447816,0.43119162,0
31760000,31742000,197388,0.011481117,-0.21395224,0.43017033,0
31852000,31812500,197388,0.010089613,-0.21355917,0.4289571,0
31892000,31880000,197388,0.011497779,-0.21668172,0.42950544,0
32000000,31952000,197388,0.008278595,-0.21546544,0.42825797,0
32036000,32024000,197388,0.007519038,-0.21728832,0.43282384,0
32140000,32094666,197388,0.010647804,-0.21496776,0.43036503,0
32168000,32162000,197388,0.008223493,-0.21562079,0.43202013,0
32284000,32233200,197388,0.010221666,-0.21612957,0.4284753,0
32300000,32300000,197388,0.010184716,-0.21176746,0.42784125,0
32428000,32371636,197388,0.010316378,-0.21543564,0.42817363,0
32444000,32444000,197388,0.013751754,-0.21579324,0.429209,0
32576000,32515272,197388,0.010552153,-0.21542099,0.42949948,0
32588000,32588000,197388,0.004972548,-0.21779862,0.42684162,0
32720000,32660000,197388,0.007807457,-0.21496852,0.42923686,0
32732000,32732000,197388,0.017023247,-0.2134681,0.43054613,0
32864000,32803636,197388,0.0099857105,-0.21415906,0.4298932,0
32876000,32876000,197388,0.0056233453,-0.2140145,0.42679036,0
33008000,32947272,197388,0.007599839,-0.21583013,0.43056077,0
33020000,33020000,197388,0.009280977,-0.22076789,0.42786393,0
33152000,33091636,197388,0.008544134,-0.21484712,0.4313693,0
33164000,33164000,197388,0.01102619,-0.2110847,0.42810884,0
33296000,33235636,197388,0.009595001,-0.21707915,0.4283091,0
33308000,33308000,197388,0.00855693,-0.21894355,0.43308294,0
33440000,33379636,197388,0.008815658,-0.21512938,0.4316647,0
33452000,33452000,197388,0.00909703,-0.20838886,0.43191433,0
33580000,33522181,197388,0.009390339,-0.21494639,0.4291708,0
33596000,33596000,197388,0.008025335,-0.21747118,0.42964232,0
33728000,33667272,197388,0.010672428,-0.21539776,0.4288103,0
33740000,33740000,197388,0.010830532,-0.21519805,0.43431988,0
33872000,33810909,197388,0.008481756,-0.21476005,0.4298657,0
33884000,33884000,197388,0.008696485,-0.21876556,0.42623225,0
34016000,33955636,197388,0.008617261,-0.21617144,0.43042493,0
34028000,34028000,197388,0.015992733,-0.21038352,0.42890507,0
34156000,34098909,197388,0.00879377,-0.2118586,0.43116978,0
34168000,34168000,197388,0.0105226,-0.22099169,0.42881346,0
34292000,34237600,197388,0.0108088255,-0.21318936,0.43012697,0
34316000,34310000,197388,0.014859647,-0.21766007,0.4290913,0
34436000,34381200,197388,0.011020404,-0.21428244,0.42888933,0
34448000,34448000,197388,0.00897243,-0.21364377,0.43170276,0
34580000,34518545,197388,0.009715756,-0.21693352,0.4305231,0
34592000,34592000,197388,0.014752343,-0.21539585,0.43444023,0
34724000,34663272,197388,0.008892422,-0.21631898,0.42912975,0
34732000,34732000,197388,0.013485051,-0.2182688,0.4294354,0
34856000,34802000,197388,0.009838452,-0.21480082,0.4299747,0
34876000,34872000,197388,0.00867717,-0.21011224,0.42913583,0
34988000,34938666,197388,0.0065292907,-0.20518659,0.4339835,0
35012000,35006000,197388,0.006447653,-0.19443262,0.43669415,0
35132000,35077200,197388,0.0083723515,-0.1879781,0.4426511,0
35156000,35148000,197388,0.0030048178,-0.18168098,0.4419164,0
35264000,35215111,197388,0.0011540069,-0.17951678,0.44552618,0
35300000,35286666,197388,-0.0013177944,-0.18884513,0.44419226,0
35396000,35353500,197388,0.0012185175,-0.19367336,0.43866628,0
35444000,35426000,197388,0.00561037,-0.20469502,0.4324422,0
35540000,35498000,197388,0.005582695,-0.20773326,0.4318535,0
35588000,35569000,197388,0.007379134,-0.21171936,0.4299758,0
35684000,35640500,197388,0.0075999578,-0.21367258,0.43034297,0
35720000,35708000,197388,0.0076549165,-0.21484229,0.42948028,0
35828000,35779555,197388,0.011458337,-0.22054908,0.42657614,0
35860000,35850666,197388,0.008980313,-0.21980089,0.42214668,0
35960000,35917500,197388,0.011155221,-0.22300185,0.4256366,0
36008000,35990000,197388,0.0065304847,-0.22478625,0.4252416,0
36100000,36061000,197388,0.010787547,-0.22513062,0.42533705,0
36140000,36128000,197388,0.008162126,-0.22505483,0.42257175,0
36248000,36199111,197388,0.008759344,-0.22553682,0.42292324,0
36284000,36270666,197388,0.012253314,-0.223346,0.42916796,0
36392000,36343111,197388,0.010777158,-0.22558533,0.42621753,0
36416000,36410000,197388,0.012001987,-0.22464764,0.4238909,0
36536000,36481200,197388,0.008292726,-0.22764997,0.42389947,0
36548000,36548000,197388,0.008734993,-0.22747232,0.42345867,0
36676000,36618181,197388,0.0100554945,-0.22632086,0.4239812,0
36692000,36692000,197388,0.01709859,-0.23366319,0.42760533,0
36820000,36763272,197388,0.010120451,-0.22431633,0.42173657,0
36836000,36836000,197388,0.008603303,-0.22108002,0.42655927,0
36968000,36907272,197388,0.010808849,-0.22504333,0.42359638,0
36980000,36980000,197388,0.015076386,-0.21687026,0.42249772,0
37108000,37051636,197388,0.009332232,-0.22143316,0.42456335,0
37120000,37120000,197388,0.004573783,-0.22637922,0.43118152,0
37244000,37189600,197388,0.010115911,-0.22288397,0.42476532,0
37268000,37262000,197388,0.010027951,-0.2258543,0.42648622,0
37384000,37333200,197388,0.010464389,-0.22163387,0.4242218,0
37400000,37400000,197388,0.010928492,-0.22100845,0.4222292,0
37532000,37471636,197388,0.010670633,-0.21950711,0.42696062,0
37544000,37544000,197388,0.010792589,-0.21372424,0.4255205,0
37676000,37615636,197388,0.011452915,-0.2201813,0.42688164,0
37684000,37684000,197388,0.014976901,-0.21869127,0.427149,0
37808000,37753200,197388,0.009133585,-0.22021294,0.42845517,0
37832000,37824000,197388,0.009639797,-0.21611461,0.42927617,0
37940000,37891555,197388,0.009048002,-0.21933423,0.42561057,0
37976000,37964000,197388,0.012380574,-0.21960649,0.42609853,0
38084000,38036000,197388,0.0099284565,-0.21704514,0.43113154,0
38120000,38106666,197388,0.0071486086,-0.21443902,0.43048728,0
38228000,38178666,197388,0.010385756,-0.21516435,0.42987475,0
38252000,38246000,197388,0.009166254,-0.2152291,0.42628163,0
38372000,38317600,197388,0.008319038,-0.2154923,0.43029672,0
38396000,38390000,197388,0.0065565864,-0.21521951,0.430731,0
38516000,38460400,197388,0.0073051057,-0.2165807,0.42818412,0
38528000,38528000,197388,0.015370198,-0.21575978,0.43021908,0
38660000,38598909,197388,0.008100752,-0.21598333,0.42895448,0
38672000,38672000,197388,0.013685831,-0.21771131,0.43018457,0
38804000,38743272,197388,0.0065340274,-0.21857111,0.42925936,0
38812000,38812000,197388,0.0066425735,-0.21419989,0.4316762,0
38932000,38880400,197388,0.008419605,-0.21706031,0.42757034,0
38948000,38948000,197388,0.0068709333,-0.22154708,0.4350029,0
39080000,39019636,197388,0.0074815685,-0.21576238,0.42886415,0
39092000,39092000,197388,0.005246177,-0.22228369,0.425458,0
39220000,39163272,197388,0.00834249,-0.21754391,0.4279295,0
39236000,39236000,197388,0.009215945,-0.21924134,0.43224573,0
39368000,39308000,197388,0.007068082,-0.21541436,0.42896256,0
39380000,39380000,197388,0.0034063682,-0.22120708,0.4269375,0
39512000,39450545,197388,0.009678505,-0.21501963,0.42748994,0
39524000,39524000,197388,0.0066613937,-0.21366407,0.43220055,0
39656000,39595636,197388,0.009924833,-0.21309981,0.4304254,0
39668000,39668000,197388,0.0047831777,-0.21223451,0.4292012,0
39800000,39739636,197388,0.009906222,-0.21510047,0.42934275,0
39812000,39812000,197388,0.01295236,-0.21546221,0.43490824,0
39940000,39883272,197388,0.008085136,-0.21466173,0.42749345,0
39956000,39956000,197388,0.0072998954,-0.2204272,0.42249852,0
40084000,40027636,197388,0.0063309,-0.2131275,0.4317082,0
40100000,40100000,197388,0.013396792,-0.21398807,0.43176138,0
40232000,40171636,197388,0.008875893,-0.21673115,0.43012178,0
40244000,40244000,197388,0.010083592,-0.2113504,0.42816946,0
40376000,40314181,197388,0.00867827,-0.21641502,0.4292072,0
40388000,40388000,197388,0.009748616,-0.22109462,0.43261623,0
40520000,40459636,197388,0.008502863,-0.2132179,0.43169165,0
40532000,40532000,197388,0.011083357,-0.21425028,0.42785195,0
40664000,40603272,197388,0.008032652,-0.21372874,0.43015304,0
40676000,40676000,197388,0.013532169,-0.21582225,0.42553926,0
40808000,40747636,197388,0.009349054,-0.21312785,0.4299993,0
40820000,40820000,197388,0.013782336,-0.22078362,0.4241832,0
40952000,40890909,197388,0.009036354,-0.21560314,0.4298613,0
40964000,40964000,197388,0.008971114,-0.21493538,0.43141186,0
41096000,41035272,197388,0.009582441,-0.21631482,0.43019933,0
41108000,41108000,197388,0.01315984,-0.21753433,0.431697,0
41240000,41179636,197388,0.012612845,-0.21467951,0.42903218,0
41252000,41252000,197388,0.011400994,-0.21538419,0.4299057,0
41384000,41323636,197388,0.011303723,-0.21524537,0.43003356,0
41396000,41396000,197388,0.006188096,-0.21552941,0.4273271,0
41524000,41466545,197388,0.008501999,-0.2173363,0.42983955,0
41540000,41540000,197388,0.013206787,-0.21680354,0.42962313,0
41672000,41611272,197388,0.0068726386,-0.2152652,0.4297861,0
41684000,41684000,197388,0.009991829,-0.21665058,0.4310993,0
41812000,41754909,197388,0.008535192,-0.21573438,0.4310251,0
41828000,41828000,197388,0.008779623,-0.21614176,0.42635176,0
41960000,41898909,197388,0.009570167,-0.21873021,0.43131146,0
41972000,41972000,197388,0.008868869,-0.21308477,0.42998546,0
42104000,42043636,197388,0.010303347,-0.21401419,0.43086737,0
42116000,42116000,197388,0.0088030575,-0.2152016,0.42823312,0
42248000,42186909,197388,0.008254905,-0.21808586,0.42826727,0
42260000,42260000,197388,0.01227728,-0.20971905,0.4320346,0
42388000,42331272,197388,0.010085441,-0.21776721,0.43142933,0
42404000,42404000,197388,0.0067357603,-0.2176401,0.42760798,0
42532000,42473818,197388,0.006912998,-0.21564506,0.42891213,0
42548000,42548000,197388,0.008516717,-0.2184216,0.42732385,0
42680000,42620000,197388,0.010642316,-0.2168088,0.42970043,0
42692000,42692000,197388,0.0048239906,-0.2250845,0.42621568,0
42824000,42762909,197388,0.010959747,-0.21520047,0.43149793,0
42836000,42836000,197388,0.013377893,-0.21619502,0.43177813,0
42968000,42907636,197388,0.009628493,-0.2183503,0.42819172,0
42980000,42980000,197388,0.012976152,-0.21070156,0.4260158,0
43112000,43050909,197388,0.01133356,-0.21911559,0.4271334,0
43124000,43124000,197388,0.015964506,-0.22194086,0.42409435,0
43256000,43194545,197388,0.025442481,-0.2297119,0.418333,0
43268000,43268000,197388,0.05143077,-0.24365059,0.40876207,0
43400000,43339636,197388,0.07260644,-0.25145942,0.40119505,0
43412000,43412000,197388,0.1038692,-0.26041445,0.38835886,0
43544000,43483272,197388,0.11899316,-0.2592496,0.38607368,0
43556000,43556000,197388,0.14209482,-0.2602624,0.37512672,0
43688000,43627636,197388,0.1632399,-0.2597685,0.36916712,0
43696000,43696000,197388,0.18668388,-0.25411296,0.3589575,0
43816000,43765600,197388,0.20703395,-0.25295478,0.35159546,0
43844000,43838000,197388,0.23324913,-0.24621958,0.3359709,0
43964000,43909600,197388,0.2511632,-0.23528449,0.33510262,0
43988000,43982000,197388,0.27124035,-0.22210121,0.32980317,0
44108000,44054000,197388,0.28557372,-0.20886901,0.32334134,0
44132000,44126000,197388,0.30004552,-0.18863705,0.32029122,0
44252000,44196800,197388,0.30956936,-0.17348658,0.32187817,0
44264000,44264000,197388,0.31898823,-0.15643899,0.3294564,0
44396000,44335636,197388,0.32607952,-0.1395702,0.3248292,0
44408000,44408000,197388,0.3359553,-0.117254816,0.32611117,0
44540000,44479272,197388,0.34261212,-0.10014076,0.323308,0
44552000,44552000,197388,0.3409115,-0.08992083,0.32365993,0
44684000,44622909,197388,0.35270077,-0.063514635,0.32278323,0
44696000,44696000,197388,0.35529983,-0.050508477,0.32816666,0
44828000,44767636,197388,0.3590707,-0.029326832,0.3202699,0
44836000,44836000,197388,0.3555259,-0.016900884,0.32512772,0
44960000,44904400,197388,0.35177213,-0.011728167,0.32667044,0
44972000,44972000,197388,0.3494834,-0.010179874,0.33011955,0
45100000,45043636,197388,0.34039614,-0.012505211,0.34079328,0
45116000,45116000,197388,0.33537138,-0.012370032,0.35051,0
45248000,45188000,197388,0.32035747,-0.01934845,0.35534725,0
45260000,45260000,197388,0.31247354,-0.021998147,0.35854277,0
45392000,45330909,197388,0.3062102,-0.025407085,0.3662015,0
45404000,45404000,197388,0.30729902,-0.026131934,0.37163568,0
45536000,45476000,197388,0.28885818,-0.02863307,0.38249,0
45548000,45548000,197388,0.28364906,-0.036310527,0.38937843,0
45680000,45619272,197388,0.27011794,-0.044144984,0.39428902,0
45692000,45692000,197388,0.25880438,-0.053721033,0.40566617,0
45820000,45762909,197388,0.2601358,-0.053958487,0.401053,0
45836000,45836000,197388,0.26514477,-0.055927273,0.40185183,0
45968000,45907272,197388,0.26475707,-0.0514044,0.3983431,0
45976000,45976000,197388,0.26508552,-0.055218972,0.39397994,0
46100000,46045600,197388,0.27292567,-0.051357564,0.39435363,0
46124000,46118000,197388,0.26995695,-0.04967565,0.39028376,0
46244000,46189200,197388,0.27464572,-0.052160274,0.39241925,0
46256000,46256000,197388,0.26694205,-0.05453665,0.39437392,0
46388000,46327272,197388,0.27491295,-0.053372197,0.39205223,0
46400000,46400000,197388,0.27424046,-0.05696839,0.39022198,0
46532000,46471272,197388,0.27435264,-0.056148943,0.39146614,0
46544000,46544000,197388,0.27503654,-0.06329623,0.38899806,0
46676000,46616000,197388,0.27499107,-0.055497915,0.39100796,0
46684000,46684000,197388,0.27649993,-0.051780205,0.39194053,0
46804000,46753200,197388,0.2761002,-0.05739341,0.3914767,0
46820000,46820000,197388,0.274796,-0.06006061,0.3806618,0
46948000,46891272,197388,0.2737746,-0.060144518,0.38797346,0
46964000,46964000,197388,0.27808788,-0.05537736,0.38613576,0
47096000,47036000,197388,0.2761739,-0.060966134,0.38800016,0
47104000,47104000,197388,0.27847216,-0.06531817,0.39110926,0
47228000,47173600,197388,0.27671862,-0.06169171,0.38652268,0
47252000,47246000,197388,0.27959076,-0.06410536,0.38823706,0
47372000,47317600,197388,0.2789796,-0.06628893,0.38718623,0
47396000,47390000,197388,0.28044212,-0.06633076,0.38892013,0
47516000,47461200,197388,0.28001833,-0.06623163,0.38589603,0
47540000,47532000,197388,0.2787739,-0.064651266,0.38565814,0
47644000,47599111,197388,0.27875587,-0.068680346,0.38726988,0
47680000,47669333,197388,0.2800876,-0.06724678,0.38449824,0
47780000,47737000,197388,0.2788048,-0.07116944,0.38624856,0
47828000,47809000,197388,0.27808267,-0.07114028,0.38658145,0
47924000,47881000,197388,0.2781974,-0.07191405,0.38506627,0
47972000,47953000,197388,0.27844778,-0.0692032,0.38681015,0
48068000,48025000,197388,0.27797908,-0.06974363,0.3859747,0
48116000,48096000,197388,0.28294778,-0.06895152,0.38536176,0
48200000,48163428,197388,0.2806638,-0.07139172,0.38461748,0
48260000,48234400,197388,0.28328612,-0.07221265,0.38549426,0
48332000,48302000,197388,0.27938974,-0.07196815,0.38275883,0
48404000,48373333,197388,0.28182447,-0.0740767,0.37945575,0
48476000,48445333,197388,0.2841852,-0.07104576,0.38061088,0
48536000,48512000,197388,0.2839199,-0.07132785,0.38081488,0
48620000,48584000,197388,0.28238535,-0.07246217,0.38144004,0
48676000,48654400,197388,0.2828319,-0.070042096,0.3832798,0
48752000,48721333,197388,0.28483436,-0.070614904,0.38220224,0
48812000,48788000,197388,0.2849298,-0.07204744,0.38362542,0
48896000,48859428,197388,0.28153643,-0.06997016,0.38232663,0
48956000,48932000,197388,0.28352204,-0.07100438,0.3816142,0
49040000,49003428,197388,0.2818214,-0.07116291,0.37917334,0
49100000,49074400,197388,0.2839669,-0.06809125,0.38323697,0
49172000,49141333,197388,0.28160536,-0.069446325,0.38454896,0
49240000,49212666,197388,0.28377706,-0.07256489,0.38426635,0
49316000,49284666,197388,0.2813033,-0.07123265,0.38198137,0
49388000,49357333,197388,0.2817229,-0.06968507,0.3875324,0
49448000,49424000,197388,0.28169996,-0.06685165,0.38386878,0
49532000,49496000,197388,0.2817111,-0.069130294,0.38371605,0
49592000,49567200,197388,0.27739856,-0.06837516,0.3870866,0
49676000,49639428,197388,0.27840304,-0.068639345,0.38646066,0
49736000,49711200,197388,0.2774217,-0.06774056,0.38518265,0
49820000,49781714,197388,0.2790688,-0.067952365,0.38422477,0
49868000,49850000,197388,0.28186247,-0.06894502,0.38435903,0
49964000,49921500,197388,0.2807247,-0.06764208,0.38460657,0
50012000,49992000,197388,0.2780082,-0.071888566,0.38333905,0
50096000,50060000,197388,0.27952048,-0.065861,0.38501808,0
50156000,50130400,197388,0.2819737,-0.06705607,0.38751352,0
50228000,50197333,197388,0.28071016,-0.0715245,0.38435167,0
50296000,50268000,197388,0.28082192,-0.0710144,0.38324746,0
50360000,50335200,197388,0.28076425,-0.06532345,0.38373396,0
50432000,50402000,197388,0.28183228,-0.06745242,0.3850248,0
50504000,50473333,197388,0.2809107,-0.06961496,0.38464963,0
50564000,50540000,197388,0.28087878,-0.065596506,0.3867186,0
50644000,50610285,197388,0.28085762,-0.06631215,0.3843401,0
50692000,50677000,197388,0.28358704,-0.066275656,0.38592565,0
50792000,50749000,197388,0.2815029,-0.06676788,0.38326508,0
50828000,50816000,197388,0.2815339,-0.071724385,0.3846516,0
50936000,50887555,197388,0.281761,-0.06508737,0.3838014,0
50972000,50960000,197388,0.2822742,-0.06736919,0.38073945,0
51080000,51032000,197388,0.2796189,-0.06285147,0.38554025,0
51116000,51104000,197388,0.28011414,-0.06379577,0.38589984,0
51220000,51175111,197388,0.28227648,-0.06616096,0.38409868,0
51248000,51242000,197388,0.28506577,-0.06392012,0.3808629,0
51368000,51312800,197388,0.28033945,-0.06398436,0.38368255,0
51380000,51380000,197388,0.27978733,-0.061821554,0.3770828,0
51512000,51451272,197388,0.2820387,-0.06763567,0.38416344,0
51524000,51524000,197388,0.28136986,-0.063515,0.38360697,0
51656000,51594909,197388,0.27994305,-0.064467415,0.3837081,0
51668000,51668000,197388,0.28761178,-0.061059207,0.38346505,0
51796000,51738909,197388,0.28215742,-0.06654132,0.38573614,0
51812000,51812000,197388,0.2829009,-0.065453395,0.38703153,0
51944000,51883272,197388,0.2811388,-0.06583852,0.3842859,0
51956000,51956000,197388,0.28269917,-0.067336686,0.3903662,0
52084000,52026909,197388,0.28236023,-0.0655417,0.38412932,0
52100000,52100000,197388,0.28099906,-0.066327214,0.3874129,0
52232000,52172000,197388,0.27969253,-0.06631482,0.3855499,0
52244000,52244000,197388,0.2807424,-0.06737016,0.3796519,0
52376000,52315636,197388,0.2811028,-0.068611674,0.3841193,0
52388000,52388000,197388,0.28579405,-0.070137255,0.3880905,0
52520000,52459636,197388,0.2811997,-0.06435552,0.38481602,0
52532000,52532000,197388,0.28083858,-0.06323872,0.38389912,0
52660000,52603636,197388,0.28200895,-0.06618787,0.38445088,0
52676000,52676000,197388,0.29209143,-0.061417654,0.37858835,0
52808000,52746909,197388,0.2807571,-0.06596378,0.38299865,0
52820000,52820000,197388,0.28745967,-0.06554243,0.384534,0
52952000,52891272,197388,0.2818736,-0.06617228,0.38283762,0
52964000,52964000,197388,0.28384945,-0.067131154,0.3788138,0
53096000,53034909,197388,0.28367275,-0.066056326,0.38253933,0
53108000,53108000,197388,0.28032547,-0.073786005,0.37961483,0
53240000,53179636,197388,0.2804618,-0.06645586,0.3846525,0
53252000,53252000,197388,0.28228796,-0.068501286,0.38231918,0
53384000,53323272,197388,0.28018934,-0.06589506,0.38362148,0
53396000,53396000,197388,0.2798781,-0.06703098,0.3855516,0
53524000,53466909,197388,0.28241453,-0.06638244,0.38536727,0
53540000,53540000,197388,0.27641955,-0.06498669,0.38296223,0
53672000,53612000,197388,0.28206077,-0.066824116,0.3838003,0
53684000,53684000,197388,0.2811692,-0.07200797,0.3867718,0
53816000,53755272,197388,0.28027272,-0.0671168,0.38274202,0
53828000,53828000,197388,0.282895,-0.063263826,0.38763997,0
53960000,53899272,197388,0.28210476,-0.06817354,0.386203,0
53972000,53972000,197388,0.27577952,-0.07544024,0.38608947,0
54104000,54043636,197388,0.28061157,-0.06541562,0.3852182,0
54116000,54116000,197388,0.27953246,-0.06396068,0.38572168,0
54244000,54187636,197388,0.2822382,-0.06321668,0.38438052,0
54260000,54260000,197388,0.273161,-0.07220462,0.38702804,0
54388000,54331272,197388,0.28093612,-0.06499048,0.38557297,0
54404000,54404000,197388,0.27932948,-0.06362997,0.38070154,0
54536000,54475636,197388,0.28054795,-0.06625551,0.38597134,0
54548000,54548000,197388,0.27567443,-0.071042314,0.38109916,0
54680000,54619272,197388,0.28203616,-0.06380679,0.38171658,0
54692000,54692000,197388,0.2781595,-0.06787669,0.3904432,0
54824000,54763636,197388,0.28274482,-0.06411979,0.38514614,0
54836000,54836000,197388,0.2833234,-0.067476906,0.38424218,0
54964000,54906909,197388,0.28142378,-0.06846383,0.38445726,0
54980000,54980000,197388,0.2851787,-0.06797053,0.38199648,0
55108000,55051636,197388,0.27890086,-0.06678299,0.3831222,0
55124000,55124000,197388,0.28264725,-0.07077214,0.386332,0
55256000,55195636,197388,0.2797086,-0.066885285,0.38560978,0
55268000,55268000,197388,0.27810794,-0.071976386,0.38525322,0
55396000,55338909,197388,0.27922723,-0.065247715,0.38253656,0
55412000,55412000,197388,0.28122562,-0.074062854,0.38577342,0
55544000,55483272,197388,0.28271106,-0.06687923,0.3844324,0
55556000,55556000,197388,0.27825797,-0.06998035,0.3823094,0
55688000,55627636,197388,0.2798794,-0.06640543,0.3828612,0
55696000,55696000,197388,0.28139192,-0.06306358,0.38021648,0
55820000,55765600,197388,0.28173238,-0.06828644,0.38291442,0
55844000,55838000,197388,0.28340378,-0.06626172,0.3825286,0
55964000,55909600,197388,0.2817871,-0.06510826,0.38462278,0
55988000,55982000,197388,0.28308237,-0.06262315,0.38233435,0
56108000,56054000,197388,0.28309336,-0.06487634,0.38410044,0
56128000,56124000,197388,0.2797443,-0.07081695,0.3835668,0
56240000,56191111,197388,0.28284046,-0.06619521,0.38375536,0
56264000,56258000,197388,0.2812274,-0.06443784,0.3870291,0
56384000,56329200,197388,0.28324637,-0.06661433,0.3860163,0
56396000,56396000,197388,0.28411394,-0.0649961,0.37686986,0
56528000,56467636,197388,0.28250432,-0.06523029,0.38400495,0
56540000,56540000,197388,0.2822209,-0.068961225,0.38214347,0
56672000,56610909,197388,0.28240398,-0.06681434,0.3836871,0
56684000,56684000,197388,0.2770854,-0.072321475,0.38063118,0
56816000,56754909,197388,0.28375217,-0.06586017,0.38160017,0
56828000,56828000,197388,0.28085965,-0.06763985,0.38448957,0
56960000,56899272,197388,0.28143635,-0.06899319,0.38590086,0
56972000,56972000,197388,0.2765594,-0.066239804,0.39300925,0
57100000,57043636,197388,0.28148857,-0.066958025,0.38448837,0
57116000,57116000,197388,0.27985054,-0.061776184,0.38317594,0
57248000,57187272,197388,0.2786717,-0.06748147,0.38351494,0
57260000,57260000,197388,0.2796417,-0.06586905,0.38249153,0
57388000,57330181,197388,0.28010273,-0.06736065,0.3843201,0
57404000,57404000,197388,0.28397354,-0.065303825,0.3876217,0
57532000,57475272,197388,0.28002596,-0.06657737,0.38388947,0
57548000,57548000,197388,0.28112984,-0.056348417,0.38059458,0
57680000,57619636,197388,0.28000262,-0.06416573,0.38688803,0
57692000,57692000,197388,0.27622753,-0.06389996,0.3845916,0
57824000,57764000,197388,0.2804486,-0.06443048,0.38662553,0
57836000,57836000,197388,0.27960554,-0.068897136,0.38334307,0
57968000,57906545,197388,0.28099784,-0.06546318,0.38648012,0
57980000,57980000,197388,0.27937815,-0.06267461,0.39096078,0
58108000,58051272,197388,0.27781,-0.06515127,0.3851292,0
58124000,58124000,197388,0.2792331,-0.06221316,0.38787165,0
58256000,58195636,197388,0.2787251,-0.0639322,0.38555536,0
58268000,58268000,197388,0.272598,-0.068488955,0.38898453,0
58400000,58338181,197388,0.2813559,-0.06617509,0.38516548,0
58412000,58412000,197388,0.2776508,-0.07168061,0.3867043,0
58544000,58483636,197388,0.2796634,-0.066945635,0.38509682,0
58556000,58556000,197388,0.2806119,-0.06507914,0.3817781,0
58688000,58627636,197388,0.28231716,-0.0677571,0.38439566,0
58700000,58700000,197388,0.27978075,-0.06139424,0.3879919,0
58832000,58771636,197388,0.28246585,-0.06475325,0.38291985,0
58844000,58844000,197388,0.28299788,-0.06040549,0.38661513,0
58972000,58915272,197388,0.2808681,-0.06526299,0.38404796,0
58988000,58988000,197388,0.28558385,-0.07388256,0.3815659,0
59120000,59059636,197388,0.2809839,-0.06760069,0.38343883,0
59132000,59132000,197388,0.28532583,-0.07251517,0.38390154,0
59260000,59203272,197388,0.28247315,-0.066350825,0.38137785,0
59276000,59276000,197388,0.2848158,-0.068567336,0.3854534,0
59408000,59348000,197388,0.28224906,-0.06511768,0.38437068,0
59416000,59416000,197388,0.28609398,-0.067805946,0.37954724,0
59540000,59486000,197388,0.28227356,-0.06638145,0.38537523,0
59564000,59558000,197388,0.2815766,-0.0651705,0.38518175,0
59684000,59629600,197388,0.28111365,-0.06553829,0.38317624,0
59708000,59702000,197388,0.28313142,-0.06416431,0.38726306,0
59828000,59772400,197388,0.28135484,-0.06423668,0.3838268,0
59852000,59844000,197388,0.28071058,-0.065825954,0.387201,0
59960000,59911555,197388,0.27879727,-0.06735566,0.3855582,0
59996000,59982666,197388,0.28001094,-0.06737335,0.38637328,0
60104000,60055111,197388,0.27901718,-0.063328184,0.38634086,0
60128000,60122000,197388,0.27846837,-0.064192325,0.3856527,0
60248000,60193600,197388,0.28019777,-0.06544798,0.38386837,0
60272000,60266000,197388,0.27877122,-0.06586645,0.38615328,0
60392000,60337200,197388,0.27976608,-0.06643828,0.386173,0
60404000,60404000,197388,0.27606538,-0.067571566,0.38769415,0
60532000,60474545,197388,0.27949825,-0.06455726,0.38613686,0
60548000,60548000,197388,0.2818892,-0.067357875,0.3820779,0
60680000,60619272,197388,0.27851218,-0.06495279,0.38535202,0
60692000,60692000,197388,0.27945894,-0.0654303,0.3850843,0
60824000,60762909,197388,0.28217772,-0.065701306,0.38618112,0
60836000,60836000,197388,0.28661087,-0.06708745,0.38509953,0
60968000,60906909,197388,0.2808783,-0.06663477,0.38724372,0
60980000,60980000,197388,0.2847258,-0.065460704,0.39266694,0
61112000,61052000,197388,0.2804328,-0.06662591,0.38556996,0
61124000,61124000,197388,0.2734451,-0.067284144,0.38724604,0
61252000,61194909,197388,0.2792052,-0.066772915,0.3858323,0
61268000,61268000,197388,0.2795366,-0.06301903,0.38505596,0
61396000,61338909,197388,0.28059632,-0.065726064,0.38318852,0
61412000,61412000,197388,0.2823219,-0.06616811,0.38818604,0
61544000,61482545,197388,0.2798856,-0.06550834,0.38277385,0
61556000,61556000,197388,0.27898037,-0.06526287,0.382673,0
61688000,61627272,197388,0.28155774,-0.06654039,0.38432825,0
61700000,61700000,197388,0.27786347,-0.0647899,0.3796339,0
61832000,61772000,197388,0.28028727,-0.06736392,0.38273787,0
61844000,61844000,197388,0.2741078,-0.06570795,0.3879409,0
61976000,61915636,197388,0.28087258,-0.06506816,0.38260975,0
61988000,61988000,197388,0.27809674,-0.066716224,0.3844342,0
62120000,62059636,197388,0.27348438,-0.06568924,0.39194456,0
62132000,62132000,197388,0.26595157,-0.063418224,0.40445924,0
62264000,62204000,197388,0.24351496,-0.06320309,0.4089997,0
62276000,62276000,197388,0.22577481,-0.061973605,0.41589844,0
62404000,62347272,197388,0.21734855,-0.05667162,0.42547432,0
62420000,62420000,197388,0.21092902,-0.058379672,0.43612945,0
62552000,62490909,197388,0.20780772,-0.058359534,0.4314486,0
62564000,62564000,197388,0.2027992,-0.06525512,0.4311684,0
62696000,62635636,197388,0.20834856,-0.062190723,0.4297037,0
62708000,62708000,197388,0.20688261,-0.060719315,0.42710263,0
62836000,62778909,197388,0.20563291,-0.063433275,0.42844245,0
62852000,62852000,197388,0.20322524,-0.05953863,0.43177262,0
62984000,62922909,197388,0.20301616,-0.06362444,0.43261448,0
62996000,62996000,197388,0.2000984,-0.06787942,0.4360617,0
63128000,63067272,197388,0.1979392,-0.06442367,0.43432537,0
63140000,63140000,197388,0.20175306,-0.062918276,0.4391186,0
63272000,63211272,197388,0.19481146,-0.06312927,0.43349418,0
63284000,63284000,197388,0.19339344,-0.06557463,0.43467733,0
63416000,63355272,197388,0.1947669,-0.06724334,0.43625876,0
63428000,63428000,197388,0.18447317,-0.07347378,0.43680838,0
63556000,63498909,197388,0.19381559,-0.06561595,0.43781,0
63572000,63572000,197388,0.18698268,-0.06079425,0.433225,0
63704000,63643272,197388,0.19188078,-0.06678005,0.43584734,0
63716000,63716000,197388,0.18469843,-0.06531801,0.43751827,0
63844000,63786545,197388,0.18931293,-0.06899311,0.43497515,0
63860000,63860000,197388,0.18515477,-0.07037312,0.4414498,0
63992000,63930909,197388,0.18754233,-0.06798491,0.43796214,0
64004000,64004000,197388,0.19087262,-0.058595125,0.43632945,0
64136000,64076000,197388,0.18829274,-0.06589822,0.43644893,0
64148000,64148000,197388,0.1864675,-0.06834089,0.43878356,0
64280000,64219636,197388,0.19021037,-0.05835832,0.43700606,0
64292000,64292000,197388,0.19380897,-0.049283378,0.43354824,0
64424000,64364000,197388,0.19242105,-0.05612628,0.43815878,0
64436000,64436000,197388,0.19375573,-0.053741638,0.43833348,0
64568000,64507272,197388,0.19490974,-0.04812536,0.43724388,0
64580000,64580000,197388,0.19524886,-0.036070235,0.4379818,0
64712000,64651636,197388,0.18234289,-0.030720327,0.44250733,0
64724000,64724000,197388,0.1700821,-0.023203528,0.4481583,0
64852000,64794909,197388,0.15541302,-0.01386449,0.45412558,0
64868000,64868000,197388,0.14715648,-0.005244593,0.45514026,0
65000000,64939636,197388,0.13925986,-0.006069644,0.46199167,0
65012000,65012000,197388,0.13678,-0.01240963,0.45745948,0
65144000,65083272,197388,0.14425674,-0.021354372,0.45919845,0
65156000,65156000,197388,0.14953583,-0.04251232,0.45315564,0
65284000,65227272,197388,0.15560457,-0.058780156,0.44979513,0
65300000,65300000,197388,0.15687077,-0.0779107,0.4442484,0
65432000,65372000,197388,0.14870584,-0.09962012,0.4457919,0
65444000,65444000,197388,0.13306409,-0.11938083,0.45006186,0
65576000,65515636,197388,0.11744726,-0.14158888,0.4440635,0
65588000,65588000,197388,0.09557124,-0.16266331,0.44078794,0
65720000,65659272,197388,0.08140887,-0.1759659,0.4384497,0
65732000,65732000,197388,0.073651664,-0.18965037,0.43438575,0
65864000,65802545,197388,0.0562702,-0.1954132,0.4367269,0
65876000,65876000,197388,0.057586562,-0.1922541,0.4371569,0
66008000,65947636,197388,0.056339603,-0.18405044,0.43936974,0
66020000,66020000,197388,0.052611414,-0.17864671,0.44704226,0
66152000,66092000,197388,0.05869851,-0.17157742,0.44635075,0
66164000,66164000,197388,0.05568741,-0.17418183,0.44255984,0
66296000,66234909,197388,0.055289786,-0.18049946,0.4427695,0
66308000,66308000,197388,0.053867415,-0.1807865,0.4359338,0
66440000,66378545,197388,0.051940136,-0.19413075,0.43882093,0
66452000,66452000,197388,0.05411868,-0.19956833,0.43523362,0
66584000,66523636,197388,0.052650496,-0.2069879,0.431914,0
66596000,66596000,197388,0.059000015,-0.224012,0.4254498,0
66724000,66666545,197388,0.05812378,-0.22675103,0.41909322,0
66740000,66740000,197388,0.0626034,-0.22589839,0.41538695,0
66868000,66810909,197388,0.06828102,-0.23383252,0.41518247,0
66884000,66884000,197388,0.07049712,-0.23560324,0.41390625,0
67016000,66956000,197388,0.07704179,-0.22716564,0.41525894,0
67028000,67028000,197388,0.07142509,-0.22294423,0.4211607,0
67160000,67099636,197388,0.07491455,-0.21633336,0.4220126,0
67172000,67172000,197388,0.06828924,-0.21145816,0.41864765,0
67304000,67243636,197388,0.06728231,-0.20502786,0.42826775,0
67316000,67316000,197388,0.06574959,-0.19539177,0.42682585,0
67448000,67387272,197388,0.058465093,-0.198985,0.43668795,0
67460000,67460000,197388,0.05221657,-0.19147523,0.43208435,0
67592000,67531636,197388,0.044054482,-0.18767464,0.43882138,0
67604000,67604000,197388,0.032546517,-0.18489325,0.44154334,0
67732000,67674909,197388,0.025407627,-0.1861338,0.44032001,0
67748000,67748000,197388,0.012616165,-0.19365446,0.44477686,0
67876000,67819272,197388,0.0030150972,-0.20049666,0.43530378,0
67892000,67892000,197388,-0.0077794464,-0.21358946,0.43125337,0
68020000,67962181,197388,-0.0047765016,-0.21455853,0.43076628,0
68036000,68036000,197388,-0.0024687883,-0.21209265,0.43233603,0
68168000,68107272,197388,0.0043647885,-0.20985064,0.43118855,0
68180000,68180000,197388,0.009142936,-0.20287795,0.43605667,0
68312000,68251272,197388,0.009844734,-0.20309213,0.43571994,0
68324000,68324000,197388,0.013652863,-0.19935346,0.43363547,0
68452000,68395636,197388,0.009914802,-0.20395179,0.43529442,0
68468000,68468000,197388,0.014420283,-0.21136272,0.43279392,0
68596000,68539272,197388,0.01101953,-0.20432217,0.4350162,0
68612000,68612000,197388,0.011223575,-0.20546445,0.4313633,0
68744000,68682909,197388,0.01275143,-0.20586617,0.4352221,0
68756000,68756000,197388,0.0110450005,-0.20476428,0.4313125,0
68888000,68827636,197388,0.013638191,-0.20688023,0.43387264,0
68900000,68900000,197388,0.018889898,-0.20696646,0.43222624,0
69032000,68971272,197388,0.014194982,-0.20477413,0.4346074,0
69044000,69044000,197388,0.013988493,-0.20757522,0.4386555,0
69176000,69116000,197388,0.01392107,-0.20646538,0.4343176,0
69188000,69188000,197388,0.019083481,-0.21177879,0.43491238,0
69316000,69259636,197388,0.013509442,-0.20630932,0.43525416,0
69332000,69332000,197388,0.014734657,-0.20761566,0.43130073,0
69464000,69403272,197388,0.013133137,-0.20560946,0.4334559,0
69476000,69476000,197388,0.006999891,-0.20788704,0.4365064,0
69608000,69547636,197388,0.014382713,-0.20771745,0.43414578,0
69620000,69620000,197388,0.01602659,-0.20446207,0.43422174,0
69748000,69690909,197388,0.015502983,-0.20692253,0.4346733,0
69764000,69764000,197388,0.01912133,-0.21216834,0.43391073,0
69896000,69836000,197388,0.017998,-0.21060285,0.43474263,0
69908000,69908000,197388,0.018935606,-0.20602064,0.4276922,0
70040000,69979636,197388,0.016372675,-0.20872173,0.43363798,0
70052000,70052000,197388,0.016926741,-0.20660624,0.43188718,0
70184000,70123272,197388,0.014658059,-0.20735367,0.4325714,0
70196000,70196000,197388,0.008201152,-0.20918232,0.43864837,0
70328000,70267636,197388,0.017756442,-0.20933507,0.43461132,0
70340000,70340000,197388,0.01521117,-0.20923708,0.43264365,0
70472000,70411272,197388,0.017097164,-0.21099895,0.43575,0
70484000,70484000,197388,0.012145737,-0.2065753,0.43119842,0
70612000,70555272,197388,0.017380008,-0.20900676,0.4350241,0
70628000,70628000,197388,0.01529552,-0.20878497,0.4316176,0
70760000,70699636,197388,0.017714184,-0.20730409,0.4328838,0
70768000,70768000,197388,0.011979025,-0.20478246,0.4212515,0
70892000,70836800,197388,0.017924279,-0.20670068,0.43267575,0
70904000,70904000,197388,0.013862704,-0.21149668,0.434064,0
71036000,70976000,197388,0.008704054,-0.20804594,0.4344832,0
71048000,71048000,197388,-0.0020907153,-0.21204549,0.43330327,0
71180000,71119272,197388,-0.016909659,-0.20679328,0.43315658,0
71192000,71192000,197388,-0.03547891,-0.2066678,0.4426531,0
71324000,71263272,197388,-0.044297338,-0.20137978,0.4337306,0
71336000,71336000,197388,-0.05124163,-0.19813462,0.44324616,0
71468000,71407272,197388,-0.056636833,-0.19928421,0.43266627,0
71480000,71480000,197388,-0.06197773,-0.20403944,0.43544307,0
71612000,71551272,197388,-0.05590596,-0.20275573,0.4328599,0
71620000,71620000,197388,-0.052070584,-0.20433898,0.42559642,0
71744000,71690000,197388,-0.05595429,-0.20396607,0.4298373,0
71768000,71762000,197388,-0.061769538,-0.20145983,0.4269244,0
71884000,71833200,197388,-0.05849101,-0.2059565,0.43106064,0
71900000,71900000,197388,-0.061238475,-0.20464468,0.42612046,0
72032000,71971636,197388,-0.06296448,-0.20539388,0.43111628,0
72044000,72044000,197388,-0.066501476,-0.20526989,0.42723152,0
72176000,72115636,197388,-0.06304592,-0.20513639,0.42893195,0
72188000,72188000,197388,-0.0592893,-0.20670855,0.4289129,0
72316000,72258909,197388,-0.06647873,-0.20672792,0.4292086,0
72328000,72328000,197388,-0.06943211,-0.20481874,0.43245986,0
72452000,72397600,197388,-0.06862062,-0.20696357,0.42766428,0
72476000,72468000,197388,-0.069006436,-0.20489869,0.43301684,0
72596000,72540000,197388,-0.068932995,-0.20692539,0.4270959,0
72620000,72612000,197388,-0.07182895,-0.21151137,0.42874616,0
72728000,72679111,197388,-0.071440645,-0.20857492,0.428161,0
72752000,72746000,197388,-0.07627924,-0.21259195,0.42395258,0
72868000,72817200,197388,-0.07480674,-0.20809944,0.42684674,0
72884000,72884000,197388,-0.07485392,-0.20791756,0.42318544,0
73016000,72955636,197388,-0.07588549,-0.20903,0.4252649,0
73024000,73024000,197388,-0.07747159,-0.20764512,0.4274543,0
73148000,73093600,197388,-0.07673243,-0.21347077,0.42257047,0
73172000,73166000,197388,-0.08288528,-0.21245271,0.4252742,0
