timestamp,timestamp_sample,time_last_fuse,device_id,observation,observation_variance,innovation,innovation_variance,test_ratio,estimator_instance,fusion_enabled,innovation_rejected,fused
3460000,3373078,0,0,-0.0008239746,12.25,-1.49110565e-05,112.440414,7.909598e-14,3,0,0,0
3516000,3435114,0,0,-0.014587402,12.25,0.012684413,112.67302,5.711903e-08,3,0,0,0
3580000,3492207,0,0,-0.0023498535,12.25,-0.0012621891,113.04558,5.637094e-10,3,0,0,0
3636000,3555238,0,0,-0.021331787,12.25,0.015778054,113.46181,8.776415e-08,3,0,0,0
3700000,3613318,0,0,-0.01965332,12.25,0.014233547,62.86484,1.2890759e-07,3,0,0,0
3756000,3675345,0,0,0.017028809,12.25,-0.02519889,63.225998,4.017234e-07,3,0,0,0
3820000,3734419,0,0,-0.0440979,12.25,0.03226113,63.734978,6.5319267e-07,3,0,0,0
3876000,3795437,0,0,-0.0019226074,12.25,-0.00900286,46.540253,6.9661404e-08,3,0,0,0
3940000,3855501,0,0,0.011383057,12.25,0.00037907436,45.583355,1.2609636e-10,3,0,0,0
3996000,3915516,0,0,0.09552002,12.25,-0.084176436,45.583355,6.217772e-06,3,0,0,0
4060000,3975571,0,0,-0.013641357,12.25,0.021414924,37.25001,4.924551e-07,3,0,0,0
4116000,4035583,4036000,0,0.09902954,12.25,-0.0924573,37.25003,9.179432e-06,3,0,0,0
4180000,4095631,4100000,0,-0.13198853,12.25,0.14065798,37.250008,2.1245276e-05,3,1,0,1
4236000,4151638,4156000,0,0.098083496,12.25,-0.18399492,20.471478,6.6148874e-05,3,1,0,1
4284000,4202339,4204000,0,-0.10852051,12.25,0.09628196,17.16968,2.1596712e-05,3,1,0,1
4348000,4263692,4268000,0,-0.04748535,12.25,0.0073030703,15.760034,1.3536732e-07,3,1,0,1
4404000,4322385,4324000,0,0.04171753,12.25,-0.083941534,14.978295,1.8817043e-05,3,1,0,1
4468000,4381735,4388000,0,-0.028686523,12.25,0.0011820048,14.481351,3.85913e-09,3,1,0,1
4516000,4431751,4436000,0,-0.16485596,12.25,0.13668975,14.13755,5.2863725e-05,3,1,0,1
4572000,4491772,4492000,0,-0.061553955,12.25,0.014572423,13.885561,6.1173046e-07,3,1,0,1
4636000,4551786,4556000,0,-0.023986816,12.25,-0.025520444,13.692951,1.9025645e-06,3,1,0,1
4692000,4611804,4612000,0,-0.04748535,12.25,-0.00012524426,13.540942,4.6336875e-11,3,1,0,1
4756000,4671816,4676000,0,0.013549805,12.25,-0.061901085,13.417932,1.1422757e-05,3,1,0,1
4812000,4731832,4732000,0,-0.019317627,12.25,-0.02453972,13.316349,1.8088979e-06,3,1,0,1
4876000,4791842,4796000,0,0.018249512,12.25,-0.061242584,13.231069,1.1338931e-05,3,1,0,1
4932000,4851855,4852000,0,-0.08972168,12.25,0.05021819,13.158444,7.6661545e-06,3,1,0,1
4996000,4911864,4916000,0,-0.019317627,12.25,-0.024305545,13.095851,1.8044174e-06,3,1,0,1
5052000,4971876,4972000,0,-0.019317627,12.25,-0.02379739,13.04138,1.7369811e-06,3,1,0,1
5116000,5031883,5036000,0,-0.1038208,12.25,0.060853127,12.993579,1.1399794e-05,3,1,0,1
5172000,5091893,5092000,0,-0.009918213,12.25,-0.036698487,12.951151,4.1595654e-06,3,1,0,1
5236000,5151899,5156000,0,-0.056854248,12.25,0.010917764,12.91346,3.6921966e-07,3,1,0,1
5292000,5207907,5212000,0,0.008850098,12.25,-0.0565435,12.879644,9.929365e-06,3,1,0,1
5340000,5259911,5260000,0,0.032348633,12.25,-0.07837187,12.849126,1.9120833e-05,3,1,0,1
5404000,5319921,5324000,0,-0.05218506,12.25,0.009927746,12.821361,3.0748728e-07,3,1,0,1
5460000,5379923,5380000,0,-0.15075684,12.25,0.106827065,12.796236,3.5673056e-05,3,1,0,1
5524000,5437932,5444000,0,-0.0005187988,12.25,-0.049405884,12.773357,7.643852e-06,3,1,0,1
5580000,5499934,5500000,0,-0.075653076,12.25,0.028504603,12.751999,2.5486586e-06,3,1,0,1
5644000,5558942,5564000,0,-0.08035278,12.25,0.030750986,12.7327,2.9706916e-06,3,1,0,1
5700000,5619943,5620000,0,-0.03338623,12.25,-0.01861807,12.714855,1.0904805e-06,3,1,0,1
5764000,5679950,5684000,0,0.032348633,12.25,-0.08519157,12.69844,2.2861403e-05,3,1,0,1
5820000,5739951,5740000,0,0.07928467,12.25,-0.12786703,12.682612,5.156659e-05,3,1,0,1
5884000,5799957,5804000,0,-0.042785645,12.25,-0.0027878284,12.668441,2.4539682e-08,3,1,0,1
5940000,5859958,5860000,0,-0.23059082,12.25,0.18386972,12.655185,0.00010685921,3,1,0,1
6004000,5918963,5924000,0,-0.04748535,12.25,-0.0037603416,12.642226,4.473949e-08,3,1,0,1
6060000,5975964,5980000,0,-0.061553955,12.25,0.00930075,12.630613,2.7395012e-07,3,1,0,1
6108000,6027967,6028000,0,-0.05218506,12.25,-0.001358252,12.619658,5.847539e-09,3,1,0,1
6172000,6087969,6092000,0,-0.04748535,12.25,-0.0074256994,12.609573,1.7491794e-07,3,1,0,1
6228000,6147972,6148000,0,-0.04748535,12.25,-0.0054229833,12.599157,9.336735e-08,3,1,0,1
6292000,6207974,6212000,0,-0.0005187988,12.25,-0.053494617,12.5901985,9.091752e-06,3,1,0,1
6348000,6267976,6268000,0,0.008850098,12.25,-0.06258622,12.581688,1.2453129e-05,3,1,0,1
6412000,6327977,6332000,0,-0.08502197,12.25,0.03457545,12.572812,3.8033236e-06,3,1,0,1
6468000,6386645,6388000,0,0.03704834,12.25,-0.089349315,12.565174,2.5414052e-05,3,1,0,1
6532000,6447981,6452000,0,-0.019317627,12.25,-0.031920698,12.558072,3.245501e-06,3,1,0,1
6588000,6506648,6508000,0,-0.08972168,12.25,0.03820427,12.551271,4.651533e-06,3,1,0,1
6652000,6567983,6572000,0,0.008850098,12.25,-0.05956773,12.543815,1.1314945e-05,3,1,0,1
6708000,6627985,6628000,0,-0.099121094,12.25,0.0489201,12.537648,7.635168e-06,3,1,0,1
6772000,6687986,6692000,0,-0.03338623,12.25,-0.018954627,12.531927,1.1467602e-06,3,1,0,1
6828000,6746653,6748000,0,-0.01461792,12.25,-0.035615094,12.525213,4.0508207e-06,3,1,0,1
6892000,6807988,6812000,0,-0.075653076,12.25,0.02529823,12.519993,2.044731e-06,3,1,0,1
6948000,6867989,6868000,0,-0.06625366,12.25,0.014508508,12.514943,6.727856e-07,3,1,0,1
7012000,6927990,6932000,0,0.027648926,12.25,-0.080636755,12.510277,2.0790223e-05,3,1,0,1
7068000,6986657,6988000,0,0.008850098,12.25,-0.058586292,12.504403,1.0979664e-05,3,1,0,1
7132000,7047991,7052000,0,-0.038085938,12.25,-0.011176381,12.500112,3.9971326e-07,3,1,0,1
7188000,7107992,7108000,0,-0.019317627,12.25,-0.030385345,12.49593,2.9554237e-06,3,1,0,1
7252000,7167992,7172000,0,-0.042785645,12.25,-0.0050465837,12.490726,8.155813e-08,3,1,0,1
7308000,7227993,7228000,0,-0.005218506,12.25,-0.04307502,12.486858,5.943713e-06,3,1,0,1
7372000,7285994,7292000,0,0.032348633,12.25,-0.08045586,12.4833,2.0741776e-05,3,1,0,1
7428000,7346660,7348000,0,-0.038085938,12.25,-0.00907011,12.479807,2.6368e-07,3,1,0,1
7492000,7407995,7412000,0,0.008850098,12.25,-0.054730963,12.475147,9.604626e-06,3,1,0,1
7548000,7467995,7468000,0,-0.042785645,12.25,-0.0025887936,12.471895,2.1494253e-08,3,1,0,1
7612000,7525995,7532000,0,-0.03338623,12.25,-0.012505252,12.468927,5.0166733e-07,3,1,0,1
7660000,7575996,7580000,0,-0.019317627,12.25,-0.025336754,12.464421,2.0601071e-06,3,1,0,1
7716000,7635996,7636000,0,-0.1038208,12.25,0.059219956,12.461525,1.125706e-05,3,1,0,1
7780000,7695996,7700000,0,-0.023986816,12.25,-0.022059068,12.45889,1.5622659e-06,3,1,0,1
7836000,7755997,7756000,0,-0.009918213,12.25,-0.036107257,12.456269,4.1865956e-06,3,1,0,1
7900000,7815997,7820000,0,-0.12728882,12.25,0.08261329,12.452384,2.1923372e-05,3,1,0,1
7956000,7874663,7876000,0,-0.023986816,12.25,-0.02238562,12.449922,1.6100213e-06,3,1,0,1
8020000,7935997,7940000,0,-0.09442139,12.25,0.04801921,12.447705,7.4097024e-06,3,1,0,1
8076000,7995998,7996000,0,-0.03338623,12.25,-0.012943629,12.443979,5.3853364e-07,3,1,0,1
8140000,8055998,8060000,0,0.008850098,12.25,-0.055366065,12.441889,9.8551e-06,3,1,0,1
8196000,8114664,8116000,0,-0.056854248,12.25,0.0108453445,12.439787,3.7821067e-07,3,1,0,1
8260000,8175998,8180000,0,-0.07095337,12.25,0.024377305,12.437921,1.9111008e-06,3,1,0,1
8316000,8235998,8236000,0,-0.099121094,12.25,0.052994363,12.434445,9.034266e-06,3,1,0,1
8380000,8295999,8300000,0,0.027648926,12.25,-0.07497893,12.432675,1.8087307e-05,3,1,0,1
8436000,8353332,8356000,0,-0.061553955,12.25,0.014912739,12.430878,7.156045e-07,3,1,0,1
8500000,8413999,8420000,0,-0.21179199,12.25,0.16586553,12.427746,8.854824e-05,3,1,0,1
8548000,8463999,8468000,0,-0.019317627,12.25,-0.029301405,12.425915,2.763812e-06,3,1,0,1
8604000,8521332,8524000,0,-0.06625366,12.25,0.017686985,12.424287,1.0071547e-06,3,1,0,1
8668000,8581999,8588000,0,-0.06625366,12.25,0.017023973,12.422873,9.3316794e-07,3,1,0,1
8716000,8631999,8636000,0,-0.08035278,12.25,0.031717937,12.419699,3.240103e-06,3,1,0,1
8772000,8691999,8692000,0,-0.061553955,12.25,0.012208957,12.41822,4.801289e-07,3,1,0,1
8836000,8751999,8756000,0,0.04260254,12.250812,-0.08688213,13.250825,2.2786518e-05,3,1,0,1
8892000,8812000,8812000,0,-0.06539917,12.251758,0.027377076,13.176352,2.2753015e-06,3,1,0,1
8956000,8870000,8876000,0,0.06137085,12.25284,-0.10154102,13.112634,3.145235e-05,3,1,0,1
9004000,8920000,8924000,0,-0.009094238,12.253651,-0.024614532,13.057158,1.8560705e-06,3,1,0,1
9060000,8980000,8980000,0,-0.07949829,12.254596,0.04707096,13.00879,6.8128556e-06,3,1,0,1
9124000,9040000,9044000,0,-0.04663086,12.255676,0.011355169,12.966274,3.9776998e-07,3,1,0,1
9180000,9098666,9100000,0,-0.05130005,12.25662,0.015175376,12.928449,7.1251253e-07,3,1,0,1
9244000,9158000,9164000,0,-0.14990234,12.257698,0.10882871,12.646936,3.745947e-05,3,1,0,1
9300000,9218666,9220000,0,-0.046569824,12.25864,0.001962021,12.6360655,1.2185838e-08,3,1,0,1
9364000,9280000,9284000,0,-0.03717041,12.259716,-0.0075680017,12.626013,1.8144968e-07,3,1,0,1
9420000,9338666,9340000,0,0.019165039,12.260655,-0.063856676,12.616536,1.2928035e-05,3,1,0,1
9484000,9400000,9404000,0,0.00033569336,12.261728,-0.043467782,12.607849,5.9945137e-06,3,1,0,1
9540000,9458666,9460000,0,-0.032562256,12.262664,-0.009373404,12.599407,2.78936e-07,3,1,0,1
9604000,9520000,9524000,0,-0.009094238,12.263733,-0.032841172,12.510769,3.4483653e-06,3,1,0,1
9660000,9580000,9580000,0,-0.07952881,12.264664,0.038067926,12.507061,4.6347163e-06,3,1,0,1
9724000,9640000,9644000,0,0.06604004,12.265728,-0.108431384,12.503742,3.7612306e-05,3,1,0,1
9780000,9700000,9700000,0,0.023651123,12.266655,-0.06394593,12.500262,1.3084787e-05,3,1,0,1
9844000,9758000,9764000,0,-0.05154419,12.2677145,0.01231391,12.497306,4.853282e-07,3,1,0,1
9892000,9808000,9812000,0,0.03768921,12.2685,-0.07722329,12.494164,1.909191e-05,3,1,0,1
9948000,9866666,9868000,0,-0.004699707,12.26942,-0.033418894,12.491114,3.5763744e-06,3,1,0,1
10012000,9926000,9932000,0,-0.0657959,12.270472,0.029036406,12.449588,2.708886e-06,3,1,0,1
10060000,9976000,9980000,0,-0.06573486,12.271249,0.028553799,12.448065,2.6199073e-06,3,1,0,1
10116000,10036000,10036000,0,0.02822876,12.272159,-0.06582172,12.4468155,1.3923238e-05,3,1,0,1
10180000,10094000,10100000,0,0.018707275,12.273201,-0.055369195,12.445559,9.853306e-06,3,1,0,1
10228000,10144000,10148000,0,-0.1081543,12.27397,0.07228556,12.444259,1.6795544e-05,3,1,0,1
10284000,10204000,10204000,0,0.0140686035,12.27487,-0.050873417,12.443231,8.319719e-06,3,1,0,1
10348000,10264000,10268000,0,-0.009490967,12.275902,-0.026506696,12.442485,2.2587287e-06,3,1,0,1
10404000,10322666,10324000,0,-0.13162231,12.2767935,0.0964248,12.418002,2.9949239e-05,3,1,0,1
10468000,10384000,10388000,0,0.06109619,12.277818,-0.09726163,12.417867,3.0471658e-05,3,1,0,1
10524000,10444000,10444000,0,-0.042419434,12.278702,0.0074521787,12.417599,1.7889117e-07,3,1,0,1
10588000,10504000,10508000,0,-0.03768921,12.279717,0.0025972314,12.417179,2.1729932e-08,3,1,0,1
10644000,10564000,10564000,0,-0.032989502,12.280593,-0.0020623952,12.416973,1.3702128e-08,3,1,0,1
10708000,10622000,10628000,0,-0.06585693,12.281599,0.030958556,12.417026,3.0874776e-06,3,1,0,1
10764000,10682666,10684000,0,-0.042297363,12.282465,0.007240396,12.416926,1.6887701e-07,3,1,0,1
10828000,10742000,10748000,0,0.03286743,12.283462,-0.06835979,12.400941,1.5073248e-05,3,1,0,1
10876000,10792000,10796000,0,0.037384033,12.284183,-0.07208131,12.400942,1.6759099e-05,3,1,0,1
10932000,10850666,10852000,0,-0.019165039,12.285034,-0.014644403,12.401184,6.917357e-07,3,1,0,1
10996000,10912000,10916000,0,0.037139893,12.286017,-0.07103473,12.4011545,1.6275686e-05,3,1,0,1
11052000,10972000,10972000,0,-0.11331177,12.286859,0.08034676,12.401423,2.0822134e-05,3,1,0,1
11116000,11032000,11036000,0,-0.019165039,12.287831,-0.014174592,12.401945,6.4802435e-07,3,1,0,1
11172000,11090666,11092000,0,-0.06616211,12.288662,0.033327885,12.402294,3.5823953e-06,3,1,0,1
11236000,11150000,11156000,0,0.009063721,12.289623,-0.043023363,12.390871,5.9753984e-06,3,1,0,1
11284000,11200000,11204000,0,-0.028656006,12.290308,-0.004608419,12.391168,6.855697e-08,3,1,0,1
11340000,11260000,11260000,0,-0.122558594,12.291123,0.08979064,12.391705,2.6025024e-05,3,1,0,1
11404000,11318000,11324000,0,0.056152344,12.2920685,-0.09017634,12.39186,2.624875e-05,3,1,0,1
11452000,11368000,11372000,0,0.037078857,12.292736,-0.06996839,12.392188,1.5802134e-05,3,1,0,1
11508000,11425333,11428000,0,-0.061767578,12.293535,0.029959187,12.39276,2.8970233e-06,3,1,0,1
11556000,11476000,11476000,0,-0.010040283,12.294194,-0.021534622,12.393142,1.496763e-06,3,1,0,1
11620000,11535000,11540000,0,0.055603027,12.295117,-0.08964729,12.384494,2.5957095e-05,3,1,0,1
11676000,11596000,11596000,0,-0.019836426,12.2959,-0.01297472,12.385176,5.436931e-07,3,1,0,1
11740000,11656000,11660000,0,-0.024597168,12.296811,-0.007367499,12.3861065,1.7529334e-07,3,1,0,1
11796000,11716000,11716000,0,-0.029327393,12.297581,-0.0018599369,12.386849,1.117109e-08,3,1,0,1
11860000,11776000,11780000,0,-0.057495117,12.29848,0.025392868,12.387058,2.0821658e-06,3,1,0,1
11916000,11836000,11836000,0,0.017700195,12.299236,-0.04926254,12.387794,7.836094e-06,3,1,0,1
11980000,11896000,11900000,0,-0.066986084,12.300122,0.036643624,12.388788,4.3353884e-06,3,1,0,1
12036000,11956000,11956000,0,-0.06213379,12.300866,0.028860062,12.38165,2.6907662e-06,3,1,0,1
12100000,12016000,12020000,0,-0.019744873,12.301739,-0.012923185,12.38267,5.3949174e-07,3,1,0,1
12156000,12076000,12076000,0,0.045898438,12.302469,-0.07778811,12.383499,1.954533e-05,3,1,0,1
12220000,12134000,12140000,0,-0.010772705,12.3033285,-0.019833082,12.384587,1.2704538e-06,3,1,0,1
12276000,12196000,12196000,0,-0.071899414,12.304045,0.04034707,12.384568,5.2577884e-06,3,1,0,1
12340000,12256000,12260000,0,-0.0670166,12.304891,0.03596765,12.385638,4.1779745e-06,3,1,0,1
12396000,12316000,12316000,0,0.06460571,12.3055935,-0.09522109,12.386506,2.928043e-05,3,1,0,1
12460000,12376000,12380000,0,-0.06259155,12.306426,0.030783597,12.380749,3.0616238e-06,3,1,0,1
12516000,12436000,12436000,0,-0.043670654,12.307116,0.012321051,12.381622,4.9043103e-07,3,1,0,1
12580000,12495000,12500000,0,-0.057678223,12.307934,0.026995244,12.382755,2.354058e-06,3,1,0,1
12636000,12556000,12556000,0,-0.057556152,12.308609,0.027383938,12.383683,2.4221554e-06,3,1,0,1
12700000,12616000,12620000,0,-0.09030151,12.309413,0.05897808,12.383865,1.123531e-05,3,1,0,1
12756000,12676000,12676000,0,-0.057159424,12.310074,0.026150472,12.384769,2.2086717e-06,3,1,0,1
12820000,12736000,12740000,0,-0.08050537,12.310864,0.049195018,12.380719,7.819092e-06,3,1,0,1
12876000,12796000,12796000,0,-0.052093506,12.311512,0.01939721,12.380745,1.215603e-06,3,1,0,1
12940000,12854000,12860000,0,-0.042633057,12.312287,0.010591768,12.381892,3.624181e-07,3,1,0,1
12996000,12916000,12916000,0,0.102996826,12.312921,-0.13441084,12.382835,5.8359085e-05,3,1,0,1
13060000,12976000,12980000,0,-0.04324341,12.313683,0.013419632,12.384048,5.8167257e-07,3,1,0,1
13116000,13032000,13036000,0,-0.061950684,12.3143015,0.030732282,12.383943,3.0506378e-06,3,1,0,1
13164000,13084000,13084000,0,-0.12753296,12.314779,0.096724786,12.384643,3.021705e-05,3,1,0,1
13228000,13144000,13148000,0,-0.014343262,12.315521,-0.01720535,12.381262,9.563615e-07,3,1,0,1
13284000,13201333,13204000,0,-0.06137085,12.316121,0.028746262,12.381241,2.6696762e-06,3,1,0,1
13332000,13252000,13252000,0,0.17822266,12.31658,-0.21045509,12.381942,0.00014308367,3,1,0,1
13396000,13312000,13316000,0,0.017456055,12.317303,-0.047803264,12.383137,7.3814963e-06,3,1,0,1
13452000,13372000,13372000,0,0.059448242,12.3178835,-0.08881775,12.384121,2.5479701e-05,3,1,0,1
13516000,13432000,13436000,0,-0.039642334,12.318593,0.009499531,12.384227,2.9147105e-07,3,1,0,1
13572000,13492000,13492000,0,0.03555298,12.3191595,-0.06510113,12.385179,1.3687837e-05,3,1,0,1
13636000,13552000,13556000,0,-0.068115234,12.319855,0.038398955,12.382289,4.7631897e-06,3,1,0,1
13692000,13612000,13612000,0,-0.10076904,12.320407,0.069698736,12.382217,1.5693195e-05,3,1,0,1
13756000,13672000,13676000,0,-0.10507202,12.321089,0.074354574,12.383397,1.7858114e-05,3,1,0,1
13812000,13732000,13732000,0,-0.0154418945,12.321627,-0.015045676,12.384362,7.3115547e-07,3,1,0,1
13876000,13791000,13796000,0,-0.043701172,12.322294,0.013998669,12.385603,6.328726e-07,3,1,0,1
13932000,13852000,13852000,0,-0.16567993,12.322819,0.13469633,12.385401,5.8595127e-05,3,1,0,1
13996000,13912000,13916000,0,-0.042816162,12.323472,0.010614697,12.382859,3.639605e-07,3,1,0,1
14052000,13972000,13972000,0,-0.014587402,12.323982,-0.017105326,12.383832,9.4507806e-07,3,1,0,1
14116000,14031000,14036000,0,-0.103881836,12.324622,0.07129043,12.383936,1.6415866e-05,3,1,0,1
14172000,14092000,14092000,0,-0.07058716,12.325119,0.038169585,12.384876,4.705472e-06,3,1,0,1
14236000,14152000,14156000,0,0.018859863,12.325745,-0.05083325,12.3860855,8.344911e-06,3,1,0,1
14292000,14212000,14212000,0,0.06552124,12.326228,-0.09663935,12.387077,3.0157764e-05,3,1,0,1
14356000,14272000,14276000,0,0.027374268,12.32684,-0.059180874,12.387057,1.1309792e-05,3,1,0,1
14412000,14332000,14332000,0,0.13967896,12.32731,-0.17188768,12.384554,9.542652e-05,3,1,0,1
14476000,14391000,14396000,0,0.07287598,12.327909,-0.10366078,12.385768,3.4702916e-05,3,1,0,1
14532000,14452000,14452000,0,0.025299072,12.328365,-0.05673877,12.385563,1.0396905e-05,3,1,0,1
14596000,14512000,14516000,0,0.0014648438,12.328951,-0.03204841,12.386737,3.3167757e-06,3,1,0,1
14652000,14572000,14572000,0,0.099853516,12.329394,-0.12977815,12.387693,5.4384192e-05,3,1,0,1
14716000,14630000,14636000,0,-0.07470703,12.3299675,0.045998428,12.38893,6.8314384e-06,3,1,0,1
14772000,14688000,14692000,0,-0.06970215,12.330398,0.03967291,12.388596,5.0818994e-06,3,1,0,1
14820000,14738666,14740000,0,-0.074157715,12.330687,0.04337096,12.386061,6.0746997e-06,3,1,0,1
14884000,14800000,14804000,0,-0.059783936,12.331243,0.029339664,12.387259,2.7796816e-06,3,1,0,1
14940000,14858666,14860000,0,-0.07369995,12.331656,0.04233212,12.387009,5.7867346e-06,3,1,0,1
15004000,14920000,14924000,0,-0.054626465,12.332199,0.023516968,12.388165,1.7857293e-06,3,1,0,1
15060000,14980000,14980000,0,-0.026306152,12.332601,-0.004505975,12.389105,6.555376e-08,3,1,0,1
15124000,15040000,15044000,0,-0.049835205,12.333132,0.019469222,12.390325,1.2236987e-06,3,1,0,1
15180000,15100000,15100000,0,-0.0262146,12.33352,-0.005039979,12.389947,8.200644e-08,3,1,0,1
15244000,15160000,15164000,0,-0.09667969,12.334039,0.064904675,12.388082,1.3602162e-05,3,1,0,1
15300000,15218666,15220000,0,-0.021118164,12.3344145,-0.010554358,12.389015,3.5965564e-07,3,1,0,1
15364000,15280000,15284000,0,-0.12918091,12.334921,0.096676245,12.388951,3.017623e-05,3,1,0,1
15420000,15340000,15340000,0,0.017028809,12.335285,-0.049560107,12.389849,7.9297315e-06,3,1,0,1
15484000,15400000,15404000,0,-0.091278076,12.33578,0.0594355,12.391023,1.1403672e-05,3,1,0,1
15540000,15460000,15460000,0,-0.058013916,12.336133,0.026331626,12.391973,2.2380764e-06,3,1,0,1
15604000,15518000,15524000,0,-0.13296509,12.336616,0.09903941,12.38891,3.166963e-05,3,1,0,1
15652000,15568000,15572000,0,-0.113464355,12.336822,0.07945717,12.389554,2.0383113e-05,3,1,0,1
15708000,15628000,15628000,0,-0.084747314,12.337159,0.050817624,12.390467,8.336832e-06,3,1,0,1
15772000,15688000,15692000,0,-0.023345947,12.337627,-0.011598323,12.390365,4.3427644e-07,3,1,0,1
15828000,15746666,15748000,0,3.0517578e-05,12.3379545,-0.034516804,12.391239,3.845975e-06,3,1,0,1
15892000,15808000,15812000,0,0.08898926,12.338411,-0.122803986,12.392391,4.867767e-05,3,1,0,1
15948000,15866666,15868000,0,-0.04336548,12.338727,0.010571163,12.393318,3.6067658e-07,3,1,0,1
16012000,15926000,15932000,0,-0.1184082,12.339173,0.084198736,12.390358,2.2886918e-05,3,1,0,1
16060000,15976000,15980000,0,-0.019195557,12.339343,-0.014989957,12.390978,7.2536267e-07,3,1,0,1
16116000,16036000,16036000,0,-0.038116455,12.339645,0.004396867,12.391869,6.240363e-08,3,1,0,1
16180000,16096000,16100000,0,-0.07095337,12.340078,0.03770233,12.393043,4.5879474e-06,3,1,0,1
16236000,16154666,16156000,0,-0.14108276,12.34037,0.106802866,12.392583,3.681832e-05,3,1,0,1
16300000,16214000,16220000,0,0.038116455,12.340793,-0.07229489,12.393713,1.6868395e-05,3,1,0,1
16348000,16264000,16268000,0,-0.07977295,12.340939,0.046341322,12.394358,6.930631e-06,3,1,0,1
16404000,16324000,16324000,0,-0.004333496,12.341218,-0.030901827,12.39125,3.0825718e-06,3,1,0,1
16468000,16384000,16388000,0,0.061187744,12.341628,-0.0957586,12.392337,2.9598003e-05,3,1,0,1
16524000,16444000,16444000,0,-0.0897522,12.341897,0.05606704,12.393204,1.0145925e-05,3,1,0,1
16588000,16504000,16508000,0,-0.061157227,12.342297,0.027818363,12.394355,2.4974638e-06,3,1,0,1
16644000,16562666,16564000,0,-0.060943604,12.342556,0.026406106,12.393864,2.2504119e-06,3,1,0,1
16708000,16624000,16628000,0,-0.07015991,12.342946,0.036158342,12.39497,4.2192137e-06,3,1,0,1
16764000,16681333,16684000,0,-0.055786133,12.343196,0.02225186,12.395851,1.5977772e-06,3,1,0,1
16812000,16732000,16732000,0,0.0054016113,12.343307,-0.04089788,12.392538,5.398851e-06,3,1,0,1
16876000,16792000,16796000,0,-0.121673584,12.343685,0.0870696,12.393601,2.4467838e-05,3,1,0,1
16932000,16852000,16852000,0,-0.14447021,12.343924,0.11018439,12.394445,3.9180773e-05,3,1,0,1
16996000,16911000,16916000,0,-0.07324219,12.344294,0.03929833,12.395575,4.9835808e-06,3,1,0,1
17052000,16972000,16972000,0,0.06793213,12.344522,-0.10353845,12.395056,3.459512e-05,3,1,0,1
17116000,17032000,17036000,0,0.0014038086,12.344883,-0.03577827,12.396139,4.130591e-06,3,1,0,1
17172000,17092000,17092000,0,0.07156372,12.345103,-0.10504734,12.3969965,3.5605215e-05,3,1,0,1
17236000,17151000,17156000,0,0.0050354004,12.345455,-0.039956193,12.394229,5.15239e-06,3,1,0,1
17292000,17212000,17212000,0,-0.09387207,12.345667,0.05981791,12.395027,1.1547155e-05,3,1,0,1
17356000,17272000,17276000,0,-0.06994629,12.34601,0.036500968,12.396106,4.2991587e-06,3,1,0,1
17412000,17332000,17332000,0,-0.10723877,12.346212,0.07439369,12.396957,1.7857352e-05,3,1,0,1
17476000,17391000,17396000,0,-0.036224365,12.346547,0.001548335,12.396651,7.735448e-09,3,1,0,1
17532000,17452000,17452000,0,-0.012756348,12.346742,-0.021205857,12.397464,1.4509045e-06,3,1,0,1
17596000,17512000,17516000,0,-0.088012695,12.347069,0.0543009,12.396047,9.514607e-06,3,1,0,1
17652000,17572000,17572000,0,-0.06881714,12.347255,0.033359524,12.395559,3.59115e-06,3,1,0,1
17716000,17631000,17636000,0,-0.021575928,12.347573,-0.0132392235,12.396587,5.655655e-07,3,1,0,1
17772000,17692000,17692000,0,-0.13903809,12.347752,0.10494737,12.397394,3.5536345e-05,3,1,0,1
17836000,17752000,17756000,0,0.030792236,12.3480625,-0.06459364,12.398488,1.3460799e-05,3,1,0,1
17892000,17812000,17812000,0,0.04437256,12.348233,-0.079243176,12.397887,2.0259844e-05,3,1,0,1
17956000,17872000,17876000,0,-0.0032348633,12.3485365,-0.030684758,12.398936,3.0375327e-06,3,1,0,1
18012000,17928000,17932000,0,0.06225586,12.3487,-0.0960964,12.397289,2.9795281e-05,3,1,0,1
18060000,17980000,17980000,0,0.023925781,12.348725,-0.05858325,12.396526,1.1074061e-05,3,1,0,1
18124000,18040000,18044000,0,-0.061035156,12.349021,0.027186155,12.397533,2.3846262e-06,3,1,0,1
18180000,18100000,18100000,0,-0.042053223,12.349176,0.008656427,12.398319,2.417545e-07,3,1,0,1
18244000,18160000,18164000,0,-0.103027344,12.349464,0.07027907,12.399392,1.5933516e-05,3,1,0,1
18300000,18218666,18220000,0,-0.0836792,12.349613,0.049305074,12.398776,7.842678e-06,3,1,0,1
18364000,18280000,18284000,0,0.1138916,12.349895,-0.14773473,12.399804,7.040611e-05,3,1,0,1
18420000,18338666,18340000,0,-0.046936035,12.350036,0.013846282,12.398193,6.185402e-07,3,1,0,1
18484000,18400000,18404000,0,0.042419434,12.35031,-0.07699987,12.397904,1.9128978e-05,3,1,0,1
18540000,18460000,18460000,0,-0.028625488,12.350445,-0.0050058775,12.398646,8.084369e-08,3,1,0,1
18604000,18518000,18524000,0,-0.03805542,12.350713,0.005181674,12.399672,8.661437e-08,3,1,0,1
18652000,18568000,18572000,0,0.08874512,12.350706,-0.121041395,12.400208,4.7260557e-05,3,1,0,1
18708000,18628000,18628000,0,0.012634277,12.350835,-0.04607676,12.399578,6.8488393e-06,3,1,0,1
18772000,18688000,18692000,0,-0.025268555,12.351096,-0.0072204843,12.400587,1.6817073e-07,3,1,0,1
18828000,18748000,18748000,0,-0.0018615723,12.351218,-0.030145869,12.398997,2.9317641e-06,3,1,0,1
18892000,18808000,18812000,0,-0.13827515,12.351474,0.104946956,12.398695,3.5532332e-05,3,1,0,1
18948000,18868000,18868000,0,-0.13272095,12.351589,0.09967807,12.399419,3.20522e-05,3,1,0,1
19012000,18928000,18932000,0,-0.005126953,12.351839,-0.027480368,12.400425,2.4359508e-06,3,1,0,1
19068000,18988000,18988000,0,-0.061676025,12.351949,0.029908162,12.401204,2.8851978e-06,3,1,0,1
19132000,19048000,19052000,0,-0.00039672852,12.352192,-0.033084538,12.400801,3.5306969e-06,3,1,0,1
19188000,19106666,19108000,0,0.04626465,12.352297,-0.078892365,12.401541,2.0074944e-05,3,1,0,1
19252000,19166000,19172000,0,-0.01071167,12.352534,-0.021168295,12.400225,1.4454471e-06,3,1,0,1
19300000,19216000,19220000,0,-0.06253052,12.352498,0.031395663,12.400741,3.1794475e-06,3,1,0,1
19356000,19274666,19276000,0,-0.02468872,12.352597,-0.008289628,12.400103,2.216689e-07,3,1,0,1
19420000,19336000,19340000,0,-0.015380859,12.35283,-0.016756922,12.401091,9.057089e-07,3,1,0,1
19476000,19396000,19396000,0,0.012634277,12.352923,-0.043978676,12.401854,6.2381773e-06,3,1,0,1
19540000,19454000,19460000,0,0.026367188,12.35315,-0.059139155,12.401441,1.1280753e-05,3,1,0,1
19596000,19514666,19516000,0,-0.025756836,12.353239,-0.006106075,12.402164,1.2025046e-07,3,1,0,1
19660000,19576000,19580000,0,-0.08685303,12.353461,0.055228733,12.4008665,9.838709e-06,3,1,0,1
19716000,19636000,19636000,0,-0.044158936,12.353544,0.01298921,12.401626,5.4418535e-07,3,1,0,1
19780000,19696000,19700000,0,-0.14730835,12.353762,0.1147165,12.401217,4.2447045e-05,3,1,0,1
19836000,19756000,19756000,0,-0.047790527,12.35384,0.015356835,12.401939,7.6063066e-07,3,1,0,1
19900000,19816000,19820000,0,-0.06173706,12.354052,0.029944327,12.402949,2.8917725e-06,3,1,0,1
19956000,19873333,19876000,0,0.055877686,12.354126,-0.08928487,12.402255,2.571077e-05,3,1,0,1
20004000,19924000,19924000,0,-0.07165527,12.354062,0.038830113,12.400463,4.863617e-06,3,1,0,1
20068000,19984000,19988000,0,-0.024353027,12.354271,-0.007897399,12.401432,2.0116683e-07,3,1,0,1
20124000,20044000,20044000,0,-0.18875122,12.354341,0.1571554,12.402177,7.96564e-05,3,1,0,1
20188000,20103000,20108000,0,0.00036621094,12.354545,-0.033868644,12.401761,3.699749e-06,3,1,0,1
20244000,20164000,20164000,0,0.06112671,12.3546095,-0.09395793,12.402468,2.847205e-05,3,1,0,1
20308000,20224000,20228000,0,-0.019470215,12.354809,-0.012316529,12.403464,4.892081e-07,3,1,0,1
20364000,20280000,20284000,0,0.04147339,12.35487,-0.07455596,12.402763,1.7926946e-05,3,1,0,1
20428000,20341000,20348000,0,0.054901123,12.355064,-0.08801298,12.401479,2.4985036e-05,3,1,0,1
20484000,20404000,20404000,0,0.19033813,12.355121,-0.22255072,12.402184,0.00015974227,3,1,0,1
20548000,20464000,20468000,0,-0.046325684,12.355311,0.01563354,12.403177,7.882096e-07,3,1,0,1
20604000,20524000,20524000,0,-0.11193848,12.355363,0.07981077,12.40248,2.0543499e-05,3,1,0,1
20668000,20582000,20588000,0,-0.06430054,12.35555,0.03252703,12.403432,3.411984e-06,3,1,0,1
20724000,20644000,20644000,0,-0.017089844,12.355598,-0.014228873,12.404159,6.528805e-07,3,1,0,1
20788000,20704000,20708000,0,-0.04537964,12.355781,0.012811799,12.403693,5.293333e-07,3,1,0,1
20844000,20764000,20764000,0,-0.054626465,12.355824,0.02217377,12.402163,1.5857751e-06,3,1,0,1
20908000,20823000,20828000,0,-0.045074463,12.356004,0.013246916,12.403113,5.65925e-07,3,1,0,1
20964000,20880000,20884000,0,0.2508545,12.356044,-0.28208366,12.403838,0.00025660187,3,1,0,1
21012000,20932000,20932000,0,-0.05206299,12.355948,0.020365387,12.402876,1.3375898e-06,3,1,0,1
21076000,20992000,20996000,0,0.023254395,12.356125,-0.054344855,12.403814,9.524048e-06,3,1,0,1
21132000,21052000,21052000,0,0.06036377,12.356163,-0.090571195,12.404528,2.6452088e-05,3,1,0,1
21196000,21112000,21116000,0,0.05960083,12.356337,-0.09164636,12.401892,2.7089593e-05,3,1,0,1
21252000,21172000,21172000,0,-0.091430664,12.356371,0.060385477,12.402546,1.1760185e-05,3,1,0,1
21316000,21232000,21236000,0,0.12506104,12.356541,-0.15558164,12.403484,7.8060795e-05,3,1,0,1
21372000,21290666,21292000,0,-0.078186035,12.356571,0.048954263,12.404198,7.728093e-06,3,1,0,1
21436000,21352000,21356000,0,-0.10122681,12.356738,0.070300095,12.403735,1.5937469e-05,3,1,0,1
21492000,21409333,21412000,0,0.059020996,12.356766,-0.08956341,12.404411,2.586694e-05,3,1,0,1
21540000,21460000,21460000,0,0.058258057,12.356658,-0.08789326,12.404856,2.4910329e-05,3,1,0,1
21604000,21520000,21524000,0,-0.07397461,12.356822,0.042201735,12.402237,5.7440816e-06,3,1,0,1
21660000,21580000,21580000,0,-0.054840088,12.356849,0.02353293,12.402882,1.7860326e-06,3,1,0,1
21724000,21640000,21644000,0,-0.07809448,12.35701,0.04746174,12.403808,7.2642756e-06,3,1,0,1
21780000,21700000,21700000,0,0.07723999,12.357033,-0.10739711,12.4045105,3.719337e-05,3,1,0,1
21844000,21760000,21764000,0,0.0105896,12.357191,-0.04169081,12.404046,5.6050217e-06,3,1,0,1
21900000,21820000,21820000,0,0.10412598,12.357211,-0.13448223,12.404713,5.8318066e-05,3,1,0,1
21964000,21879000,21884000,0,-0.06604004,12.357366,0.03691027,12.405667,4.3927275e-06,3,1,0,1
22020000,21936000,21940000,0,-0.12207031,12.357383,0.0909019,12.402784,2.6649353e-05,3,1,0,1
22068000,21988000,21988000,0,0.024261475,12.3572645,-0.05527164,12.403172,9.852171e-06,3,1,0,1
22132000,22048000,22052000,0,-0.0748291,12.357419,0.044688143,12.404089,6.4399087e-06,3,1,0,1
22188000,22108000,22108000,0,-0.013397217,12.357435,-0.016299112,12.404782,8.566407e-07,3,1,0,1
22252000,22168000,22172000,0,-0.06048584,12.357586,0.029549854,12.404317,2.8157742e-06,3,1,0,1
22308000,22228000,22228000,0,-0.083740234,12.357599,0.053305868,12.404973,9.162504e-06,3,1,0,1
22372000,22288000,22292000,0,0.048187256,12.357747,-0.07808475,12.405918,1.9659095e-05,3,1,0,1
22428000,22348000,22348000,0,0.0052490234,12.357758,-0.036663566,12.403052,4.3351174e-06,3,1,0,1
22492000,22408000,22412000,0,-0.01852417,12.3579035,-0.0120449085,12.40393,4.6785115e-07,3,1,0,1
22548000,22468000,22468000,0,-0.070251465,12.357911,0.0403931,12.404587,5.2612872e-06,3,1,0,1
22612000,22528000,22532000,0,-0.069885254,12.358054,0.040696554,12.405535,5.3402277e-06,3,1,0,1
22668000,22588000,22588000,0,-0.09298706,12.358059,0.06195132,12.404794,1.2375752e-05,3,1,0,1
22732000,22646000,22652000,0,-0.00793457,12.358199,-0.022533508,12.405699,1.6371799e-06,3,1,0,1
22780000,22696000,22700000,0,-0.064453125,12.358067,0.034697756,12.406118,3.881744e-06,3,1,0,1
22836000,22756000,22756000,0,-0.054779053,12.358072,0.025341887,12.40459,2.0708826e-06,3,1,0,1
22900000,22816000,22820000,0,-0.087402344,12.358212,0.056213558,12.404135,1.0190035e-05,3,1,0,1
22956000,22876000,22876000,0,-0.03527832,12.358214,0.0046965573,12.404783,7.112628e-08,3,1,0,1
23020000,22936000,22940000,0,-0.11508179,12.358352,0.08545444,12.405721,2.3545466e-05,3,1,0,1
23076000,22996000,22996000,0,-0.08615112,12.358352,0.05422903,12.4049835,9.482601e-06,3,1,0,1
23140000,23056000,23060000,0,-0.024627686,12.358487,-0.0065135565,12.40588,1.3679454e-07,3,1,0,1
23196000,23114666,23116000,0,-0.08105469,12.358485,0.050863095,12.406552,8.340929e-06,3,1,0,1
23260000,23176000,23180000,0,-0.043029785,12.358618,0.009954665,12.403942,3.1956085e-07,3,1,0,1
23316000,23234666,23236000,0,-0.08987427,12.358613,0.057596955,12.404557,1.06973885e-05,3,1,0,1
23380000,23296000,23300000,0,-0.08935547,12.358744,0.057876967,12.405456,1.0800872e-05,3,1,0,1
23436000,23353333,23356000,0,-0.009033203,12.358737,-0.021726077,12.40613,1.5219007e-06,3,1,0,1
23484000,23404000,23404000,0,-0.15005493,12.358595,0.11706348,12.405133,4.4187702e-05,3,1,0,1
23548000,23463000,23468000,0,0.02468872,12.358726,-0.057059057,12.406021,1.0497278e-05,3,1,0,1
23604000,23524000,23524000,0,-0.10726929,12.35872,0.07546569,12.404502,1.8364524e-05,3,1,0,1
23668000,23582000,23588000,0,-0.05026245,12.358849,0.019304516,12.405433,1.2016167e-06,3,1,0,1
23724000,23644000,23644000,0,-0.08761597,12.358839,0.05441218,12.404705,9.546975e-06,3,1,0,1
23788000,23704000,23708000,0,0.016143799,12.358966,-0.048535347,12.405596,7.5955395e-06,3,1,0,1
23844000,23764000,23764000,0,-0.1532898,12.358955,0.12199427,12.406264,4.7984155e-05,3,1,0,1
23908000,23824000,23828000,0,0.012084961,12.35908,-0.045854222,12.405769,6.779458e-06,3,1,0,1
23964000,23880000,23884000,0,-0.07751465,12.359067,0.04481612,12.4064,6.4756405e-06,3,1,0,1
24012000,23932000,23932000,0,-0.0019836426,12.35892,-0.030726194,12.40463,3.044344e-06,3,1,0,1
24076000,23992000,23996000,0,0.06817627,12.359045,-0.09969269,12.405553,3.204575e-05,3,1,0,1
24132000,24052000,24052000,0,-0.007843018,12.359033,-0.02543369,12.404829,2.0858733e-06,3,1,0,1
24196000,24112000,24116000,0,0.015411377,12.359156,-0.04759383,12.405713,7.303643e-06,3,1,0,1
24252000,24170666,24172000,0,0.019683838,12.359142,-0.050805163,12.406375,8.322058e-06,3,1,0,1
24316000,24232000,24236000,0,0.09436035,12.359263,-0.12703173,12.405883,5.2030347e-05,3,1,0,1
24372000,24290666,24292000,0,-0.019470215,12.359247,-0.011939999,12.4065075,4.5964126e-07,3,1,0,1
24436000,24350000,24356000,0,-0.20266724,12.359367,0.17158051,12.405251,9.492713e-05,3,1,0,1
24484000,24400000,24404000,0,-0.064971924,12.359214,0.033943012,12.405654,3.7148484e-06,3,1,0,1
24540000,24460000,24460000,0,-0.0036315918,12.359199,-0.029298805,12.404933,2.7679955e-06,3,1,0,1
24604000,24520000,24524000,0,-0.107177734,12.35932,0.07521606,12.405811,1.8241308e-05,3,1,0,1
24660000,24580000,24580000,0,-0.017303467,12.3593025,-0.014163967,12.4064665,6.4681745e-07,3,1,0,1
24724000,24640000,24644000,0,0.048309326,12.359421,-0.08141461,12.405978,2.1371436e-05,3,1,0,1
24780000,24700000,24700000,0,-0.032226562,12.359403,0.00017590448,12.406597,9.976108e-11,3,1,0,1
24844000,24760000,24764000,0,-0.07449341,12.359519,0.042908706,12.405344,5.9366575e-06,3,1,0,1
24900000,24818666,24820000,0,-0.017791748,12.359499,-0.013092646,12.406002,5.526918e-07,3,1,0,1
24964000,24878000,24884000,0,-0.05545044,12.359613,0.02289113,12.40552,1.689583e-06,3,1,0,1
25020000,24937333,24940000,0,-0.074035645,12.3595915,0.042218093,12.406143,5.7467255e-06,3,1,0,1
25068000,24988000,24988000,0,-0.14407349,12.359435,0.11284489,12.406536,4.1055682e-05,3,1,0,1
25132000,25048000,25052000,0,-0.016326904,12.359551,-0.017206382,12.406052,9.54565e-07,3,1,0,1
25188000,25108000,25108000,0,0.039886475,12.35953,-0.07253051,12.406666,1.6960801e-05,3,1,0,1
25252000,25168000,25172000,0,0.08618164,12.359645,-0.117719546,12.405412,4.4683376e-05,3,1,0,1
25308000,25228000,25228000,0,0.080444336,12.359622,-0.11063032,12.406063,3.9461567e-05,3,1,0,1
25372000,25288000,25292000,0,-0.07546997,12.359735,0.043704793,12.405586,6.1588676e-06,3,1,0,1
25428000,25348000,25348000,0,-0.1454773,12.359711,0.1144651,12.406203,4.2244217e-05,3,1,0,1
25492000,25408000,25412000,0,-0.05996704,12.359822,0.029586961,12.407108,2.8222153e-06,3,1,0,1
25548000,25468000,25468000,0,0.19381714,12.359797,-0.22640254,12.406355,0.00016526405,3,1,0,1
25612000,25527000,25532000,0,-0.0006713867,12.359906,-0.03066228,12.405091,3.031579e-06,3,1,0,1
25668000,25588000,25588000,0,-0.07608032,12.359879,0.045716405,12.40571,6.7387987e-06,3,1,0,1
25732000,25648000,25652000,0,-0.061584473,12.359987,0.032059476,12.406618,3.3137476e-06,3,1,0,1
25788000,25708000,25708000,0,-0.009674072,12.359959,-0.02190907,12.405871,1.5476778e-06,3,1,0,1
25852000,25767000,25772000,0,-0.023925781,12.360065,-0.0065826904,12.406739,1.3970411e-07,3,1,0,1
25908000,25828000,25828000,0,-0.18362427,12.360036,0.1540643,12.407385,7.6521545e-05,3,1,0,1
25972000,25887000,25892000,0,-0.036712646,12.360141,0.004704088,12.406873,7.134254e-08,3,1,0,1
26028000,25948000,25948000,0,-0.14935303,12.360109,0.11746667,12.405364,4.4491786e-05,3,1,0,1
26092000,26008000,26012000,0,-0.06851196,12.360214,0.03722126,12.406236,4.4668577e-06,3,1,0,1
26148000,26068000,26068000,0,-0.021209717,12.360182,-0.009262394,12.406885,2.7659465e-07,3,1,0,1
26212000,26127000,26132000,0,-0.02130127,12.360285,-0.011151083,12.406381,4.0091194e-07,3,1,0,1
26268000,26188000,26188000,0,-0.049591064,12.36025,0.018120948,12.406994,1.0586571e-06,3,1,0,1
26332000,26248000,26252000,0,0.06326294,12.3603525,-0.0936542,12.407897,2.8275894e-05,3,1,0,1
26388000,26308000,26308000,0,0.0014038086,12.360317,-0.033819776,12.407115,3.687488e-06,3,1,0,1
26452000,26368000,26372000,0,-0.013000488,12.360418,-0.0183739,12.405854,1.088519e-06,3,1,0,1
26508000,26428000,26428000,0,-0.13052368,12.360382,0.10024664,12.40647,3.240048e-05,3,1,0,1
26572000,26487000,26492000,0,-0.068603516,12.360481,0.039181434,12.407377,4.9492646e-06,3,1,0,1
26628000,26548000,26548000,0,-0.044799805,12.360444,0.012838032,12.406604,5.313785e-07,3,1,0,1
26692000,26608000,26612000,0,-0.08691406,12.360542,0.056132063,12.40747,1.015778e-05,3,1,0,1
26748000,26668000,26668000,0,-0.05355835,12.360504,0.023703266,12.4081135,1.8112173e-06,3,1,0,1
26812000,26728000,26732000,0,-0.08151245,12.360601,0.048479076,12.4054785,7.57801e-06,3,1,0,1
26868000,26788000,26788000,0,-0.11395264,12.360561,0.08183618,12.406064,2.1593181e-05,3,1,0,1
26932000,26848000,26852000,0,-0.06628418,12.360658,0.035214998,12.406935,3.9980737e-06,3,1,0,1
26988000,26908000,26908000,0,-0.14108276,12.360618,0.111133926,12.407582,3.981678e-05,3,1,0,1
27052000,26967000,26972000,0,-0.041534424,12.360713,0.008516196,12.407053,2.3382053e-07,3,1,0,1
27108000,27028000,27028000,0,-0.08370972,12.360671,0.05185805,12.407664,8.669665e-06,3,1,0,1
27172000,27088000,27092000,0,-0.045715332,12.360765,0.015113497,12.408566,7.363229e-07,3,1,0,1
27228000,27148000,27148000,0,-0.036193848,12.3607235,0.0020928793,12.405668,1.41230405e-08,3,1,0,1
27292000,27208000,27212000,0,-0.031463623,12.360817,-0.0012782216,12.406503,5.267723e-09,3,1,0,1
27348000,27268000,27268000,0,-0.0032958984,12.360773,-0.028156105,12.407118,2.5558434e-06,3,1,0,1
27412000,27328000,27332000,0,-0.0692749,12.360866,0.039494835,12.408026,5.028494e-06,3,1,0,1
27468000,27388000,27388000,0,0.10482788,12.360822,-0.13783798,12.4072275,6.125239e-05,3,1,0,1
27532000,27448000,27452000,0,-0.013793945,12.360913,-0.017226236,12.408093,9.566118e-07,3,1,0,1
27588000,27508000,27508000,0,-0.084350586,12.360868,0.05475334,12.408736,9.663928e-06,3,1,0,1
27652000,27568000,27572000,0,0.01940918,12.360959,-0.05235956,12.406088,8.839284e-06,3,1,0,1
27708000,27628000,27628000,0,-0.04208374,12.360913,0.010654654,12.406673,3.6600193e-07,3,1,0,1
27772000,27686000,27692000,0,-0.041992188,12.361003,0.012154689,12.407544,4.762795e-07,3,1,0,1
27828000,27744000,27748000,0,0.056732178,12.360956,-0.08507581,12.408192,2.3332628e-05,3,1,0,1
27876000,27794666,27796000,0,-0.08016968,12.360776,0.048415042,12.407137,7.5569938e-06,3,1,0,1
27940000,27856000,27860000,0,-0.150177,12.360868,0.12003635,12.408001,4.644979e-05,3,1,0,1
27996000,27916000,27916000,0,-0.09277344,12.360824,0.06366446,12.406463,1.306791e-05,3,1,0,1
28060000,27976000,27980000,0,-0.012390137,12.360915,-0.020415742,12.406008,1.3438731e-06,3,1,0,1
28116000,28036000,28036000,0,-0.021942139,12.36087,-0.009168463,12.40659,2.7101953e-07,3,1,0,1
28180000,28096000,28100000,0,-0.017333984,12.360961,-0.011827899,12.407459,4.5101643e-07,3,1,0,1
28236000,28156000,28156000,0,0.038909912,12.360915,-0.06629499,12.408104,1.4168242e-05,3,1,0,1
28300000,28214000,28220000,0,0.024230957,12.361005,-0.05506967,12.407558,9.776842e-06,3,1,0,1
28348000,28264000,28268000,0,-0.041992188,12.360824,0.012787782,12.407911,5.2717127e-07,3,1,0,1
28404000,28320000,28324000,0,-0.060638428,12.36078,0.032071587,12.406381,3.3163149e-06,3,1,0,1
28452000,28372000,28372000,0,0.061706543,12.360601,-0.08886002,12.406765,2.5457412e-05,3,1,0,1
28516000,28432000,28436000,0,-0.05645752,12.360698,0.025979085,12.406268,2.1760384e-06,3,1,0,1
28572000,28488000,28492000,0,-0.0703125,12.360656,0.041458055,12.406876,5.5413484e-06,3,1,0,1
28620000,28538666,28540000,0,-0.11218262,12.36048,0.08469899,12.407254,2.3128143e-05,3,1,0,1
28684000,28598000,28604000,0,-0.078552246,12.360579,0.047064785,12.406754,7.141575e-06,3,1,0,1
28732000,28648000,28652000,0,-0.078125,12.360404,0.047859672,12.4071,7.3846372e-06,3,1,0,1
28788000,28706666,28708000,0,-0.035461426,12.360368,0.0066793505,12.407727,1.4382562e-07,3,1,0,1
28852000,28768000,28772000,0,-0.03540039,12.360468,0.00814485,12.406478,2.1388368e-07,3,1,0,1
28908000,28826666,28828000,0,0.030395508,12.360431,-0.061525606,12.405749,1.2205309e-05,3,1,0,1
28972000,28888000,28892000,0,-0.13916016,12.360529,0.11021073,12.406603,3.91611e-05,3,1,0,1
29028000,28946666,28948000,0,-0.07714844,12.360491,0.049578212,12.407236,7.9244055e-06,3,1,0,1
29092000,29006000,29012000,0,0.040649414,12.360588,-0.07233697,12.406739,1.6870306e-05,3,1,0,1
29148000,29065333,29068000,0,-0.11022949,12.360549,0.080547534,12.407336,2.091635e-05,3,1,0,1
29196000,29116000,29116000,0,0.059509277,12.360375,-0.08880001,12.405571,2.5425486e-05,3,1,0,1
29260000,29176000,29180000,0,-0.0821228,12.360475,0.055326305,12.406459,9.869053e-06,3,1,0,1
29316000,29236000,29236000,0,-0.0065307617,12.360437,-0.024598368,12.405736,1.9509675e-06,3,1,0,1
29380000,29294000,29300000,0,-0.058380127,12.360536,0.02936383,12.406586,2.7799251e-06,3,1,0,1
29436000,29356000,29356000,0,-0.044036865,12.360497,0.01670258,12.407215,8.9939977e-07,3,1,0,1
29500000,29416000,29420000,0,-0.03918457,12.360595,0.007982448,12.406724,2.054353e-07,3,1,0,1
29556000,29476000,29476000,0,0.05947876,12.360556,-0.08903174,12.407318,2.5554762e-05,3,1,0,1
29620000,29535000,29540000,0,-0.021118164,12.360652,-0.007242039,12.406061,1.6910163e-07,3,1,0,1
29676000,29596000,29596000,0,-0.0024108887,12.360611,-0.024073726,12.406693,1.8684891e-06,3,1,0,1
29740000,29655000,29660000,0,-0.035491943,12.360706,0.005320661,12.40621,9.1275034e-08,3,1,0,1
29796000,29716000,29716000,0,0.0725708,12.360665,-0.10106388,12.406809,3.2930006e-05,3,1,0,1
29860000,29775000,29780000,0,-0.06451416,12.36076,0.03840177,12.407696,4.754134e-06,3,1,0,1
29916000,29836000,29836000,0,0.025024414,12.360718,-0.055177204,12.406937,9.815554e-06,3,1,0,1
29980000,29895000,29900000,0,-0.017700195,12.360811,-0.010399634,12.407783,3.4865985e-07,3,1,0,1
30036000,29956000,29956000,0,-0.1680603,12.360767,0.1410645,12.406266,6.415852e-05,3,1,0,1
30100000,30015000,30020000,0,-0.035339355,12.360861,0.009758893,12.407157,3.070357e-07,3,1,0,1
30156000,30076000,30076000,0,0.025787354,12.360816,-0.055156298,12.406405,9.8085375e-06,3,1,0,1
30220000,30134000,30140000,0,-0.04043579,12.360908,0.013058921,12.407256,5.4979256e-07,3,1,0,1
30276000,30196000,30196000,0,0.016021729,12.360863,-0.04180488,12.407886,5.6339913e-06,3,1,0,1
30340000,30256000,30260000,0,-0.04067993,12.360954,0.011672463,12.40737,4.3924345e-07,3,1,0,1
30396000,30316000,30316000,0,-0.14385986,12.3609085,0.11565764,12.405853,4.3130254e-05,3,1,0,1
30460000,30376000,30380000,0,-0.034851074,12.360998,0.007948291,12.406708,2.0368118e-07,3,1,0,1
30516000,30436000,30436000,0,-0.10522461,12.360951,0.07982199,12.407341,2.0541225e-05,3,1,0,1
30580000,30496000,30500000,0,-0.0012207031,12.361041,-0.027607292,12.406834,2.4572348e-06,3,1,0,1
30636000,30552000,30556000,0,-0.08596802,12.360993,0.058669463,12.407432,1.1096917e-05,3,1,0,1
30684000,30604000,30604000,0,-0.033813477,12.360812,0.0075422246,12.407803,1.8338508e-07,3,1,0,1
30748000,30664000,30668000,0,-0.043151855,12.360904,0.013674637,12.407292,6.028574e-07,3,1,0,1
30804000,30724000,30724000,0,-0.0101623535,12.360859,-0.018393379,12.405782,1.0908345e-06,3,1,0,1
30868000,30782000,30788000,0,-0.061950684,12.3609495,0.035145357,12.406633,3.9823735e-06,3,1,0,1
30924000,30842666,30844000,0,-0.07104492,12.360904,0.045645494,12.407264,6.717069e-06,3,1,0,1
30988000,30904000,30908000,0,-0.13168335,12.360994,0.102978215,12.406762,3.418946e-05,3,1,0,1
31044000,30964000,30964000,0,-0.050933838,12.360948,0.023237215,12.407359,1.7407997e-06,3,1,0,1
31108000,31024000,31028000,0,-0.055419922,12.361037,0.029272549,12.408244,2.7622993e-06,3,1,0,1
31164000,31084000,31084000,0,-0.055145264,12.36099,0.025655251,12.407467,2.1219219e-06,3,1,0,1
31228000,31144000,31148000,0,-0.031433105,12.361078,0.00241841,12.406206,1.885736e-08,3,1,0,1
31284000,31204000,31204000,0,0.006164551,12.361031,-0.03383255,12.406807,3.690366e-06,3,1,0,1
31348000,31264000,31268000,0,-0.064575195,12.361118,0.03866317,12.407696,4.8190764e-06,3,1,0,1
31404000,31324000,31324000,0,0.06253052,12.36107,-0.0917625,12.406926,2.7147275e-05,3,1,0,1
31468000,31384000,31388000,0,-0.12609863,12.361156,0.09874828,12.407777,3.143584e-05,3,1,0,1
31524000,31442666,31444000,0,0.029724121,12.361108,-0.056036558,12.408404,1.01224805e-05,3,1,0,1
31588000,31504000,31508000,0,0.052703857,12.361195,-0.081812575,12.407872,2.1577584e-05,3,1,0,1
31644000,31564000,31564000,0,-0.023132324,12.361144,-0.005080223,12.406356,8.3211106e-08,3,1,0,1
31708000,31624000,31628000,0,-0.023162842,12.36123,-0.0035267863,12.40721,4.009998e-08,3,1,0,1
31764000,31682666,31684000,0,-0.065460205,12.361179,0.040129915,12.407843,5.1915877e-06,3,1,0,1
31828000,31744000,31748000,0,0.01473999,12.361264,-0.043014053,12.407318,5.964895e-06,3,1,0,1
31884000,31802666,31804000,0,0.028411865,12.361213,-0.055287912,12.407915,9.854204e-06,3,1,0,1
31948000,31862000,31868000,0,0.060791016,12.361298,-0.086004674,12.408802,2.3843733e-05,3,1,0,1
31996000,31912000,31916000,0,0.008392334,12.361111,-0.03703949,12.40568,4.423534e-06,3,1,0,1
32052000,31972000,31972000,0,-0.04827881,12.361062,0.020943554,12.406248,1.414231e-06,3,1,0,1
32116000,32030000,32036000,0,0.02230835,12.36115,-0.0483413,12.407101,7.5340126e-06,3,1,0,1
32164000,32080000,32084000,0,-0.11895752,12.360965,0.09415476,12.407472,2.8579936e-05,3,1,0,1
32220000,32137333,32140000,0,0.008666992,12.360919,-0.0,12.406718,4.3129926e-06,3,1,0,1
32268000,32188000,32188000,0,-0.06210327,12.360739,0.035186104,12.407058,3.991476e-06,3,1,0,1
32332000,32248000,32252000,0,-0.12283325,12.360831,0.0971418,12.407933,3.0420957e-05,3,1,0,1
32388000,32308000,32308000,0,0.018859863,12.360788,-0.0,12.408586,6.1493765e-06,3,1,0,1
32452000,32368000,32372000,0,-0.019073486,12.360881,-0.0,12.40732,9.2067886e-08,3,1,0,1
32508000,32428000,32428000,0,-0.07546997,12.360836,0.052377705,12.408012,8.844039e-06,3,1,0,1
32572000,32485000,32492000,0,-0.028076172,12.360928,0.006392209,12.409014,1.3171179e-07,3,1,0,1
32628000,32548000,32548000,0,0.061187744,12.360882,-0.0,12.409779,2.1392008e-05,3,1,0,1
32692000,32608000,32612000,0,-0.019348145,12.360973,0.00075263344,12.410869,1.8256807e-09,3,1,0,1
32748000,32668000,32668000,0,-0.09918213,12.360928,0.08210473,12.411712,2.1725244e-05,3,1,0,1
32812000,32728000,32732000,0,-0.004547119,12.361017,-0.0,12.410359,5.0047e-07,3,1,0,1
32868000,32788000,32788000,0,-0.06100464,12.3609705,0.045557782,12.411249,6.6891303e-06,3,1,0,1
32932000,32847000,32852000,0,-0.013641357,12.36106,-0.0,12.412489,1.0263313e-10,3,1,0,1
32988000,32908000,32908000,0,-0.20614624,12.361012,0.19396666,12.413467,0.00012123305,3,1,0,1
33052000,32967000,32972000,0,-0.07763672,12.361101,0.06654817,12.414814,1.4268949e-05,3,1,0,1
33108000,33028000,33028000,0,-0.03479004,12.361053,0.025142364,12.415887,2.036547e-06,3,1,0,1
33172000,33087000,33092000,0,-0.06274414,12.361142,0.055052392,12.417349,9.7630045e-06,3,1,0,1
33228000,33148000,33148000,0,-0.07632446,12.3610935,0.06877712,12.415457,1.5240012e-05,3,1,0,1
33292000,33205000,33212000,0,-0.09921265,12.361181,0.09342377,12.416976,2.8116347e-05,3,1,0,1
33348000,33268000,33268000,0,-0.037353516,12.361132,0.032978024,12.4182005,3.5030841e-06,3,1,0,1
33412000,33327000,33332000,0,-0.069885254,12.361219,0.067491435,12.419846,1.4670371e-05,3,1,0,1
33468000,33388000,33388000,0,-0.045806885,12.36117,0.044960134,12.421181,6.5095696e-06,3,1,0,1
33532000,33447000,33452000,0,0.015625,12.361256,-0.0,12.422957,6.794539e-07,3,1,0,1
33588000,33508000,33508000,0,-0.045532227,12.361206,0.048549656,12.424409,7.588511e-06,3,1,0,1
33652000,33566000,33572000,0,-0.012237549,12.361292,0.014918086,12.422462,7.1660287e-07,3,1,0,1
33708000,33628000,33628000,0,0.03012085,12.361241,-0.0,12.423959,2.1078058e-06,3,1,0,1
33772000,33687000,33692000,0,-0.017059326,12.361327,0.023801496,12.425928,1.8236425e-06,3,1,0,1
33828000,33748000,33748000,0,0.0113220215,12.361277,-0.0,12.427548,2.4735916e-08,3,1,0,1
33892000,33807000,33812000,0,0.011291504,12.3613615,-0.0,12.4296665,8.777426e-10,3,1,0,1
33948000,33868000,33868000,0,-0.101379395,12.36131,0.1141503,12.431413,4.1926985e-05,3,1,0,1
34012000,33928000,33932000,0,-0.05343628,12.361395,0.06501881,12.428852,1.3605265e-05,3,1,0,1
34068000,33988000,33988000,0,-0.090423584,12.361343,0.10369512,12.430629,3.460059e-05,3,1,0,1
34132000,34046000,34052000,0,0.013793945,12.361427,0.00125736,12.432936,5.0863425e-09,3,1,0,1
34188000,34104000,34108000,0,-0.22564697,12.361375,0.24277048,12.434844,0.00018958825,3,1,0,1
34236000,34154666,34156000,0,0.048828125,12.361189,-0.0,12.436325,3.1646941e-06,3,1,0,1
34300000,34216000,34220000,0,0.0814209,12.361276,-0.0,12.438858,1.2189613e-05,3,1,0,1
34356000,34274666,34276000,0,-0.027130127,12.361227,0.049085036,12.440959,7.746479e-06,3,1,0,1
34420000,34334000,34340000,0,0.053131104,12.361314,-0.0,12.437503,3.834664e-06,3,1,0,1
34468000,34384000,34388000,0,-0.04107666,12.361129,0.061395124,12.439094,1.2121016e-05,3,1,0,1
34524000,34444000,34444000,0,-0.06869507,12.361083,0.09062977,12.441258,2.6408119e-05,3,1,0,1
34580000,34500000,34500000,0,0.05419922,12.361037,-0.0,12.443487,3.0625338e-06,3,1,0,1
34636000,34550000,34556000,0,-0.01651001,12.360992,0.041798007,12.44578,5.61499e-06,3,1,0,1
34692000,34609333,34612000,0,-0.016143799,12.3609495,0.04311118,12.448138,5.9722142e-06,3,1,0,1
34740000,34660000,34660000,0,-0.011047363,12.360772,0.039384946,12.44998,4.9837e-06,3,1,0,1
34804000,34719000,34724000,0,0.012756348,12.3608675,0.0110629015,12.445308,3.9336206e-07,3,1,0,1
34860000,34780000,34780000,0,-0.06695557,12.3608265,0.09237765,12.447695,2.742236e-05,3,1,0,1
34924000,34839000,34844000,0,-0.00039672852,12.360921,0.026262516,12.450733,2.2158365e-06,3,1,0,1
34980000,34900000,34900000,0,-0.02835083,12.36088,0.053948812,12.4532585,9.348475e-06,3,1,0,1
35044000,34958000,34964000,0,-0.037231445,12.360974,0.06111359,12.456465,1.19933575e-05,3,1,0,1
35100000,35020000,35020000,0,0.104156494,12.360931,-0.0,12.45912,2.2033455e-05,3,1,0,1
35164000,35080000,35084000,0,-0.032714844,12.361026,0.05082886,12.46249,8.292317e-06,3,1,0,1
35220000,35136000,35140000,0,-0.02758789,12.360983,0.03521992,12.455607,3.983564e-06,3,1,0,1
35268000,35188000,35188000,0,-0.046051025,12.3608055,0.04925436,12.457627,7.78958e-06,3,1,0,1
35332000,35246000,35252000,0,-0.106658936,12.360901,0.10187414,12.460977,3.3314696e-05,3,1,0,1
35380000,35296000,35300000,0,-0.0024414062,12.360725,-0.0,12.463087,3.718822e-07,3,1,0,1
35436000,35356000,35356000,0,-0.12460327,12.360688,0.10017057,12.465907,3.2197073e-05,3,1,0,1
35500000,35416000,35420000,0,-0.043914795,12.360786,0.002426248,12.469466,1.8883501e-08,3,1,0,1
35556000,35476000,35476000,0,-0.20822144,12.360749,0.14952853,12.4724045,7.17064e-05,3,1,0,1
35620000,35536000,35540000,0,-0.1411438,12.360847,0.05113206,12.46442,8.390242e-06,3,1,0,1
35676000,35594666,35596000,0,-0.2064209,12.360807,0.09241694,12.467253,2.7402642e-05,3,1,0,1
35740000,35656000,35660000,0,-0.18209839,12.360905,0.03676513,12.470843,4.3354717e-06,3,1,0,1
35796000,35716000,35716000,0,-0.19116211,12.360865,0.015739858,12.4738,7.9444317e-07,3,1,0,1
35860000,35776000,35780000,0,-0.2614441,12.360961,0.048455,12.477536,7.5267644e-06,3,1,0,1
35916000,35834666,35836000,0,-0.28918457,12.36092,0.04010643,12.480594,5.155286e-06,3,1,0,1
35980000,35894000,35900000,0,-0.31228638,12.361016,0.018734127,12.484469,1.1244932e-06,3,1,0,1
36028000,35944000,35948000,0,-0.39663696,12.36084,0.061666638,12.473008,1.2195212e-05,3,1,0,1
36084000,36004000,36004000,0,-0.51345825,12.360802,0.13482937,12.4759865,5.8284644e-05,3,1,0,1
36148000,36064000,36068000,0,-0.49349976,12.360899,0.0630711,12.47974,1.2750149e-05,3,1,0,1
36204000,36122666,36124000,0,-0.47885132,12.36086,0.002955377,12.482822,2.7988076e-08,3,1,0,1
36268000,36184000,36188000,0,-0.5821228,12.360957,0.054227352,12.486719,9.419947e-06,3,1,0,1
36324000,36244000,36244000,0,-0.6426697,12.360917,0.068098485,12.489881,1.4851716e-05,3,1,0,1
36388000,36302000,36308000,0,-0.67492676,12.361014,0.045867443,12.493899,6.735519e-06,3,1,0,1
36436000,36352000,36356000,0,-0.6416626,12.360839,-0.0,12.480597,4.3992386e-06,3,1,0,1
36492000,36412000,36412000,0,-0.75,12.360801,0.022410274,12.483658,1.6092091e-06,3,1,0,1
36556000,36472000,36476000,0,-0.74508667,12.360899,-0.0,12.4875145,5.019943e-06,3,1,0,1
36612000,36529333,36532000,0,-0.92385864,12.360861,0.08840644,12.4906645,2.502893e-05,3,1,0,1
36660000,36580000,36580000,0,-0.9183655,12.360688,0.03774011,12.493054,4.560345e-06,3,1,0,1
36724000,36640000,36644000,0,-1.0307007,12.360788,0.08978033,12.497064,2.5799683e-05,3,1,0,1
36780000,36700000,36700000,0,-1.0440063,12.360753,0.04868698,12.5003195,7.585157e-06,3,1,0,1
36844000,36760000,36764000,0,-1.1421814,12.360853,0.07708228,12.486962,1.903322e-05,3,1,0,1
36900000,36820000,36820000,0,-1.164978,12.360815,0.043729186,12.490057,6.1240444e-06,3,1,0,1
36964000,36880000,36884000,0,-1.2256165,12.360914,0.039750814,12.493957,5.0588533e-06,3,1,0,1
37020000,36940000,36940000,0,-1.253418,12.360876,0.010070324,12.497127,3.2459118e-07,3,1,0,1
37084000,36998000,37004000,0,-1.3800964,12.360973,0.07052934,12.501149,1.591658e-05,3,1,0,1
37140000,37060000,37060000,0,-1.5484619,12.360935,0.17955065,12.5043545,0.000103127066,3,1,0,1
37204000,37118000,37124000,0,-1.476471,12.3610325,0.03130114,12.489684,3.137826e-06,3,1,0,1
37260000,37180000,37180000,0,-1.5841675,12.3609915,0.07839644,12.492744,1.9678628e-05,3,1,0,1
37324000,37239000,37244000,0,-1.5693665,12.361087,-0.0,12.496633,1.5470606e-07,3,1,0,1
37380000,37300000,37300000,0,-1.5365906,12.361046,-0.0,12.499731,3.287383e-05,3,1,0,1
37444000,37360000,37364000,0,-1.7675476,12.361141,0.05832827,12.503711,1.08837685e-05,3,1,0,1
37500000,37420000,37420000,0,-1.8186646,12.361099,0.04573238,12.506896,6.688951e-06,3,1,0,1
37564000,37480000,37484000,0,-1.9168701,12.361195,0.07067907,12.51092,1.5971747e-05,3,1,0,1
37620000,37540000,37540000,0,-1.9631958,12.361153,0.044902086,12.494184,6.4548353e-06,3,1,0,1
37684000,37600000,37604000,0,-2.0238342,12.361245,0.030720472,12.498009,3.0204728e-06,3,1,0,1
37740000,37660000,37660000,0,-2.1315308,12.361201,0.07249689,12.501078,1.6817108e-05,3,1,0,1
37804000,37720000,37724000,0,-2.144989,12.361294,0.009640455,12.504953,2.97285e-07,3,1,0,1
37860000,37780000,37780000,0,-2.1730652,12.36125,-0.0,12.508073,2.6928333e-06,3,1,0,1
37924000,37839000,37844000,0,-2.3470154,12.361341,0.06817794,12.512061,1.4860003e-05,3,1,0,1
37980000,37900000,37900000,0,-2.346405,12.361298,-0.0,12.515177,2.6845404e-09,3,1,0,1
38044000,37960000,37964000,0,-2.4778748,12.361389,0.046477318,12.49832,6.9133807e-06,3,1,0,1
38100000,38020000,38020000,0,-2.5995178,12.361342,0.09883571,12.501316,3.1255902e-05,3,1,0,1
38164000,38080000,38084000,0,-2.5845337,12.361433,0.0035777092,12.505148,4.094315e-08,3,1,0,1
38220000,38136000,38140000,0,-2.7018738,12.361386,0.051118135,12.508154,8.356353e-06,3,1,0,1
38284000,38198000,38204000,0,-2.8422852,12.361476,0.110735655,12.512056,3.920182e-05,3,1,0,1
38340000,38260000,38260000,0,-2.8131409,12.361429,0.009708166,12.515141,3.012303e-07,3,1,0,1
38404000,38320000,38324000,0,-2.9491882,12.361518,0.056625605,12.497788,1.0262485e-05,3,1,0,1
38460000,38380000,38380000,0,-2.9909363,12.361469,0.026337385,12.5007105,2.2195788e-06,3,1,0,1
38524000,38439000,38444000,0,-3.14563,12.361557,0.09865689,12.504453,3.1135092e-05,3,1,0,1
38580000,38500000,38500000,0,-3.2621155,12.361508,0.1418097,12.507423,6.431378e-05,3,1,0,1
38644000,38559000,38564000,0,-3.2796326,12.361596,0.07469964,12.511198,1.7840135e-05,3,1,0,1
38700000,38620000,38620000,0,-3.2367249,12.3615465,-0.0,12.514206,5.6368062e-06,3,1,0,1
38764000,38679000,38684000,0,-3.326294,12.361634,-0.0,12.518082,4.1599387e-06,3,1,0,1
38820000,38740000,38740000,0,-3.4487,12.361585,0.0046629906,12.499482,6.958202e-08,3,1,0,1
38884000,38798000,38804000,0,-3.5190735,12.3616705,-0.0,12.503136,2.9380914e-07,3,1,0,1
38940000,38860000,38860000,0,-3.758606,12.361619,0.15563202,12.506033,7.747085e-05,3,1,0,1
39004000,38919000,38924000,0,-3.8088684,12.361705,0.118732214,12.509726,4.5076413e-05,3,1,0,1
39060000,38980000,38980000,0,-3.7749329,12.361653,0.008497477,12.512663,2.3082892e-07,3,1,0,1
39124000,39040000,39044000,0,-3.9157104,12.361739,0.063317776,12.516454,1.2812385e-05,3,1,0,1
39180000,39100000,39100000,0,-3.8822632,12.361688,-0.0,12.519422,6.837936e-06,3,1,0,1
39244000,39160000,39164000,0,-4.037628,12.3617735,0.014302731,12.501306,6.545495e-07,3,1,0,1
39300000,39216000,39220000,0,-4.1595764,12.36172,0.0600996,12.504135,1.1554455e-05,3,1,0,1
39348000,39268000,39268000,0,-4.24823,12.361533,0.08276081,12.506196,2.1907066e-05,3,1,0,1
39412000,39328000,39332000,0,-4.317932,12.36162,0.06416798,12.509867,1.3165702e-05,3,1,0,1
39468000,39388000,39388000,0,-4.3408203,12.36157,0.009598255,12.512727,2.9450496e-07,3,1,0,1
39532000,39448000,39452000,0,-4.481598,12.361657,0.062411785,12.51646,1.2448347e-05,3,1,0,1
39588000,39508000,39508000,0,-4.574951,12.361608,0.077914715,12.519381,1.9396175e-05,3,1,0,1
39652000,39568000,39572000,0,-4.6822205,12.361694,0.08444834,12.501384,2.2818342e-05,3,1,0,1
39708000,39628000,39628000,0,-4.7471924,12.361643,0.07087278,12.504175,1.6068077e-05,3,1,0,1
39772000,39686000,39692000,0,-4.8075867,12.361728,0.041532516,12.507775,5.5164082e-06,3,1,0,1
39820000,39736000,39740000,0,-5.0842285,12.361541,0.25086212,12.50981,0.00020122384,3,1,0,1
39876000,39796000,39796000,0,-4.9692993,12.361492,0.05484104,12.512638,9.614407e-06,3,1,0,1
39940000,39856000,39860000,0,-5.0157776,12.361581,0.011309624,12.516329,4.0877032e-07,3,1,0,1
39996000,39916000,39916000,0,-5.118988,12.361532,0.036056995,12.519211,4.153958e-06,3,1,0,1
40060000,39976000,39980000,0,-5.348694,12.36162,0.16539526,12.501207,8.752944e-05,3,1,0,1
40116000,40036000,40036000,0,-5.3519287,12.36157,0.08808708,12.503968,2.4821988e-05,3,1,0,1
40180000,40096000,40100000,0,-5.365204,12.361656,0.010274887,12.507533,3.376311e-07,3,1,0,1
40236000,40156000,40156000,0,-5.454315,12.361606,0.020345211,12.510339,1.3234736e-06,3,1,0,1
40300000,40216000,40220000,0,-5.73114,12.361691,0.20657587,12.513954,0.00013640322,3,1,0,1
40356000,40274666,40276000,0,-5.6917725,12.361641,0.085484505,12.516796,2.3352944e-05,3,1,0,1
40420000,40334000,40340000,0,-5.8881836,12.361727,0.1777606,12.498986,0.00010112446,3,1,0,1
40468000,40384000,40388000,0,-5.745758,12.36154,-0.0,12.500937,3.8986595e-06,3,1,0,1
40524000,40444000,40444000,0,-5.863434,12.36149,0.0030965805,12.503675,3.0675174e-08,3,1,0,1
40588000,40504000,40508000,0,-5.957306,12.361578,0.0058112144,12.507217,1.0800233e-07,3,1,0,1
40644000,40564000,40564000,0,-6.084015,12.361529,0.052640915,12.510004,8.86032e-06,3,1,0,1
40708000,40622000,40628000,0,-6.0788574,12.361616,-0.0,12.513602,6.3164534e-06,3,1,0,1
40756000,40672000,40676000,0,-6.2482605,12.361432,0.05647564,12.515609,1.0193664e-05,3,1,0,1
40812000,40732000,40732000,0,-6.3698425,12.361386,0.081364155,12.497372,2.1188858e-05,3,1,0,1
40876000,40792000,40796000,0,-6.50058,12.361475,0.11953163,12.500812,4.5718025e-05,3,1,0,1
40932000,40850666,40852000,0,-6.4619446,12.361427,-0.0,12.503541,1.7452996e-09,3,1,0,1
40996000,40912000,40916000,0,-6.6403503,12.361516,0.085780144,12.507072,2.353303e-05,3,1,0,1
41052000,40972000,40972000,0,-6.836792,12.361468,0.20076275,12.5098505,0.00012887662,3,1,0,1
41116000,41032000,41036000,0,-6.84906,12.361556,0.118577,12.513443,4.4945285e-05,3,1,0,1
41172000,41092000,41092000,0,-6.904358,12.361508,0.09185314,12.516262,2.6963318e-05,3,1,0,1
41236000,41152000,41156000,0,-7.0021057,12.361596,0.081104755,12.498696,2.1051736e-05,3,1,0,1
