timestamp,timestamp_sample,ref_timestamp,ref_lat,ref_lon,x,y,z,delta_xy[0],delta_xy[1],delta_z,vx,vy,vz,z_deriv,delta_vxy[0],delta_vxy[1],delta_vz,ax,ay,az,heading,delta_heading,ref_alt,dist_bottom,eph,epv,evh,evv,vxy_max,vz_max,hagl_min,hagl_max,xy_valid,z_valid,v_xy_valid,v_z_valid,xy_reset_counter,z_reset_counter,vxy_reset_counter,vz_reset_counter,heading_reset_counter,heading_good_for_control,xy_global,z_global,dist_bottom_valid,dist_bottom_sensor_bitfield,dead_reckoning
3884000,3884000,0,nan,nan,0.0014749935,0.00085197884,-0.021928638,-9.449665e-09,3.0882659e-09,0.0,0.0069367155,0.0065471446,-0.07923245,-0.076704636,-2.3624161e-06,7.720664e-07,0.0010541603,0.020964943,0.029600224,-0.11891964,1.6185985,0.0,nan,0.11045304,0.77454907,5.8605785,3.5867703,3.135166,inf,inf,inf,inf,0,0,0,0,1,1,1,1,0,0,0,0,0,0,1
4388000,4388000,0,nan,nan,0.0014307357,0.0025779866,-0.03758399,-9.449665e-09,3.0882659e-09,0.0,0.0018446771,0.007028501,-0.025617173,-0.024669038,-2.3624161e-06,7.720664e-07,0.0010541603,0.012914359,0.022997059,0.0036945564,1.6196212,0.0017750862,nan,0.1,0.015803574,1.6517544,0.11966346,0.026576802,inf,inf,inf,inf,0,1,0,1,1,1,1,1,1,0,0,0,0,0,1
4884000,4884000,4388000,47.3977508,8.5456073,0.00046039876,0.002108413,-0.046321414,-9.449665e-09,3.0882659e-09,0.0,0.0038263104,0.006913034,-0.015709447,-0.023572506,-2.3624161e-06,7.720664e-07,0.0010541603,0.0042155148,0.036642723,0.006115995,1.6216778,0.0017750862,488.05893,0.10772477,0.0130969705,0.95306826,0.09603376,0.06035702,inf,inf,inf,inf,0,1,0,1,1,1,1,1,1,0,1,1,0,0,1
5388000,5388000,4388000,47.3977508,8.5456073,0.00014129492,0.00083501503,-0.048665445,-9.449665e-09,3.0882659e-09,0.0,-0.0018903081,0.0019228391,-0.019832935,-0.020693652,-2.3624161e-06,7.720664e-07,0.0010541603,-0.03492653,0.008634684,0.015024095,1.6225125,0.0017750862,488.05893,0.10674247,0.019311715,0.7558236,0.10671015,0.07907169,inf,inf,inf,inf,0,1,0,1,1,1,1,1,1,0,1,1,0,0,1
5884000,5884000,4388000,47.3977508,8.5456073,-0.0026730935,-0.00076619507,-0.052825376,-9.449665e-09,3.0882659e-09,0.0,-0.006952058,-0.0018134449,-0.02087504,-0.015824372,-2.3624161e-06,7.720664e-07,0.0010541603,0.006203918,-0.04118755,-0.018958,1.6215533,0.0017750862,488.05893,0.10734495,0.02352628,0.6360969,0.09334934,0.0902118,inf,inf,inf,inf,0,1,0,1,1,1,1,1,1,0,1,1,0,0,1
6388000,6388000,4388000,47.3977508,8.5456073,-0.0013740094,-0.0012202407,-0.056885,-9.449665e-09,3.0882659e-09,0.0,-0.0010701697,-0.002832882,-0.018610727,-0.010540875,-2.3624161e-06,7.720664e-07,0.0010541603,-0.024409788,-0.0008654751,-0.03196578,1.6219516,0.0017750862,488.05893,0.103955366,0.014057686,0.5687356,0.05528177,0.094955854,inf,inf,inf,inf,0,1,0,1,1,1,1,1,1,0,1,1,0,0,1
6884000,6884000,4388000,47.3977508,8.5456073,-0.00038649238,-0.002588132,-0.053785536,-9.449665e-09,3.0882659e-09,0.0,-0.0022451621,-0.006665133,-0.012975832,0.00023556262,-2.3624161e-06,7.720664e-07,0.0010541603,-0.029407077,-0.032795124,0.011122785,1.6238154,0.0017750862,488.05893,0.10354563,0.0167879,0.5195041,0.056038566,0.08680883,inf,inf,inf,inf,0,1,0,1,1,1,1,1,1,0,1,1,0,0,1
7388000,7388000,4388000,47.3977508,8.5456073,-0.0021455097,-0.0018583604,-0.04920449,-9.449665e-09,3.0882659e-09,0.0,-0.008538938,-0.0018244376,-0.0068247733,0.008233256,-2.3624161e-06,7.720664e-07,0.0010541603,-0.0042549944,0.022435807,0.0060200687,1.6272004,0.0017750862,488.05893,0.10244065,0.011762364,0.4787289,0.041879885,0.086842656,inf,inf,inf,inf,0,1,0,1,1,1,1,1,1,0,1,1,0,0,1
7884000,7884000,4388000,47.3977508,8.5456073,-0.0025520048,2.6746646e-05,-0.044285048,-9.449665e-09,3.0882659e-09,0.0,-0.004614683,0.00064557354,-0.002698298,0.011806751,-2.3624161e-06,7.720664e-07,0.0010541603,-0.021771278,-0.026637584,0.0021448357,1.6262856,0.0017750862,488.05893,0.1,0.014086885,0.44961455,0.045156643,0.07915918,inf,inf,inf,inf,0,1,0,1,1,1,1,1,1,0,1,1,0,0,1
8388000,8388000,4388000,47.3977508,8.5456073,-0.00051018794,-3.9529576e-05,-0.044770062,-9.449665e-09,3.0882659e-09,0.0,-0.0010017391,-0.0022477189,-0.0048202355,0.0049627195,-2.3624161e-06,7.720664e-07,0.0010541603,-0.015487966,0.012583142,0.02164766,1.6227847,0.0017750862,488.05893,0.1,0.017174827,0.4243992,0.049346797,0.07903955,inf,inf,inf,inf,0,1,0,1,1,1,1,1,1,0,1,1,0,0,1
8884000,8884000,4388000,47.3977508,8.5456073,-0.0017375284,0.0074674734,-0.03430462,-5.83896e-05,0.0077539906,0.00549623,-0.019915959,0.0002674595,0.053295296,0.059883613,-0.020038579,0.00047495755,0.05507004,0.03012786,0.0045201154,-0.002368353,1.6231388,0.0017750862,488.05893,0.10135677,1.4148003,0.9624251,0.42452607,0.45010436,inf,inf,inf,inf,1,1,1,1,2,2,2,2,1,0,1,1,0,0,0
9388000,9388000,4388000,47.3977508,8.5456073,-0.0076118084,0.008508064,-0.017397419,-5.83896e-05,0.0077539906,0.00549623,-0.016743384,0.0038967882,0.034703627,0.027854625,-0.020038579,0.00047495755,0.05507004,0.0050212983,0.020754276,-0.0036284325,1.6241013,0.0017750862,488.05893,0.1,1.0089077,0.6070676,0.30157426,0.31704053,inf,inf,inf,inf,1,1,1,1,2,2,2,2,1,0,1,1,0,0,0
9884000,9884000,4388000,47.3977508,8.5456073,-0.005320135,0.0048388075,-0.0238216,-5.83896e-05,0.0077539906,0.00549623,-0.011469053,0.0011973276,0.01803964,0.002944473,-0.020038579,0.00047495755,0.05507004,-0.034397073,0.008937626,0.0003064051,1.6233851,0.0017750862,488.05893,0.1,0.83570415,0.50116557,0.25110546,0.25737968,inf,inf,inf,inf,1,1,1,1,2,2,2,2,1,0,1,1,0,0,0
10388000,10388000,4388000,47.3977508,8.5456073,-0.009537312,0.006158154,-0.02925256,-5.83896e-05,0.0077539906,0.00549623,-0.011359574,0.0023472693,0.0078033274,-0.0075247013,-0.020038579,0.00047495755,0.05507004,0.0014551186,0.012969321,-0.017054377,1.6229119,0.0017750862,488.05893,0.1,0.73974043,0.44939253,0.22808592,0.22115687,inf,inf,inf,inf,1,1,1,1,2,2,2,2,1,0,1,1,0,0,0
10884000,10884000,4388000,47.3977508,8.5456073,-0.0031533083,0.011668109,-0.030282129,-5.83896e-05,0.0077539906,0.00549623,-0.0023446386,0.006650074,0.0075985854,-0.0026962608,-0.020038579,0.00047495755,0.05507004,-0.006717222,0.012188305,0.012768432,1.6210093,0.0017750862,488.05893,0.102620214,0.6083504,0.38248703,0.19615507,0.17719978,inf,inf,inf,inf,1,1,1,1,2,2,2,2,1,0,1,1,0,0,0
11388000,11388000,4388000,47.3977508,8.5456073,0.0010492203,0.009983024,-0.024090512,-5.83896e-05,0.0077539906,0.00549623,0.0035345098,0.0030774032,0.015246404,0.009413784,-0.020038579,0.00047495755,0.05507004,-0.0038571886,0.016275546,0.048897225,1.6205363,0.0017750862,488.05893,0.1,0.58089256,0.37449747,0.20244169,0.16343631,inf,inf,inf,inf,1,1,1,1,2,2,2,2,1,0,1,1,0,0,0
11884000,11884000,4388000,47.3977508,8.5456073,0.006501497,0.0067323423,-0.016634176,-5.83896e-05,0.0077539906,0.00549623,0.009789196,-0.0005285628,0.022512946,0.01726192,-0.020038579,0.00047495755,0.05507004,0.0143957,-0.0093949055,0.021144746,1.6210123,0.0017750862,488.05893,0.1,0.5640553,0.3689353,0.21430351,0.15265459,inf,inf,inf,inf,1,1,1,1,2,2,2,2,1,0,1,1,0,0,0
12388000,12388000,4388000,47.3977508,8.5456073,0.0071318,0.00569226,-0.013266864,-5.83896e-05,0.0077539906,0.00549623,0.0111560775,-0.0020668881,0.02241208,0.013045602,-0.020038579,0.00047495755,0.05507004,0.020356601,0.0069185477,0.028706154,1.6211971,0.0017750862,488.05893,0.1,0.5571482,0.36904806,0.2299862,0.14493768,inf,inf,inf,inf,1,1,1,1,2,2,2,2,1,0,1,1,0,0,0
12884000,12884000,4388000,47.3977508,8.5456073,0.0049692187,0.007042453,-0.014949353,-5.83896e-05,0.0077539906,0.00549623,0.004232779,0.0011029848,0.022321932,0.006346981,-0.020038579,0.00047495755,0.05507004,-0.023412516,-0.011097581,0.047405247,1.6220955,0.0017750862,488.05893,0.1,0.5051973,0.33988008,0.2119108,0.12977469,inf,inf,inf,inf,1,1,1,1,2,2,2,2,1,0,1,1,0,0,0
13388000,13388000,4388000,47.3977508,8.5456073,0.002342426,0.010102279,-0.016663164,-5.83896e-05,0.0077539906,0.00549623,0.0018363168,0.003527409,0.022300012,0.0035883104,-0.020038579,0.00047495755,0.05507004,-0.04200324,0.007269307,0.0007320195,1.6218641,0.0017750862,488.05893,0.1,0.5085423,0.34319296,0.22394608,0.12697278,inf,inf,inf,inf,1,1,1,1,2,2,2,2,1,0,1,1,0,0,0
13884000,13884000,4388000,47.3977508,8.5456073,-0.0056800293,0.011368325,-0.01529081,-5.83896e-05,0.0077539906,0.00549623,-0.005239197,0.006894593,0.02125209,0.0024494366,-0.020038579,0.00047495755,0.05507004,0.0005666952,-0.022592997,0.0028582287,1.6219827,0.0017750862,488.05893,0.1,0.5151904,0.34485912,0.2335985,0.12512514,inf,inf,inf,inf,1,1,1,1,2,2,2,2,1,0,1,1,0,0,0
14388000,14388000,4388000,47.3977508,8.5456073,-0.012924711,0.012286511,-0.016950274,-5.83896e-05,0.0077539906,0.00549623,-0.0068800375,0.006681381,0.020886198,0.0008638273,-0.020038579,0.00047495755,0.05507004,0.0360842,-0.00084488414,0.0059651206,1.6227407,0.0017750862,488.05893,0.10060239,0.5259037,0.3492704,0.24190213,0.12475558,inf,inf,inf,inf,1,1,1,1,2,2,2,2,1,0,1,1,0,0,0
14884000,14884000,4388000,47.3977508,8.5456073,-0.0071086,0.01008273,-0.014924529,-5.83896e-05,0.0077539906,0.00549623,-0.0026160066,0.0074776146,0.019568192,0.0015918749,-0.020038579,0.00047495755,0.05507004,0.001883658,-0.016752994,0.041748393,1.622168,0.0017750862,488.05893,0.1,0.48290765,0.32718223,0.21235594,0.11747455,inf,inf,inf,inf,1,1,1,1,2,2,2,2,1,0,1,1,0,0,0
15388000,15388000,4388000,47.3977508,8.5456073,0.002215418,0.0066983057,-0.01679048,-5.83896e-05,0.0077539906,0.00549623,0.0033796353,0.004286582,0.019067284,-0.00092727266,-0.020038579,0.00047495755,0.05507004,0.02468239,0.015433818,0.02072565,1.6214397,0.0017750862,488.05893,0.1,0.4938633,0.33249155,0.21765913,0.11880458,inf,inf,inf,inf,1,1,1,1,2,2,2,2,1,0,1,1,0,0,0
15884000,15884000,4388000,47.3977508,8.5456073,0.0045801164,0.0036648395,-0.019300126,-5.83896e-05,0.0077539906,0.00549623,0.0045222174,0.0026221983,0.020906791,-0.00065399415,-0.020038579,0.00047495755,0.05507004,-0.0088152,-0.009682683,0.01833122,1.6194557,0.0017750862,488.05893,0.1,0.5052986,0.33766153,0.22157535,0.120375164,inf,inf,inf,inf,1,1,1,1,2,2,2,2,1,0,1,1,0,0,0
16388000,16388000,4388000,47.3977508,8.5456073,0.0041634273,0.002338452,-0.017826473,-5.83896e-05,0.0077539906,0.00549623,0.00627173,0.0033021113,0.022209717,0.0025596786,-0.020038579,0.00047495755,0.05507004,0.010298215,-0.013557989,0.014613382,1.618378,0.0017750862,488.05893,0.10035614,0.5189579,0.3424766,0.22550401,0.12211708,inf,inf,inf,inf,1,1,1,1,2,2,2,2,1,0,1,1,0,0,0
16884000,16884000,4388000,47.3977508,8.5456073,0.0041008075,0.0057838717,-0.017047936,-5.83896e-05,0.0077539906,0.00549623,0.009085958,0.004138516,0.026092786,0.0056971805,-0.020038579,0.00047495755,0.05507004,0.008955728,-0.0033700778,-0.0076331194,1.6177374,0.0017750862,488.05893,0.1,0.4778376,0.3231747,0.19849183,0.11658453,inf,inf,inf,inf,1,1,1,1,2,2,2,2,1,0,1,1,0,0,0
17388000,17388000,4388000,47.3977508,8.5456073,0.0041624145,0.0064409636,-0.013406331,-5.83896e-05,0.0077539906,0.00549623,0.011828018,0.0044230986,0.028853282,0.0088747535,-0.020038579,0.00047495755,0.05507004,0.018554943,-0.0011002265,0.019735655,1.6176362,0.0017750862,488.05893,0.1,0.49026552,0.3300617,0.2022557,0.11884323,inf,inf,inf,inf,1,1,1,1,2,2,2,2,1,0,1,1,0,0,0
17884000,17884000,4388000,47.3977508,8.5456073,0.0041058967,0.00649157,-0.008817684,-5.83896e-05,0.0077539906,0.00549623,0.009938611,0.0015449302,0.028159296,0.0084601715,-0.020038579,0.00047495755,0.05507004,-0.044982877,0.0035645934,-0.019804573,1.6178318,0.0017750862,488.05893,0.1,0.5021878,0.33654743,0.20520815,0.12084922,inf,inf,inf,inf,1,1,1,1,2,2,2,2,1,0,1,1,0,0,0
18388000,18388000,4388000,47.3977508,8.5456073,0.00086263864,0.0038141112,-0.009174545,-5.83896e-05,0.0077539906,0.00549623,0.011702332,0.0037478297,0.029716304,0.0066682813,-0.020038579,0.00047495755,0.05507004,0.042225152,-0.019446742,0.028174369,1.617833,0.0017750862,488.05893,0.1,0.46578723,0.31853878,0.18319541,0.11522224,inf,inf,inf,inf,1,1,1,1,2,2,2,2,1,0,1,1,0,0,0
18884000,18884000,4388000,47.3977508,8.5456073,0.00094300223,0.0041475296,-0.0054518837,-5.83896e-05,0.0077539906,0.00549623,0.015433271,0.005461165,0.031837285,0.009540903,-0.020038579,0.00047495755,0.05507004,0.021798156,-0.027486587,0.019659286,1.6168616,0.0017750862,488.05893,0.1,0.47640482,0.32499173,0.18632075,0.11712384,inf,inf,inf,inf,1,1,1,1,2,2,2,2,1,0,1,1,0,0,0
19388000,19388000,4388000,47.3977508,8.5456073,6.633847e-05,0.0041294685,-0.001997621,-5.83896e-05,0.0077539906,0.00549623,0.016477397,0.0030606145,0.03281321,0.009588173,-0.020038579,0.00047495755,0.05507004,0.0076767313,0.0023584869,0.0063003968,1.6161373,0.0017750862,488.05893,0.1,0.48845395,0.3309081,0.18990982,0.11889107,inf,inf,inf,inf,1,1,1,1,2,2,2,2,1,0,1,1,0,0,0
19884000,19884000,4388000,47.3977508,8.5456073,0.005009395,0.0050326996,0.0022922598,-5.83896e-05,0.0077539906,0.00549623,0.020069297,0.0050747492,0.03296299,0.009529207,-0.020038579,0.00047495755,0.05507004,0.024305873,0.012223055,0.010961666,1.6153789,0.0017750862,488.05893,0.1,0.49999303,0.33772865,0.19313896,0.120683804,inf,inf,inf,inf,1,1,1,1,2,2,2,2,1,0,1,1,0,0,0
20388000,20388000,4388000,47.3977508,8.5456073,0.015754031,0.0063592433,0.0019980092,-5.83896e-05,0.0077539906,0.00549623,0.024801148,0.006054608,0.03142706,0.0051918384,-0.020038579,0.00047495755,0.05507004,0.020033853,0.019637546,-0.006492249,1.6157362,0.0017750862,488.05893,0.100478016,0.5131649,0.34388036,0.19700529,0.12234763,inf,inf,inf,inf,1,1,1,1,2,2,2,2,1,0,1,1,0,0,0
20884000,20884000,4388000,47.3977508,8.5456073,0.012828038,0.00447318,0.0011778616,-5.83896e-05,0.0077539906,0.00549623,0.021480707,-0.0010056259,0.0314651,0.0030187997,-0.020038579,0.00047495755,0.05507004,0.011460651,-0.019909259,0.01531653,1.6156293,0.0017750862,488.05893,0.1,0.47518334,0.3259433,0.17810693,0.1164684,inf,inf,inf,inf,1,1,1,1,2,2,2,2,1,0,1,1,0,0,0
21388000,21388000,4388000,47.3977508,8.5456073,0.012770658,0.0003222748,0.0015329274,-5.83896e-05,0.0077539906,0.00549623,0.016945306,-0.008460465,0.031444907,0.0023107831,-0.020038579,0.00047495755,0.05507004,0.0050033703,-0.01427847,-0.01887977,1.6147165,0.0017750862,488.05893,0.1,0.48682395,0.3317567,0.18206586,0.1181036,inf,inf,inf,inf,1,1,1,1,2,2,2,2,1,0,1,1,0,0,0
21884000,21884000,4388000,47.3977508,8.5456073,0.008885073,-0.0012237525,0.0032422252,-5.83896e-05,0.0077539906,0.00549623,0.013700081,-0.011994062,0.030934699,0.002946994,-0.020038579,0.00047495755,0.05507004,-0.00830894,-0.0028258653,0.038033348,1.6142515,0.0017750862,488.05893,0.10058234,0.49811855,0.3385089,0.18585461,0.11986275,inf,inf,inf,inf,1,1,1,1,2,2,2,2,1,0,1,1,0,0,0
22388000,22388000,4388000,47.3977508,8.5456073,0.0069702263,-0.002464588,0.0064251847,-5.83896e-05,0.0077539906,0.00549623,0.011402475,-0.01899573,0.03313201,0.006747789,-0.020038579,0.00047495755,0.05507004,0.0066260104,0.006947331,0.013878568,1.6132181,0.0017750862,488.05893,0.1,0.46415195,0.32002965,0.16967392,0.1139624,inf,inf,inf,inf,1,1,1,1,2,2,2,2,1,0,1,1,0,0,0
22884000,22884000,4388000,47.3977508,8.5456073,0.0054348055,-0.0007821206,0.012539218,-5.83896e-05,0.0077539906,0.00549623,0.010238561,-0.019938461,0.039106112,0.014636501,-0.020038579,0.00047495755,0.05507004,0.010574033,-0.014272678,0.027509404,1.6128361,0.0017750862,488.05893,0.1,0.47416398,0.32634917,0.17342152,0.11571945,inf,inf,inf,inf,1,1,1,1,2,2,2,2,1,0,1,1,0,0,0
23388000,23388000,4388000,47.3977508,8.5456073,0.009211066,0.0069603245,0.019756999,-5.83896e-05,0.0077539906,0.00549623,0.012012773,-0.014524689,0.044634223,0.017951548,-0.020038579,0.00047495755,0.05507004,-0.011858937,-0.0053921393,0.0061150636,1.6130412,0.0017750862,488.05893,0.1,0.48549876,0.33199844,0.17765324,0.1174016,inf,inf,inf,inf,1,1,1,1,2,2,2,2,1,0,1,1,0,0,0
23884000,23884000,4388000,47.3977508,8.5456073,0.014823406,0.011203657,0.022323184,-5.83896e-05,0.0077539906,0.00549623,0.0119190905,-0.011071776,0.045934375,0.013980488,-0.020038579,0.00047495755,0.05507004,0.009716371,0.05033427,0.03406312,1.6134516,0.0017750862,488.05893,0.1,0.49637985,0.3385154,0.18160982,0.11918854,inf,inf,inf,inf,1,1,1,1,2,2,2,2,1,0,1,1,0,0,0
24388000,24388000,4388000,47.3977508,8.5456073,0.01902078,0.016472857,0.026449125,-5.83896e-05,0.0077539906,0.00549623,0.01371954,-0.010689803,0.044753123,0.012000394,-0.020038579,0.00047495755,0.05507004,-0.019432496,0.0066565694,0.037011687,1.6131212,0.0017750862,488.05893,0.10078357,0.50869673,0.34423852,0.18606673,0.12086078,inf,inf,inf,inf,1,1,1,1,2,2,2,2,1,0,1,1,0,0,0
24884000,24884000,4388000,47.3977508,8.5456073,0.014365357,0.010957108,0.019393047,-5.83896e-05,0.0077539906,0.00549623,0.012335944,-0.015870119,0.042200997,0.0013478315,-0.020038579,0.00047495755,0.05507004,0.009618742,-0.023444925,0.017104669,1.6124085,0.0017750862,488.05893,0.1,0.47300237,0.3261843,0.17066306,0.11527564,inf,inf,inf,inf,1,1,1,1,2,2,2,2,1,0,1,1,0,0,0
25388000,25388000,4388000,47.3977508,8.5456073,0.012167898,0.0035731054,0.02478026,-5.83896e-05,0.0077539906,0.00549623,0.010336876,-0.021866744,0.0458723,0.009217687,-0.020038579,0.00047495755,0.05507004,0.010563336,-0.03514804,-0.0026207415,1.6123326,0.0017750862,488.05893,0.1,0.48419216,0.33181965,0.17507538,0.117055945,inf,inf,inf,inf,1,1,1,1,2,2,2,2,1,0,1,1,0,0,0
25884000,25884000,4388000,47.3977508,8.5456073,0.010197199,0.0013766962,0.033920117,-5.83896e-05,0.0077539906,0.00549623,0.0057650404,-0.024576506,0.048153874,0.014815513,-0.020038579,0.00047495755,0.05507004,-0.0031165543,-0.057087597,0.009270384,1.6118336,0.0017750862,488.05893,0.1,0.49497092,0.3382906,0.17920132,0.11891348,inf,inf,inf,inf,1,1,1,1,2,2,2,2,1,0,1,1,0,0,0
26388000,26388000,4388000,47.3977508,8.5456073,0.0074441503,-0.00377241,0.035945155,-5.83896e-05,0.0077539906,0.00549623,-0.0014271645,-0.028713003,0.051867664,0.014424735,-0.020038579,0.00047495755,0.05507004,-0.02694089,-0.0013109092,0.03990717,1.6117176,0.0017750862,488.05893,0.1,0.5073463,0.34399948,0.1838668,0.12066226,inf,inf,inf,inf,1,1,1,1,2,2,2,2,1,0,1,1,0,0,0
26884000,26884000,4388000,47.3977508,8.5456073,0.0115296915,-0.0026039178,0.03335751,-5.83896e-05,0.0077539906,0.00549623,-0.0019972846,-0.030103734,0.054139785,0.009359351,-0.020038579,0.00047495755,0.05507004,-0.019480532,-0.06450008,0.020076519,1.6111641,0.0017750862,488.05893,0.1,0.4721067,0.32579464,0.16899191,0.11507746,inf,inf,inf,inf,1,1,1,1,2,2,2,2,1,0,1,1,0,0,0
27388000,27388000,4388000,47.3977508,8.5456073,0.008960313,0.0007256523,0.03599466,-5.83896e-05,0.0077539906,0.00549623,-0.009015033,-0.030512478,0.058032073,0.012345666,-0.020038579,0.00047495755,0.05507004,-0.024499182,-0.011638344,0.031103378,1.611353,0.0017750862,488.05893,0.1,0.48323268,0.33274174,0.17346393,0.11713451,inf,inf,inf,inf,1,1,1,1,2,2,2,2,1,0,1,1,0,0,0
27884000,27884000,4388000,47.3977508,8.5456073,0.004582153,0.0015019211,0.04744187,-5.83896e-05,0.0077539906,0.00549623,-0.017872537,-0.033288006,0.06847968,0.025645984,-0.020038579,0.00047495755,0.05507004,-0.040660683,-0.038934477,0.018686986,1.6114469,0.0017750862,488.05893,0.1,0.49410817,0.33765066,0.17772193,0.11873702,inf,inf,inf,inf,1,1,1,1,2,2,2,2,1,0,1,1,0,0,0
28388000,28388000,4388000,47.3977508,8.5456073,0.0012455527,0.0042686844,0.060708933,-5.83896e-05,0.0077539906,0.00549623,-0.022007998,-0.03181619,0.075510435,0.03242037,-0.020038579,0.00047495755,0.05507004,-0.003770401,0.020099482,-0.03116112,1.611287,0.0017750862,488.05893,0.1,0.46182546,0.32042426,0.1638762,0.11333584,inf,inf,inf,inf,1,1,1,1,2,2,2,2,1,0,1,1,0,0,0
28884000,28884000,4388000,47.3977508,8.5456073,-0.0025537536,0.00070277264,0.062229883,-5.83896e-05,0.0077539906,0.00549623,-0.024688326,-0.037775464,0.07739011,0.023390818,-0.020038579,0.00047495755,0.05507004,-0.0034855036,-0.053834006,0.027142463,1.6104637,0.0017750862,488.05893,0.1,0.47158077,0.32537696,0.16792984,0.11502847,inf,inf,inf,inf,1,1,1,1,2,2,2,2,1,0,1,1,0,0,0
29388000,29388000,4388000,47.3977508,8.5456073,-0.0023860037,-0.0022131049,0.06381456,-5.83896e-05,0.0077539906,0.00549623,-0.023953013,-0.039389294,0.07892085,0.016391113,-0.020038579,0.00047495755,0.05507004,0.02559694,-0.041210074,0.05944259,1.6101123,0.0017750862,488.05893,0.1,0.4827983,0.33116013,0.17249948,0.11692361,inf,inf,inf,inf,1,1,1,1,2,2,2,2,1,0,1,1,0,0,0
29884000,29884000,4388000,47.3977508,8.5456073,-0.00866682,-0.005434679,0.07726938,-5.83896e-05,0.0077539906,0.00549623,-0.02255878,-0.04082516,0.08340074,0.026174095,-0.020038579,0.00047495755,0.05507004,-0.012146949,-0.024072388,0.04186667,1.609503,0.0017750862,488.05893,0.1,0.4936349,0.33779466,0.17676365,0.11887436,inf,inf,inf,inf,1,1,1,1,2,2,2,2,1,0,1,1,0,0,0
30388000,30388000,4388000,47.3977508,8.5456073,-0.011951015,-0.010500541,0.092106596,-5.83896e-05,0.0077539906,0.00549623,-0.01925891,-0.044830434,0.08531073,0.030183952,-0.020038579,0.00047495755,0.05507004,0.01720483,-0.016388789,0.0134930005,1.6106695,0.0017750862,488.05893,0.1,0.5057609,0.345142,0.1813594,0.12094389,inf,inf,inf,inf,1,1,1,1,2,2,2,2,1,0,1,1,0,0,0
30884000,30884000,4388000,47.3977508,8.5456073,-0.011204957,-0.0050690835,0.09111251,-5.83896e-05,0.0077539906,0.00549623,-0.011638223,-0.041641213,0.08369992,0.017338192,-0.020038579,0.00047495755,0.05507004,0.036426343,-0.022329869,-0.002509914,1.6109537,0.0017750862,488.05893,0.1,0.47129178,0.32554013,0.16722639,0.11511377,inf,inf,inf,inf,1,1,1,1,2,2,2,2,1,0,1,1,0,0,0
31388000,31388000,4388000,47.3977508,8.5456073,-0.011712081,-0.005515577,0.0961532,-5.83896e-05,0.0077539906,0.00549623,-0.008696919,-0.040677126,0.084356725,0.016643459,-0.020038579,0.00047495755,0.05507004,0.04229089,-0.03161277,0.050347295,1.6109141,0.0017750862,488.05893,0.1,0.48247752,0.33267385,0.17179143,0.11722808,inf,inf,inf,inf,1,1,1,1,2,2,2,2,1,0,1,1,0,0,0
31884000,31884000,4388000,47.3977508,8.5456073,-0.0095294565,-0.009575316,0.107359126,-5.83896e-05,0.0077539906,0.00549623,-0.0015475763,-0.042341456,0.085176624,0.020120628,-0.020038579,0.00047495755,0.05507004,0.002871762,-0.016029937,0.00565499,1.6108677,0.0017750862,488.05893,0.1,0.493147,0.33757272,0.1759627,0.11879043,inf,inf,inf,inf,1,1,1,1,2,2,2,2,1,0,1,1,0,0,0
32388000,32388000,4388000,47.3977508,8.5456073,-0.0065373546,-0.0111344205,0.11778535,-5.83896e-05,0.0077539906,0.00549623,0.004136843,-0.042096905,0.086687274,0.023175463,-0.020038579,0.00047495755,0.05507004,0.01569389,0.011830008,0.0540046,1.611087,0.0017750862,488.05893,0.1,0.50524694,0.3432534,0.18056314,0.12053251,inf,inf,inf,inf,1,1,1,1,2,2,2,2,1,0,1,1,0,0,0
32884000,32884000,4388000,47.3977508,8.5456073,0.0064907367,-0.00987788,0.11381192,-5.83896e-05,0.0077539906,0.00549623,0.017099407,-0.03978075,0.08244181,0.008774091,-0.020038579,0.00047495755,0.05507004,0.024140956,-0.019269222,0.008625909,1.6110399,0.0017750862,488.05893,0.10425071,0.47086695,0.3253158,0.1665509,0.11502485,inf,inf,inf,inf,1,1,1,1,2,2,2,2,1,0,1,1,0,0,0
33388000,33388000,4388000,47.3977508,8.5456073,0.011261722,-0.012391616,0.11337187,-5.83896e-05,0.0077539906,0.00549623,0.02337029,-0.04117042,0.0785587,0.0027130102,-0.020038579,0.00047495755,0.05507004,0.035983335,-0.033407733,0.048057172,1.6113985,0.0017750862,488.05893,0.10469075,0.48190957,0.33237603,0.17105435,0.1171113,inf,inf,inf,inf,1,1,1,1,2,2,2,2,1,0,1,1,0,0,0
33884000,33884000,4388000,47.3977508,8.5456073,0.0123486575,-0.015996216,0.11537642,-5.83896e-05,0.0077539906,0.00549623,0.02712363,-0.04087513,0.074071184,0.00039102836,-0.020038579,0.00047495755,0.05507004,0.030354159,0.013055614,0.025778076,1.6117768,0.0017750862,488.05893,0.10604554,0.49257803,0.33885932,0.17528199,0.118994854,inf,inf,inf,inf,1,1,1,1,2,2,2,2,1,0,1,1,0,0,0
34388000,34388000,4388000,47.3977508,8.5456073,0.01375306,-0.025386674,0.10296697,-5.83896e-05,0.0077539906,0.00549623,0.030396882,-0.045670435,0.062376738,-0.017366532,-0.020038579,0.00047495755,0.05507004,0.0102477055,-0.03220544,-0.000542961,1.6116229,0.0017750862,488.05893,0.11878794,0.50467694,0.34454304,0.17993574,0.12074012,inf,inf,inf,inf,1,1,1,1,2,2,2,2,1,0,1,1,0,0,0
34884000,34884000,4388000,47.3977508,8.5456073,0.014784016,-0.024761168,0.0851039,-5.83896e-05,0.0077539906,0.00549623,0.021982826,-0.04640367,0.011173089,-0.06893723,-0.020038579,0.00047495755,0.05507004,-0.079531945,-0.021398736,-0.32787302,1.611314,0.0017750862,488.05893,0.13665101,0.47051892,0.3250459,0.16618332,0.114945196,inf,inf,inf,inf,1,1,1,1,2,2,2,2,1,0,1,1,0,0,0
35388000,35388000,4388000,47.3977508,8.5456073,-0.03262206,-0.030391177,0.016762398,-5.83896e-05,0.0077539906,0.00549623,-0.21952921,-0.09617562,-0.24031144,-0.3080736,-0.020038579,0.00047495755,0.05507004,-0.34104216,-0.16397351,-0.8539613,1.6179607,0.0017750862,488.05893,0.2049925,0.48158818,0.330743,0.17167617,0.11678506,inf,inf,inf,inf,1,1,1,1,2,2,2,2,1,0,1,1,0,0,0
35884000,35884000,4388000,47.3977508,8.5456073,-0.15296535,-0.05730016,-0.23052381,-5.83896e-05,0.0077539906,0.00549623,-0.192857,-0.08906253,-0.688871,-0.7418336,-0.020038579,0.00047495755,0.05507004,0.2393038,0.03564736,-0.8451286,1.6176658,0.0017750862,488.05893,0.45227873,0.4925538,0.3374513,0.17829722,0.11876385,inf,inf,inf,inf,1,1,1,1,2,2,2,2,1,0,1,1,0,0,0
36388000,36388000,4388000,47.3977508,8.5456073,-0.22897623,-0.063958906,-0.6493491,-5.83896e-05,0.0077539906,0.00549623,-0.05196091,-0.052756228,-0.8597427,-0.9073635,-0.020038579,0.00047495755,0.05507004,0.28074703,0.06409827,-0.25464034,1.6170183,0.0017750862,488.05893,0.871104,0.46083623,0.31913,0.16483985,0.11315746,inf,inf,inf,inf,1,1,1,1,2,2,2,2,1,0,1,1,0,0,0
36884000,36884000,4388000,47.3977508,8.5456073,-0.25698552,-0.06496181,-1.1354697,-5.83896e-05,0.0077539906,0.00549623,0.060783442,-0.027402017,-1.0012479,-1.0485612,-0.020038579,0.00047495755,0.05507004,0.22725174,0.046443105,-0.24964751,1.6164539,0.0017750862,488.05893,1.3572246,0.4708247,0.32560003,0.16908371,0.115131125,inf,inf,inf,inf,1,1,1,1,2,2,2,2,1,0,1,1,0,0,0
37388000,37388000,4388000,47.3977508,8.5456073,-0.23275714,-0.06243414,-1.6886873,-5.83896e-05,0.0077539906,0.00549623,0.12755258,-0.008757126,-1.1157427,-1.1598777,-0.020038579,0.00047495755,0.05507004,0.10355925,-0.011037147,-0.22672115,1.6259371,0.009810844,488.05893,1.9104422,0.48203626,0.33139697,0.17224,0.11698244,inf,inf,inf,inf,1,1,1,1,2,2,2,2,2,0,1,1,0,0,0
37884000,37884000,4388000,47.3977508,8.5456073,-0.17837842,-0.053578924,-2.282428,-5.83896e-05,0.0077539906,0.00549623,0.14651223,0.0008037093,-1.2027931,-1.243993,-0.020038579,0.00047495755,0.05507004,0.0008295901,-0.017510202,-0.13937986,1.6224351,0.009810844,488.05893,2.5041828,0.49241376,0.33799088,0.26057985,0.11889091,inf,inf,inf,inf,1,1,1,1,2,2,2,2,2,0,1,1,0,0,0
38388000,38388000,4388000,47.3977508,8.5456073,-0.11891006,-0.029680619,-2.9249785,-5.83896e-05,0.0077539906,0.00549623,0.1241876,0.013298596,-1.2721225,-1.3107969,-0.020038579,0.00047495755,0.05507004,-0.012696851,-0.06506058,-0.10325573,1.6220821,0.009810844,488.05893,3.1467333,0.50869435,0.34529006,0.35524276,0.120928794,inf,inf,inf,inf,1,1,1,1,2,2,2,2,2,1,1,1,0,0,0
38884000,38884000,4388000,47.3977508,8.5456073,-0.0909709,-0.017751759,-3.5973048,-5.83896e-05,0.0077539906,0.00549623,0.082617804,-0.0022460597,-1.3302749,-1.3739772,-0.020038579,0.00047495755,0.05507004,0.0004932371,-0.0018555583,-0.08131377,1.620424,0.009810844,488.05893,3.8190598,0.47098982,0.32549864,0.2936227,0.1150273,inf,inf,inf,inf,1,1,1,1,2,2,2,2,2,1,1,1,0,0,0
39388000,39388000,4388000,47.3977508,8.5456073,-0.053154998,-0.018905576,-4.3007054,-5.83896e-05,0.0077539906,0.00549623,0.07039814,-0.009392403,-1.3718109,-1.4164726,-0.020038579,0.00047495755,0.05507004,-0.052944057,0.0083076,-0.085227184,1.6225365,0.009810844,488.05893,4.5224605,0.48516935,0.33246714,0.3000462,0.117101476,inf,inf,inf,inf,1,1,1,1,2,2,2,2,2,1,1,1,0,0,0
39884000,39884000,4388000,47.3977508,8.5456073,-0.021605615,-0.018454252,-5.01645,-5.83896e-05,0.0077539906,0.00549623,0.03772616,-0.0050335512,-1.4048376,-1.4531344,-0.020038579,0.00047495755,0.05507004,-0.053611472,-0.0053291875,-0.07202103,1.6228158,0.009810844,488.05893,5.238205,0.50033015,0.33737463,0.29655635,0.11870961,inf,inf,inf,inf,1,1,1,1,2,2,2,2,2,1,1,1,0,0,0
40388000,40388000,4388000,47.3977508,8.5456073,0.0018233452,-0.024588682,-5.758554,-5.83896e-05,0.0077539906,0.00549623,0.017785382,-0.0096235005,-1.4302,-1.4798943,-0.020038579,0.00047495755,0.05507004,-0.07299055,0.012896314,-0.009675509,1.6219076,0.009810844,488.05893,5.980309,0.51766974,0.34465128,0.29062912,0.12080856,inf,inf,inf,inf,1,1,1,1,2,2,2,2,2,1,1,1,0,0,0
40884000,40884000,4388000,47.3977508,8.5456073,0.009667928,-0.034497794,-6.5047317,-5.83896e-05,0.0077539906,0.00549623,-0.0025050747,-0.0068884254,-1.4504952,-1.5059228,-0.020038579,0.00047495755,0.05507004,-0.03583212,-0.020509643,-0.05011912,1.6218183,0.009810844,488.05893,6.7264867,0.4749627,0.3251479,0.23424788,0.115059786,inf,inf,inf,inf,1,1,1,1,2,2,2,2,2,1,1,1,0,0,0
41388000,41388000,4388000,47.3977508,8.5456073,0.0146769285,-0.04066878,-7.27578,-5.83896e-05,0.0077539906,0.00549623,-0.011667621,0.001268745,-1.4638132,-1.5249263,-0.020038579,0.00047495755,0.05507004,-0.05913759,0.033265386,0.017345881,1.6218237,0.009810844,488.05893,7.497535,0.48879802,0.33222118,0.23166983,0.11719468,inf,inf,inf,inf,1,1,1,1,2,2,2,2,2,1,1,1,0,0,0
41884000,41884000,4388000,47.3977508,8.5456073,0.013427889,-0.03502015,-7.994615,-5.83896e-05,0.0077539906,0.00549623,-0.02215332,0.0048207883,-1.24955,-1.3147619,-0.020038579,0.00047495755,0.05507004,-0.052751083,0.004072426,0.45349538,1.622347,0.009810844,488.05893,8.21637,0.50214374,0.33881032,0.22791167,0.11916262,inf,inf,inf,inf,1,1,1,1,2,2,2,2,2,1,1,1,0,0,0
42388000,42388000,4388000,47.3977508,8.5456073,0.00995378,-0.028721223,-8.610916,-5.83896e-05,0.0077539906,0.00549623,-0.02390929,0.007884247,-1.0270231,-1.0977399,-0.020038579,0.00047495755,0.05507004,0.016992008,0.018039078,0.4747305,1.6222259,0.009810844,488.05893,8.832671,0.4653956,0.32022437,0.1948046,0.11352042,inf,inf,inf,inf,1,1,1,1,2,2,2,2,2,1,1,1,0,0,0
42884000,42884000,4388000,47.3977508,8.5456073,0.005584633,-0.028587928,-9.120247,-5.83896e-05,0.0077539906,0.00549623,-0.023973767,0.0037439824,-0.8060207,-0.8902412,-0.020038579,0.00047495755,0.05507004,-0.002313114,0.008531671,0.49365962,1.6224035,0.009810844,488.05893,9.342002,0.4764774,0.3264585,0.19352852,0.115438275,inf,inf,inf,inf,1,1,1,1,2,2,2,2,2,1,1,1,0,0,0
43388000,43388000,4388000,47.3977508,8.5456073,0.009439104,-0.018157111,-9.498861,-5.83896e-05,0.0077539906,0.00549623,0.11442953,0.11724629,-0.46864194,-0.55904895,-0.020038579,0.00047495755,0.05507004,1.0089784,0.82516026,0.87053883,1.4571503,0.009810844,488.05893,9.720616,0.4888579,0.33213085,0.19297622,0.117294304,inf,inf,inf,inf,1,1,1,1,2,2,2,2,2,1,1,1,0,0,0
43884000,43884000,4388000,47.3977508,8.5456073,0.25362018,0.12403788,-9.684967,-5.83896e-05,0.0077539906,0.00549623,1.001411,0.50028515,-0.111041285,-0.20126253,-0.020038579,0.00047495755,0.05507004,2.5271292,0.73211324,0.7762173,0.96346164,0.009810844,488.05893,9.906722,0.5003582,0.33869454,0.19731614,0.119198576,inf,inf,inf,inf,1,1,1,1,2,2,2,2,2,1,1,1,0,0,0
44388000,44388000,4388000,47.3977508,8.5456073,1.1158537,0.43684977,-9.743774,-5.83896e-05,0.0077539906,0.00549623,2.3934567,0.92533666,-0.025511483,-0.11290279,-0.020038579,0.00047495755,0.05507004,2.556382,0.9511021,0.121345736,0.53712046,0.009810844,488.05893,9.965529,0.51337373,0.34446952,0.23042737,0.12267754,inf,inf,inf,inf,1,1,1,1,2,2,2,2,2,1,1,1,0,0,0
44884000,44884000,4388000,47.3977508,8.5456073,2.6348023,0.87739813,-9.791669,-5.83896e-05,0.0077539906,0.00549623,3.582075,1.3438095,0.053196773,-0.03673196,-0.020038579,0.00047495755,0.05507004,2.0008187,1.2296075,0.37680283,0.2312517,0.009810844,488.05893,10.013424,0.4753039,0.32499596,0.23964024,0.12045628,inf,inf,inf,inf,1,1,1,1,2,2,2,2,2,1,1,1,0,0,0
45388000,45388000,4388000,47.3977508,8.5456073,4.692436,1.5278852,-9.776301,-5.83896e-05,0.0077539906,0.00549623,4.160786,1.8228277,0.12514064,0.04336397,-0.020038579,0.00047495755,0.05507004,0.23748724,1.0812606,0.06990786,0.34004992,0.009810844,488.05893,9.998056,0.48713806,0.33109233,0.27099013,0.12508982,inf,inf,inf,inf,1,1,1,1,2,2,2,2,2,1,1,1,0,0,0
45884000,45884000,4388000,47.3977508,8.5456073,6.8451376,2.3399532,-9.736096,-5.83896e-05,0.0077539906,0.00549623,4.07148,1.966728,0.10017859,0.03359105,-0.020038579,0.00047495755,0.05507004,-0.4815978,0.2969629,-0.08785724,0.3882535,0.009810844,488.05893,9.957851,0.50007105,0.33833784,0.2807819,0.12606989,inf,inf,inf,inf,1,1,1,1,2,2,2,2,2,1,1,1,0,0,0
46388000,46388000,4388000,47.3977508,8.5456073,8.972388,3.2419512,-9.713753,-5.83896e-05,0.0077539906,0.00549623,4.014716,2.0483923,0.07362432,0.016903218,-0.020038579,0.00047495755,0.05507004,-0.14705431,0.29414117,-0.059862617,0.39356422,0.009810844,488.05893,9.935508,0.5158039,0.3448083,0.28603142,0.12684362,inf,inf,inf,inf,1,1,1,1,2,2,2,2,2,1,1,1,0,0,0
46884000,46884000,4388000,47.3977508,8.5456073,11.057186,4.17909,-9.709787,-5.83896e-05,0.0077539906,0.00549623,4.0441437,2.0713913,0.051737074,-0.0062103467,-0.020038579,0.00047495755,0.05507004,-0.008484348,0.10860228,0.021759419,0.39454356,0.009810844,488.05893,9.931542,0.47510266,0.32646993,0.23698668,0.11948595,inf,inf,inf,inf,1,1,1,1,2,2,2,2,2,1,1,1,0,0,0
47388000,47388000,4388000,47.3977508,8.5456073,13.162841,5.18415,-9.71756,-5.83896e-05,0.0077539906,0.00549623,4.105779,2.066343,0.053326398,-0.008730587,-0.020038579,0.00047495755,0.05507004,0.13692339,0.01156493,0.0441689,0.39338315,0.009810844,488.05893,9.939315,0.48824453,0.3325333,0.23888361,0.12125449,inf,inf,inf,inf,1,1,1,1,2,2,2,2,2,1,1,1,0,0,0
47884000,47884000,4388000,47.3977508,8.5456073,15.255277,6.190961,-9.721807,-5.83896e-05,0.0077539906,0.00549623,4.1882353,2.0196068,0.05390522,-0.008407279,-0.020038579,0.00047495755,0.05507004,0.11289794,-0.069672525,0.012882053,0.39172277,0.009810844,488.05893,9.943562,0.50124705,0.3393983,0.23859309,0.1231335,inf,inf,inf,inf,1,1,1,1,2,2,2,2,2,1,1,1,0,0,0
48388000,48388000,4388000,47.3977508,8.5456073,17.399471,7.1935167,-9.733603,-5.83896e-05,0.0077539906,0.00549623,4.2764754,1.9538583,0.05876207,-0.008204388,-0.020038579,0.00047495755,0.05507004,0.21076295,-0.12365995,0.03313273,0.39015564,0.009810844,488.05893,9.955358,0.51571435,0.34539628,0.23795825,0.124816455,inf,inf,inf,inf,1,1,1,1,2,2,2,2,2,1,1,1,0,0,0
48884000,48884000,4388000,47.3977508,8.5456073,19.555285,8.146487,-9.744197,-5.83896e-05,0.0077539906,0.00549623,4.3736367,1.8932726,0.057543226,-0.013804592,-0.020038579,0.00047495755,0.05507004,0.13588345,-0.09437266,0.0013476236,0.3895256,0.009810844,488.05893,9.965952,0.47577935,0.3268773,0.20415455,0.118464895,inf,inf,inf,inf,1,1,1,1,2,2,2,2,2,1,1,1,0,0,0
49388000,49388000,4388000,47.3977508,8.5456073,21.788757,9.092657,-9.752862,-5.83896e-05,0.0077539906,0.00549623,4.4401755,1.8501757,0.06376293,-0.009669622,-0.020038579,0.00047495755,0.05507004,0.091608495,-0.106085315,0.02509076,0.38922012,0.009810844,488.05893,9.974617,0.48824775,0.3328724,0.20494135,0.12022,inf,inf,inf,inf,1,1,1,1,2,2,2,2,2,1,1,1,0,0,0
49884000,49884000,4388000,47.3977508,8.5456073,24.010275,10.008554,-9.753955,-5.83896e-05,0.0077539906,0.00549623,4.4589677,1.82319,0.061060123,-0.00830736,-0.020038579,0.00047495755,0.05507004,0.008550472,-0.030311696,0.0063898037,0.38918948,0.009810844,488.05893,9.97571,0.49996573,0.33963376,0.20527567,0.12189495,inf,inf,inf,inf,1,1,1,1,2,2,2,2,2,1,1,1,0,0,0
50388000,50388000,4388000,47.3977508,8.5456073,26.277115,10.929023,-9.759536,-5.83896e-05,0.0077539906,0.00549623,4.480086,1.8183379,0.060694814,-0.0074526663,-0.020038579,0.00047495755,0.05507004,0.058602188,0.01179456,0.032451,0.38981014,0.009810844,488.05893,9.981291,0.51317424,0.34558424,0.20626208,0.12338288,inf,inf,inf,inf,1,1,1,1,2,2,2,2,2,1,1,1,0,0,0
50884000,50884000,4388000,47.3977508,8.5456073,28.517366,11.831381,-9.777919,-5.83896e-05,0.0077539906,0.00549623,4.4979105,1.8230187,0.06201511,-0.016518345,-0.020038579,0.00047495755,0.05507004,0.039904725,0.040359385,-0.0027744097,0.39006478,0.009810844,488.05893,9.999674,0.47529277,0.32711807,0.18317555,0.11716395,inf,inf,inf,inf,1,1,1,1,2,2,2,2,2,1,1,1,0,0,0
51388000,51388000,4388000,47.3977508,8.5456073,30.8041,12.754185,-9.783,-5.83896e-05,0.0077539906,0.00549623,4.517786,1.836419,0.06382792,-0.012675267,-0.020038579,0.00047495755,0.05507004,0.013136537,0.009113864,0.029572284,0.39039284,0.009810844,488.05893,10.004755,0.48672348,0.33425885,0.18522309,0.11894469,inf,inf,inf,inf,1,1,1,1,2,2,2,2,2,1,1,1,0,0,0
51884000,51884000,4388000,47.3977508,8.5456073,33.067135,13.678164,-9.786303,-5.83896e-05,0.0077539906,0.00549623,4.5340953,1.8535322,0.062731795,-0.010513976,-0.020038579,0.00047495755,0.05507004,-0.020874662,0.009251641,0.006895512,0.39012218,0.009810844,488.05893,10.008058,0.49768743,0.34084564,0.1873845,0.12053183,inf,inf,inf,inf,1,1,1,1,2,2,2,2,2,1,1,1,0,0,0
52388000,52388000,4388000,47.3977508,8.5456073,35.367096,14.623714,-9.791419,-5.83896e-05,0.0077539906,0.00549623,4.544534,1.8647491,0.06492652,-0.006194284,-0.020038579,0.00047495755,0.05507004,0.028904758,0.02395705,-0.0049276273,0.3906119,0.009810844,488.05893,10.013174,0.50994194,0.3465734,0.19038586,0.12194074,inf,inf,inf,inf,1,1,1,1,2,2,2,2,2,1,1,1,0,0,0
52884000,52884000,4388000,47.3977508,8.5456073,37.634922,15.558427,-9.804594,-5.83896e-05,0.0077539906,0.00549623,4.559156,1.8697169,0.06296075,-0.014262039,-0.020038579,0.00047495755,0.05507004,0.03769458,0.017946584,0.020107253,0.39014944,0.009810844,488.05893,10.026349,0.47366762,0.3277647,0.1730446,0.11579251,inf,inf,inf,inf,1,1,1,1,2,2,2,2,2,1,1,1,0,0,0
53388000,53388000,4388000,47.3977508,8.5456073,39.948048,16.505331,-9.810739,-5.83896e-05,0.0077539906,0.00549623,4.574207,1.8764952,0.063253656,-0.01288878,-0.020038579,0.00047495755,0.05507004,0.032179404,-0.0065155323,0.021142883,0.39067873,0.009810844,488.05893,10.032494,0.4846893,0.33332312,0.17701347,0.11727051,inf,inf,inf,inf,1,1,1,1,2,2,2,2,2,1,1,1,0,0,0
53884000,53884000,4388000,47.3977508,8.5456073,42.229496,17.438612,-9.816159,-5.83896e-05,0.0077539906,0.00549623,4.5814643,1.879906,0.0639246,-0.010630177,-0.020038579,0.00047495755,0.05507004,0.05380355,-0.001159089,0.06829388,0.3908444,0.009810844,488.05893,10.037914,0.49512133,0.33811042,0.18090425,0.118484475,inf,inf,inf,inf,1,1,1,1,2,2,2,2,2,1,1,1,0,0,0
54388000,54388000,4388000,47.3977508,8.5456073,44.556145,18.390669,-9.822113,-5.83896e-05,0.0077539906,0.00549623,4.589898,1.8869966,0.06588215,-0.0073879156,-0.020038579,0.00047495755,0.05507004,-0.011015217,0.029918388,0.023030674,0.3912294,0.009810844,488.05893,10.043868,0.5069724,0.3452292,0.18551652,0.1201635,inf,inf,inf,inf,1,1,1,1,2,2,2,2,2,1,1,1,0,0,0
54884000,54884000,4388000,47.3977508,8.5456073,46.850334,19.342127,-9.838022,-5.83896e-05,0.0077539906,0.00549623,4.5911775,1.8929868,0.06392753,-0.017665964,-0.020038579,0.00047495755,0.05507004,-0.015560537,-0.03203406,-0.012040137,0.39091054,0.009810844,488.05893,10.059777,0.47195724,0.3267738,0.1707204,0.1142731,inf,inf,inf,inf,1,1,1,1,2,2,2,2,2,1,1,1,0,0,0
55388000,55388000,4388000,47.3977508,8.5456073,49.180397,20.307081,-9.851243,-5.83896e-05,0.0077539906,0.00549623,4.5915036,1.8911208,0.06829402,-0.017958688,-0.020038579,0.00047495755,0.05507004,-0.038171884,-0.042069644,0.051901672,0.39075458,0.009810844,488.05893,10.072998,0.48281023,0.33221385,0.17567989,0.11573057,inf,inf,inf,inf,1,1,1,1,2,2,2,2,2,1,1,1,0,0,0
55884000,55884000,4388000,47.3977508,8.5456073,51.470333,21.244736,-9.857105,-5.83896e-05,0.0077539906,0.00549623,4.594172,1.8838032,0.07458792,-0.009504005,-0.020038579,0.00047495755,0.05507004,0.025065614,0.012532633,0.016150994,0.39076343,0.009810844,488.05893,10.07886,0.49335626,0.33846155,0.18040672,0.11725527,inf,inf,inf,inf,1,1,1,1,2,2,2,2,2,1,1,1,0,0,0
56388000,56388000,4388000,47.3977508,8.5456073,53.78963,22.199255,-9.85818,-5.83896e-05,0.0077539906,0.00549623,4.5944123,1.8859016,0.07242473,-0.0058349464,-0.020038579,0.00047495755,0.05507004,0.031927366,-0.00029394866,0.009175389,0.39069447,0.009810844,488.05893,10.079935,0.5054333,0.3438215,0.18568747,0.11861364,inf,inf,inf,inf,1,1,1,1,2,2,2,2,2,1,1,1,0,0,0
56884000,56884000,4388000,47.3977508,8.5456073,56.09288,23.152723,-9.862438,-5.83896e-05,0.0077539906,0.00549623,4.60463,1.8905382,0.061473794,-0.015494436,-0.020038579,0.00047495755,0.05507004,-0.00109768,-0.008809961,0.0076564024,0.3908424,0.009810844,488.05893,10.084193,0.47096562,0.3255492,0.1712155,0.11292299,inf,inf,inf,inf,1,1,1,1,2,2,2,2,2,1,1,1,0,0,0
57388000,57388000,4388000,47.3977508,8.5456073,58.44751,24.113476,-9.872111,-5.83896e-05,0.0077539906,0.00549623,4.6090636,1.8880292,0.06188807,-0.016742172,-0.020038579,0.00047495755,0.05507004,-0.01836405,0.019281695,0.04835054,0.39077678,0.009810844,488.05893,10.093866,0.4821664,0.332313,0.1764312,0.11467545,inf,inf,inf,inf,1,1,1,1,2,2,2,2,2,1,1,1,0,0,0
57884000,57884000,4388000,47.3977508,8.5456073,60.757942,25.053509,-9.879485,-5.83896e-05,0.0077539906,0.00549623,4.598118,1.8886784,0.06650988,-0.011670046,-0.020038579,0.00047495755,0.05507004,-0.055503912,0.00026111954,0.020587815,0.3909898,0.009810844,488.05893,10.10124,0.4929608,0.3369534,0.18114446,0.11593437,inf,inf,inf,inf,1,1,1,1,2,2,2,2,2,1,1,1,0,0,0
58388000,58388000,4388000,47.3977508,8.5456073,63.083344,26.016527,-9.879708,-5.83896e-05,0.0077539906,0.00549623,4.587055,1.8929629,0.06363455,-0.007820614,-0.020038579,0.00047495755,0.05507004,0.0052665123,0.0016765551,-0.03577489,0.39130133,0.009810844,488.05893,10.101463,0.46110296,0.31855357,0.16707587,0.110327184,inf,inf,inf,inf,1,1,1,1,2,2,2,2,2,1,1,1,0,0,0
58884000,58884000,4388000,47.3977508,8.5456073,65.362915,26.9606,-9.890492,-5.83896e-05,0.0077539906,0.00549623,4.587514,1.892354,0.055894874,-0.018984005,-0.020038579,0.00047495755,0.05507004,-0.01738197,0.02935482,-0.008173286,0.39104173,0.009810844,488.05893,10.112247,0.47093156,0.3245158,0.17150979,0.11193779,inf,inf,inf,inf,1,1,1,1,2,2,2,2,2,1,1,1,0,0,0
59388000,59388000,4388000,47.3977508,8.5456073,67.68343,27.922604,-9.8971615,-5.83896e-05,0.0077539906,0.00549623,4.597825,1.8946866,0.058426116,-0.0147196045,-0.020038579,0.00047495755,0.05507004,0.008955946,-0.03315223,0.041384246,0.39094588,0.009810844,488.05893,10.1189165,0.4821694,0.32985547,0.17630035,0.11346282,inf,inf,inf,inf,1,1,1,1,2,2,2,2,2,1,1,1,0,0,0
59884000,59884000,4388000,47.3977508,8.5456073,69.98506,28.872337,-9.901103,-5.83896e-05,0.0077539906,0.00549623,4.614992,1.8925899,0.058123577,-0.012111019,-0.020038579,0.00047495755,0.05507004,-0.023521598,-0.009685347,-0.0205636,0.39051926,0.009810844,488.05893,10.122858,0.49308762,0.33599222,0.18072973,0.11505429,inf,inf,inf,inf,1,1,1,1,2,2,2,2,2,1,1,1,0,0,0
60388000,60388000,4388000,47.3977508,8.5456073,72.32868,29.829626,-9.903773,-5.83896e-05,0.0077539906,0.00549623,4.614469,1.8885468,0.057068106,-0.008653478,-0.020038579,0.00047495755,0.05507004,-0.019059515,0.01223915,-0.028085893,0.3908558,0.009810844,488.05893,10.125528,0.5055064,0.3413425,0.18555874,0.11651511,inf,inf,inf,inf,1,1,1,1,2,2,2,2,2,1,1,1,0,0,0
60884000,60884000,4388000,47.3977508,8.5456073,74.620056,30.778685,-9.912966,-5.83896e-05,0.0077539906,0.00549623,4.6088896,1.889307,0.052408613,-0.01588838,-0.020038579,0.00047495755,0.05507004,0.0062196045,-0.0054709376,0.0017154961,0.39103198,0.009810844,488.05893,10.134721,0.47105655,0.3237475,0.17067412,0.111251995,inf,inf,inf,inf,1,1,1,1,2,2,2,2,2,1,1,1,0,0,0
61388000,61388000,4388000,47.3977508,8.5456073,76.944305,31.747406,-9.914176,-5.83896e-05,0.0077539906,0.00549623,4.6066136,1.8907192,0.05000185,-0.012655205,-0.020038579,0.00047495755,0.05507004,-0.0050257654,0.012282165,0.020192934,0.39064187,0.009810844,488.05893,10.135931,0.48232836,0.33040273,0.17526114,0.11304952,inf,inf,inf,inf,1,1,1,1,2,2,2,2,2,1,1,1,0,0,0
61884000,61884000,4388000,47.3977508,8.5456073,79.23429,32.696217,-9.915235,-5.83896e-05,0.0077539906,0.00549623,4.61363,1.8825728,0.046015345,-0.011320979,-0.020038579,0.00047495755,0.05507004,0.028203823,-0.02557138,-0.009614042,0.38900074,0.009810844,488.05893,10.13699,0.49324116,0.33495927,0.17950363,0.11437859,inf,inf,inf,inf,1,1,1,1,2,2,2,2,2,1,1,1,0,0,0
62388000,62388000,4388000,47.3977508,8.5456073,81.51858,33.638947,-9.910165,-5.83896e-05,0.0077539906,0.00549623,4.3216143,1.7740086,0.05279518,0.0009273931,-0.020038579,0.00047495755,0.05507004,-1.456585,-0.42162004,-0.063292675,0.3893097,0.009810844,488.05893,10.13192,0.46123666,0.31821176,0.1653377,0.10928836,inf,inf,inf,inf,1,1,1,1,2,2,2,2,2,1,1,1,0,0,0
62884000,62884000,4388000,47.3977508,8.5456073,83.49983,34.487953,-9.910788,-5.83896e-05,0.0077539906,0.00549623,3.6199946,1.5143497,0.042611573,-0.00703393,-0.020038579,0.00047495755,0.05507004,-1.36849,-0.6242677,0.014003365,0.38584217,0.009810844,488.05893,10.132543,0.47112158,0.3240507,0.17121272,0.111069486,inf,inf,inf,inf,1,1,1,1,2,2,2,2,2,1,1,1,0,0,0
63388000,63388000,4388000,47.3977508,8.5456073,85.16269,35.217903,-9.911429,-5.83896e-05,0.0077539906,0.00549623,2.9480155,1.212226,0.042360958,-0.0061719883,-0.020038579,0.00047495755,0.05507004,-1.2952527,-0.6740565,0.022558494,0.37337136,0.009810844,488.05893,10.133184,0.48238605,0.32925636,0.17897809,0.11303183,inf,inf,inf,inf,1,1,1,1,2,2,2,2,2,1,1,1,0,0,0
63884000,63884000,4388000,47.3977508,8.5456073,86.47337,35.78668,-9.913182,-5.83896e-05,0.0077539906,0.00549623,2.3326092,0.90051574,0.043180022,-0.0044777617,-0.020038579,0.00047495755,0.05507004,-1.106886,-0.68439794,0.013222917,0.35460207,0.009810844,488.05893,10.134937,0.49330732,0.33534902,0.18655393,0.11525509,inf,inf,inf,inf,1,1,1,1,2,2,2,2,2,1,1,1,0,0,0
64388000,64388000,4388000,47.3977508,8.5456073,87.493454,36.199654,-9.919375,-5.83896e-05,0.0077539906,0.00549623,1.7840619,0.6309588,0.04006809,-0.009372888,-0.020038579,0.00047495755,0.05507004,-0.94709086,-0.4018712,-0.04394259,0.330939,0.009810844,488.05893,10.14113,0.46118227,0.31741777,0.17330255,0.11048549,inf,inf,inf,inf,1,1,1,1,2,2,2,2,2,1,1,1,0,0,0
64884000,64884000,4388000,47.3977508,8.5456073,88.2126,36.554085,-9.9454775,-5.83896e-05,0.0077539906,0.00549623,1.0777426,0.8105996,-0.010840871,-0.06388337,-0.020038579,0.00047495755,0.05507004,-2.436002,1.1402328,-0.05146395,0.6440084,0.009810844,488.05893,10.1672325,0.4712976,0.32356116,0.17978588,0.11289737,inf,inf,inf,inf,1,1,1,1,2,2,2,2,2,1,1,1,0,0,0
65388000,65388000,4388000,47.3977508,8.5456073,88.444466,37.138847,-9.961289,-5.83896e-05,0.0077539906,0.00549623,0.010774226,1.4501647,0.067100845,0.012455373,-0.020038579,0.00047495755,0.05507004,-1.195576,1.0795795,0.19860452,1.1117594,0.009810844,488.05893,10.183044,0.48288196,0.3291098,0.1915112,0.11543833,inf,inf,inf,inf,1,1,1,1,2,2,2,2,2,1,1,1,0,0,0
65884000,65884000,4388000,47.3977508,8.5456073,88.352356,37.94201,-9.951433,-5.83896e-05,0.0077539906,0.00549623,-0.25910327,1.5773118,0.060456276,0.005535929,-0.020038579,0.00047495755,0.05507004,-0.19537677,0.049760796,-0.15357508,1.5257871,0.009810844,488.05893,10.173188,0.4943504,0.33554986,0.19492137,0.117221795,inf,inf,inf,inf,1,1,1,1,2,2,2,2,2,1,1,1,0,0,0
66388000,66388000,4388000,47.3977508,8.5456073,88.10115,38.8572,-9.950412,-5.83896e-05,0.0077539906,0.00549623,-0.6776001,2.0616465,0.027983831,-0.020269893,-0.020038579,0.00047495755,0.05507004,-0.8271595,1.6000926,-0.13210623,1.9206232,0.009810844,488.05893,10.172167,0.50746477,0.3412238,0.20419419,0.11879819,inf,inf,inf,inf,1,1,1,1,2,2,2,2,2,1,1,1,0,0,0
66884000,66884000,4388000,47.3977508,8.5456073,87.64216,40.158817,-9.97316,-5.83896e-05,0.0077539906,0.00549623,-1.014247,3.1972215,0.029850636,-0.021545112,-0.020038579,0.00047495755,0.05507004,-0.48183215,2.548149,0.11441111,2.0572972,0.009810844,488.05893,10.194915,0.47176918,0.32384303,0.19562402,0.11386362,inf,inf,inf,inf,1,1,1,1,2,2,2,2,2,1,1,1,0,0,0
67388000,67388000,4388000,47.3977508,8.5456073,87.02125,42.03049,-9.968535,-5.83896e-05,0.0077539906,0.00549623,-1.3245373,4.1271114,0.08558191,0.032663073,-0.020038579,0.00047495755,0.05507004,-0.61828387,1.0638433,0.05694106,1.9501095,0.009810844,488.05893,10.19029,0.48364615,0.32954428,0.21162039,0.11595687,inf,inf,inf,inf,1,1,1,1,2,2,2,2,2,1,1,1,0,0,0
67884000,67884000,4388000,47.3977508,8.5456073,86.25858,44.149254,-9.944904,-5.83896e-05,0.0077539906,0.00549623,-1.5451701,4.2968316,0.09100431,0.041554168,-0.020038579,0.00047495755,0.05507004,0.25772667,-0.25110632,-0.11885538,1.9340035,0.009810844,488.05893,10.166659,0.49562955,0.33602512,0.21915469,0.11713014,inf,inf,inf,inf,1,1,1,1,2,2,2,2,2,1,1,1,0,0,0
68388000,68388000,4388000,47.3977508,8.5456073,85.467636,46.31662,-9.929946,-5.83896e-05,0.0077539906,0.00549623,-1.4758364,4.270284,0.06377362,0.018871527,-0.020038579,0.00047495755,0.05507004,0.04792807,0.025831394,-0.052297484,1.9265678,0.009810844,488.05893,10.151701,0.5095261,0.3416769,0.22629932,0.118265696,inf,inf,inf,inf,1,1,1,1,2,2,2,2,2,1,1,1,0,0,0
68884000,68884000,4388000,47.3977508,8.5456073,84.68372,48.44052,-9.926055,-5.83896e-05,0.0077539906,0.00549623,-1.4903603,4.2989483,0.04626361,0.0012981344,-0.020038579,0.00047495755,0.05507004,0.0055076084,0.09215937,-0.038698312,1.9255849,0.009810844,488.05893,10.14781,0.47283885,0.32407984,0.20231235,0.112727284,inf,inf,inf,inf,1,1,1,1,2,2,2,2,2,1,1,1,0,0,0
69388000,69388000,4388000,47.3977508,8.5456073,83.87984,50.602955,-9.9211235,-5.83896e-05,0.0077539906,0.00549623,-1.5130548,4.339604,0.039023932,-0.001355918,-0.020038579,0.00047495755,0.05507004,0.008039234,0.11495186,-0.023526138,1.9250202,0.009810844,488.05893,10.142879,0.48517603,0.32958472,0.20793736,0.11446435,inf,inf,inf,inf,1,1,1,1,2,2,2,2,2,1,1,1,0,0,0
69884000,69884000,4388000,47.3977508,8.5456073,83.090065,52.735783,-9.918798,-5.83896e-05,0.0077539906,0.00549623,-1.5225868,4.3777485,0.032914333,-0.003797383,-0.020038579,0.00047495755,0.05507004,0.026486231,0.0860705,0.015857628,1.9240166,0.009810844,488.05893,10.140553,0.49715754,0.33586803,0.2117601,0.11637999,inf,inf,inf,inf,1,1,1,1,2,2,2,2,2,1,1,1,0,0,0
70388000,70388000,4388000,47.3977508,8.5456073,82.29052,54.927002,-9.912693,-5.83896e-05,0.0077539906,0.00549623,-1.5308478,4.4238467,0.031166242,0.0016179493,-0.020038579,0.00047495755,0.05507004,0.018613411,0.15745346,-0.026874242,1.924049,0.009810844,488.05893,10.134448,0.5109653,0.34153488,0.21528958,0.118319556,inf,inf,inf,inf,1,1,1,1,2,2,2,2,2,1,1,1,0,0,0
70884000,70884000,4388000,47.3977508,8.5456073,81.500694,57.089077,-9.902748,-5.83896e-05,0.0077539906,0.00549623,-1.5419326,4.459241,0.02441615,0.004824562,-0.020038579,0.00047495755,0.05507004,0.005617912,0.11505919,0.025023704,1.9245768,0.009810844,488.05893,10.124503,0.4736787,0.3239974,0.19088137,0.113313384,inf,inf,inf,inf,1,1,1,1,2,2,2,2,2,1,1,1,0,0,0
71388000,71388000,4388000,47.3977508,8.5456073,80.72392,59.251812,-9.885604,-5.83896e-05,0.0077539906,0.00549623,-1.444407,4.0988765,0.013342516,0.0035704728,-0.020038579,0.00047495755,0.05507004,0.35335225,-1.404416,-0.020019708,1.927702,0.009810844,488.05893,10.107359,0.48558307,0.32960594,0.19431019,0.11534691,inf,inf,inf,inf,1,1,1,1,2,2,2,2,2,1,1,1,0,0,0
71884000,71884000,4388000,47.3977508,8.5456073,80.034035,61.116177,-9.87808,-5.83896e-05,0.0077539906,0.00549623,-1.2484488,3.4864385,0.004402854,0.00061574724,-0.020038579,0.00047495755,0.05507004,0.48902524,-1.1685466,-0.0027362255,1.9298481,0.009810844,488.05893,10.099835,0.49700943,0.33610597,0.19893481,0.117441066,inf,inf,inf,inf,1,1,1,1,2,2,2,2,2,1,1,1,0,0,0
72388000,72388000,4388000,47.3977508,8.5456073,79.449036,62.713394,-9.871234,-5.83896e-05,0.0077539906,0.00549623,-1.0229547,2.9010932,-0.0008235993,0.00047463458,-0.020038579,0.00047495755,0.05507004,0.46438023,-1.0999757,-0.021385958,1.9301536,0.009810844,488.05893,10.092989,0.50990313,0.3419495,0.20371357,0.119473994,inf,inf,inf,inf,1,1,1,1,2,2,2,2,2,1,1,1,0,0,0
72884000,72884000,4388000,47.3977508,8.5456073,78.96759,63.996258,-9.868641,-5.83896e-05,0.0077539906,0.00549623,-0.8041651,2.3621302,-0.006497659,-0.0027955375,-0.020038579,0.00047495755,0.05507004,0.48877645,-1.0140578,-0.02113357,1.9312469,0.009810844,488.05893,10.090396,0.4733603,0.3232196,0.18347833,0.114162035,inf,inf,inf,inf,1,1,1,1,2,2,2,2,2,1,1,1,0,0,0
73388000,73388000,4388000,47.3977508,8.5456073,78.59627,65.0295,-9.864004,-5.83896e-05,0.0077539906,0.00549623,-0.59138376,1.8596115,-0.014446238,-0.0053692227,-0.020038579,0.00047495755,0.05507004,0.2756538,-0.88706094,-0.012766569,1.9363006,0.009810844,488.05893,10.085759,0.4848589,0.32926884,0.18659784,0.11631472,inf,inf,inf,inf,1,1,1,1,2,2,2,2,2,1,1,1,0,0,0
73884000,73884000,4388000,47.3977508,8.5456073,78.299034,65.85578,-9.868712,-5.83896e-05,0.0077539906,0.00549623,-0.65881765,1.5913785,-0.067876756,-0.05253566,-0.020038579,0.00047495755,0.05507004,-0.9296676,-0.8973771,-0.08145067,2.0741167,0.009810844,488.05893,10.090467,0.4957285,0.3360591,0.18700647,0.11843598,inf,inf,inf,inf,1,1,1,1,2,2,2,2,2,1,1,1,0,0,0
74388000,74388000,4388000,47.3977508,8.5456073,77.84803,66.41088,-9.888311,-5.83896e-05,0.0077539906,0.00549623,-1.1560267,0.535222,-0.048698314,-0.03323418,-0.020038579,0.00047495755,0.05507004,-0.9442144,-2.5431151,0.16911048,2.5768683,0.009810844,488.05893,10.110066,0.46280813,0.31820455,0.170762,0.11293968,inf,inf,inf,inf,1,1,1,1,2,2,2,2,2,1,1,1,0,0,0
74884000,74884000,4388000,47.3977508,8.5456073,77.147964,66.43162,-9.881681,-5.83896e-05,0.0077539906,0.00549623,-1.6059474,-0.27226222,0.0065976763,0.026487175,-0.020038579,0.00047495755,0.05507004,-0.3033953,-0.73405004,-0.00062771136,2.9854023,0.009810844,488.05893,10.103436,0.4726123,0.32474276,0.17662428,0.11493723,inf,inf,inf,inf,1,1,1,1,2,2,2,2,2,1,1,1,0,0,0
75388000,75388000,4388000,47.3977508,8.5456073,76.303535,66.19288,-9.876393,-5.83896e-05,0.0077539906,0.00549623,-1.8060818,-0.6044753,-0.03338824,-0.012576137,-0.020038579,0.00047495755,0.05507004,-1.1025057,-0.7236156,-0.047031786,-2.8983026,0.009810844,488.05893,10.098148,0.4837318,0.33069232,0.18008152,0.116889395,inf,inf,inf,inf,1,1,1,1,2,2,2,2,2,1,1,1,0,0,0
75884000,75884000,4388000,47.3977508,8.5456073,75.210365,65.778206,-9.894966,-5.83896e-05,0.0077539906,0.00549623,-2.7193084,-0.9485863,-0.06504575,-0.04608782,-0.020038579,0.00047495755,0.05507004,-2.5370638,-0.47565788,0.16837938,-2.6248999,0.009810844,488.05893,10.116721,0.49421567,0.33737195,0.18591079,0.11876596,inf,inf,inf,inf,1,1,1,1,2,2,2,2,2,1,1,1,0,0,0
76388000,76388000,4388000,47.3977508,8.5456073,73.56139,65.214355,-9.897869,-5.83896e-05,0.0077539906,0.00549623,-3.8402736,-1.2166636,0.009334042,0.027879171,-0.020038579,0.00047495755,0.05507004,-1.6346382,-0.584609,0.05302578,-2.7387717,0.009810844,488.05893,10.119624,0.4620815,0.31912827,0.17384799,0.11314752,inf,inf,inf,inf,1,1,1,1,2,2,2,2,2,1,1,1,0,0,0
76884000,76884000,4388000,47.3977508,8.5456073,71.54917,64.520706,-9.875716,-5.83896e-05,0.0077539906,0.00549623,-4.2403812,-1.5229719,0.024810858,0.0467753,-0.020038579,0.00047495755,0.05507004,-0.10521488,-0.3980338,0.019603407,-2.7730916,0.009810844,488.05893,10.097471,0.47149712,0.324253,0.17908181,0.11481355,inf,inf,inf,inf,1,1,1,1,2,2,2,2,2,1,1,1,0,0,0
77388000,77388000,4388000,47.3977508,8.5456073,69.428505,63.748707,-9.86121,-5.83896e-05,0.0077539906,0.00549623,-4.168602,-1.4921172,-0.010249385,0.0117188655,-0.020038579,0.00047495755,0.05507004,0.0075403363,-0.042544793,-0.0211969,-2.7797873,0.009810844,488.05893,10.082965,0.4824607,0.331533,0.18158832,0.11679126,inf,inf,inf,inf,1,1,1,1,2,2,2,2,2,1,1,1,0,0,0
77884000,77884000,4388000,47.3977508,8.5456073,67.35572,62.99799,-9.85813,-5.83896e-05,0.0077539906,0.00549623,-4.18122,-1.5251615,-0.017249208,0.003517693,-0.020038579,0.00047495755,0.05507004,-0.05126593,-0.07120956,-0.012099742,-2.7800326,0.009810844,488.05893,10.0798855,0.49302295,0.33660078,0.18494862,0.11830748,inf,inf,inf,inf,1,1,1,1,2,2,2,2,2,1,1,1,0,0,0
78388000,78388000,4388000,47.3977508,8.5456073,65.25073,62.218147,-9.861928,-5.83896e-05,0.0077539906,0.00549623,-4.211749,-1.5692519,-0.018075084,-0.0013803821,-0.020038579,0.00047495755,0.05507004,-0.09703345,-0.06924511,0.02333708,-2.7798052,0.009810844,488.05893,10.083683,0.50508934,0.34405175,0.18924934,0.12036773,inf,inf,inf,inf,1,1,1,1,2,2,2,2,2,1,1,1,0,0,0
78884000,78884000,4388000,47.3977508,8.5456073,63.160896,61.433704,-9.864681,-5.83896e-05,0.0077539906,0.00549623,-4.2541203,-1.6070603,-0.014947372,-0.0003706382,-0.020038579,0.00047495755,0.05507004,-0.11312402,-0.08948024,0.009877606,-2.7800028,0.009810844,488.05893,10.086436,0.47067595,0.32473814,0.17327553,0.1146289,inf,inf,inf,inf,1,1,1,1,2,2,2,2,2,1,1,1,0,0,0
79388000,79388000,4388000,47.3977508,8.5456073,61.02549,60.62623,-9.868398,-5.83896e-05,0.0077539906,0.00549623,-4.2950554,-1.6341544,-0.016550565,-0.0045775897,-0.020038579,0.00047495755,0.05507004,-0.09403366,-0.051671285,0.014799646,-2.7804441,0.009810844,488.05893,10.090153,0.48165056,0.33194607,0.17762652,0.11678024,inf,inf,inf,inf,1,1,1,1,2,2,2,2,2,1,1,1,0,0,0
79884000,79884000,4388000,47.3977508,8.5456073,58.905117,59.828182,-9.873862,-5.83896e-05,0.0077539906,0.00549623,-4.3376937,-1.653223,-0.013816002,-0.004900991,-0.020038579,0.00047495755,0.05507004,-0.09120756,-0.036934156,-0.03412086,-2.7806535,0.009810844,488.05893,10.095617,0.4922984,0.33700526,0.18158026,0.11843527,inf,inf,inf,inf,1,1,1,1,2,2,2,2,2,1,1,1,0,0,0
80388000,80388000,4388000,47.3977508,8.5456073,56.721745,59.013783,-9.878308,-5.83896e-05,0.0077539906,0.00549623,-4.3782234,-1.6686598,-0.0077975933,-0.0018547873,-0.020038579,0.00047495755,0.05507004,-0.068123795,-0.045187302,0.01841597,-2.7802825,0.009810844,488.05893,10.100063,0.5044183,0.3427848,0.18598086,0.12025556,inf,inf,inf,inf,1,1,1,1,2,2,2,2,2,1,1,1,0,0,0
80884000,80884000,4388000,47.3977508,8.5456073,54.563053,58.20179,-9.89249,-5.83896e-05,0.0077539906,0.00549623,-4.4088182,-1.6821619,-0.0005746854,-0.0064583537,-0.020038579,0.00047495755,0.05507004,-0.082989104,-0.07237639,0.05926657,-2.7801867,0.009810844,488.05893,10.114245,0.4704207,0.3250643,0.17079914,0.11488533,inf,inf,inf,inf,1,1,1,1,2,2,2,2,2,1,1,1,0,0,0
81388000,81388000,4388000,47.3977508,8.5456073,52.355858,57.37058,-9.902646,-5.83896e-05,0.0077539906,0.00549623,-4.438405,-1.6875619,0.012765029,-0.0008051713,-0.020038579,0.00047495755,0.05507004,-0.068095624,-0.029750807,0.008743255,-2.780386,0.009810844,488.05893,10.124401,0.48142293,0.33214584,0.17508847,0.11701943,inf,inf,inf,inf,1,1,1,1,2,2,2,2,2,1,1,1,0,0,0
81884000,81884000,4388000,47.3977508,8.5456073,50.171642,56.54651,-9.905283,-5.83896e-05,0.0077539906,0.00549623,-4.4663177,-1.6964146,0.01676061,0.0015918233,-0.020038579,0.00047495755,0.05507004,-0.09058369,-0.044348937,0.0052750106,-2.7799492,0.009810844,488.05893,10.127038,0.49206626,0.33865294,0.1791459,0.11894764,inf,inf,inf,inf,1,1,1,1,2,2,2,2,2,1,1,1,0,0,0
82388000,82388000,4388000,47.3977508,8.5456073,47.91239,55.691784,-9.906574,-5.83896e-05,0.0077539906,0.00549623,-4.503095,-1.7060609,0.0201781,0.0037399023,-0.020038579,0.00047495755,0.05507004,-0.07504224,0.022063904,0.010618939,-2.7800705,0.009810844,488.05893,10.128329,0.50428975,0.34447777,0.18379416,0.1207785,inf,inf,inf,inf,1,1,1,1,2,2,2,2,2,1,1,1,0,0,0
82884000,82884000,4388000,47.3977508,8.5456073,45.67641,54.85134,-9.911029,-5.83896e-05,0.0077539906,0.00549623,-4.5301275,-1.7094622,0.020288778,-0.00024677394,-0.020038579,0.00047495755,0.05507004,-0.09927281,-0.002830289,0.039939765,-2.7800655,0.009810844,488.05893,10.132784,0.4702648,0.32492384,0.16923249,0.11497319,inf,inf,inf,inf,1,1,1,1,2,2,2,2,2,1,1,1,0,0,0
83388000,83388000,4388000,47.3977508,8.5456073,43.39072,53.997265,-9.9161825,-5.83896e-05,0.0077539906,0.00549623,-4.553168,-1.7106183,0.02327016,-0.0018846923,-0.020038579,0.00047495755,0.05507004,-0.044733983,-0.03260269,0.0601802,-2.7797022,0.009810844,488.05893,10.137938,0.48124573,0.33200678,0.17383991,0.11708387,inf,inf,inf,inf,1,1,1,1,2,2,2,2,2,1,1,1,0,0,0
83884000,83884000,4388000,47.3977508,8.5456073,41.158375,53.17202,-9.91384,-5.83896e-05,0.0077539906,0.00549623,-4.356283,-1.6408389,0.04408882,0.016801825,-0.020038579,0.00047495755,0.05507004,1.2770339,0.29776153,-0.0388883,-2.777561,0.009810844,488.05893,10.135595,0.4918814,0.33713418,0.17840965,0.118741326,inf,inf,inf,inf,1,1,1,1,2,2,2,2,2,1,1,1,0,0,0
