timestamp,timestamp_sample,gyro_device_id,gyro_bias[0],gyro_bias[1],gyro_bias[2],gyro_bias_limit,gyro_bias_variance[0],gyro_bias_variance[1],gyro_bias_variance[2],accel_device_id,accel_bias[0],accel_bias[1],accel_bias[2],accel_bias_limit,accel_bias_variance[0],accel_bias_variance[1],accel_bias_variance[2],mag_device_id,mag_bias[0],mag_bias[1],mag_bias[2],mag_bias_limit,mag_bias_variance[0],mag_bias_variance[1],mag_bias_variance[2],gyro_bias_valid,gyro_bias_stable,accel_bias_valid,accel_bias_stable,mag_bias_valid,mag_bias_stable
3348000,3348000,1310988,0.0,0.0,0.0,0.15,0.010040122,0.010040122,0.010040039,1310988,0.0,0.0,0.0,0.4,0.04016049,0.04016049,0.04016049,197388,0.0,0.0,0.0,0.5,0.0,0.0,0.0,1,0,1,0,1,0
4116000,4036000,1310988,-0.0007953753,-0.0018563502,1.5185323e-05,0.15,0.008194201,0.008197137,0.002146362,1310988,-0.0010069478,0.0012515412,-0.09929185,0.4,0.050184827,0.050189897,0.0045087147,197388,0.0,0.0,0.0,0.5,0.0,0.0,0.0,1,0,1,0,1,0
4220000,4140000,1310988,-0.0008038671,-0.0018761588,1.5284206e-05,0.15,0.00836997,0.008372969,0.002181714,1310988,-0.0010176739,0.0012648796,-0.10035113,0.4,0.05126131,0.05126649,0.0046054386,197388,0.0,0.0,0.0,0.5,0.0025000002,0.0025000002,0.0025000002,1,0,1,0,1,0
4324000,4244000,1310988,-0.0007954555,-0.0018985085,-8.356956e-06,0.15,0.008475052,0.008478123,0.0022216963,1310988,-0.0009905685,0.0013465239,-0.10145192,0.4,0.050864317,0.050869282,0.0046647466,197388,0.0,0.0,0.0,0.5,0.0025000002,0.0025000002,0.0025000002,1,0,1,0,1,0
4452000,4372000,1310988,-0.00080378994,-0.0019190621,-9.7593875e-05,0.15,0.008648129,0.008651261,0.002264938,1310988,-0.0009998727,0.0013610763,-0.10248325,0.4,0.05190306,0.05190813,0.004760017,197388,0.0,0.0,0.0,0.5,0.0025000002,0.0025000002,0.0025000002,1,0,1,0,1,0
4532000,4452000,1310988,-0.0007120058,-0.002199104,4.822852e-05,0.15,0.008259241,0.008262562,0.0022807051,1310988,-0.00012626009,0.0018980536,-0.10361603,0.4,0.043285765,0.04328947,0.004699479,197388,0.0,0.0,0.0,0.5,0.0025000002,0.0025000002,0.0025000002,1,0,1,0,1,0
4676000,4596000,1310988,-0.00072772044,-0.002691476,-8.266525e-05,0.15,0.007719188,0.0077226167,0.0023037742,1310988,0.0007077395,0.0019439135,-0.10455002,0.4,0.041894525,0.041898336,0.0047810995,197388,0.0,0.0,0.0,0.5,0.0025000002,0.0025000002,0.0025000002,1,0,1,0,1,0
4740000,4660000,1310988,-0.0008783724,-0.0029926263,-0.00016704292,0.15,0.007289397,0.0072927694,0.0023073328,1310988,0.0005438001,0.0020571908,-0.10607157,0.4,0.042069808,0.04207366,0.004590522,197388,0.0,0.0,0.0,0.5,0.0025000002,0.0025000002,0.0025000002,1,0,1,0,1,0
4884000,4804000,1310988,-0.001486619,-0.0040921923,-0.00011819813,0.15,0.005365651,0.005368538,0.002305297,1310988,0.0001685365,0.002338393,-0.10679802,0.4,0.042365357,0.042369187,0.004653534,197388,0.0,0.0,0.0,0.5,0.0025000002,0.0025000002,0.0025000002,1,0,1,0,1,0
4948000,4868000,1310988,-0.0018180426,-0.0042998595,-0.00010969334,0.15,0.0046752095,0.004677799,0.0023171399,1310988,-5.907514e-05,0.0027062441,-0.10881945,0.4,0.041891724,0.041895702,0.0043301946,197388,0.0,0.0,0.0,0.5,0.0025000002,0.0025000002,0.0025000002,1,0,1,0,1,0
5092000,5012000,1310988,-0.0028319077,-0.0050430056,-0.00021304387,0.15,0.0023032571,0.0023046029,0.0022961062,1310988,-0.0006898676,0.0036744568,-0.10937357,0.4,0.040264145,0.040268306,0.0043746694,197388,0.0,0.0,0.0,0.5,0.0025000002,0.0025000002,0.0025000002,1,0,1,0,1,0
5156000,5076000,1310988,-0.0028657897,-0.0050684316,-0.00034648107,0.15,0.001993603,0.0019947523,0.002279109,1310988,-0.0007677191,0.0037532349,-0.11178122,0.4,0.039931145,0.039935566,0.0039489795,197388,0.0,0.0,0.0,0.5,0.0025000002,0.0025000002,0.0025000002,1,0,1,0,1,0
5364000,5284000,1310988,-0.00282364,-0.005356402,-0.0003364847,0.15,0.00076354464,0.0007638858,0.0022078957,1310988,-0.0011603052,0.0037379197,-0.11488646,0.4,0.03852486,0.038529687,0.0035029652,197388,0.0,0.0,0.0,0.5,0.0025000002,0.0025000002,0.0025000002,1,0,1,0,1,0
5572000,5492000,1310988,-0.0024877246,-0.0055646664,-0.00030634966,0.15,0.00032285688,0.0003228992,0.0021071527,1310988,-0.0015010622,0.0032827647,-0.11786267,0.4,0.03794202,0.037947044,0.0030471443,197388,0.0,0.0,0.0,0.5,0.0025000002,0.0025000002,0.0025000002,1,0,1,0,1,0
5780000,5700000,1310988,-0.0019731466,-0.005591488,3.566629e-05,0.15,0.00015669047,0.00015662923,0.0019841588,1310988,-0.0015925749,0.0024742088,-0.12067241,0.4,0.03774598,0.037751034,0.002619624,197388,0.0,0.0,0.0,0.5,0.0025000002,0.0025000002,0.0025000002,1,0,1,0,1,0
5988000,5908000,1310988,-0.0016852767,-0.0056142067,-0.00015551629,0.15,8.595965e-05,8.5854015e-05,0.0018470646,1310988,-0.0016765706,0.0019653025,-0.123133354,0.4,0.037699882,0.03770497,0.002241414,197388,0.0,0.0,0.0,0.5,0.0025000002,0.0025000002,0.0025000002,1,0,1,0,1,0
6196000,6116000,1310988,-0.001599618,-0.0056205112,-0.00024717054,0.15,5.203927e-05,5.190782e-05,0.0017013615,1310988,-0.0017173359,0.0018099359,-0.12529205,0.4,0.03770866,0.037713815,0.0019179139,197388,0.0,0.0,0.0,0.5,0.0025000002,0.0025000002,0.0025000002,1,0,1,0,1,0
6404000,6324000,1310988,-0.0015861386,-0.005628536,-0.00032379545,0.15,3.4016237e-05,3.3874792e-05,0.0015528306,1310988,-0.0017538676,0.0017950356,-0.1271023,0.4,0.037734684,0.037739903,0.0016475525,197388,0.0,0.0,0.0,0.5,0.0025000002,0.0025000002,0.0025000002,1,0,1,0,1,0
6612000,6532000,1310988,-0.0015953626,-0.0055831457,-0.00044061372,0.15,2.3604802e-05,2.3460098e-05,0.0014064943,1310988,-0.0016591168,0.0018222209,-0.1285734,0.4,0.037763696,0.03776902,0.0014233559,197388,0.0,0.0,0.0,0.5,0.0025000002,0.0025000002,0.0025000002,1,0,1,0,1,0
6820000,6740000,1310988,-0.001598746,-0.0054639457,-0.00087700144,0.15,1.7169272e-05,1.7025124e-05,0.0012679058,1310988,-0.001372438,0.0018112074,-0.1297318,0.4,0.037790366,0.037795793,0.0012387565,197388,0.0,0.0,0.0,0.5,0.0025000002,0.0025000002,0.0025000002,1,0,1,0,1,0
7076000,6996000,1310988,-0.0015969375,-0.0053487606,-0.001944575,0.15,1.2944373e-05,1.281304e-05,0.0010973299,1310988,-0.001097077,0.0017545515,-0.13067687,0.4,0.03782326,0.037828766,0.0010860241,197388,0.0,0.0,0.0,0.5,0.0025000002,0.0025000002,0.0025000002,1,0,1,0,1,0
7444000,7364000,1310988,-0.0014138332,-0.0052796984,-0.0014834673,0.15,8.033927e-06,7.9301335e-06,0.0009125342,1310988,-0.0008603119,0.0012407994,-0.13192934,0.4,0.03784345,0.03784891,0.00085470505,197388,0.0,0.0,0.0,0.5,0.0025000002,0.0025000002,0.0025000002,1,0,1,0,1,0
7924000,7844000,1310988,-0.0011912888,-0.0053360197,-0.00020510836,0.15,5.3967224e-06,5.3251815e-06,0.0007040011,1310988,-0.00091880426,0.0005639552,-0.13263719,0.4,0.03786345,0.037868805,0.0007800257,197388,0.0,0.0,0.0,0.5,0.0025000002,0.0025000002,0.0025000002,1,0,1,0,1,0
8692000,8612000,1310988,-0.0011107461,-0.005344369,-0.00010822235,0.15,2.902883e-06,2.8504337e-06,0.0004905948,1310988,-0.0009127016,0.00023738919,-0.13361429,0.4,0.03785809,0.037863467,0.0007807859,197388,0.0,0.0,0.0,0.5,0.0025000002,0.0025000002,0.0025000002,1,0,1,0,1,0
9692000,9612000,1310988,-0.0011084146,-0.0053498987,-0.00029798545,0.15,2.8105667e-06,2.776394e-06,0.00030654093,1310988,-0.0009667819,0.00021432887,-0.13356338,0.4,0.037873857,0.03787929,0.0007811286,197388,0.0,0.0,0.0,0.5,0.0025000002,0.0025000002,0.0025000002,1,0,1,0,1,0
10692000,10612000,1310988,-0.0010795072,-0.00534903,0.00012532486,0.15,2.6809653e-06,2.6579964e-06,0.00020099999,1310988,-0.0009589448,9.120219e-05,-0.13345425,0.4,0.037875634,0.0378811,0.0007812195,197388,0.0,0.0,0.0,0.5,0.0025000002,0.0025000002,0.0025000002,1,0,1,0,1,0
11692000,11612000,1310988,-0.0010585586,-0.005386396,0.000113530354,0.15,2.253254e-06,2.237279e-06,0.0001378377,1310988,-0.0012014939,3.1705436e-05,-0.13348757,0.4,0.03786317,0.0378687,0.0007812458,197388,0.0,0.0,0.0,0.5,0.0025000002,0.0025000002,0.0025000002,1,0,1,0,1,0
12692000,12612000,1310988,-0.001089732,-0.0053766686,-0.0002013665,0.15,1.8119227e-06,1.8002285e-06,9.824244e-05,1310988,-0.001150814,0.00018669933,-0.13315931,0.4,0.037847955,0.03785352,0.0007812498,197388,0.0,0.0,0.0,0.5,0.0025000002,0.0025000002,0.0025000002,1,0,1,0,1,0
13692000,13612000,1310988,-0.0011352133,-0.005372482,-0.0001052621,0.15,1.1965058e-06,1.1881017e-06,7.233924e-05,1310988,-0.0010944925,0.0005202664,-0.13224752,0.4,0.03782455,0.037830196,0.00078124576,197388,0.0,0.0,0.0,0.5,0.0025000002,0.0025000002,0.0025000002,1,0,1,0,1,0
14692000,14612000,1310988,-0.0011204813,-0.005386676,-0.00015274057,0.15,9.019379e-07,8.957626e-07,5.474791e-05,1310988,-0.001262169,0.000490763,-0.13163428,0.4,0.037812084,0.037817836,0.0007812487,197388,0.0,0.0,0.0,0.5,0.0025000002,0.0025000002,0.0025000002,1,0,1,0,1,0
15596000,15516000,1310988,-0.0010999925,-0.0054249545,7.676829e-05,0.15,6.245074e-07,6.197813e-07,4.393703e-05,1310988,-0.0016133639,0.00052575255,-0.1305354,0.4,0.037798468,0.03780452,0.00078124576,197388,0.0,0.0,0.0,0.5,0.0025000002,0.0025000002,0.0025000002,1,0,1,0,1,0
16596000,16516000,1310988,-0.0011014382,-0.005425969,0.0002926329,0.15,5.134233e-07,5.097305e-07,3.467258e-05,1310988,-0.0016726654,0.00063046266,-0.12969026,0.4,0.03779177,0.037798148,0.00078124634,197388,0.0,0.0,0.0,0.5,0.0025000002,0.0025000002,0.0025000002,1,0,1,0,1,0
17596000,17516000,1310988,-0.0011175813,-0.005433797,0.00032330336,0.15,4.0614472e-07,4.031815e-07,2.7837628e-05,1310988,-0.0018281991,0.0008816895,-0.12846716,0.4,0.037783686,0.037790783,0.00078124576,197388,0.0,0.0,0.0,0.5,0.0025000002,0.0025000002,0.0025000002,1,0,1,0,1,0
17996000,17916000,1310988,-0.0011279122,-0.005438747,0.00029991282,0.15,3.8103659e-07,3.7832285e-07,2.5464773e-05,1310988,-0.001967211,0.0010683535,-0.12748876,0.4,0.037781183,0.03778857,0.00078124576,197388,0.0,0.0,0.0,0.5,0.0025000002,0.0025000002,0.0025000002,1,0,1,0,1,0
18948000,18868000,1310988,-0.0011362483,-0.005443601,0.00039756688,0.15,3.4232727e-07,3.4008175e-07,2.1179594e-05,1310988,-0.002094421,0.0012621261,-0.12651205,0.4,0.037776403,0.037784543,0.00078124576,197388,0.0,0.0,0.0,0.5,0.0025000002,0.0025000002,0.0025000002,1,0,1,0,1,0
19596000,19516000,1310988,-0.0011447675,-0.005447514,0.0004719539,0.15,3.113752e-07,3.0939646e-07,1.8759332e-05,1310988,-0.0022226523,0.0014642192,-0.12553258,0.4,0.03777178,0.0377807,0.00078124576,197388,0.0,0.0,0.0,0.5,0.0025000002,0.0025000002,0.0025000002,1,0,1,0,1,0
20396000,20316000,1310988,-0.0011594722,-0.00545007,0.00041882976,0.15,2.881812e-07,2.8649595e-07,1.60762e-05,1310988,-0.0024196873,0.0017710733,-0.124018125,0.4,0.037766796,0.037776627,0.00078124576,197388,0.0,0.0,0.0,0.5,0.0025000002,0.0025000002,0.0025000002,1,0,1,0,1,0
21196000,21116000,1310988,-0.0011696714,-0.0054527735,0.00045139267,0.15,2.6977665e-07,2.6832637e-07,1.4056551e-05,1310988,-0.0026297555,0.0020577803,-0.122484826,0.4,0.037762146,0.03777295,0.00078124576,197388,0.0,0.0,0.0,0.5,0.0025000002,0.0025000002,0.0025000002,1,0,1,0,1,0
21988000,21908000,1310988,-0.0011809934,-0.00544635,0.0004928128,0.15,2.5492042e-07,2.5365435e-07,1.2366741e-05,1310988,-0.0026767133,0.002266674,-0.12138948,0.4,0.037757806,0.03776947,0.00078124576,197388,0.0,0.0,0.0,0.5,0.0025000002,0.0025000002,0.0025000002,1,0,1,0,1,0
22988000,22908000,1310988,-0.001186298,-0.0054306495,0.0005418813,0.15,2.4405574e-07,2.4298478e-07,1.05882e-05,1310988,-0.0025593142,0.0022749554,-0.12083074,0.4,0.03775403,0.037766356,0.0007812481,197388,0.0,0.0,0.0,0.5,0.0025000002,0.0025000002,0.0025000002,1,0,1,0,1,0
23596000,23516000,1310988,-0.0011862546,-0.00541663,0.00048148632,0.15,2.3223213e-07,2.3127373e-07,9.621616e-06,1310988,-0.002649119,0.002324217,-0.11927048,0.4,0.037750866,0.03776365,0.00078124576,197388,0.0,0.0,0.0,0.5,0.0025000002,0.0025000002,0.0025000002,1,0,1,0,1,0
24396000,24316000,1310988,-0.0011941382,-0.005408809,0.00046775193,0.15,2.2342958e-07,2.225991e-07,8.594754e-06,1310988,-0.0027647214,0.0025157062,-0.117189266,0.4,0.03774792,0.03776117,0.00078124576,197388,0.0,0.0,0.0,0.5,0.0025000002,0.0025000002,0.0025000002,1,0,1,0,1,0
25196000,25116000,1310988,-0.0012007331,-0.005404903,0.0004896522,0.15,2.1592831e-07,2.1520015e-07,7.710152e-06,1310988,-0.0027973119,0.0026436262,-0.11606459,0.4,0.037745386,0.0377589,0.00078124576,197388,0.0,0.0,0.0,0.5,0.0025000002,0.0025000002,0.0025000002,1,0,1,0,1,0
25988000,25908000,1310988,-0.0012039001,-0.005393677,0.00053008716,0.15,2.0939416e-07,2.087555e-07,6.944212e-06,1310988,-0.002812223,0.002725968,-0.11434166,0.4,0.037743296,0.037756953,0.00078124576,197388,0.0,0.0,0.0,0.5,0.0025000002,0.0025000002,0.0025000002,1,0,1,0,1,0
26396000,26316000,1310988,-0.0011996746,-0.0053870496,0.00051295216,0.15,2.0653974e-07,2.0594018e-07,6.630391e-06,1310988,-0.0028654956,0.00271754,-0.11329615,0.4,0.037742443,0.037756152,0.00078124576,197388,0.0,0.0,0.0,0.5,0.0025000002,0.0025000002,0.0025000002,1,0,1,0,1,0
26796000,26716000,1310988,-0.0011998044,-0.0053754007,0.0005195543,0.15,2.0380367e-07,2.0324569e-07,6.27805e-06,1310988,-0.0028443672,0.0027140747,-0.11215959,0.4,0.037741713,0.03775544,0.00078124576,197388,0.0,0.0,0.0,0.5,0.0025000002,0.0025000002,0.0025000002,1,0,1,0,1,0
27588000,27508000,1310988,-0.0011970842,-0.005358361,0.0004725713,0.15,1.9887345e-07,1.9838642e-07,5.695854e-06,1310988,-0.0028392598,0.002669431,-0.1106656,0.4,0.037740596,0.037754353,0.00078124576,197388,0.0,0.0,0.0,0.5,0.0025000002,0.0025000002,0.0025000002,1,0,1,0,1,0
27996000,27916000,1310988,-0.0011924881,-0.0053471494,0.0004914967,0.15,1.9671282e-07,1.962613e-07,5.4088855e-06,1310988,-0.0028355685,0.0026131654,-0.10965861,0.4,0.037740238,0.037753988,0.00078124576,197388,0.0,0.0,0.0,0.5,0.0025000002,0.0025000002,0.0025000002,1,0,1,0,1,0
28388000,28308000,1310988,-0.0011903718,-0.0053426037,0.00048586814,0.15,1.9462321e-07,1.9420085e-07,5.1850557e-06,1310988,-0.0028559389,0.0026044908,-0.10827994,0.4,0.03773995,0.037753705,0.00078124576,197388,0.0,0.0,0.0,0.5,0.0025000002,0.0025000002,0.0025000002,1,0,1,0,1,0
28796000,28716000,1310988,-0.0011825204,-0.005335252,0.0005117261,0.15,1.927377e-07,1.9234548e-07,4.9324394e-06,1310988,-0.002870951,0.0025500513,-0.1069144,0.4,0.0377397,0.03775345,0.00078124576,197388,0.0,0.0,0.0,0.5,0.0025000002,0.0025000002,0.0025000002,1,0,1,0,1,0
29188000,29108000,1310988,-0.0011776412,-0.0053268624,0.00050507474,0.15,1.9090245e-07,1.9053354e-07,4.7353706e-06,1310988,-0.0028607314,0.002500169,-0.105178006,0.4,0.037739515,0.03775328,0.00078124576,197388,0.0,0.0,0.0,0.5,0.0025000002,0.0025000002,0.0025000002,1,0,1,0,1,0
29996000,29916000,1310988,-0.0011719023,-0.00530957,0.000499147,0.15,1.8767871e-07,1.8735686e-07,4.3040523e-06,1310988,-0.002813472,0.0024140796,-0.1033853,0.4,0.037739187,0.037752964,0.00078124576,197388,0.0,0.0,0.0,0.5,0.0025000002,0.0025000002,0.0025000002,1,0,1,0,1,0
30396000,30316000,1310988,-0.0011679992,-0.005295953,0.00046633938,0.15,1.8618825e-07,1.8588212e-07,4.140919e-06,1310988,-0.0027443788,0.0023457918,-0.1019045,0.4,0.037739005,0.03775282,0.00078124576,197388,0.0,0.0,0.0,0.5,0.0025000002,0.0025000002,0.0025000002,1,0,1,0,1,0
30788000,30708000,1310988,-0.0011675773,-0.005288938,0.00043620693,0.15,1.8474871e-07,1.8445859e-07,3.9559122e-06,1310988,-0.0026706695,0.002325298,-0.100365505,0.4,0.03773882,0.03775269,0.00078124576,197388,0.0,0.0,0.0,0.5,0.0025000002,0.0025000002,0.0025000002,1,0,1,0,1,0
31596000,31516000,1310988,-0.0011631915,-0.005271422,0.00041946804,0.15,1.822774e-07,1.8201168e-07,3.6463546e-06,1310988,-0.0025262893,0.0022761323,-0.09823299,0.4,0.037738424,0.037752476,0.00078124576,197388,0.0,0.0,0.0,0.5,0.0025000002,0.0025000002,0.0025000002,1,0,1,0,1,0
31996000,31916000,1310988,-0.0011623163,-0.0052604177,0.0004150405,0.15,1.8110893e-07,1.8085404e-07,3.4915427e-06,1310988,-0.00240511,0.0022663744,-0.096964225,0.4,0.037738178,0.037752364,0.00078124576,197388,0.0,0.0,0.0,0.5,0.0025000002,0.0025000002,0.0025000002,1,0,1,0,1,0
32396000,32316000,1310988,-0.0011568895,-0.005251603,0.00039445556,0.15,1.8001583e-07,1.7977015e-07,3.3458646e-06,1310988,-0.0022700778,0.002241912,-0.09537169,0.4,0.037737906,0.037752245,0.00078124576,197388,0.0,0.0,0.0,0.5,0.0025000002,0.0025000002,0.0025000002,1,0,1,0,1,0
32796000,32716000,1310988,-0.0011601844,-0.005244962,0.0003807624,0.15,1.7899939e-07,1.787587e-07,3.2314772e-06,1310988,-0.002139793,0.0022825545,-0.09385159,0.4,0.03773761,0.037752114,0.00078124576,197388,0.0,0.0,0.0,0.5,0.0025000002,0.0025000002,0.0025000002,1,0,1,0,1,0
33196000,33116000,1310988,-0.0011620964,-0.0052363006,0.0003671368,0.15,1.7803742e-07,1.7780323e-07,3.1007035e-06,1310988,-0.0020250487,0.0023177143,-0.092743225,0.4,0.037737276,0.037751965,0.00078124576,197388,0.0,0.0,0.0,0.5,0.0025000002,0.0025000002,0.0025000002,1,0,1,0,1,0
33596000,33516000,1310988,-0.0011689516,-0.0052289963,0.00035297865,0.15,1.7714166e-07,1.7690986e-07,2.9978353e-06,1310988,-0.0018803218,0.002408476,-0.09124817,0.4,0.037736844,0.037751753,0.00078124576,197388,0.0,0.0,0.0,0.5,0.0025000002,0.0025000002,0.0025000002,1,0,1,0,1,0
33996000,33916000,1310988,-0.0011741542,-0.0052238475,0.00033502537,0.15,1.7629146e-07,1.7606449e-07,2.880029e-06,1310988,-0.0016572721,0.0025293927,-0.08883803,0.4,0.03773634,0.037751485,0.00078124576,197388,0.0,0.0,0.0,0.5,0.0025000002,0.0025000002,0.0025000002,1,0,1,0,1,0
34396000,34316000,1310988,-0.0011771648,-0.005214783,0.00034735614,0.15,1.7549144e-07,1.7526834e-07,2.7686913e-06,1310988,-0.0014735045,0.002623358,-0.0874581,0.4,0.03773574,0.037751134,0.00078124576,197388,0.0,0.0,0.0,0.5,0.0025000002,0.0025000002,0.0025000002,1,0,1,0,1,0
34796000,34716000,1310988,-0.0011847338,-0.005205144,0.00034675898,0.15,1.7474508e-07,1.7452234e-07,2.681143e-06,1310988,-0.0013016302,0.002770658,-0.08624878,0.4,0.037735015,0.03775068,0.00078124576,197388,0.0,0.0,0.0,0.5,0.0025000002,0.0025000002,0.0025000002,1,0,1,0,1,0
35588000,35508000,1310988,-0.0011876066,-0.0051855207,0.00031640485,0.15,1.7320272e-07,1.730386e-07,2.4849312e-06,1310988,-0.00018460378,0.0032477158,-0.08558079,0.4,0.037703957,0.037718493,0.00078124576,197388,0.0,0.0,0.0,0.5,0.0025000002,0.0025000002,0.0025000002,1,0,1,0,1,0
35996000,35916000,1310988,-0.0011922409,-0.005171575,0.00030567494,0.15,1.724619e-07,1.7232053e-07,2.3948885e-06,1310988,0.0016947412,0.0041030333,-0.08466226,0.4,0.03762717,0.037639365,0.00078124576,197388,0.0,0.0,0.0,0.5,0.0025000002,0.0025000002,0.0025000002,1,0,1,0,1,0
36388000,36308000,1310988,-0.0012050498,-0.005165168,0.00028484562,0.15,1.716973e-07,1.715526e-07,2.3240652e-06,1310988,0.002384372,0.0059675807,-0.08379569,0.4,0.03755058,0.037560575,0.00078124576,197388,0.0,0.0,0.0,0.5,0.0025000002,0.0025000002,0.0025000002,1,0,1,0,1,0
36788000,36708000,1310988,-0.0012131619,-0.005160914,0.00027925012,0.15,1.7105543e-07,1.708918e-07,2.2423083e-06,1310988,0.0028077576,0.007146445,-0.08340317,0.4,0.037477583,0.03748572,0.00078124576,197388,0.0,0.0,0.0,0.5,0.0025000002,0.0025000002,0.0025000002,1,0,1,0,1,0
37188000,37108000,1310988,-0.0012224541,-0.005155819,0.00026926177,0.15,1.704856e-07,1.7029416e-07,2.17758e-06,1310988,0.0033136504,0.008471307,-0.0826769,0.4,0.037412643,0.037419446,0.00078124576,197388,0.0,0.0,0.0,0.5,0.0025000002,0.0025000002,0.0025000002,1,0,1,0,1,0
37588000,37508000,1310988,-0.0012255156,-0.0051520336,0.00025474915,0.15,1.7078301e-07,1.7056851e-07,2.1672172e-06,1310988,0.001705053,0.0072644465,-0.08203811,0.4,0.036546994,0.03655592,0.00078124576,197388,0.0,0.0,0.0,0.5,0.0025000002,0.0025000002,0.0025000002,1,0,1,0,1,0
37996000,37916000,1310988,-0.0012279099,-0.0051462436,0.0002528702,0.15,1.725052e-07,1.722812e-07,2.1702162e-06,1310988,-0.0071192207,0.004779979,-0.081116945,0.4,0.03278669,0.032797333,0.00078124576,197388,0.0,0.0,0.0,0.5,0.0025000002,0.0025000002,0.0025000002,1,0,1,0,1,0
38396000,38316000,1310988,-0.0012305125,-0.005145819,0.0002529098,0.15,1.7520438e-07,1.7497914e-07,2.1732317e-06,1310988,-0.008142534,-0.0034190423,-0.08013115,0.4,0.028368926,0.028378524,0.00078124576,197388,0.0,0.0,0.0,0.5,0.0025000002,0.0025000002,0.0025000002,1,0,1,0,1,0
38796000,38716000,1310988,-0.0012305418,-0.0051455447,0.00025425517,0.15,1.782079e-07,1.7798209e-07,2.1762269e-06,1310988,-0.008142291,-0.0044233515,-0.07958993,0.4,0.025156917,0.025164304,0.00078124576,197388,0.0,0.0,0.0,0.5,0.0025000002,0.0025000002,0.0025000002,1,0,1,0,1,0
39196000,39116000,1310988,-0.0012310751,-0.005145121,0.00025313388,0.15,1.8121268e-07,1.8098518e-07,2.1790404e-06,1310988,-0.008176274,-0.0016395425,-0.07848602,0.4,0.023158003,0.02316332,0.00078124576,197388,0.0,0.0,0.0,0.5,0.0025000002,0.0025000002,0.0025000002,1,0,1,0,1,0
39596000,39516000,1310988,-0.0012309046,-0.005145278,0.0002525661,0.15,1.8418886e-07,1.8395882e-07,2.181766e-06,1310988,-0.009426879,-0.0027310348,-0.07726023,0.4,0.021934247,0.021938022,0.00078124576,197388,0.0,0.0,0.0,0.5,0.0025000002,0.0025000002,0.0025000002,1,0,1,0,1,0
39996000,39916000,1310988,-0.0012315284,-0.005144739,0.0002522271,0.15,1.8716607e-07,1.8693316e-07,2.1842022e-06,1310988,-0.008380913,-0.0012210754,-0.07607684,0.4,0.02115977,0.021162463,0.00078124576,197388,0.0,0.0,0.0,0.5,0.0025000002,0.0025000002,0.0025000002,1,0,1,0,1,0
40396000,40316000,1310988,-0.001231335,-0.0051444788,0.00025264625,0.15,1.9017082e-07,1.899352e-07,2.1863982e-06,1310988,-0.007978346,-0.001652519,-0.075205676,0.4,0.020648485,0.020650366,0.00078124576,197388,0.0,0.0,0.0,0.5,0.0025000002,0.0025000002,0.0025000002,1,0,1,0,1,0
40788000,40708000,1310988,-0.0012317607,-0.0051439083,0.00025288714,0.15,1.931537e-07,1.9291578e-07,2.1884869e-06,1310988,-0.006925472,-0.0010216014,-0.07351898,0.4,0.02029805,0.020299336,0.00078124576,197388,0.0,0.0,0.0,0.5,0.0025000002,0.0025000002,0.0025000002,1,0,1,0,1,0
41196000,41116000,1310988,-0.0012321662,-0.005144086,0.00025378965,0.15,1.9631068e-07,1.9607106e-07,2.190239e-06,1310988,-0.007404545,-0.0004538249,-0.07220029,0.4,0.020045254,0.020046063,0.00078124576,197388,0.0,0.0,0.0,0.5,0.0025000002,0.0025000002,0.0025000002,1,0,1,0,1,0
41588000,41508000,1310988,-0.0012324796,-0.0051441635,0.00025288324,0.15,1.9938119e-07,1.9914046e-07,2.191866e-06,1310988,-0.0076424205,-7.797151e-05,-0.07064469,0.4,0.019857982,0.019858409,0.00078124576,197388,0.0,0.0,0.0,0.5,0.0025000002,0.0025000002,0.0025000002,1,0,1,0,1,0
41988000,41908000,1310988,-0.0012328023,-0.0051442087,0.00025228312,0.15,2.0254518e-07,2.023042e-07,2.1929548e-06,1310988,-0.0077715674,0.00058922084,-0.06893522,0.4,0.019684894,0.019684942,0.00078124576,197388,0.0,0.0,0.0,0.5,0.0025000002,0.0025000002,0.0025000002,1,0,1,0,1,0
42388000,42308000,1310988,-0.0012329039,-0.005144255,0.00025231496,0.15,2.0572493e-07,2.0548428e-07,2.194108e-06,1310988,-0.007430971,0.0012209878,-0.06690499,0.4,0.019530095,0.019529777,0.00078124576,197388,0.0,0.0,0.0,0.5,0.0025000002,0.0025000002,0.0025000002,1,0,1,0,1,0
42796000,42716000,1310988,-0.0012331011,-0.005144273,0.0002497136,0.15,2.089635e-07,2.08724e-07,2.1945657e-06,1310988,-0.007351378,0.0007535317,-0.06460756,0.4,0.019389026,0.01938834,0.00078124576,197388,0.0,0.0,0.0,0.5,0.0025000002,0.0025000002,0.0025000002,1,0,1,0,1,0
43188000,43108000,1310988,-0.001232548,-0.0051444024,0.0002531431,0.15,2.1204599e-07,2.1180819e-07,2.1950364e-06,1310988,-0.0071859937,0.0015013857,-0.06276904,0.4,0.019257143,0.019256085,0.00078124576,197388,0.0,0.0,0.0,0.5,0.0025000002,0.0025000002,0.0025000002,1,0,1,0,1,0
43348000,43268000,1310988,-0.0012322417,-0.0051441086,0.00025629345,0.15,2.133108e-07,2.1307277e-07,2.1946892e-06,1310988,-0.006201103,0.0008937637,-0.062783495,0.4,0.019123066,0.01914415,0.00078124576,197388,0.0029468795,-0.00089228194,-0.0015911583,0.5,0.0012783759,0.0016729321,0.0016816357,1,0,1,0,1,0
43588000,43508000,1310988,-0.0012330158,-0.005145982,0.00025576347,0.15,2.1511603e-07,2.1487523e-07,2.1962157e-06,1310988,-0.003998848,0.00067973515,-0.06099001,0.4,0.018906513,0.01897107,0.00078124576,197388,0.0025037157,-0.0009046499,-0.001471193,0.5,0.00059446524,0.0013623026,0.0014061483,1,0,1,0,1,0
43916000,43836000,1310988,-0.0012329145,-0.005145778,0.00025709928,0.15,2.1773398e-07,2.1748627e-07,2.1982357e-06,1310988,-0.0035260818,0.00046376837,-0.060934115,0.4,0.018813714,0.018946204,0.00078124576,197388,0.0025088843,0.0005416965,-0.0015646095,0.5,0.00043933454,0.0010373524,0.0013148048,1,0,1,0,1,0
43988000,43908000,1310988,-0.001232569,-0.0051506828,0.00026400588,0.15,2.181116e-07,2.1785891e-07,2.1982964e-06,1310988,-0.00084566465,0.0057676914,-0.058981113,0.4,0.018560462,0.018704532,0.00078124576,197388,0.0023472253,0.0003298317,-0.0012302547,0.5,0.00043241688,0.00096055603,0.0013011035,1,0,1,0,1,0
44396000,44316000,1310988,-0.0012328243,-0.0051628123,0.000289884,0.15,2.2104557e-07,2.2076215e-07,2.1986932e-06,1310988,-0.0026123393,0.024300452,-0.056850597,0.4,0.017684184,0.017921783,0.00078124576,197388,0.0020978325,-0.00068659015,-0.0007364958,0.5,0.00040619323,0.0006210089,0.001257836,1,0,1,0,1,0
44772000,44692000,1310988,-0.0012331106,-0.0051632063,0.00028874702,0.15,2.2404944e-07,2.2372637e-07,2.198778e-06,1310988,-0.002914213,0.024669321,-0.056818813,0.4,0.017353235,0.017906599,0.00078124576,197388,0.0025997423,-0.0017512034,-0.00016557846,0.5,0.00035350947,0.0003638011,0.0012411567,1,0,1,0,1,0
44796000,44716000,1310988,-0.0012297292,-0.00518101,0.00032845134,0.15,2.2384783e-07,2.2350437e-07,2.1969709e-06,1310988,-0.023799608,0.053194847,-0.05460386,0.4,0.015882824,0.016253425,0.00078124576,197388,0.002588734,-0.0019332361,-0.00068505236,0.5,0.0003534514,0.00036276793,0.0012405567,1,0,1,0,1,0
45196000,45116000,1310988,-0.0012240992,-0.005199866,0.00036624784,0.15,2.2669303e-07,2.262898e-07,2.1951612e-06,1310988,-0.060527116,0.08227309,-0.051803917,0.4,0.013563768,0.013989138,0.00078124576,197388,0.0028992032,-0.0013304016,-0.0008808757,0.5,0.00030463774,0.00025028823,0.0012177242,1,0,1,0,1,0
45596000,45516000,1310988,-0.0012169044,-0.005213224,0.00038427638,0.15,2.2961954e-07,2.2918684e-07,2.1956089e-06,1310988,-0.097758755,0.10160688,-0.04971537,0.4,0.011413604,0.011757197,0.00078124576,197388,0.0034375351,-0.00091526867,-0.0012963663,0.5,0.00028546868,0.00021342046,0.0011652898,1,0,1,0,1,0
45996000,45916000,1310988,-0.0012100433,-0.0052214586,0.00037444563,0.15,2.3259986e-07,2.3214724e-07,2.1958413e-06,1310988,-0.12577383,0.112384066,-0.047292847,0.4,0.009533303,0.009802387,0.00078124576,197388,0.0039468943,-0.00042890405,-0.00084546366,0.5,0.00027005302,0.00018648764,0.0010671158,1,0,1,0,1,0
46396000,46316000,1310988,-0.0012039137,-0.0052265627,0.00035841964,0.15,2.3561374e-07,2.3514345e-07,2.19555e-06,1310988,-0.14744346,0.119512916,-0.0456561,0.4,0.007989458,0.008222883,0.00078124576,197388,0.004296026,-3.8684797e-05,-0.0014155746,0.5,0.00026206768,0.00017154269,0.0010237283,1,0,1,0,1,0
46796000,46716000,1310988,-0.00119889,-0.0052291607,0.00034128266,0.15,2.3863058e-07,2.381364e-07,2.1937556e-06,1310988,-0.1606431,0.12532386,-0.04346384,0.4,0.006757153,0.0069918893,0.00078124576,197388,0.004571226,0.0004927918,-0.0013464118,0.5,0.00025552593,0.00015837191,0.0009913498,1,0,1,0,1,0
47188000,47108000,1310988,-0.0011954312,-0.005228875,0.00033267692,0.15,2.4156788e-07,2.4104e-07,2.1908704e-06,1310988,-0.16754879,0.12594531,-0.0421145,0.4,0.0057993573,0.0060494663,0.00078124576,197388,0.004697478,0.00079767755,-0.0014834908,0.5,0.00025085857,0.00014818717,0.0009701668,1,0,1,0,1,0
47588000,47508000,1310988,-0.0011914215,-0.0052288533,0.00031907493,0.15,2.445377e-07,2.4396658e-07,2.1877477e-06,1310988,-0.1732436,0.12745017,-0.040506933,0.4,0.0050537707,0.005319332,0.00078124576,197388,0.0047876947,0.0010388977,-0.0014941447,0.5,0.0002479086,0.00014098932,0.00095835095,1,0,1,0,1,0
47996000,47916000,1310988,-0.0011884593,-0.005228803,0.00030868064,0.15,2.4750383e-07,2.468589e-07,2.182951e-06,1310988,-0.17462207,0.12892994,-0.038620222,0.4,0.0044705914,0.0047446894,0.00078124576,197388,0.004806097,0.0010551364,-0.001583707,0.5,0.00024515684,0.00013387864,0.0009467143,1,0,1,0,1,0
48396000,48316000,1310988,-0.0011856264,-0.0052286345,0.0002997871,0.15,2.503266e-07,2.4957478e-07,2.1770038e-06,1310988,-0.17658569,0.13007411,-0.037376616,0.4,0.0040194,0.0042929947,0.00078124576,197388,0.0048072063,0.0011997826,-0.0015693253,0.5,0.00024299261,0.00012789915,0.0009377614,1,0,1,0,1,0
48796000,48716000,1310988,-0.0011827648,-0.0052286037,0.00029166014,0.15,2.5305926e-07,2.521731e-07,2.1710352e-06,1310988,-0.17695685,0.13180518,-0.036029126,0.4,0.0036705744,0.003936076,0.00078124576,197388,0.0048475536,0.0012377109,-0.0016383064,0.5,0.00024152469,0.00012345037,0.000932355,1,0,1,0,1,0
49188000,49108000,1310988,-0.0011788246,-0.0052255895,0.00028348682,0.15,2.5562923e-07,2.5463396e-07,2.1567032e-06,1310988,-0.17859882,0.13186395,-0.0345451,0.4,0.0033980145,0.0036516027,0.00078124576,197388,0.0048669176,0.0012578124,-0.0015440915,0.5,0.0002410621,0.00012228261,0.00093049754,1,0,1,0,1,0
49596000,49516000,1310988,-0.0011760961,-0.0052242614,0.00027941758,0.15,2.5817513e-07,2.5707945e-07,2.1390833e-06,1310988,-0.17906156,0.13228656,-0.03347001,0.4,0.0031832538,0.0034220428,0.00078124576,197388,0.0048669176,0.0012578124,-0.0015440915,0.5,0.0002410621,0.00012228261,0.00093049754,1,0,1,0,1,0
49988000,49908000,1310988,-0.0011716471,-0.005222192,0.00026997112,0.15,2.6041587e-07,2.5918277e-07,2.1238425e-06,1310988,-0.179649,0.13296142,-0.031979404,0.4,0.0030158712,0.0032392219,0.00078124576,197388,0.0048669176,0.0012578124,-0.0015440915,0.5,0.0002410621,0.00012228261,0.00093049754,1,0,1,0,1,0
50396000,50316000,1310988,-0.0011677888,-0.0052204006,0.0002568072,0.15,2.6253173e-07,2.6113347e-07,2.1059761e-06,1310988,-0.17953786,0.13375829,-0.030263076,0.4,0.0028838147,0.0030928978,0.00078124576,197388,0.0048669176,0.0012578124,-0.0015440915,0.5,0.0002410621,0.00012228261,0.00093049754,1,0,1,0,1,0
50788000,50708000,1310988,-0.001162312,-0.0052194684,0.000249999,0.15,2.642653e-07,2.626712e-07,2.0879809e-06,1310988,-0.17959414,0.13463834,-0.028850315,0.4,0.0027811944,0.0029783465,0.00078124576,197388,0.0048669176,0.0012578124,-0.0015440915,0.5,0.0002410621,0.00012228261,0.00093049754,1,0,1,0,1,0
51196000,51116000,1310988,-0.0011589454,-0.0052153273,0.00024506825,0.15,2.658006e-07,2.639726e-07,2.069904e-06,1310988,-0.17977914,0.13459037,-0.027668975,0.4,0.0027005847,0.002888819,0.00078124576,197388,0.0048669176,0.0012578124,-0.0015440915,0.5,0.0002410621,0.00012228261,0.00093049754,1,0,1,0,1,0
51588000,51508000,1310988,-0.001156151,-0.0052112327,0.00024643316,0.15,2.6689756e-07,2.6478796e-07,2.0540992e-06,1310988,-0.17965125,0.13445544,-0.026358845,0.4,0.002638264,0.002820751,0.00078124576,197388,0.0048669176,0.0012578124,-0.0015440915,0.5,0.0002410621,0.00012228261,0.00093049754,1,0,1,0,1,0
51988000,51908000,1310988,-0.0011531933,-0.005209114,0.00024976177,0.15,2.6766583e-07,2.652515e-07,2.0354526e-06,1310988,-0.17916444,0.13468577,-0.02494293,0.4,0.0025902393,0.0027696784,0.00078124576,197388,0.0048669176,0.0012578124,-0.0015440915,0.5,0.0002410621,0.00012228261,0.00093049754,1,0,1,0,1,0
52396000,52316000,1310988,-0.0011527751,-0.005205776,0.00024423434,0.15,2.680735e-07,2.6531131e-07,2.016391e-06,1310988,-0.17863375,0.13478094,-0.023512313,0.4,0.0025530271,0.0027319326,0.00078124576,197388,0.0048669176,0.0012578124,-0.0015440915,0.5,0.0002410621,0.00012228261,0.00093049754,1,0,1,0,1,0
52796000,52716000,1310988,-0.0011476651,-0.005204409,0.0002463702,0.15,2.6802996e-07,2.6485657e-07,1.9995196e-06,1310988,-0.17823376,0.13514131,-0.02224021,0.4,0.0025245815,0.0027049722,0.00078124576,197388,0.0048669176,0.0012578124,-0.0015440915,0.5,0.0002410621,0.00012228261,0.00093049754,1,0,1,0,1,0
53188000,53108000,1310988,-0.0011451929,-0.0052027344,0.00023995331,0.15,2.6750905e-07,2.6391547e-07,1.9796075e-06,1310988,-0.1778937,0.13532333,-0.021179812,0.4,0.0025028044,0.0026863003,0.00078124576,197388,0.0048669176,0.0012578124,-0.0015440915,0.5,0.0002410621,0.00012228261,0.00093049754,1,0,1,0,1,0
53596000,53516000,1310988,-0.0011416778,-0.005201616,0.00023171814,0.15,2.666879e-07,2.6260008e-07,1.9620315e-06,1310988,-0.1774331,0.13560072,-0.019920466,0.4,0.002485839,0.0026737803,0.00078124576,197388,0.0048669176,0.0012578124,-0.0015440915,0.5,0.0002410621,0.00012228261,0.00093049754,1,0,1,0,1,0
53996000,53916000,1310988,-0.0011380749,-0.0051948633,0.00021987123,0.15,2.6537148e-07,2.6078325e-07,1.9412732e-06,1310988,-0.17706332,0.13578497,-0.018491928,0.4,0.002472405,0.002665649,0.00078124576,197388,0.0048669176,0.0012578124,-0.0015440915,0.5,0.0002410621,0.00012228261,0.00093049754,1,0,1,0,1,0
54396000,54316000,1310988,-0.0011406713,-0.0051877145,0.00020722092,0.15,2.637141e-07,2.585556e-07,1.9228803e-06,1310988,-0.17668955,0.13591138,-0.017052554,0.4,0.0024610062,0.002660284,0.00078124576,197388,0.0048669176,0.0012578124,-0.0015440915,0.5,0.0002410621,0.00012228261,0.00093049754,1,0,1,0,1,0
54796000,54716000,1310988,-0.0011414564,-0.005182753,0.00020292623,0.15,2.616782e-07,2.5595517e-07,1.9013264e-06,1310988,-0.17627119,0.13609535,-0.015532064,0.4,0.0024508317,0.0026564696,0.00078124576,197388,0.0048669176,0.0012578124,-0.0015440915,0.5,0.0002410621,0.00012228261,0.00093049754,1,0,1,0,1,0
55196000,55116000,1310988,-0.0011390107,-0.0051770476,0.00019933833,0.15,2.5938903e-07,2.530272e-07,1.8822498e-06,1310988,-0.17574298,0.13637356,-0.013743929,0.4,0.002441177,0.0026532162,0.00078124576,197388,0.0048669176,0.0012578124,-0.0015440915,0.5,0.0002410621,0.00012228261,0.00093049754,1,0,1,0,1,0
55596000,55516000,1310988,-0.0011353077,-0.00517822,0.0001803728,0.15,2.568033e-07,2.498238e-07,1.8600601e-06,1310988,-0.17516139,0.13648772,-0.012293219,0.4,0.0024314735,0.0026497694,0.00078124576,197388,0.0048669176,0.0012578124,-0.0015440915,0.5,0.0002410621,0.00012228261,0.00093049754,1,0,1,0,1,0
55996000,55916000,1310988,-0.0011368127,-0.005179762,0.00018208624,0.15,2.5400826e-07,2.4639468e-07,1.8376604e-06,1310988,-0.17483483,0.13661349,-0.010925094,0.4,0.002421494,0.0026455857,0.00078124576,197388,0.0048669176,0.0012578124,-0.0015440915,0.5,0.0002410621,0.00012228261,0.00093049754,1,0,1,0,1,0
56396000,56316000,1310988,-0.0011406917,-0.00516907,0.00018568756,0.15,2.5110361e-07,2.4278788e-07,1.818064e-06,1310988,-0.17475894,0.13696353,-0.009933083,0.4,0.0024108489,0.0026401833,0.00078124576,197388,0.0048669176,0.0012578124,-0.0015440915,0.5,0.0002410621,0.00012228261,0.00093049754,1,0,1,0,1,0
56796000,56716000,1310988,-0.0011389785,-0.0051581278,0.00017431383,0.15,2.4802378e-07,2.3905525e-07,1.7955053e-06,1310988,-0.17433867,0.13733216,-0.00845889,0.4,0.0023994728,0.0026333167,0.00078124576,197388,0.0048669176,0.0012578124,-0.0015440915,0.5,0.0002410621,0.00012228261,0.00093049754,1,0,1,0,1,0
57188000,57108000,1310988,-0.0011340728,-0.0051448354,0.00016145731,0.15,2.4492005e-07,2.3523663e-07,1.7758505e-06,1310988,-0.17379805,0.13773559,-0.007079892,0.4,0.00238751,0.002625059,0.00078124576,197388,0.0048669176,0.0012578124,-0.0015440915,0.5,0.0002410621,0.00012228261,0.00093049754,1,0,1,0,1,0
57596000,57516000,1310988,-0.001128805,-0.005137556,0.00015542991,0.15,2.418179e-07,2.3147122e-07,1.7531584e-06,1310988,-0.17327197,0.13800187,-0.0056877383,0.4,0.002374721,0.0026153245,0.00078124576,197388,0.0048669176,0.0012578124,-0.0015440915,0.5,0.0002410621,0.00012228261,0.00093049754,1,0,1,0,1,0
57996000,57916000,1310988,-0.0011318374,-0.00513431,0.00016649207,0.15,2.3868645e-07,2.2767915e-07,1.7302924e-06,1310988,-0.17323835,0.13828242,-0.0046157185,0.4,0.0023614871,0.0026043688,0.00078124576,197388,0.0048669176,0.0012578124,-0.0015440915,0.5,0.0002410621,0.00012228261,0.00093049754,1,0,1,0,1,0
58388000,58308000,1310988,-0.0011320628,-0.005137644,0.00016561127,0.15,2.3565532e-07,2.2393388e-07,1.7105411e-06,1310988,-0.17309752,0.13821533,-0.0034253262,0.4,0.0023480302,0.0025923685,0.00078124576,197388,0.0048669176,0.0012578124,-0.0015440915,0.5,0.0002410621,0.00012228261,0.00093049754,1,0,1,0,1,0
58796000,58716000,1310988,-0.0011308154,-0.0051413095,0.00016027827,0.15,2.326996e-07,2.2034686e-07,1.6878698e-06,1310988,-0.17287214,0.13809237,-0.0020372847,0.4,0.0023341947,0.0025792567,0.00078124576,197388,0.0048669176,0.0012578124,-0.0015440915,0.5,0.0002410621,0.00012228261,0.00093049754,1,0,1,0,1,0
59196000,59116000,1310988,-0.0011355161,-0.005135021,0.00016457266,0.15,2.2984926e-07,2.1681484e-07,1.6685069e-06,1310988,-0.17288865,0.13849114,-0.0010934452,0.4,0.0023202475,0.0025653352,0.00078124576,197388,0.0048669176,0.0012578124,-0.0015440915,0.5,0.0002410621,0.00012228261,0.00093049754,1,0,1,0,1,0
59596000,59516000,1310988,-0.0011347566,-0.005127291,0.0001556106,0.15,2.2702655e-07,2.1341722e-07,1.6461981e-06,1310988,-0.17255212,0.13881119,0.000116806,0.4,0.002306293,0.0025507307,0.00078124576,197388,0.0048669176,0.0012578124,-0.0015440915,0.5,0.0002410621,0.00012228261,0.00093049754,1,0,1,0,1,0
59996000,59916000,1310988,-0.0011317631,-0.0051216464,0.00015373394,0.15,2.2432465e-07,2.1016838e-07,1.6240632e-06,1310988,-0.17221624,0.13905007,0.0012208603,0.4,0.0022924365,0.0025357357,0.00078124576,197388,0.0048669176,0.0012578124,-0.0015440915,0.5,0.0002410621,0.00012228261,0.00093049754,1,0,1,0,1,0
60396000,60316000,1310988,-0.0011376074,-0.0051230276,0.00015797194,0.15,2.2184773e-07,2.0708276e-07,1.6052999e-06,1310988,-0.1723989,0.13916562,0.0023280848,0.4,0.0022789214,0.0025206697,0.00078124576,197388,0.0048669176,0.0012578124,-0.0015440915,0.5,0.0002410621,0.00012228261,0.00093049754,1,0,1,0,1,0
60788000,60708000,1310988,-0.0011413924,-0.005122697,0.00015283927,0.15,2.1940431e-07,2.0414049e-07,1.5833406e-06,1310988,-0.17242818,0.13924053,0.0035338008,0.4,0.002265936,0.0025057408,0.00078124576,197388,0.0048669176,0.0012578124,-0.0015440915,0.5,0.0002410621,0.00012228261,0.00093049754,1,0,1,0,1,0
61596000,61516000,1310988,-0.0011539137,-0.0051219277,0.00015691528,0.15,2.151181e-07,1.9883839e-07,1.543283e-06,1310988,-0.1728271,0.13957022,0.0052661803,0.4,0.0022412445,0.0024763374,0.00078124576,197388,0.0048669176,0.0012578124,-0.0015440915,0.5,0.0002410621,0.00012228261,0.00093049754,1,0,1,0,1,0
62388000,62308000,1310988,-0.0011688765,-0.0051159444,0.00016117671,0.15,2.1147174e-07,1.9417003e-07,1.5025462e-06,1310988,-0.17328055,0.14013016,0.006897353,0.4,0.0022194944,0.0024505816,0.00078124576,197388,0.0048669176,0.0012578124,-0.0015440915,0.5,0.0002410621,0.00012228261,0.00093049754,1,1,1,0,1,0
62796000,62716000,1310988,-0.0011841776,-0.0051119714,0.00018211368,0.15,2.1054305e-07,1.9238762e-07,1.4752417e-06,1310988,-0.1739521,0.14067653,0.007699868,0.4,0.0022111584,0.002443562,0.00078124576,197388,0.0048669176,0.0012578124,-0.0015440915,0.5,0.0002410621,0.00012228261,0.00093049754,1,1,1,0,1,0
63196000,63116000,1310988,-0.001196539,-0.005101,0.00021148108,0.15,2.1016078e-07,1.9093332e-07,1.447439e-06,1310988,-0.17470078,0.1412387,0.008736512,0.4,0.0022032687,0.002438871,0.00078124576,197388,0.0048669176,0.0012578124,-0.0015440915,0.5,0.0002410621,0.00012228261,0.00093049754,1,1,1,0,1,0
63508000,63428000,1310988,-0.0011976593,-0.0051033697,0.0001996166,0.15,2.123134e-07,1.9301827e-07,1.4278979e-06,1310988,-0.1749066,0.1408811,0.008753877,0.4,0.002174374,0.002395433,0.00078124576,197388,0.004187321,0.0008107036,-0.0005482058,0.5,0.00019893162,0.00010764222,0.0006243418,1,1,1,0,1,0
63596000,63516000,1310988,-0.0012127676,-0.005099132,0.0002389643,0.15,2.1028929e-07,1.8941414e-07,1.4086041e-06,1310988,-0.17563462,0.14152698,0.00974363,0.4,0.0021620125,0.0023852827,0.00078124576,197388,0.0043297685,0.00079667947,-0.0003900253,0.5,0.00019136688,0.00010384093,0.00059968827,1,1,1,0,1,0
63996000,63916000,1310988,-0.0012242468,-0.005104113,0.0002694951,0.15,2.1101526e-07,1.885723e-07,1.3806379e-06,1310988,-0.17630213,0.14180134,0.010867999,0.4,0.0021420987,0.0023613893,0.00078124576,197388,0.0041028466,0.0007370553,-0.0006146292,0.5,0.00016995933,8.972627e-05,0.0005484836,1,1,1,0,1,0
64388000,64308000,1310988,-0.001235046,-0.005108704,0.000312507,0.15,2.1191308e-07,1.8822061e-07,1.3572858e-06,1310988,-0.17650531,0.14267851,0.011688426,0.4,0.0021263927,0.0023424362,0.00078124576,197388,0.0043270877,0.0009349317,-0.0008718218,0.5,0.00015851817,7.892825e-05,0.00052790827,1,1,1,0,1,0
64788000,64708000,1310988,-0.0012414673,-0.005116682,0.0003306338,0.15,2.1290717e-07,1.8837314e-07,1.341108e-06,1310988,-0.17643419,0.1432995,0.012544016,0.4,0.0021133092,0.0023257702,0.00078124576,197388,0.0043244152,0.0009711138,-0.0009340449,0.5,0.00015298778,7.268691e-05,0.0005177792,1,1,1,0,1,0
65196000,65116000,1310988,-0.0012432965,-0.005111406,0.00033746831,0.15,2.1395687e-07,1.888783e-07,1.3224052e-06,1310988,-0.17693554,0.14300323,0.013543063,0.4,0.0020993138,0.002303167,0.00078124576,197388,0.0041059665,0.0007499939,-0.00035785185,0.5,0.000142188,6.810482e-05,0.00048757374,1,1,1,0,1,0
65524000,65444000,1310988,-0.0012429473,-0.005111417,0.00032846097,0.15,2.1647735e-07,1.9131014e-07,1.3195845e-06,1310988,-0.17674725,0.14272423,0.013468007,0.4,0.0020961028,0.0022951306,0.00078124576,197388,0.0032862993,0.00055652735,0.0003931234,0.5,0.00012671384,6.584291e-05,0.00047276236,1,1,1,0,1,0
65596000,65516000,1310988,-0.0012575625,-0.0051128017,0.00035344437,0.15,2.1447227e-07,1.8905894e-07,1.3030854e-06,1310988,-0.17740698,0.14361654,0.0148991505,0.4,0.0020849444,0.0022762078,0.00078124576,197388,0.0029738387,0.00043380444,0.0003290198,0.5,0.00012282499,6.514313e-05,0.00047066217,1,1,1,0,1,0
65996000,65916000,1310988,-0.0012708429,-0.0051176427,0.0003710629,0.15,2.1436561e-07,1.88565e-07,1.289324e-06,1310988,-0.17805886,0.1444678,0.01573902,0.4,0.002064173,0.002239647,0.00078124576,197388,0.0026900454,0.00020280878,0.0001134719,0.5,0.00010303851,6.2469495e-05,0.00046556888,1,1,1,0,1,0
66316000,66236000,1310988,-0.0012691548,-0.005115711,0.00037094287,0.15,2.1660792e-07,1.9083967e-07,1.2834963e-06,1310988,-0.17756891,0.14468215,0.015600502,0.4,0.0020574331,0.0022269886,0.00078124576,197388,0.0017121169,0.00024562824,0.00044377332,0.5,8.582631e-05,5.9239803e-05,0.00045890757,1,1,1,0,1,0
66396000,66316000,1310988,-0.0012791557,-0.0051218197,0.00037272015,0.15,2.1341836e-07,1.8727442e-07,1.274754e-06,1310988,-0.17866701,0.14462556,0.01683939,0.4,0.0020312693,0.0021674444,0.00078124576,197388,0.0016971291,0.00027718255,0.00040013716,0.5,8.255319e-05,5.8375514e-05,0.00045621168,1,1,1,0,1,0
66796000,66716000,1310988,-0.0012846163,-0.005134585,0.00037098824,0.15,2.1148934e-07,1.8520961e-07,1.2624428e-06,1310988,-0.17964599,0.14366943,0.017933168,0.4,0.0019804982,0.0020428188,0.00078124576,197388,0.0015254187,0.00010451576,2.5318284e-05,0.5,6.956557e-05,5.4440236e-05,0.00043592474,1,1,1,0,1,0
67196000,67116000,1310988,-0.0012912021,-0.0051523377,0.0003518104,0.15,2.0871933e-07,1.827721e-07,1.2508234e-06,1310988,-0.18125929,0.14120913,0.019349242,0.4,0.0019073681,0.0018750905,0.00078124576,197388,0.0012313753,0.00023520192,0.00033947403,0.5,6.015446e-05,5.1189258e-05,0.00040739818,1,1,1,0,1,0
67596000,67516000,1310988,-0.0013065635,-0.005158004,0.000343194,0.15,2.0634882e-07,1.807289e-07,1.2437874e-06,1310988,-0.18343733,0.14117941,0.020576973,0.4,0.0018178184,0.0017031394,0.00078124576,197388,0.0012333549,0.00023179875,0.00015942482,0.5,5.5222183e-05,4.938665e-05,0.00039904835,1,1,1,0,1,0
67996000,67916000,1310988,-0.0013243575,-0.005166045,0.0003334002,0.15,2.0475602e-07,1.7923051e-07,1.2400259e-06,1310988,-0.18635882,0.14073905,0.022107229,0.4,0.0017094604,0.0015425457,0.00078124576,197388,0.0010000931,0.0002602966,7.0638984e-05,0.5,5.0424194e-05,4.7575384e-05,0.0003960762,1,1,1,0,1,0
68396000,68316000,1310988,-0.0013355414,-0.005178786,0.00033279692,0.15,2.0385508e-07,1.7820071e-07,1.2383439e-06,1310988,-0.18905412,0.13889332,0.023056658,0.4,0.0015864637,0.0013956048,0.00078124576,197388,0.0010615641,0.0002591263,0.00017278599,0.5,4.7104033e-05,4.6340447e-05,0.00039293568,1,1,1,0,1,0
68788000,68708000,1310988,-0.0013395696,-0.0051946393,0.00034671355,0.15,2.0343377e-07,1.7770382e-07,1.2350852e-06,1310988,-0.19133674,0.13612413,0.02393906,0.4,0.0014629067,0.0012671003,0.00078124576,197388,0.001142828,0.00018041904,0.00019844311,0.5,4.4176333e-05,4.5108274e-05,0.0003906212,1,1,1,0,1,0
69188000,69108000,1310988,-0.0013472365,-0.005210158,0.00036632415,0.15,2.0363287e-07,1.7779686e-07,1.231244e-06,1310988,-0.19447194,0.13345213,0.024913557,0.4,0.001345441,0.0011568893,0.00078124576,197388,0.0011950674,7.915651e-05,0.00023364933,0.5,4.224667e-05,4.4233733e-05,0.0003889385,1,1,1,0,1,0
69596000,69516000,1310988,-0.0013442247,-0.0052267066,0.00038912863,0.15,2.042464e-07,1.7837729e-07,1.2253147e-06,1310988,-0.1956534,0.13045755,0.02572962,0.4,0.0012381511,0.001063926,0.00078124576,197388,0.0010891084,1.8221173e-05,0.00021421965,0.5,4.0386367e-05,4.3330747e-05,0.00038715603,1,1,1,0,1,0
69988000,69908000,1310988,-0.0013442531,-0.0052384227,0.00041643257,0.15,2.0509245e-07,1.7919358e-07,1.2182082e-06,1310988,-0.19714053,0.12825924,0.026179796,0.4,0.0011448548,0.0009878633,0.00078124576,197388,0.0011563174,-9.431503e-05,0.0002212729,0.5,3.8875387e-05,4.2558175e-05,0.0003854954,1,1,1,0,1,0
70396000,70316000,1310988,-0.0013435143,-0.0052531725,0.00043981202,0.15,2.0639081e-07,1.8037092e-07,1.2111682e-06,1310988,-0.19808196,0.12576665,0.026437337,0.4,0.0010644632,0.0009255543,0.00078124576,197388,0.0010709304,-0.00010553009,0.00029600333,0.5,3.782401e-05,4.1993862e-05,0.00038419795,1,1,1,0,1,0
70796000,70716000,1310988,-0.001341968,-0.0052630887,0.00045793218,0.15,2.0760949e-07,1.8163676e-07,1.1964532e-06,1310988,-0.19842823,0.124249525,0.025772573,0.4,0.0009963361,0.00087533984,0.00078124576,197388,0.0010163997,-0.00011254904,0.00023166099,0.5,3.709548e-05,4.159749e-05,0.0003834275,1,1,1,0,1,0
71196000,71116000,1310988,-0.0013423293,-0.005273038,0.0004766052,0.15,2.0871764e-07,1.8301176e-07,1.1693604e-06,1310988,-0.19888659,0.12271998,0.025754271,0.4,0.000938181,0.0008352632,0.00078124576,197388,0.0010163997,-0.00011254904,0.00023166099,0.5,3.709548e-05,4.159749e-05,0.0003834275,1,1,1,0,1,0
71596000,71516000,1310988,-0.0013469522,-0.0052746073,0.00049084984,0.15,2.1034782e-07,1.8446208e-07,1.1431e-06,1310988,-0.20009984,0.12216862,0.025781127,0.4,0.0008866047,0.00080429425,0.00078124576,197388,0.0010163997,-0.00011254904,0.00023166099,0.5,3.709548e-05,4.159749e-05,0.0003834275,1,1,1,0,1,0
72396000,72316000,1310988,-0.0013488715,-0.0052878577,0.0005399813,0.15,2.1408079e-07,1.8741686e-07,1.0811854e-06,1310988,-0.20103408,0.12049979,0.02558729,0.4,0.00080568343,0.00078124576,0.00078124576,197388,0.0010163997,-0.00011254904,0.00023166099,0.5,3.709548e-05,4.159749e-05,0.0003834275,1,1,1,0,1,0
72796000,72716000,1310988,-0.0013504217,-0.0052979784,0.00056945125,0.15,2.1602494e-07,1.8886338e-07,1.0489371e-06,1310988,-0.20127732,0.11955256,0.025348322,0.4,0.00078124576,0.00078124576,0.00078124576,197388,0.0010163997,-0.00011254904,0.00023166099,0.5,3.709548e-05,4.159749e-05,0.0003834275,1,1,1,0,1,0
73380000,73300000,1310988,-0.0013548676,-0.0053074006,0.0005884956,0.15,2.1888049e-07,1.9153059e-07,1.0111788e-06,1310988,-0.20161419,0.11876651,0.024811579,0.4,0.00078124943,0.00078124873,0.00078124576,197388,0.0009198671,-0.00010395345,3.0154084e-05,0.5,3.5124252e-05,3.922245e-05,0.00028136253,1,1,1,0,1,0
73996000,73916000,1310988,-0.001352401,-0.0053228796,0.0005934134,0.15,2.2115822e-07,1.9212459e-07,9.664061e-07,1310988,-0.20096049,0.11830398,0.024124168,0.4,0.00078124576,0.00078124576,0.00078124576,197388,0.00088159763,-0.00011816159,-0.00060147856,0.5,3.18989e-05,3.571873e-05,0.00023720876,1,1,1,0,1,0
74788000,74708000,1310988,-0.0013560604,-0.0053318804,0.0005996686,0.15,2.2464742e-07,1.9424206e-07,9.2502285e-07,1310988,-0.20085225,0.11784423,0.023233633,0.4,0.00078124576,0.00078124576,0.00078124576,197388,0.0007890075,-0.00017225614,-0.00047029008,0.5,2.9271217e-05,3.2700256e-05,0.00021662127,1,1,1,0,1,0
75612000,75532000,1310988,-0.001362868,-0.005348683,0.0006086498,0.15,2.2784533e-07,1.9687077e-07,8.8826096e-07,1310988,-0.2009944,0.11688754,0.022976855,0.4,0.0007812468,0.00078124687,0.00078124576,197388,0.0007957662,-0.0002282662,-0.00042959966,0.5,2.6986509e-05,2.9262597e-05,0.00020835595,1,1,1,0,1,0
75996000,75916000,1310988,-0.0013598274,-0.005359469,0.00058336766,0.15,2.2898854e-07,1.9817877e-07,8.7314714e-07,1310988,-0.20064029,0.11575522,0.022652457,0.4,0.00078124576,0.00078124576,0.00078124576,197388,0.0007429312,-0.00016200946,-0.00019805146,0.5,2.6071717e-05,2.7780685e-05,0.00020273688,1,1,1,0,1,0
76420000,76340000,1310988,-0.0013562802,-0.0053650234,0.0005699879,0.15,2.3006486e-07,2.0004413e-07,8.5770534e-07,1310988,-0.20039327,0.114921786,0.022126846,0.4,0.0007812479,0.000781248,0.00078124576,197388,0.00070566696,-0.00020661135,-4.3598437e-05,0.5,2.5208608e-05,2.6347221e-05,0.00019573292,1,1,1,0,1,0
77420000,77340000,1310988,-0.0013576851,-0.005370719,0.0005714153,0.15,2.336892e-07,2.0561973e-07,8.3632096e-07,1310988,-0.20089082,0.114462376,0.021514034,0.4,0.0007812516,0.0007812583,0.00078124634,197388,0.00054657646,-0.0001708201,0.00020024489,0.5,2.384352e-05,2.4047176e-05,0.00019095738,1,1,1,0,1,0
78420000,78340000,1310988,-0.0013543941,-0.005375966,0.0005734623,0.15,2.3737395e-07,2.10789e-07,8.2822663e-07,1310988,-0.20079447,0.113699324,0.02096492,0.4,0.0007812475,0.0007812475,0.0007812475,197388,0.00050667755,-0.0001858437,0.00019241917,0.5,2.2900178e-05,2.246742e-05,0.00018897663,1,1,1,0,1,0
79196000,79116000,1310988,-0.0013449648,-0.005380622,0.00058444677,0.15,2.4084633e-07,2.152933e-07,8.2447326e-07,1310988,-0.19995604,0.113044105,0.020272767,0.4,0.00078124576,0.00078124576,0.00078124576,197388,0.00048397924,-0.00023518465,0.0001705459,0.5,2.2348568e-05,2.1567468e-05,0.00018776668,1,1,1,0,1,0
79996000,79916000,1310988,-0.0013334572,-0.0053841695,0.0005925247,0.15,2.4445598e-07,2.197865e-07,8.1869376e-07,1310988,-0.19863282,0.112937905,0.019544175,0.4,0.00078124576,0.00078124576,0.00078124576,197388,0.0005008988,-0.0002879086,0.00013951861,0.5,2.1948446e-05,2.093711e-05,0.0001868979,1,1,1,0,1,0
80788000,80708000,1310988,-0.001328663,-0.0053950623,0.00059547863,0.15,2.4767306e-07,2.2397305e-07,7.9756137e-07,1310988,-0.19730711,0.11250703,0.020275395,0.4,0.00078124576,0.00078124576,0.00078124576,197388,0.0005008988,-0.0002879086,0.00013951861,0.5,2.1948446e-05,2.093711e-05,0.0001868979,1,1,1,0,1,0
81596000,81516000,1310988,-0.0013215508,-0.005410635,0.0006045514,0.15,2.5032037e-07,2.2748547e-07,7.7451006e-07,1310988,-0.19590887,0.11234066,0.020616109,0.4,0.00078124576,0.00078124576,0.00078124576,197388,0.0005008988,-0.0002879086,0.00013951861,0.5,2.1948446e-05,2.093711e-05,0.0001868979,1,1,1,0,1,0
82596000,82516000,1310988,-0.0013223026,-0.005415983,0.00059737253,0.15,2.5337224e-07,2.3152299e-07,7.497025e-07,1310988,-0.19547398,0.112356424,0.02133927,0.4,0.00078124634,0.00078124803,0.00078124634,197388,0.0005008988,-0.0002879086,0.00013951861,0.5,2.1948446e-05,2.093711e-05,0.0001868979,1,1,1,0,1,0
83196000,83116000,1310988,-0.0013168461,-0.005425235,0.000606139,0.15,2.5290913e-07,2.3119935e-07,7.348413e-07,1310988,-0.1949892,0.11257163,0.022417506,0.4,0.00078124576,0.00078124576,0.00078124576,197388,0.0005008988,-0.0002879086,0.00013951861,0.5,2.1948446e-05,2.093711e-05,0.0001868979,1,1,1,0,1,0
83988000,83908000,1310988,-0.0013045804,-0.0054281424,0.00061208126,0.15,2.5262716e-07,2.3131807e-07,7.1567996e-07,1310988,-0.19484614,0.11299801,0.023690965,0.4,0.00078124576,0.00078124576,0.00078124576,197388,0.0005008988,-0.0002879086,0.00013951861,0.5,2.1948446e-05,2.093711e-05,0.0001868979,1,1,1,0,1,0
84796000,84716000,1310988,-0.0013047414,-0.005422437,0.00060364744,0.15,2.5303015e-07,2.3094731e-07,6.888658e-07,1310988,-0.194864,0.11298027,0.025317252,0.4,0.00078124576,0.00078124576,0.00078124576,197388,0.0005008988,-0.0002879086,0.00013951861,0.5,2.1948446e-05,2.093711e-05,0.0001868979,1,1,1,0,1,0
85588000,85508000,1310988,-0.0013014032,-0.005417715,0.0006050793,0.15,2.5048038e-07,2.286275e-07,6.553874e-07,1310988,-0.19489445,0.11307177,0.026771903,0.4,0.00078124576,0.00078124576,0.00078124576,197388,0.00048543818,-0.000263687,0.00039269222,0.5,2.0784011e-05,1.9869969e-05,0.00014112225,1,1,1,0,1,0
86388000,86308000,1310988,-0.001294732,-0.005423019,0.0005990385,0.15,2.470458e-07,2.2581e-07,6.2629783e-07,1310988,-0.19468802,0.11319285,0.027869178,0.4,0.00078124576,0.00078124576,0.00078124576,197388,0.0005720579,-0.00032243723,0.00071262376,0.5,1.947509e-05,1.8670751e-05,0.00012271434,1,1,1,0,1,0
86788000,86708000,1310988,-0.001284788,-0.0054225666,0.0005851751,0.15,2.4526088e-07,2.2433328e-07,6.1339716e-07,1310988,-0.19480912,0.113216646,0.028979728,0.4,0.00078124576,0.00078124576,0.00078124576,197388,0.0005494948,-0.0003162175,0.00072557817,0.5,1.8923163e-05,1.8171177e-05,0.00011743958,1,1,1,0,1,0
87268000,87188000,1310988,-0.0012830085,-0.0054245205,0.0005623086,0.15,2.440729e-07,2.2376025e-07,5.9787766e-07,1310988,-0.19463496,0.11318033,0.029964441,0.4,0.00078124576,0.00078124576,0.00078124576,197388,0.0006025769,-0.00030630748,0.00074884575,0.5,1.8319604e-05,1.7624196e-05,0.00011261292,1,1,1,0,1,0
87596000,87516000,1310988,-0.0012834434,-0.0054323403,0.00056237925,0.15,2.4309503e-07,2.2223799e-07,5.869604e-07,1310988,-0.19465615,0.113124646,0.031015238,0.4,0.00078124576,0.00078124576,0.00078124576,197388,0.0005757265,-0.0003312981,0.0007366613,0.5,1.7974118e-05,1.7294042e-05,0.00011104833,1,1,1,0,1,0
87988000,87908000,1310988,-0.0012799334,-0.0054434477,0.0005430462,0.15,2.419079e-07,2.2129687e-07,5.751336e-07,1310988,-0.19462839,0.112750955,0.03198312,0.4,0.00078124576,0.00078124576,0.00078124576,197388,0.0005843533,-0.00034141148,0.0006572834,0.5,1.7442442e-05,1.6766844e-05,0.00010896783,1,1,1,0,1,0
88396000,88316000,1310988,-0.0012753432,-0.0054581817,0.00050072203,0.15,2.411148e-07,2.2065444e-07,5.6480576e-07,1310988,-0.19452256,0.11165794,0.032811925,0.4,0.00078124576,0.00078124576,0.00078124576,197388,0.00060778443,-0.00043903574,0.0006753286,0.5,1.6987318e-05,1.6295024e-05,0.00010667892,1,1,1,0,1,0
88796000,88716000,1310988,-0.0012668476,-0.0054677436,0.00047472486,0.15,2.399953e-07,2.20317e-07,5.529945e-07,1310988,-0.19449122,0.11058542,0.033736166,0.4,0.00078124576,0.00078124576,0.00078124576,197388,0.0006245488,-0.0004344638,0.0006992712,0.5,1.6521653e-05,1.5799345e-05,0.00010354329,1,1,1,0,1,0
89188000,89108000,1310988,-0.0012575514,-0.005472764,0.00046755027,0.15,2.3950233e-07,2.2056827e-07,5.433963e-07,1310988,-0.19444907,0.10977819,0.03495663,0.4,0.00078124576,0.00078124576,0.00078124576,197388,0.00057642435,-0.00043246403,0.0008369439,0.5,1.6213118e-05,1.5460786e-05,0.0001017749,1,1,1,0,1,0
89596000,89516000,1310988,-0.0012569722,-0.0054825037,0.00046131638,0.15,2.3949235e-07,2.2142403e-07,5.354491e-07,1310988,-0.19496746,0.109238,0.036493767,0.4,0.00078124576,0.00078124576,0.00078124576,197388,0.00056651473,-0.00037364117,0.0007971624,0.5,1.5894644e-05,1.5115336e-05,0.000100590114,1,1,1,0,1,0
89996000,89916000,1310988,-0.0012578375,-0.005489097,0.00045483283,0.15,2.4006494e-07,2.225938e-07,5.311719e-07,1310988,-0.1953707,0.10877015,0.037344407,0.4,0.00078124576,0.00078124576,0.00078124576,197388,0.0005775597,-0.00036104533,0.0008509746,0.5,1.5655436e-05,1.4861095e-05,9.991154e-05,1,1,1,0,1,0
90396000,90316000,1310988,-0.00125554,-0.005496438,0.0004510014,0.15,2.40872e-07,2.2402565e-07,5.2754586e-07,1310988,-0.19571686,0.10805899,0.038327556,0.4,0.00078124576,0.00078124576,0.00078124576,197388,0.0005550387,-0.00037112678,0.000916136,0.5,1.5404745e-05,1.45929835e-05,9.91733e-05,1,1,1,0,1,0
90796000,90716000,1310988,-0.0012553909,-0.005503893,0.0004462629,0.15,2.4201069e-07,2.2569826e-07,5.248983e-07,1310988,-0.1960514,0.10726806,0.039353672,0.4,0.00078124576,0.00078124576,0.00078124576,197388,0.00054880034,-0.00038038904,0.0008410438,0.5,1.5183107e-05,1.4356337e-05,9.852308e-05,1,1,1,0,1,0
91196000,91116000,1310988,-0.001256433,-0.0055125686,0.00043790674,0.15,2.4351596e-07,2.2759697e-07,5.2363634e-07,1310988,-0.19644988,0.10614364,0.04020152,0.4,0.00078124576,0.00078124576,0.00078124576,197388,0.0005647474,-0.0004237889,0.00083057786,0.5,1.5015135e-05,1.4178588e-05,9.802708e-05,1,1,1,0,1,0
91596000,91516000,1310988,-0.0012577425,-0.0055209496,0.00043772339,0.15,2.4508395e-07,2.2955078e-07,5.2192377e-07,1310988,-0.19683136,0.10520184,0.040984634,0.4,0.00078124576,0.00078124576,0.00078124576,197388,0.00057802245,-0.00041950753,0.0007963966,0.5,1.4833919e-05,1.3987418e-05,9.7500866e-05,1,1,1,0,1,0
91988000,91908000,1310988,-0.0012611912,-0.0055273348,0.00043375566,0.15,2.4679724e-07,2.3153477e-07,5.211012e-07,1310988,-0.19694982,0.1042339,0.04188767,0.4,0.00078124576,0.00078124576,0.00078124576,197388,0.00061196834,-0.00044853272,0.00070292054,0.5,1.4694123e-05,1.3842716e-05,9.709633e-05,1,1,1,0,1,0
92396000,92316000,1310988,-0.0012635429,-0.0055365656,0.00043736922,0.15,2.4856718e-07,2.3354094e-07,5.197793e-07,1310988,-0.19717057,0.10320068,0.042515915,0.4,0.00078124576,0.00078124576,0.00078124576,197388,0.00063312304,-0.0004583684,0.0007013364,0.5,1.4542574e-05,1.3685739e-05,9.666359e-05,1,1,1,0,1,0
92796000,92716000,1310988,-0.0012667069,-0.0055444106,0.00044398478,0.15,2.5022973e-07,2.3566584e-07,5.169906e-07,1310988,-0.19735388,0.10232168,0.04334367,0.4,0.00078124576,0.00078124576,0.00078124576,197388,0.0006338084,-0.00046201167,0.0006873051,0.5,1.4521217e-05,1.3661662e-05,9.660323e-05,1,1,1,0,1,0
93588000,93508000,1310988,-0.0012809813,-0.0055559175,0.0004589661,0.15,2.536654e-07,2.3956042e-07,5.1046993e-07,1310988,-0.1980968,0.1008452,0.044039644,0.4,0.00078124576,0.00078124576,0.00078124576,197388,0.0006338084,-0.00046201167,0.0006873051,0.5,1.4521217e-05,1.3661662e-05,9.660323e-05,1,1,1,0,1,0
94396000,94316000,1310988,-0.0013028868,-0.0055655655,0.00048010104,0.15,2.5737623e-07,2.4285382e-07,5.00155e-07,1310988,-0.19869731,0.099434614,0.044574212,0.4,0.00078124576,0.00078124576,0.00078124576,197388,0.0006338084,-0.00046201167,0.0006873051,0.5,1.4521217e-05,1.3661662e-05,9.660323e-05,1,1,1,0,1,0
94996000,94916000,1310988,-0.0013102731,-0.005565676,0.0004901707,0.15,2.5989786e-07,2.452603e-07,4.908226e-07,1310988,-0.19887142,0.09897295,0.04544946,0.4,0.00078124576,0.00078124576,0.00078124576,197388,0.0006576823,-0.0004910525,0.0007541209,0.5,1.4358189e-05,1.3516583e-05,9.027674e-05,1,1,1,0,1,0
95596000,95516000,1310988,-0.0013230001,-0.0055746282,0.0005147844,0.15,2.597918e-07,2.4412157e-07,4.7579834e-07,1310988,-0.19894326,0.09794502,0.045364138,0.4,0.00078124576,0.00078124576,0.00078124576,197388,0.0006747912,-0.0006401457,0.000787795,0.5,1.3800751e-05,1.3009329e-05,7.6919234e-05,1,1,1,0,1,0
96204000,96124000,1310988,-0.0013313845,-0.0055750334,0.00050666137,0.15,2.609095e-07,2.4527282e-07,4.6826145e-07,1310988,-0.19860531,0.09742815,0.04455901,0.4,0.0007812483,0.0007812497,0.00078124576,197388,0.0007758398,-0.00072854187,0.00093984196,0.5,1.3359092e-05,1.2594702e-05,7.085309e-05,1,1,1,0,1,0
96388000,96308000,1310988,-0.0013363962,-0.005580051,0.00051687536,0.15,2.595552e-07,2.4320718e-07,4.6378116e-07,1310988,-0.19860083,0.09730534,0.043516956,0.4,0.00078124576,0.00078124576,0.00078124576,197388,0.0007636994,-0.00075833173,0.0009031196,0.5,1.3213594e-05,1.24568205e-05,6.932039e-05,1,1,1,0,1,0
96796000,96716000,1310988,-0.0013417965,-0.005585227,0.0005105946,0.15,2.5865364e-07,2.4190854e-07,4.592322e-07,1310988,-0.19830081,0.09714202,0.04228213,0.4,0.00078124576,0.00078124576,0.00078124576,197388,0.0008325313,-0.0007937149,0.0009694019,0.5,1.2954731e-05,1.2207248e-05,6.697499e-05,1,1,1,0,1,0
97796000,97716000,1310988,-0.0013502748,-0.0055934833,0.00050582946,0.15,2.5741642e-07,2.4020048e-07,4.5423153e-07,1310988,-0.19798842,0.09697992,0.0416986,0.4,0.00078125024,0.0007812503,0.00078124984,197388,0.00090420095,-0.0008574969,0.0009332369,0.5,1.2499842e-05,1.1757911e-05,6.37007e-05,1,1,1,0,1,0
98796000,98716000,1310988,-0.0013397508,-0.005619132,0.0004948401,0.15,2.4981247e-07,2.331361e-07,4.5289667e-07,1310988,-0.19781503,0.09712647,0.041002538,0.4,0.00078124576,0.00078124576,0.00078124576,197388,0.0009803538,-0.0009906371,0.00087565277,0.5,1.21226785e-05,1.1376975e-05,6.151609e-05,1,1,1,0,1,0
