timestamp,timestamp_sample,xyz[0],xyz[1],xyz[2]
3448000,3448000,0.0007573136,0.0007672126,-6.969779e-05
3452000,3452000,0.0007466166,0.0011273003,-0.00019246455
3468000,3468000,-0.00080283196,1.1333119e-05,0.00049419276
3488000,3488000,-0.0011355374,0.0003926037,-1.896278e-05
3508000,3508000,0.00044064503,-0.0009180215,2.1637637e-05
3528000,3528000,0.0010342007,-0.00022010427,-0.00022120606
3548000,3548000,0.0001785595,0.0003369921,0.00022703994
3568000,3568000,0.0010222065,0.0011461761,8.292184e-05
3588000,3588000,6.604097e-05,0.001300006,0.00018674474
3604000,3604000,0.00057194463,2.870796e-05,0.00040667458
3628000,3628000,7.938616e-05,-0.0005916916,-0.00023164996
3648000,3648000,0.0005531992,0.0018581508,-0.00033536568
3668000,3668000,-7.5371936e-06,0.00046927002,0.00019140352
3688000,3688000,-2.6612717e-05,0.0007427897,0.00022979848
3708000,3708000,-3.0826486e-06,0.0012869325,-0.00036127082
3728000,3728000,0.00032475623,0.0004704835,0.00010910502
3748000,3748000,-0.0001556548,0.0007320236,-0.00025485805
3768000,3768000,0.00022324744,0.0023136302,-3.4730434e-05
3788000,3788000,0.001289022,-0.00012928515,0.00013595523
3808000,3808000,-0.0007167757,0.0013808559,0.00026729857
3828000,3828000,0.00058676803,0.0014599701,-3.4116365e-05
3848000,3848000,-0.0011741314,0.0008420512,-6.42434e-05
3868000,3868000,2.9245884e-05,0.00026595592,0.0004968353
3888000,3888000,0.00055518944,0.0009816663,0.00035670432
3908000,3908000,0.00011532875,0.0011941934,-0.00016070761
3928000,3928000,-0.00024666067,0.0009368554,0.00014335752
3948000,3948000,2.4250476e-05,0.0007317033,0.000424439
3968000,3968000,0.0010305675,0.00087927206,0.00011500126
3988000,3988000,0.00073142175,0.00037969922,-0.0001347515
4008000,4008000,0.0015524072,-0.00069842435,0.00039614635
4028000,4028000,0.0009806189,0.0010921208,5.6448334e-05
4048000,4048000,0.00042549116,0.00042676638,-0.0002937638
4068000,4068000,-0.00025862348,0.0011355876,-0.00027558595
4088000,4088000,-0.00024282213,0.0005916083,-3.8702865e-06
4108000,4108000,-8.7937005e-05,0.0011183299,-0.00034662554
4128000,4128000,-0.0005877948,0.00035071207,-0.00013253691
4148000,4148000,0.021239428,0.02618796,0.0004225621
4168000,4168000,0.020365767,0.024213973,0.00023380232
4188000,4188000,0.020931577,0.024460975,0.0011211828
4208000,4208000,0.020782817,0.022997962,1.6625285e-05
4228000,4228000,0.018451987,0.024317276,0.00034915018
4248000,4248000,0.019753382,0.023932375,0.0002707964
4268000,4268000,0.021147018,0.022046074,0.0007572504
4288000,4288000,0.019193973,0.022267994,0.00025412356
4308000,4308000,0.020157717,0.021964887,0.0007906318
4328000,4328000,0.01928173,0.022739237,-0.0001854447
4348000,4348000,0.020388456,0.022292104,0.00010067626
4364000,4364000,0.018169716,0.02269487,-0.00018715113
4384000,4384000,0.019971868,0.022803053,7.393841e-05
4408000,4408000,0.019514294,0.02264264,-0.00013505282
4428000,4428000,0.01903644,0.022723678,0.00025023246
4448000,4448000,0.019201491,0.022690946,0.00022761272
4468000,4468000,0.018192321,0.023130966,0.000114987444
4484000,4484000,0.018679045,0.022966636,0.0005311221
4508000,4508000,0.01890279,0.023075577,-9.869097e-05
4528000,4528000,0.018908236,0.024192542,0.00010922029
4544000,4544000,0.020141335,0.023387222,0.0005466723
4568000,4568000,0.019897418,0.022512676,0.0003276322
4588000,4588000,0.019509967,0.022763673,0.0005289078
4608000,4608000,0.019240323,0.024163902,-0.00030118172
4628000,4628000,0.0187153,0.022946646,-0.00017387318
4648000,4648000,0.020074086,0.023472397,0.00010382223
4668000,4668000,0.019441076,0.023852168,0.00030439158
4688000,4688000,0.018888738,0.02285881,-2.746971e-06
4708000,4708000,0.018991131,0.023442654,0.00018828937
4728000,4728000,0.019299574,0.024011912,-0.00026556713
4748000,4748000,0.020072348,0.023822056,-0.00021535305
4768000,4768000,0.019816324,0.022733536,-3.0116924e-05
4788000,4788000,0.019763988,0.022412758,0.00013803213
4808000,4808000,0.019849671,0.023376588,-0.00021951295
4828000,4828000,0.018830433,0.02482537,-0.0003887126
4848000,4848000,0.02025799,0.02297237,-0.0004267802
4864000,4864000,0.019705761,0.0229912,-0.00014162005
4888000,4888000,0.0195003,0.023227239,-0.000106600746
4908000,4908000,0.020155305,0.02364769,-0.00018390051
4928000,4928000,0.01958037,0.022801874,-0.00045902477
4948000,4948000,0.019050347,0.022079026,-0.00036686016
4968000,4968000,0.018422557,0.023068395,0.00023588077
4988000,4988000,0.017363816,0.022599176,0.00021616893
5008000,5008000,0.018651119,0.023284705,0.0009557482
5024000,5024000,0.019234907,0.021937413,0.00017945001
5044000,5044000,0.01859494,0.02285142,0.0004914072
5068000,5068000,0.017563036,0.022214118,0.0002478087
5088000,5088000,0.018686846,0.02235156,-9.684887e-05
5108000,5108000,0.017109713,0.02222769,0.00014374025
5128000,5128000,0.01888169,0.021444695,0.0005306309
5148000,5148000,0.016952809,0.022308692,0.0005091006
5168000,5168000,0.01828485,0.021575386,-0.00049870164
5188000,5188000,0.016887574,0.020933425,-0.00024430212
5208000,5208000,0.017721126,0.022011539,0.00021815245
5228000,5228000,0.016724559,0.021608835,0.00045673098
5248000,5248000,0.016708363,0.021235136,0.00029245493
5268000,5268000,0.015852455,0.021430913,0.00039329176
5288000,5288000,0.016880129,0.02166459,0.000118597876
5308000,5308000,0.01646937,0.020864796,3.3767196e-06
5324000,5324000,0.017620083,0.021830237,2.3579982e-05
5348000,5348000,0.01713245,0.021324087,0.0005084515
5368000,5368000,0.016235186,0.021401625,-0.00013465006
5388000,5388000,0.0174194,0.020677919,0.0004255975
5408000,5408000,0.016443348,0.02141238,0.00025807586
5428000,5428000,0.017597483,0.0204117,3.3158052e-05
5448000,5448000,0.01636046,0.019682525,-0.00038454295
5468000,5468000,0.016303418,0.02134883,0.00028039687
5488000,5488000,0.017080054,0.020611709,0.00018786626
5508000,5508000,0.01600447,0.020625556,0.00065658346
5528000,5528000,0.016113905,0.019786157,-0.0003482107
5548000,5548000,0.0172553,0.022056822,-0.0004219197
5568000,5568000,0.015809543,0.02066699,9.690156e-05
5588000,5588000,0.017012067,0.02022712,-1.317861e-05
5608000,5608000,0.016121782,0.02048325,-3.3217064e-05
5628000,5628000,0.016229007,0.020795168,-2.6647747e-05
5648000,5648000,0.017335527,0.020392576,-0.0005618525
5668000,5668000,0.01693581,0.020350566,0.00012287163
5688000,5688000,0.01679933,0.02043719,3.803731e-05
5708000,5708000,0.017467402,0.020774955,-0.00039182307
5728000,5728000,0.016430065,0.020738998,8.582999e-06
5748000,5748000,0.016591894,0.020692546,2.3142697e-05
5768000,5768000,0.01746194,0.021072198,-9.328681e-05
5788000,5788000,0.01719166,0.019958932,-7.671037e-06
5808000,5808000,0.017563537,0.020793129,0.00095982244
5828000,5828000,0.016808236,0.020364732,2.608159e-05
5848000,5848000,0.016967926,0.020156633,0.00015696802
5868000,5868000,0.017186377,0.019895673,-0.00014943679
5888000,5888000,0.01730974,0.019839441,-3.165958e-05
5908000,5908000,0.018702963,0.021398105,0.00023171662
5928000,5928000,0.01749363,0.019973816,0.0002347977
5948000,5948000,0.017578289,0.019620853,-0.00030636071
5968000,5968000,0.01788943,0.02043148,0.00020243297
5988000,5988000,0.018608833,0.020086005,0.0003076889
6008000,6008000,0.0181285,0.020874176,2.6579777e-05
6028000,6028000,0.017570036,0.02051833,0.00046980355
6048000,6048000,0.01802113,0.020820102,0.00035699038
6068000,6068000,0.017089963,0.02005896,-0.00018995824
6088000,6088000,0.017728345,0.019511798,0.00018100176
6108000,6108000,0.018205488,0.019732878,-0.00024109031
6128000,6128000,0.01771879,0.020887587,0.00029061225
6148000,6148000,0.018510735,0.020380277,-0.00024222827
6168000,6168000,0.017039038,0.020033108,-0.00027474095
6188000,6188000,0.017632429,0.02032422,5.342646e-05
6208000,6208000,0.018651742,0.019570136,0.0002038922
6228000,6228000,0.018293047,0.019931117,-0.0002787086
6248000,6248000,0.017863996,0.020204429,-0.00022733594
6268000,6268000,0.018319864,0.020546887,0.0002777819
6288000,6288000,0.016666645,0.019886306,0.00026467213
6308000,6308000,0.01865519,0.020795256,-1.79752e-05
6328000,6328000,0.019176261,0.020786986,-8.730707e-05
6348000,6348000,0.016930338,0.021077815,0.0005343095
6364000,6364000,0.018014213,0.019600902,-8.07463e-05
6388000,6388000,0.017740544,0.020874944,0.0005988944
6408000,6408000,0.017679999,0.020068184,-0.00073046255
6424000,6424000,0.01674737,0.019733213,0.0003339527
6444000,6444000,0.017220208,0.020704053,-0.0001822759
6468000,6468000,0.01655136,0.019499423,-0.0006676041
6488000,6488000,0.017736536,0.020613477,-8.470214e-05
6508000,6508000,0.01701301,0.020803737,-0.00013576215
6528000,6528000,0.016881675,0.01983993,-1.8120661e-05
6548000,6548000,0.017570267,0.0197069,-6.0769566e-05
6568000,6568000,0.018018844,0.019215807,-0.0002079329
6588000,6588000,0.01771755,0.021675598,0.00020854369
6608000,6608000,0.017605452,0.018838447,8.241025e-05
6624000,6624000,0.017355686,0.019879842,0.0003526363
6648000,6648000,0.017628694,0.019513154,-0.0005047515
6668000,6668000,0.01771465,0.020802043,0.00048300065
6688000,6688000,0.017722363,0.02034949,0.00029698503
6708000,6708000,0.017005472,0.020451492,0.00012000863
6728000,6728000,0.017516037,0.020117596,7.724855e-06
6748000,6748000,0.015857141,0.019935949,-0.0007348818
6768000,6768000,0.017774407,0.01944478,-0.0005193609
6788000,6788000,0.018279586,0.020025143,-2.5662768e-05
6808000,6808000,0.016141625,0.021185173,-0.000481651
6828000,6828000,0.017627476,0.019981598,-0.00024393531
6848000,6848000,0.01607949,0.02075123,-0.00010321908
6868000,6868000,0.017831609,0.020428268,-0.00050562044
6888000,6888000,0.016936688,0.0208084,0.00020506827
6908000,6908000,0.016659275,0.020433513,0.00018548135
6928000,6928000,0.01786387,0.020596463,-0.00044432931
6948000,6948000,0.018388988,0.019696351,0.00026369342
6968000,6968000,0.017202485,0.020214913,-0.00031904737
6984000,6984000,0.016883122,0.020333681,-0.00037441342
7008000,7008000,0.016850114,0.020251468,0.0002427989
7028000,7028000,0.016339757,0.020936377,0.00038217858
7048000,7048000,0.017431274,0.020690368,-0.00024232636
7068000,7068000,0.015651666,0.020594584,-0.00033455304
7088000,7088000,0.018071251,0.01950672,-0.00041858788
7108000,7108000,0.015836976,0.02210312,-0.00011002461
7128000,7128000,0.017026193,0.0202876,-0.0002584029
7148000,7148000,0.017185418,0.02074845,0.0001204324
7168000,7168000,0.016863968,0.019055279,-0.00037674708
7188000,7188000,0.016689518,0.020897722,-0.00030526464
7208000,7208000,0.01657619,0.021728989,-0.000335535
7228000,7228000,0.017450303,0.019786943,6.692107e-05
7248000,7248000,0.017600456,0.020543488,-0.00036439663
7268000,7268000,0.017612778,0.020743813,9.6134725e-05
7288000,7288000,0.01617089,0.019638713,0.0001818562
7308000,7308000,0.017589265,0.01973059,0.00025321776
7328000,7328000,0.016684543,0.02183057,4.1778432e-05
7348000,7348000,0.017489705,0.02160041,-0.00019653665
7368000,7368000,0.017907182,0.019663997,-0.0006450681
7388000,7388000,0.016770823,0.02213416,0.00035567323
7408000,7408000,0.018070614,0.021130227,-0.00043288508
7428000,7428000,0.016271405,0.020922206,0.00028793016
7448000,7448000,0.017148018,0.020629404,-0.00025015743
7468000,7468000,0.017070781,0.020494038,-0.00018037668
7488000,7488000,0.016537672,0.02040659,-0.00044107504
7508000,7508000,0.016384505,0.020788254,-0.00030293228
7528000,7528000,0.017218174,0.022043964,-0.00033480834
7544000,7544000,0.01821018,0.020193197,0.0001091843
7568000,7568000,0.018608304,0.021330597,-0.0003781477
7588000,7588000,0.016858084,0.01999147,-0.00034368542
7608000,7608000,0.017484935,0.02206324,-1.3187178e-05
7628000,7628000,0.01697271,0.01956478,0.00023849041
7648000,7648000,0.017351106,0.021664701,0.00017521503
7668000,7668000,0.017352676,0.02009198,-0.0003828959
7688000,7688000,0.017631903,0.021161746,-0.00017584946
7708000,7708000,0.017112615,0.020623604,0.00033701057
7728000,7728000,0.017135374,0.020676142,5.9631235e-05
7748000,7748000,0.01734626,0.020986319,2.9444554e-05
7768000,7768000,0.01664118,0.02120763,0.00048558367
7788000,7788000,0.017447986,0.020869859,7.879387e-05
7808000,7808000,0.018301051,0.02081967,0.00030215524
7828000,7828000,0.016396213,0.02047855,5.7621022e-05
7848000,7848000,0.01668484,0.020231113,-0.0004020487
7868000,7868000,0.017198192,0.020508653,-8.143853e-05
7888000,7888000,0.017835237,0.022064872,-0.00023753375
7908000,7908000,0.01787989,0.020469042,0.00011595427
7928000,7928000,0.01782208,0.02062329,0.00024261877
7948000,7948000,0.017296474,0.020279922,4.5728706e-05
7968000,7968000,0.017384335,0.020752326,8.320282e-05
7984000,7984000,0.017002108,0.019854654,0.00026960645
8004000,8004000,0.017497657,0.020390479,0.0006038157
8028000,8028000,0.016810756,0.020270063,0.00021755384
8044000,8044000,0.018150538,0.02007049,0.00055782235
8068000,8068000,0.018816391,0.019828696,-3.4203997e-05
8088000,8088000,0.017272964,0.0201243,0.00071787264
8108000,8108000,0.01765404,0.020623324,0.0010154071
8128000,8128000,0.017467484,0.020111397,0.00029724315
8148000,8148000,0.01743702,0.020765236,0.000100458856
8164000,8164000,0.018539578,0.021027759,-7.969573e-05
8188000,8188000,0.018054727,0.02050861,-9.9220315e-06
8208000,8208000,0.017926417,0.020539457,0.00030236482
8228000,8228000,0.017686404,0.020956485,0.00061385555
8248000,8248000,0.017106071,0.020017812,0.00013134147
8268000,8268000,0.017487768,0.020982105,0.00044040848
8288000,8288000,0.017659215,0.020099927,0.00033648565
8308000,8308000,0.017805418,0.019527087,0.0003201942
8328000,8328000,0.017976603,0.02033147,0.00012386299
8348000,8348000,0.016010545,0.020791564,0.00035183688
8368000,8368000,0.01730098,0.019539768,0.0005067686
8388000,8388000,0.017737191,0.019537663,-3.6329195e-05
8408000,8408000,0.017313475,0.020334376,0.00033309055
8428000,8428000,0.017619956,0.020024268,0.00011246987
8448000,8448000,0.017377336,0.02093557,0.00068717764
8468000,8468000,0.018602159,0.021164661,0.000224311
8488000,8488000,0.017499095,0.020327397,-0.00012972656
8508000,8508000,0.016986048,0.019412803,-0.00013589834
8528000,8528000,0.01745764,0.02016155,0.00011083802
8548000,8548000,0.018320382,0.020590452,0.0006163842
8568000,8568000,0.018002199,0.020694321,-8.43098e-05
8588000,8588000,0.017264176,0.020561645,0.0003730403
8608000,8608000,0.017649071,0.020655649,0.00038912846
8628000,8628000,0.017504804,0.019892424,-0.00020456324
8648000,8648000,0.017461583,0.020274775,-0.0001221508
8668000,8668000,0.017303923,0.020358603,0.00013428206
8688000,8688000,0.016863126,0.01983685,0.00063316943
8708000,8708000,0.017572457,0.020049881,-0.0002462778
8728000,8728000,0.016853137,0.020150844,0.00017095849
8748000,8748000,0.017587634,0.020261666,0.00014454944
8768000,8768000,0.017175,0.020732146,0.00018160595
8788000,8788000,0.016920961,0.02062586,-0.00010172594
8804000,8804000,0.017044252,0.01964209,6.063469e-06
8828000,8828000,0.018005926,0.020656306,-0.00028911346
8848000,8848000,0.01669655,0.020189023,0.00023217921
8868000,8868000,0.01834426,0.019355673,0.00019229452
8888000,8888000,0.01813862,0.01986646,0.00053504074
8908000,8908000,0.018084733,0.019813625,7.300615e-05
8924000,8924000,0.017542113,0.020180292,-0.00022396246
8948000,8948000,0.017325042,0.019502461,0.0005383849
8964000,8964000,0.017438026,0.01969999,0.00045336448
8988000,8988000,0.0182039,0.019774122,0.0004743931
9008000,9008000,0.016640171,0.022309018,0.00010803155
9028000,9028000,0.017977308,0.019705692,0.00028899
9048000,9048000,0.017080026,0.019821327,0.00023274768
9068000,9068000,0.017869698,0.021934375,0.00020451336
9088000,9088000,0.015896142,0.020112239,-9.5627205e-05
9108000,9108000,0.01807723,0.020300498,0.00026705183
9124000,9124000,0.016940683,0.019632796,0.00034413958
9144000,9144000,0.017512713,0.019582573,-0.00010064042
9164000,9164000,0.016991228,0.020977177,-9.205951e-05
9188000,9188000,0.017952276,0.020197088,0.0003717429
9208000,9208000,0.01760313,0.020286972,0.0002478827
9228000,9228000,0.016725823,0.02104877,2.9417733e-05
9248000,9248000,0.017839452,0.01950748,8.958488e-05
9268000,9268000,0.016390547,0.020113384,0.00016739937
9284000,9284000,0.017638639,0.019767236,-0.00013434645
9304000,9304000,0.017506454,0.019874102,-0.00037168167
9328000,9328000,0.018256571,0.02172055,4.5398974e-05
9348000,9348000,0.017189344,0.020053381,0.00048347545
9368000,9368000,0.017117258,0.019789714,0.0005102653
9388000,9388000,0.017643953,0.019888828,4.7423324e-05
9408000,9408000,0.017584912,0.020393241,0.0006166305
9424000,9424000,0.016483517,0.021470224,0.00028509085
9448000,9448000,0.01654774,0.01981167,-0.00041752137
9468000,9468000,0.01733189,0.021151053,0.00035974482
9488000,9488000,0.017670048,0.019860096,5.5966666e-07
9508000,9508000,0.017575074,0.018902343,-0.000697903
9528000,9528000,0.017221648,0.020468403,0.0003742145
9548000,9548000,0.017411068,0.020411974,6.857262e-05
9568000,9568000,0.018671993,0.020687832,-0.00012046974
9588000,9588000,0.017947193,0.018536754,-0.0001283393
9608000,9608000,0.017335115,0.019317849,-0.000575957
9628000,9628000,0.017413864,0.020256918,-7.7973054e-05
9648000,9648000,0.016997632,0.020986503,0.00042173333
9668000,9668000,0.017448017,0.019509198,0.00038048395
9688000,9688000,0.017261557,0.019399129,0.00026910912
9708000,9708000,0.017160682,0.020573707,0.00022961684
9728000,9728000,0.01706087,0.019261822,0.000149415
9748000,9748000,0.017514585,0.021139985,0.00031103622
9768000,9768000,0.016760202,0.019671168,5.0771632e-05
9788000,9788000,0.016709099,0.019997248,-9.9117984e-05
9808000,9808000,0.017316816,0.01980974,0.0002199473
9828000,9828000,0.018213872,0.019849189,0.00015082209
9848000,9848000,0.01636518,0.020430747,1.8368592e-05
9868000,9868000,0.01786962,0.018767148,0.00021548751
9888000,9888000,0.016607428,0.019805327,0.0002713537
9908000,9908000,0.016892169,0.020117745,9.906034e-05
9924000,9924000,0.016988423,0.02004091,-0.00038010612
9944000,9944000,0.017742813,0.019745762,0.0005214222
9968000,9968000,0.018143471,0.019852653,0.00042159684
9984000,9984000,0.016548079,0.019659743,5.569106e-05
10008000,10008000,0.017008476,0.018993925,0.00030497622
10028000,10028000,0.017798342,0.019752793,-0.00012042858
10044000,10044000,0.017240373,0.019374697,-6.482374e-05
10064000,10064000,0.01777652,0.020331351,-0.00017361777
10088000,10088000,0.016467918,0.020266589,0.0005558489
10104000,10104000,0.017465906,0.020392612,0.00014227213
10128000,10128000,0.015747465,0.01984275,-0.0003188521
10148000,10148000,0.017318368,0.020441802,6.523346e-05
10168000,10168000,0.017041571,0.017754985,0.00031376397
10188000,10188000,0.016927607,0.020341367,1.8774125e-06
10204000,10204000,0.017914195,0.019684061,-7.8062294e-05
10228000,10228000,0.016792426,0.019185359,0.00040447686
10248000,10248000,0.017723648,0.020747494,0.00029883554
10264000,10264000,0.017028263,0.020532949,0.0005715654
10284000,10284000,0.016607357,0.019845502,7.4314055e-05
10308000,10308000,0.017115088,0.019174913,0.00035614247
10328000,10328000,0.017669959,0.019438982,0.00029013187
10348000,10348000,0.017922796,0.021083804,9.862483e-05
10368000,10368000,0.017219467,0.019250274,-2.9623905e-05
10384000,10384000,0.016741605,0.019187486,6.45442e-05
10404000,10404000,0.017434703,0.020058902,0.00010138543
10428000,10428000,0.017362492,0.019023791,0.00019028167
10448000,10448000,0.017071731,0.019080913,0.00023056396
10464000,10464000,0.016015887,0.020822398,0.00048405878
10488000,10488000,0.018049408,0.019414952,0.0002661198
10504000,10504000,0.017083246,0.019628942,0.00035369612
10528000,10528000,0.017701432,0.019479362,0.00018648144
10548000,10548000,0.01632011,0.019914279,0.00010217379
10568000,10568000,0.018439109,0.019971557,4.6248314e-07
10588000,10588000,0.017188849,0.020098194,-0.00017470075
10608000,10608000,0.017083602,0.0194324,0.00017923131
10628000,10628000,0.017231546,0.01887605,9.728714e-05
10648000,10648000,0.016957572,0.021473493,-0.0003615395
10664000,10664000,0.017124586,0.019335883,0.00025190288
10684000,10684000,0.017784074,0.018245474,-0.00019684252
10704000,10704000,0.01825435,0.020763958,0.00015094555
10728000,10728000,0.017657988,0.019204972,0.0005133845
10748000,10748000,0.01659329,0.020222066,0.000345204
10768000,10768000,0.016789697,0.019985363,0.00011083078
10788000,10788000,0.017148484,0.020550435,0.00021021567
10808000,10808000,0.016718812,0.019756973,0.000121945886
10828000,10828000,0.017182793,0.019919934,0.00025150413
10848000,10848000,0.016757807,0.01916547,-0.00024108356
10868000,10868000,0.017688992,0.019861862,0.000328527
10888000,10888000,0.016147811,0.019057216,0.00041268603
10908000,10908000,0.01573124,0.01966992,0.00071829325
10928000,10928000,0.017564034,0.018839194,-0.00012417343
10948000,10948000,0.017202351,0.019145733,-4.1749656e-05
10968000,10968000,0.017394831,0.018108215,4.2665797e-05
10988000,10988000,0.016675726,0.019853111,-0.0002243655
11004000,11004000,0.016839648,0.01926822,-0.00027133228
11028000,11028000,0.016785698,0.019511174,5.3423235e-05
11048000,11048000,0.01688876,0.020356027,0.000160343
11068000,11068000,0.017861286,0.02058129,0.0005516687
11088000,11088000,0.016586618,0.019799354,0.00058615935
11108000,11108000,0.017333074,0.019110734,0.00033362478
11128000,11128000,0.017061545,0.02068342,0.00029449796
11148000,11148000,0.01712689,0.019588215,0.0004441951
11164000,11164000,0.016921874,0.020012569,0.0003538447
11188000,11188000,0.01735128,0.01988951,0.00041669692
11208000,11208000,0.017048053,0.017431598,-1.9546902e-05
11228000,11228000,0.017087128,0.020361666,3.6623936e-05
11248000,11248000,0.018359942,0.0192431,0.0001061084
11264000,11264000,0.017172288,0.020142743,-0.00019525875
11288000,11288000,0.017100709,0.02031783,3.3730143e-05
11308000,11308000,0.017237443,0.019400831,0.0009893499
11328000,11328000,0.01682329,0.019620439,0.000108077205
11348000,11348000,0.017380092,0.0195589,0.00014366867
11368000,11368000,0.016919237,0.018055145,0.0003328875
11388000,11388000,0.017400809,0.019149149,0.0007336028
11408000,11408000,0.016613064,0.019331528,0.0003915092
11428000,11428000,0.017194858,0.019029628,0.00022105328
11448000,11448000,0.01679099,0.01950123,-5.8783453e-06
11468000,11468000,0.016251076,0.018307727,-0.00034054584
11488000,11488000,0.016325131,0.019935042,1.3044535e-05
11508000,11508000,0.017498212,0.019608157,-0.00015029723
11528000,11528000,0.017333904,0.018420156,0.00010815012
11548000,11548000,0.015925381,0.020515598,0.00015502275
11568000,11568000,0.017084785,0.018973073,0.0004125409
11588000,11588000,0.017094437,0.018788239,-6.59798e-05
11608000,11608000,0.016995912,0.018439699,-0.0004425398
11628000,11628000,0.016999057,0.018937778,-1.3479253e-05
11648000,11648000,0.01718302,0.019541373,0.0001246491
11668000,11668000,0.016470022,0.018703328,0.00034263145
11688000,11688000,0.016980823,0.019383539,9.73959e-05
11708000,11708000,0.017493447,0.019787896,0.0004712032
11728000,11728000,0.017120192,0.01896684,0.0002530479
11748000,11748000,0.01741208,0.019201266,0.0003511264
11768000,11768000,0.01718212,0.020815881,0.00032133752
11788000,11788000,0.017580569,0.019819835,-0.00012592909
11804000,11804000,0.016400179,0.018045727,0.00029258637
11824000,11824000,0.018176783,0.020674845,0.00021972871
11848000,11848000,0.017663967,0.019444326,-0.000146717
11868000,11868000,0.017305652,0.018808955,0.0003990315
11884000,11884000,0.017298235,0.019014167,0.00047729426
11908000,11908000,0.017320463,0.019891331,2.2125507e-05
11928000,11928000,0.01774655,0.019861871,0.00026757343
11948000,11948000,0.01726033,0.020684337,0.00031129245
11964000,11964000,0.016652236,0.017236315,0.0004758793
11988000,11988000,0.018203257,0.019164685,0.00038732795
12008000,12008000,0.017210368,0.018812975,3.110469e-05
12028000,12028000,0.016895963,0.01966477,0.000117056705
12048000,12048000,0.016524576,0.018890109,0.0005340797
12068000,12068000,0.017149044,0.01889263,0.00047181486
12088000,12088000,0.017486798,0.019322911,0.00044031636
12108000,12108000,0.0176781,0.020025395,0.0003285409
12128000,12128000,0.01677603,0.019157019,0.00046167328
12144000,12144000,0.016665462,0.019346774,0.00034665104
12168000,12168000,0.017127672,0.019822367,0.00023878073
12188000,12188000,0.016662793,0.01766139,0.00013423419
12208000,12208000,0.016606033,0.019756678,9.573332e-05
12228000,12228000,0.017082049,0.01898109,-0.0001630035
12248000,12248000,0.01720826,0.017860763,-0.00014524425
12268000,12268000,0.016896844,0.019167475,-0.00012342588
12288000,12288000,0.016999818,0.01918952,-4.059236e-05
12308000,12308000,0.017568922,0.01829237,0.0006047391
12328000,12328000,0.016731396,0.020127796,0.00041998542
12348000,12348000,0.015844459,0.018315982,0.00023816094
12368000,12368000,0.016702583,0.018402632,-3.633938e-05
12384000,12384000,0.016680092,0.01954539,0.00054016843
12408000,12408000,0.01632796,0.01934212,0.00047852183
12428000,12428000,0.016816154,0.018849233,0.00019169977
12448000,12448000,0.016914964,0.019020371,0.00011255949
12464000,12464000,0.016899692,0.019475259,0.00030945442
12488000,12488000,0.016660219,0.018352352,0.0004061552
12508000,12508000,0.016220357,0.019741187,0.00019647856
12528000,12528000,0.017822146,0.018992962,6.659076e-05
12548000,12548000,0.01710864,0.01964936,-0.0004220427
12564000,12564000,0.016572418,0.018390281,-0.00040852005
12588000,12588000,0.016667098,0.019234605,0.00025365897
12608000,12608000,0.0166815,0.019219706,0.0007375948
12628000,12628000,0.016787175,0.02018651,0.00026800716
12648000,12648000,0.016250761,0.019312484,0.00033479786
12664000,12664000,0.017176159,0.01847256,-0.0004327754
12688000,12688000,0.0166742,0.018418357,-4.439249e-05
12704000,12704000,0.01749538,0.018011583,-9.040081e-06
12724000,12724000,0.015684718,0.019398704,-0.0002860796
12748000,12748000,0.017260794,0.019147484,5.6555764e-05
12768000,12768000,0.016928095,0.0196944,0.00018584465
12788000,12788000,0.01636014,0.018477058,5.1621675e-05
12808000,12808000,0.016588906,0.018051064,0.0006920701
12828000,12828000,0.01760544,0.019433515,0.00044856625
12848000,12848000,0.016996786,0.019560516,-7.6387034e-05
12868000,12868000,0.016468521,0.019735554,0.000328874
12884000,12884000,0.017940352,0.018781502,0.00031454067
12908000,12908000,0.016519923,0.019022996,0.00049588596
12928000,12928000,0.01761028,0.01928254,0.0002087419
12944000,12944000,0.015497791,0.0185704,-2.9024517e-05
12964000,12964000,0.016765911,0.020938836,0.00021260102
12984000,12984000,0.01739423,0.018745173,-9.945503e-05
13008000,13008000,0.016736697,0.018411448,0.00043548588
13028000,13028000,0.016752502,0.019989697,0.0007464776
13048000,13048000,0.016555727,0.019246701,0.0001879956
13068000,13068000,0.016350085,0.019095564,0.00018142791
13088000,13088000,0.016070412,0.019959368,0.00038803098
13108000,13108000,0.015774967,0.018003987,-0.00045837622
13128000,13128000,0.016254172,0.020821437,0.00035409743
13148000,13148000,0.016143633,0.019563852,1.1541811e-05
13168000,13168000,0.016242664,0.020525174,0.0003649096
13188000,13188000,0.015853893,0.019391064,0.00027937876
13208000,13208000,0.016229076,0.01976253,-0.00010533084
13224000,13224000,0.017210724,0.018912822,0.00025004122
13248000,13248000,0.016759912,0.01899547,-0.00015774198
13268000,13268000,0.017037485,0.018102909,-0.00013541807
13288000,13288000,0.016323572,0.018825527,0.00047623093
13308000,13308000,0.017053485,0.019967075,-0.00027982643
13328000,13328000,0.016930027,0.020782126,0.00019170581
13348000,13348000,0.016367842,0.017290534,-8.8353074e-05
13368000,13368000,0.016931089,0.019132368,0.0003556311
13388000,13388000,0.017155483,0.018461233,-1.1713244e-05
13408000,13408000,0.016737932,0.01900628,5.276216e-05
13428000,13428000,0.01637053,0.018802915,-0.00012682418
13448000,13448000,0.016455024,0.018335627,-9.711715e-07
13468000,13468000,0.016111571,0.019742193,0.00010083877
13484000,13484000,0.017231239,0.018836964,0.00041261376
13508000,13508000,0.016684024,0.018988004,0.00016539042
13528000,13528000,0.017304765,0.019448308,0.0005491656
13548000,13548000,0.01615831,0.019445611,0.00029052698
13568000,13568000,0.016961865,0.018369485,-0.00025001817
13588000,13588000,0.016637037,0.019426588,0.0009340608
13608000,13608000,0.016893186,0.019343538,9.6053314e-05
13628000,13628000,0.016101869,0.018840514,-2.3127906e-05
13648000,13648000,0.017435702,0.019059086,0.00010322968
13668000,13668000,0.016802415,0.020255823,6.9007096e-05
13688000,13688000,0.015903175,0.0190419,-5.4528355e-06
13708000,13708000,0.01596965,0.020160437,-5.9296144e-06
13728000,13728000,0.015882153,0.019733578,0.00021162792
13748000,13748000,0.016103918,0.018840747,3.8203732e-05
13764000,13764000,0.01609175,0.019664288,-0.000503797
13788000,13788000,0.0157468,0.01898371,0.0003606225
13808000,13808000,0.015895225,0.018747747,-3.2893942e-05
13828000,13828000,0.01710406,0.02007805,1.407346e-05
13848000,13848000,0.01555659,0.018162737,0.00094036123
13868000,13868000,0.01568981,0.019201338,0.00013917721
13888000,13888000,0.015535102,0.020164438,0.000103741644
13908000,13908000,0.016566668,0.018855738,-5.842032e-05
13928000,13928000,0.016736835,0.018328073,-0.000145221
13948000,13948000,0.01691963,0.019988997,0.00023053233
13968000,13968000,0.016299417,0.019314198,0.00048101135
13988000,13988000,0.017599477,0.019398823,0.00038008683
14008000,14008000,0.016338345,0.019177997,-0.00021272691
14028000,14028000,0.016162416,0.019414762,0.0005877546
14048000,14048000,0.015448406,0.019105457,0.00036993015
14068000,14068000,0.016940132,0.01819017,0.00035815738
14088000,14088000,0.01683688,0.019619621,-0.0002184561
14108000,14108000,0.017151685,0.019205905,0.00020370916
14128000,14128000,0.015451647,0.01791419,0.00017131689
14148000,14148000,0.016592683,0.018590348,-0.0003457628
14168000,14168000,0.015618995,0.018400608,-0.00024209594
14188000,14188000,0.0172488,0.017582117,0.00012883985
14208000,14208000,0.015805429,0.018595934,-0.00014111694
14228000,14228000,0.016064847,0.018738419,-0.00036982773
14248000,14248000,0.016763704,0.018412938,0.00026540348
14268000,14268000,0.01578064,0.018522792,0.00010247199
14288000,14288000,0.01602701,0.01879047,0.00023239302
14308000,14308000,0.015797097,0.019319259,0.00038968757
14328000,14328000,0.017008977,0.01862618,-1.7936796e-05
14348000,14348000,0.015530969,0.018868428,0.00030488806
14368000,14368000,0.016589234,0.018663716,0.00025918783
14388000,14388000,0.015238886,0.019439034,0.00050421694
14408000,14408000,0.01670073,0.019420633,-7.3775885e-07
14428000,14428000,0.017355615,0.019171756,0.00034753917
14448000,14448000,0.0157914,0.017681148,-0.00013116785
14468000,14468000,0.016627276,0.018498916,0.00038274072
14488000,14488000,0.0151387,0.018430525,0.00024209046
14508000,14508000,0.016933916,0.019212848,0.00035280501
14528000,14528000,0.016172078,0.018413711,0.00022186551
14548000,14548000,0.015554037,0.019187285,0.00025024294
14568000,14568000,0.015933426,0.01784055,0.00024115558
14588000,14588000,0.01614509,0.019201355,0.00029684164
14608000,14608000,0.016114743,0.020091232,0.00016981902
14628000,14628000,0.016724577,0.017872626,0.00026442707
14648000,14648000,0.015248717,0.019311361,0.0007183421
14668000,14668000,0.017309122,0.018636385,5.4545467e-06
14684000,14684000,0.015877426,0.019143716,0.0003725728
14708000,14708000,0.016732788,0.01730086,0.00025477083
14728000,14728000,0.015606278,0.01845049,-0.0003992823
14748000,14748000,0.016131176,0.018787593,-0.00012568942
14768000,14768000,0.01680102,0.018620262,0.0001317976
14788000,14788000,0.015610392,0.018713426,0.000119748875
14808000,14808000,0.016475467,0.019144433,0.00044651172
14828000,14828000,0.016205562,0.018936172,-0.00019666874
14848000,14848000,0.015722834,0.019225078,-1.4874514e-05
14868000,14868000,0.016579758,0.018064613,0.000121298945
14884000,14884000,0.016420234,0.017161453,-0.0003608406
14904000,14904000,0.016870819,0.018827552,0.00033962398
14924000,14924000,0.016896077,0.01731291,7.419896e-05
14944000,14944000,0.016032452,0.018833846,-9.802018e-05
14968000,14968000,0.015896821,0.018701011,0.00035334748
14988000,14988000,0.017191073,0.017922258,-0.00017960496
15008000,15008000,0.015739445,0.018984765,-0.00026173596
15028000,15028000,0.015477067,0.017929336,0.00020641107
15048000,15048000,0.015343672,0.017939929,5.625236e-05
15068000,15068000,0.016688956,0.0193223,0.00048891554
15088000,15088000,0.016704662,0.017911006,0.00043160026
15104000,15104000,0.015694894,0.017949898,-0.00018574685
15128000,15128000,0.016880488,0.017472668,-0.00011379004
15144000,15144000,0.016074162,0.019373333,4.3001706e-05
15168000,15168000,0.01797434,0.019007001,0.00063877174
15188000,15188000,0.01595576,0.017635226,0.0004073473
15208000,15208000,0.015910821,0.01902175,-2.6891357e-06
15228000,15228000,0.016062178,0.018165918,-0.00059410033
15248000,15248000,0.015345073,0.019966101,4.3890554e-06
15268000,15268000,0.01663565,0.017756054,-0.00012877156
15288000,15288000,0.01631715,0.018339042,0.0006140319
15308000,15308000,0.015802264,0.018345702,-7.031311e-07
15328000,15328000,0.01745645,0.019099921,0.00029295785
15348000,15348000,0.015771406,0.017895605,-0.00016884199
15368000,15368000,0.015928788,0.01845435,0.00022366099
15388000,15388000,0.016897703,0.017633235,0.00056770485
15408000,15408000,0.016332123,0.018856203,0.00038940535
15428000,15428000,0.015482307,0.018102918,0.0002325784
15448000,15448000,0.01661302,0.01746177,0.00045036056
15468000,15468000,0.016782006,0.017445749,-0.00030359253
15488000,15488000,0.016793119,0.017300155,0.00043617352
15508000,15508000,0.0157159,0.018442472,-0.00015846807
15528000,15528000,0.015817223,0.01846793,-0.00025831675
15544000,15544000,0.015997801,0.017272377,-0.00015855875
15564000,15564000,0.017322281,0.017873202,0.00040832
15584000,15584000,0.015544691,0.017275058,-0.00025431137
15608000,15608000,0.015662283,0.018174205,-0.00023014622
15628000,15628000,0.016034577,0.017505962,0.0003487943
15648000,15648000,0.016647538,0.017550442,-9.407043e-05
15664000,15664000,0.015259477,0.01710264,0.00069000886
15684000,15684000,0.016038876,0.017421069,-0.00019443303
15704000,15704000,0.01651981,0.017634036,-3.2961125e-05
15724000,15724000,0.015325427,0.017797196,-0.0002061508
15748000,15748000,0.016603189,0.017520512,0.0005751586
15768000,15768000,0.016808959,0.017811202,0.00025852784
15788000,15788000,0.016110847,0.018866826,0.00016139122
15804000,15804000,0.015759502,0.01786495,-0.00044811988
15824000,15824000,0.016174395,0.016933877,0.00030348607
15848000,15848000,0.015477708,0.016392639,-0.00039447346
15868000,15868000,0.015953274,0.018686784,-2.428554e-05
15884000,15884000,0.015196779,0.017325968,7.941444e-05
15904000,15904000,0.01592062,0.016908187,-0.0003574758
15924000,15924000,0.016464872,0.016354589,3.204557e-05
15948000,15948000,0.016149176,0.016694684,3.0460576e-05
15964000,15964000,0.015837504,0.017862277,0.00022724266
15984000,15984000,0.015629442,0.017561855,0.0003563227
16004000,16004000,0.0157462,0.017458128,0.00034091357
16028000,16028000,0.01626215,0.017259508,8.236121e-05
16048000,16048000,0.015817326,0.018348139,0.00021162466
16068000,16068000,0.016312085,0.017560922,-0.00022512425
16088000,16088000,0.015514078,0.01802916,-9.838945e-05
16104000,16104000,0.016571341,0.015980018,-0.00013575156
16128000,16128000,0.016311089,0.017374821,0.00028475217
16148000,16148000,0.01718308,0.017390171,4.8723556e-05
16168000,16168000,0.016050506,0.016384555,0.0006902906
16188000,16188000,0.015745727,0.017094526,0.0003657155
16208000,16208000,0.016590996,0.016440924,-0.0001257552
16228000,16228000,0.016473498,0.016670413,9.51619e-05
16248000,16248000,0.016066674,0.016713032,-0.00040574194
16268000,16268000,0.016531684,0.017642912,0.0004659554
16288000,16288000,0.015562892,0.01875627,0.00022571527
16308000,16308000,0.01583343,0.016848989,0.00021465417
16328000,16328000,0.015570498,0.018228704,0.00018830979
16348000,16348000,0.016998809,0.015941966,-0.00020845677
16368000,16368000,0.015657434,0.018063387,-4.4760818e-05
16388000,16388000,0.017021345,0.017427953,0.0008316513
16408000,16408000,0.016366668,0.017148733,0.00048181912
16428000,16428000,0.015977755,0.017082643,0.00061115786
16448000,16448000,0.01716092,0.017790712,0.00016469801
16468000,16468000,0.015609756,0.01692439,-2.5421685e-05
16488000,16488000,0.017738234,0.017541926,-0.00018746247
16508000,16508000,0.015837537,0.015713042,0.00036202374
16528000,16528000,0.016367462,0.017716095,2.4297717e-05
16548000,16548000,0.015582117,0.017064273,0.00052348163
16568000,16568000,0.016377298,0.017506875,0.00010611345
16588000,16588000,0.016770648,0.017435616,0.00030384038
16608000,16608000,0.016916245,0.017270634,5.955185e-05
16628000,16628000,0.015916284,0.017305726,0.0002199506
16648000,16648000,0.01634219,0.015771838,0.0002129351
16668000,16668000,0.015743086,0.018378284,-0.00017362871
16688000,16688000,0.016027978,0.017568624,0.00043548038
16708000,16708000,0.017015094,0.016677417,-0.0001762108
16728000,16728000,0.015894592,0.017577004,9.0320864e-05
16748000,16748000,0.015221007,0.01811121,0.00021162016
16768000,16768000,0.016044438,0.016945766,0.000107630876
16784000,16784000,0.017278574,0.016889362,0.00034935036
16808000,16808000,0.016747668,0.017283661,0.0002796388
16828000,16828000,0.01639208,0.017620953,-3.3611363e-05
16848000,16848000,0.016910966,0.017813772,0.00021191768
16868000,16868000,0.015485178,0.016798105,-0.00014689691
16884000,16884000,0.016446061,0.016970742,0.0005455375
16904000,16904000,0.015923623,0.017307634,2.8007978e-05
16928000,16928000,0.016155763,0.015679574,0.0005207436
16944000,16944000,0.016176691,0.01659401,3.2313983e-06
16968000,16968000,0.016127985,0.016592113,5.976528e-05
16988000,16988000,0.015741728,0.016304497,-4.3373973e-05
17008000,17008000,0.015973497,0.016486345,-0.00037107887
17024000,17024000,0.017667001,0.017791515,0.0003499266
17048000,17048000,0.015726576,0.01729089,0.00012100092
17068000,17068000,0.01733833,0.017081168,-0.0002987509
17088000,17088000,0.016205747,0.015951697,0.00021316383
17108000,17108000,0.016266538,0.01566759,-8.600162e-05
17128000,17128000,0.016313858,0.018065158,0.000117131975
17148000,17148000,0.015766034,0.016370254,9.64716e-05
17168000,17168000,0.016752277,0.01697869,0.00035770057
17188000,17188000,0.015662562,0.018438155,0.00033227808
17208000,17208000,0.015921976,0.017575296,-0.00022111447
17228000,17228000,0.016101765,0.016991196,0.00043039612
17248000,17248000,0.01599977,0.01682684,1.2779853e-05
17264000,17264000,0.016546803,0.016861048,0.00017895119
17288000,17288000,0.01635123,0.017583149,-0.00010580546
17308000,17308000,0.015265804,0.016863333,0.00017672747
17328000,17328000,0.016320262,0.016342148,0.0002379152
17348000,17348000,0.016031338,0.017405722,0.00041171946
17368000,17368000,0.016692344,0.017715592,0.00024442092
17388000,17388000,0.01598225,0.016931124,0.00012902384
17408000,17408000,0.017485697,0.01689635,0.000108004104
17428000,17428000,0.015977351,0.01637476,0.0004042062
17448000,17448000,0.016323438,0.01654388,0.00022937656
17468000,17468000,0.016657552,0.016552275,-0.00015349658
17488000,17488000,0.0153796235,0.017328495,7.7071374e-05
17508000,17508000,0.0161491,0.01790418,0.00012881866
17528000,17528000,0.016728725,0.01610407,-0.00021950631
17548000,17548000,0.015095593,0.016747732,0.00025521693
17568000,17568000,0.016289344,0.016760172,-0.00030671022
17588000,17588000,0.016705818,0.015804233,0.00050131907
17608000,17608000,0.015371654,0.01662883,0.00015568649
17628000,17628000,0.01590575,0.017608915,0.0006406619
17648000,17648000,0.015507008,0.0164658,-4.1257194e-05
17668000,17668000,0.016314486,0.016622331,3.8059574e-05
17688000,17688000,0.015751148,0.017036233,0.00016434827
17708000,17708000,0.016966978,0.017692402,0.00031183154
17728000,17728000,0.01622387,0.016879419,0.00041020275
17748000,17748000,0.01589672,0.016647985,0.0010035667
17764000,17764000,0.015247151,0.016479693,-2.9194589e-05
17788000,17788000,0.015662897,0.01712301,0.00023234867
17808000,17808000,0.016184334,0.017659938,-0.00029586334
17828000,17828000,0.016547011,0.016243337,0.00030065142
17848000,17848000,0.016002456,0.016322374,7.449022e-05
17864000,17864000,0.016356207,0.017309446,0.00013984271
17888000,17888000,0.015478856,0.017375194,-0.000101310434
17908000,17908000,0.016035408,0.015639042,0.0002986329
17928000,17928000,0.015341854,0.01757768,-0.00018972337
17948000,17948000,0.015637605,0.016200792,2.0322956e-05
17968000,17968000,0.016344687,0.017355312,0.00023512026
17988000,17988000,0.014746961,0.016884914,-0.00045403885
18008000,18008000,0.015166119,0.017124485,0.00028298493
18028000,18028000,0.015872395,0.017047353,0.00018983112
18048000,18048000,0.015416715,0.0156544,-0.00013905675
18068000,18068000,0.016756784,0.016965425,0.00035314387
18084000,18084000,0.015230456,0.016050365,0.00025366317
18108000,18108000,0.01604382,0.017255116,0.00021917582
18128000,18128000,0.01680738,0.017998042,0.000121016754
18148000,18148000,0.015328391,0.016658204,0.00044100193
18168000,18168000,0.016178394,0.017051872,-1.3513619e-05
18188000,18188000,0.016161941,0.017051779,0.00040865256
18208000,18208000,0.01667344,0.01549716,0.000120536424
18228000,18228000,0.015166048,0.016378436,0.00013677814
18248000,18248000,0.015398037,0.016178034,-0.00019924059
18268000,18268000,0.015500629,0.016743014,0.00026482294
18288000,18288000,0.015736306,0.01735115,0.00041385644
18308000,18308000,0.015730588,0.015969863,0.00023688395
18328000,18328000,0.017179098,0.016138617,-0.00061581965
18348000,18348000,0.014792951,0.016806435,0.00033295254
18368000,18368000,0.016294677,0.015800176,4.266226e-06
18388000,18388000,0.015782349,0.016481725,-6.137515e-05
18408000,18408000,0.015838563,0.017052846,0.00018144897
18428000,18428000,0.01648079,0.015470293,0.00047711632
18448000,18448000,0.016035791,0.017377336,0.000114435235
18468000,18468000,0.01517656,0.015716646,0.00016482614
18488000,18488000,0.015763698,0.016947415,0.00016438085
18508000,18508000,0.01539372,0.016227562,0.00032489325
18528000,18528000,0.014439134,0.016154882,-0.00027986345
18548000,18548000,0.016193392,0.015843857,0.00035282207
18568000,18568000,0.017212668,0.01663564,-0.0001804283
18588000,18588000,0.015223381,0.016072543,0.00057162385
18608000,18608000,0.01628927,0.015944788,1.0706345e-05
18628000,18628000,0.015551504,0.015956195,-0.00029016807
18648000,18648000,0.014446888,0.01681183,-0.00016830313
18668000,18668000,0.015706478,0.016066665,0.00017596454
18688000,18688000,0.015731163,0.015541792,-0.00022376608
18708000,18708000,0.016197583,0.016252376,-0.00013116524
18728000,18728000,0.016081454,0.016026802,0.00026879596
18748000,18748000,0.015290816,0.016657883,1.0806043e-05
18768000,18768000,0.015294389,0.01608669,0.00021862968
18788000,18788000,0.015310972,0.015341813,0.00039791115
18808000,18808000,0.015625892,0.016516784,-0.00039899358
18828000,18828000,0.015965383,0.015476,-0.00017220057
18844000,18844000,0.016071243,0.015548342,0.0003309246
18868000,18868000,0.016110456,0.016517952,-0.00016463576
18888000,18888000,0.01626454,0.016360674,0.0006164663
18908000,18908000,0.016727882,0.016641105,-0.0003569706
18928000,18928000,0.015129155,0.015389679,2.6096544e-05
18948000,18948000,0.015370163,0.015983403,-0.0005920549
18968000,18968000,0.01591535,0.016544765,0.00018865505
18988000,18988000,0.016243432,0.014942482,0.00040820084
19008000,19008000,0.015102033,0.017735502,0.00034253308
19024000,19024000,0.015491441,0.015442694,1.4763116e-05
19044000,19044000,0.016067881,0.0153029775,0.00026126695
19068000,19068000,0.015991049,0.01632198,0.000609422
19084000,19084000,0.014614542,0.015329188,0.0011542096
19108000,19108000,0.015927583,0.016590158,0.0002646049
19124000,19124000,0.015702484,0.015277992,0.00039704275
19148000,19148000,0.01539619,0.015495695,0.00017524055
19168000,19168000,0.015722934,0.015901277,-0.00012018228
19188000,19188000,0.016797228,0.015696997,9.872562e-05
19208000,19208000,0.016042344,0.015426653,0.0003807669
19228000,19228000,0.015599617,0.01615193,-0.0002328665
19248000,19248000,0.01568012,0.015921457,0.00027310124
19268000,19268000,0.015805393,0.01605972,-4.8866274e-05
19284000,19284000,0.017307434,0.01649506,-0.000105791485
19308000,19308000,0.015823986,0.015371754,0.0007563809
19328000,19328000,0.015316576,0.015575414,0.0007942148
19348000,19348000,0.015441926,0.015743813,0.00047555246
19368000,19368000,0.015658205,0.015619182,3.7955284e-05
19388000,19388000,0.015798667,0.015366327,0.00035040316
19408000,19408000,0.016628657,0.016010826,0.00085252937
19428000,19428000,0.015952168,0.01605265,0.00037638712
19448000,19448000,0.01606161,0.015967641,-3.816291e-05
19464000,19464000,0.01486704,0.015231987,0.00052434055
19488000,19488000,0.015314111,0.0162946,0.00063308555
19508000,19508000,0.01590116,0.016195523,0.00031543718
19528000,19528000,0.016006283,0.01635695,-5.5755805e-05
19544000,19544000,0.015296256,0.015568968,0.00076460425
19564000,19564000,0.016336353,0.01616759,4.1594067e-05
19584000,19584000,0.014672188,0.016187098,-3.3641038e-05
19608000,19608000,0.015874797,0.01573043,8.366392e-05
19624000,19624000,0.014871454,0.015240349,-8.950774e-05
19648000,19648000,0.015329994,0.015704842,-0.00013714877
19668000,19668000,0.01576131,0.015554779,0.0008268975
19688000,19688000,0.016345575,0.015650975,-9.764294e-05
19708000,19708000,0.01586471,0.01493845,0.00014589634
19728000,19728000,0.016323728,0.015824772,0.00045245845
19748000,19748000,0.015259811,0.015909338,0.0002831776
19768000,19768000,0.01658098,0.015795387,-7.521613e-05
19788000,19788000,0.015538006,0.016739935,5.793166e-05
19808000,19808000,0.01571756,0.015375658,0.00018911365
19828000,19828000,0.015391196,0.016479984,9.5633e-05
19844000,19844000,0.01563972,0.015350319,0.0007140841
19868000,19868000,0.01583785,0.01606081,0.00016407178
19888000,19888000,0.016331479,0.016205251,0.00044220212
19908000,19908000,0.015391758,0.014946321,-0.00016279484
19928000,19928000,0.017024178,0.01537344,0.00021349375
19948000,19948000,0.016573858,0.015698288,-4.864158e-05
19968000,19968000,0.01528875,0.015822412,0.00035210696
19988000,19988000,0.0149576,0.015316266,0.0002404891
20008000,20008000,0.014507413,0.015308985,0.00017648922
20028000,20028000,0.016123159,0.016926594,-0.00062969985
20048000,20048000,0.0163977,0.016325759,0.00051117444
20068000,20068000,0.0148157645,0.015887069,-7.579394e-07
20084000,20084000,0.014951416,0.015067599,-0.00021878307
20108000,20108000,0.015477516,0.0151699055,0.0002826636
20128000,20128000,0.015906842,0.01609632,-2.2446417e-05
20148000,20148000,0.014647117,0.01491001,0.00022064416
20168000,20168000,0.015562669,0.014954157,-0.0003063841
20184000,20184000,0.016698163,0.015260484,0.00010829328
20208000,20208000,0.014628536,0.014350496,0.00053660054
20228000,20228000,0.0156197315,0.015608554,1.6641541e-05
20248000,20248000,0.015331077,0.015632844,0.00015992658
20268000,20268000,0.015458464,0.014933375,8.328666e-05
20288000,20288000,0.015321713,0.014495419,-0.00013013955
20308000,20308000,0.015446208,0.014367747,-0.00025849746
20328000,20328000,0.014764627,0.01624825,0.00039266315
20348000,20348000,0.014475422,0.016402671,-0.00023709575
20368000,20368000,0.015907057,0.013923771,0.00021734717
20388000,20388000,0.01396311,0.014900296,0.00032821982
20408000,20408000,0.015265682,0.015273439,-0.00012214354
20428000,20428000,0.015968306,0.014407653,0.00014019947
20448000,20448000,0.015675891,0.014255957,-4.6290108e-05
20468000,20468000,0.015921585,0.015593901,0.00038659794
20488000,20488000,0.0155904,0.015038254,0.00036092172
20508000,20508000,0.015874084,0.015355851,0.00028136742
20524000,20524000,0.014584881,0.015228449,7.2725634e-05
20544000,20544000,0.014562231,0.015332587,0.0004082949
20564000,20564000,0.01588439,0.016259328,-0.00014470753
20588000,20588000,0.014965466,0.015571788,0.0003958471
20604000,20604000,0.015352062,0.014905645,0.00013378458
20624000,20624000,0.013995678,0.014981943,0.00025000618
20648000,20648000,0.014825881,0.015522484,-0.00017133358
20668000,20668000,0.014694023,0.014598029,0.00030267416
20688000,20688000,0.014898522,0.014327176,-4.445843e-07
20708000,20708000,0.015136534,0.015656272,-4.1665837e-05
20728000,20728000,0.015332588,0.014655683,0.0003864907
20748000,20748000,0.015054751,0.017044798,9.3999595e-05
20768000,20768000,0.016152518,0.013872229,-0.00017517373
20788000,20788000,0.015246874,0.015035053,0.00030178993
20808000,20808000,0.015233285,0.01525471,1.5945582e-06
20828000,20828000,0.01489381,0.0155505305,0.00040691273
20848000,20848000,0.014373293,0.016184123,8.2945337e-07
20868000,20868000,0.016334377,0.015436954,2.2989972e-05
20884000,20884000,0.01448396,0.015499468,7.862894e-05
20908000,20908000,0.015564947,0.015144382,0.0005588762
20928000,20928000,0.013805168,0.014610681,-0.00019393243
20948000,20948000,0.01520052,0.015595833,0.0003718484
20968000,20968000,0.015275988,0.014377269,-0.00031255223
20988000,20988000,0.015962504,0.013804346,0.00039893208
21008000,21008000,0.014578594,0.01563814,0.00012175867
21028000,21028000,0.015107874,0.014400498,0.00040391434
21048000,21048000,0.015902936,0.015127514,0.00045629076
21068000,21068000,0.01448674,0.014460001,-4.0917705e-05
21088000,21088000,0.016559776,0.014700532,-0.0003926944
21108000,21108000,0.015008701,0.015419433,-9.879778e-05
21128000,21128000,0.01523301,0.014828741,0.0004300874
21148000,21148000,0.015339476,0.015231522,-1.6585127e-05
21168000,21168000,0.014987339,0.013988639,-0.0006545175
21188000,21188000,0.01519343,0.015310809,0.00029149355
21204000,21204000,0.014652463,0.015335652,0.00031469786
21228000,21228000,0.014251803,0.015913673,-0.00036622072
21244000,21244000,0.014544729,0.015212677,0.00021805505
21268000,21268000,0.014706772,0.014273519,0.000121871475
21284000,21284000,0.014950606,0.015532448,0.000361025
21304000,21304000,0.016213588,0.015708655,0.0006522984
21328000,21328000,0.015060184,0.015750444,0.0007682517
21348000,21348000,0.015709253,0.0154055115,-0.00016867132
21368000,21368000,0.015115665,0.013822517,0.00026263294
21388000,21388000,0.014615641,0.014397595,-3.1556992e-05
21408000,21408000,0.014797126,0.014509687,0.00047552577
21428000,21428000,0.015350023,0.014619452,-0.000102860424
21448000,21448000,0.015210638,0.014998908,2.7288275e-05
21464000,21464000,0.014854009,0.015882438,0.00065356103
21488000,21488000,0.01539813,0.015733639,0.00013199606
21508000,21508000,0.015015512,0.015389731,0.0009329558
21528000,21528000,0.015165804,0.014168115,0.00025417726
21548000,21548000,0.01512381,0.014577986,0.00012817679
21564000,21564000,0.015413078,0.015065207,-0.0001064408
21588000,21588000,0.015567485,0.015320028,1.01513815e-05
21608000,21608000,0.01448689,0.015564802,0.0008946093
21624000,21624000,0.015308228,0.015493519,0.000114676535
21648000,21648000,0.015993973,0.015948834,0.0004373927
21668000,21668000,0.014467809,0.01516791,-0.0004160149
21684000,21684000,0.01571098,0.016018385,0.00039472323
21708000,21708000,0.016310519,0.015039497,0.00013047602
21728000,21728000,0.015248875,0.015335898,0.00041052565
21748000,21748000,0.014246521,0.01582596,-0.00019237376
21768000,21768000,0.0152737135,0.014170401,0.00054854184
21788000,21788000,0.0150749665,0.016283417,0.0002546799
21808000,21808000,0.0152233,0.015867706,7.880717e-05
21828000,21828000,0.015317729,0.014377851,-0.00032710825
21848000,21848000,0.014079307,0.015827794,-1.0403013e-05
21868000,21868000,0.015619339,0.015032509,0.00016765013
21888000,21888000,0.01495135,0.01517131,0.00039126063
21908000,21908000,0.014578055,0.015623044,1.3130508e-05
21928000,21928000,0.015160539,0.015017838,-0.00016148482
21948000,21948000,0.015160045,0.0142964525,0.00072687725
21968000,21968000,0.016360043,0.014772017,0.000338277
21988000,21988000,0.01451469,0.016264837,7.9968035e-05
22004000,22004000,0.014457207,0.013693383,0.00016263481
22028000,22028000,0.016099215,0.015076625,0.0003807439
22044000,22044000,0.013009399,0.015255917,9.449618e-05
22068000,22068000,0.01584997,0.014561525,8.094567e-06
22088000,22088000,0.015331703,0.016110066,0.00051194313
22108000,22108000,0.01469561,0.015674623,0.00017788883
22124000,22124000,0.016294284,0.015316845,0.00039700558
22144000,22144000,0.014723276,0.014685637,0.0007837807
22164000,22164000,0.01535153,0.014954263,5.1943014e-05
22188000,22188000,0.014696114,0.015314487,0.00024810008
22208000,22208000,0.014688349,0.014560906,0.0002014947
22228000,22228000,0.014744846,0.01545622,0.00071440806
22248000,22248000,0.014918573,0.014835989,0.0007149546
22268000,22268000,0.015261406,0.016269663,4.4115004e-05
22288000,22288000,0.0150732435,0.015111798,0.00011703735
22304000,22304000,0.013708003,0.014986623,0.00024888717
22328000,22328000,0.014538688,0.015428257,0.00026164
22348000,22348000,0.015507121,0.015206784,0.0005514202
22364000,22364000,0.0149707515,0.015470688,-9.579178e-05
22388000,22388000,0.014081312,0.014318561,0.00017042272
22408000,22408000,0.014250834,0.015168992,0.0005386548
22424000,22424000,0.014674239,0.015403539,-3.716595e-05
22448000,22448000,0.014977834,0.015429295,9.1905706e-05
22468000,22468000,0.013940835,0.015050083,0.00049438275
22488000,22488000,0.015727399,0.014325812,0.00033461166
22508000,22508000,0.014122223,0.013769375,-0.00020138627
22528000,22528000,0.014597037,0.015065479,-0.00022556842
22548000,22548000,0.014497138,0.015612713,0.0007397164
22568000,22568000,0.014206051,0.014594922,0.00010921208
22588000,22588000,0.015024936,0.015565931,-0.00022231927
22608000,22608000,0.014370593,0.014767961,0.00043667314
22628000,22628000,0.015745303,0.014191575,0.0012511652
22648000,22648000,0.013895484,0.015424033,-7.270215e-05
22668000,22668000,0.014936518,0.015086202,-0.00016050362
22688000,22688000,0.013702698,0.015508856,-0.0001911337
22708000,22708000,0.015242076,0.015759354,0.00012255725
22728000,22728000,0.0141366245,0.015276208,0.00041580643
22748000,22748000,0.01532677,0.014603571,2.7525612e-05
22768000,22768000,0.015041754,0.01631088,-0.00024734167
22788000,22788000,0.014621698,0.015430134,0.00036932138
22808000,22808000,0.015075086,0.014780277,-2.2817112e-05
22828000,22828000,0.013229748,0.015245771,-0.00029226253
22844000,22844000,0.015702281,0.012850778,1.8258463e-06
22868000,22868000,0.015003856,0.0148757035,0.0004273979
22888000,22888000,0.014987722,0.014649239,2.5297819e-05
22904000,22904000,0.014465002,0.015019096,0.0005828545
22928000,22928000,0.014121589,0.01510372,-9.137474e-06
22948000,22948000,0.014527268,0.01600593,0.00018418038
22968000,22968000,0.0155143915,0.014084823,0.00040260583
22988000,22988000,0.013554801,0.015172987,0.0008426166
23004000,23004000,0.015071952,0.016039614,0.00028943908
23028000,23028000,0.0152344415,0.014826654,0.0001385813
23048000,23048000,0.013924186,0.015445644,0.00054369017
23068000,23068000,0.015003583,0.014632467,0.00031781485
23088000,23088000,0.015226954,0.014949202,-9.374763e-06
23104000,23104000,0.015554746,0.015485182,0.00015992887
23128000,23128000,0.014062033,0.016560555,0.00033944598
23144000,23144000,0.015680782,0.015271107,-0.00020537083
23164000,23164000,0.014800867,0.014441903,0.00019026455
23188000,23188000,0.014140521,0.014037597,0.0002818658
23208000,23208000,0.014800842,0.014076065,0.00040683392
23224000,23224000,0.0143992305,0.016591277,0.0005467685
23248000,23248000,0.01477662,0.014531521,-0.00023964264
23268000,23268000,0.015221291,0.014169993,0.00035297297
23284000,23284000,0.014513997,0.015248993,0.00023458106
23308000,23308000,0.014698333,0.015132007,0.0002652739
23324000,23324000,0.014443278,0.015212116,0.00053344935
23344000,23344000,0.014536845,0.015986754,0.0001471961
23364000,23364000,0.013977998,0.015395887,0.00032416036
23384000,23384000,0.015092189,0.014048525,0.00014016141
23408000,23408000,0.016327199,0.014487676,0.00062211195
23428000,23428000,0.014150554,0.015847616,5.1533025e-05
23448000,23448000,0.014221864,0.014012937,-0.00014154104
23468000,23468000,0.015154122,0.015803063,-7.4344105e-05
23488000,23488000,0.013804465,0.014485652,0.00029410233
23504000,23504000,0.015116917,0.014751428,-0.0002731833
23528000,23528000,0.01334252,0.01491204,-7.264456e-05
23548000,23548000,0.014928629,0.015520688,0.00038132427
23568000,23568000,0.013780973,0.015473917,0.00021047807
23588000,23588000,0.015347071,0.015059413,-5.718246e-05
23608000,23608000,0.015079916,0.014890532,0.0002974623
23628000,23628000,0.014226161,0.013880731,0.00039890152
23648000,23648000,0.015817944,0.014065622,0.00045695575
23668000,23668000,0.013541716,0.015354194,0.00011430537
23684000,23684000,0.014396514,0.013752117,-3.1183674e-05
23704000,23704000,0.015741155,0.015503782,0.00026244632
23728000,23728000,0.014139068,0.015288942,-0.00041346982
23748000,23748000,0.015844477,0.015455143,0.00013452189
23768000,23768000,0.014051229,0.014823104,0.0005200035
23788000,23788000,0.014951009,0.014654026,-2.0102145e-05
23808000,23808000,0.014002679,0.01438057,0.00014999723
23828000,23828000,0.015015421,0.01449871,0.00038875922
23848000,23848000,0.014038683,0.014524191,-0.00028108322
23868000,23868000,0.014447665,0.015878722,0.00035875998
23888000,23888000,0.015309479,0.01363273,0.0009743892
23904000,23904000,0.015056651,0.014335078,0.00022290692
23928000,23928000,0.0148021355,0.015505336,1.635109e-05
23948000,23948000,0.015171916,0.0143460855,0.0009576686
23968000,23968000,0.014931574,0.014409034,2.0424486e-05
23988000,23988000,0.01558687,0.015201032,0.00013838786
24008000,24008000,0.014337577,0.014561248,0.00032167436
24028000,24028000,0.014856593,0.014486603,0.0008018931
24048000,24048000,0.014910327,0.01594767,0.00014271835
24068000,24068000,0.013904682,0.014910094,0.00026599408
24088000,24088000,0.014333037,0.015591844,-7.442094e-05
24108000,24108000,0.014272151,0.014520808,0.0005325948
24128000,24128000,0.015099889,0.015491901,0.00039485935
24148000,24148000,0.014920423,0.015072525,0.00021518856
24168000,24168000,0.015250935,0.013941179,0.00034336085
24184000,24184000,0.014655376,0.0143496245,0.0002424055
24204000,24204000,0.015386896,0.015374989,0.0004212295
24224000,24224000,0.014122588,0.014244579,0.00057478755
24248000,24248000,0.014123238,0.014479551,-0.0005344198
24268000,24268000,0.014995874,0.014568571,0.00041915217
24288000,24288000,0.014261934,0.014885025,0.00057506096
24308000,24308000,0.014124075,0.014566096,0.00041696336
24328000,24328000,0.015079426,0.0139940325,0.00021819297
24348000,24348000,0.014135362,0.014602054,0.00027455404
24368000,24368000,0.0154861715,0.015512307,-0.00033532907
24388000,24388000,0.01452256,0.013637533,0.00017936953
24408000,24408000,0.014519042,0.0141442,-0.00011100023
24424000,24424000,0.015264608,0.015306809,0.0002131036
24448000,24448000,0.015080006,0.014561188,-0.00012075842
24468000,24468000,0.014301703,0.014576133,0.00013870462
24488000,24488000,0.013204605,0.01506399,9.664962e-05
24508000,24508000,0.01426369,0.01479027,0.000595655
24524000,24524000,0.013749336,0.015073772,-1.7746469e-06
24548000,24548000,0.0143709555,0.014266245,0.0010284592
24568000,24568000,0.014258807,0.014724559,-0.00034756228
24588000,24588000,0.013183552,0.0152653195,0.0002110432
24608000,24608000,0.014416557,0.014300984,0.00014043327
24628000,24628000,0.014639567,0.013981726,-0.0002868697
24648000,24648000,0.014567504,0.014709791,0.00040756213
24668000,24668000,0.014700482,0.016091315,0.000107347674
24688000,24688000,0.013956342,0.012981075,0.000159917
24708000,24708000,0.014398216,0.014143719,-0.00022888673
24728000,24728000,0.014297025,0.01401385,0.00010813229
24748000,24748000,0.014289072,0.014691898,0.00044472056
24768000,24768000,0.014281363,0.013948413,0.00026502585
24788000,24788000,0.013473195,0.014485132,0.0002373578
24808000,24808000,0.013798359,0.014421627,0.00011313574
24828000,24828000,0.014395726,0.013894419,-6.95347e-05
24848000,24848000,0.015470636,0.013907394,0.00041622735
24868000,24868000,0.014444577,0.014843107,-0.00021230215
24888000,24888000,0.014687064,0.015630621,6.3983e-05
24908000,24908000,0.013502956,0.014337065,0.00016462736
24924000,24924000,0.0142981475,0.014506891,-3.853309e-05
24948000,24948000,0.0143201705,0.01532496,-0.00024924
24968000,24968000,0.01361622,0.014566099,7.7254095e-05
24988000,24988000,0.014732941,0.014707024,1.9932912e-05
25008000,25008000,0.014225278,0.014193505,0.0006037377
25028000,25028000,0.014078915,0.015244985,3.93652e-05
25048000,25048000,0.014593541,0.014692231,0.0003342903
25068000,25068000,0.014424912,0.014325197,0.00021916025
25084000,25084000,0.014705497,0.014622196,0.0003222057
25108000,25108000,0.014349333,0.015418743,-1.920598e-05
25124000,25124000,0.014572718,0.01423046,-1.4125835e-05
