timestamp,timestamp_sample,xyz[0],xyz[1],xyz[2],xyz_derivative[0],xyz_derivative[1],xyz_derivative[2]
3428000,3428000,-0.0028012274,-0.004375671,0.0004353556,0.027698725,0.03928261,0.19584915
3432000,3432000,-0.00335408,-0.0051877964,0.00078426424,-0.043621622,-0.06488061,0.14915594
3440000,3440000,-0.002882462,-0.0042213947,-0.00012419978,0.05300134,0.09595369,-0.03930513
3448000,3448000,-0.001751031,-0.003787248,-0.0004329465,0.08036071,0.035712507,-0.019730322
3460000,3460000,-0.0025413737,-0.005804782,0.00040300583,0.038324457,-0.13013586,0.0011424175
3468000,3468000,0.00041993335,-0.003424792,-0.0019449133,0.28182268,0.1646877,-0.19170102
3480000,3480000,-0.0036034442,-0.0066235852,0.00014775712,-0.314349,-0.29612127,0.18875602
3488000,3488000,-0.00075329887,-0.0065773423,0.0005662502,0.18408065,-0.031894997,0.060947463
3500000,3500000,0.0015612689,-0.00855317,2.6773818e-05,0.09923808,-0.2733468,-0.011595712
3508000,3508000,-0.0019073273,-0.005726916,0.00082152896,-0.24945107,0.23470321,0.04717026
3520000,3520000,0.0010941613,-0.0062075816,0.00092516915,0.16347942,-0.17158064,0.073793724
3524000,3524000,0.00021751873,-0.0062902747,0.0008838692,-0.0010056198,-0.10671027,0.03763371
3536000,3536000,-0.001137214,-0.0038815932,-0.0005117945,0.052604184,0.038008388,-0.16393441
3544000,3544000,-0.000536734,-0.00630744,0.00038157857,0.03251262,-0.17112768,0.054987762
3560000,3560000,0.00042536337,-0.0041875136,0.0001364016,0.11581798,0.010023339,0.09126294
3568000,3568000,-0.0024624807,-0.007651939,-0.0012271476,-0.24012017,-0.24006724,-0.09240382
3580000,3580000,8.670421e-05,-0.005067403,0.00028253734,0.18556441,0.14223266,0.044119477
3588000,3588000,0.00084502145,-0.0035765423,-0.00090797496,0.10745139,0.13608265,-0.074919656
3600000,3600000,-0.00039229097,-0.005492009,-0.0002897893,-0.03750656,0.0373424,0.03679578
3608000,3608000,-0.0015199633,-0.0031942695,-0.0020333729,-0.11465004,0.15014416,-0.1290459
3620000,3620000,-0.001930043,-0.0072719194,0.00021203271,-0.034149513,-0.17960829,0.10744371
3628000,3628000,-0.0008234506,-0.0027357186,0.0015636011,0.0769045,0.3438872,0.15324429
3640000,3640000,-0.0008362765,-0.0035265693,-0.00050191383,0.022824492,-0.04483588,-0.10688998
3648000,3648000,-0.00089350954,-0.003925285,0.0014791626,0.014960382,-0.085377924,0.1379424
3660000,3660000,-0.0041056667,-0.008659854,0.00019344047,-0.20983478,-0.24700043,-0.10244495
3668000,3668000,-0.0026560253,-0.0067969942,-0.00071418885,0.079584286,0.07702798,-0.0989475
3680000,3680000,-0.00323747,-0.0061792606,0.0010232064,-0.049206037,0.015365959,0.1520487
3688000,3688000,-0.0026838554,-0.004121674,-0.0008335304,0.030472096,0.16647938,-0.12871881
3700000,3700000,-0.0014314008,-0.0031924776,0.0017814785,0.04634338,0.17336918,0.22035101
3708000,3708000,-0.0033151926,-0.0055610617,0.0029246302,-0.11544703,-0.16873854,0.16020432
3720000,3720000,-0.0009061828,-0.004987945,-0.0024074889,0.10212418,0.047275852,-0.34018832
3728000,3728000,0.00089934975,-0.0024068719,-0.0012057677,0.16251107,0.20286879,0.009306487
3740000,3740000,-0.002835247,-0.00377757,0.002272911,-0.18343915,-0.015486536,0.2728538
3748000,3748000,-0.0018430017,-0.0021682433,0.0012835918,0.04087293,0.11781397,-0.010064704
3760000,3760000,-0.0007994868,-0.004555209,2.6708312e-05,0.05059287,-0.087480254,-0.111281924
3764000,3764000,-0.0018699687,-0.003956825,9.9908255e-05,-0.086197145,0.014431448,-0.0555787
3776000,3776000,-0.0008719135,-0.009450923,-0.0008502504,0.10874504,-0.37077397,-0.12365024
3784000,3784000,-0.00089952775,-0.0075400644,-0.0016388069,0.017783355,0.06000696,-0.09209463
3796000,3796000,-0.004003472,-0.0041463957,-6.640515e-05,-0.16307935,0.1962863,0.09862423
3804000,3804000,-0.0022213971,-0.0037088885,-0.00024940382,0.082012974,0.11369333,-0.017167328
3820000,3820000,-0.000407062,-0.006270713,-0.0011074966,0.0041696504,-0.07053997,-0.0027372253
3828000,3828000,0.00041212334,-0.0065105716,-2.846009e-06,0.0830734,-0.052564435,0.09512775
3840000,3840000,-0.0017925758,-0.0076382793,-6.620428e-05,-0.040181674,-0.033362933,0.018523207
3848000,3848000,9.88174e-06,-0.00639385,0.0009727998,0.15142275,0.07157563,0.07914688
3860000,3860000,0.0009078226,-0.007979208,-0.00067111955,-0.032982826,-0.13280654,-0.08024296
3868000,3868000,-0.00027871953,-0.0065628085,-0.002953868,-0.09652206,0.10242553,-0.22777176
3880000,3880000,0.00043875302,-0.005686421,0.00073097035,0.012817452,0.030978385,0.22993004
3888000,3888000,-0.0011766255,-0.005838326,-0.0013118016,-0.13271438,-0.017978922,-0.10984564
3900000,3900000,-0.0020552038,-0.006749795,0.00022704258,-0.063730076,-0.09610392,0.15499283
3908000,3908000,-0.0006955298,-0.007841437,0.0014517511,0.0784293,-0.11697312,0.12939619
3920000,3920000,-0.0015744192,-0.0030270289,0.00045114878,-0.03373014,0.36540774,-0.009167448
3928000,3928000,-0.0008732675,-0.0021328595,-0.00040155184,0.05407642,0.15274778,-0.08034788
3940000,3940000,-0.0013442908,-0.0047030156,-0.0008431418,-0.08730696,-0.07452442,-0.022945378
3948000,3948000,-0.0026039004,-0.0045032194,-0.0017740703,-0.09090869,-0.013945295,-0.099997796
3956000,3956000,-0.0013519467,-0.0045384155,-0.0019089394,0.055331886,-0.011325735,-0.025069691
3964000,3964000,-0.0010302013,-0.0032048486,-0.00022596843,0.038153734,0.10774574,0.14949669
3976000,3976000,-0.0025039967,-0.0050913584,-0.0017778912,-0.008359134,-0.11291677,-0.13870391
3984000,3984000,-0.0020783949,-0.008188758,0.0006164354,-0.017751597,-0.28764173,0.171722
3996000,3996000,-0.0014203322,-0.0049366327,-0.0012498394,0.17597833,0.14739221,-0.20724651
4004000,4004000,-0.00014329373,-0.008128062,-0.003550776,0.106402546,-0.22309461,-0.25458384
4020000,4020000,0.00029506645,-0.0031613216,0.0003135693,0.3342109,0.059546556,0.22125757
4028000,4028000,-0.0012652727,-0.00688743,0.0004052211,-0.08434583,-0.2687417,0.053093344
4036000,4036000,-0.0015047983,-0.00477464,-0.00081458804,-0.023609452,0.062287405,-0.07392756
4044000,4044000,-0.0012757655,-0.0042098826,0.0017460026,-0.025157358,0.08092327,0.22214644
4056000,4056000,-0.0012184038,-0.004143311,-0.00020844684,0.052173547,-0.028225556,-0.1749498
4068000,4068000,0.000601106,-0.008176159,-3.6361555e-05,0.13573223,-0.2532427,0.018244691
4080000,4080000,-0.0019489555,-0.0027727543,0.0024859756,-0.19221398,0.294358,0.10461178
4088000,4088000,-0.0016223523,-0.003967652,0.000101140446,-0.0055272505,0.00600849,-0.14940588
4100000,4100000,8.1475664e-05,-0.0038564263,-0.0016886095,0.08970946,-0.034598712,-0.17166139
4104000,4104000,0.0007154376,-0.0054436475,-0.0007962179,0.11927627,-0.19030008,-0.0019666883
4116000,4116000,0.00011990937,-0.006487863,0.0020103133,-0.039256472,-0.13967466,0.14969058
4124000,4124000,0.0015940651,-0.006646246,0.0010367495,0.13361157,-0.020969585,-0.01857968
4140000,4140000,-0.00079764833,-0.0011103281,0.00038987995,-0.23240802,0.3819975,-0.05393416
4148000,4148000,-0.0018549275,-0.004677385,-0.0024840068,-0.15005736,-0.20927899,-0.22487055
4156000,4156000,-0.0014261343,-0.0074486807,0.0011367103,0.008327037,-0.28053337,0.27366945
4168000,4168000,-0.0014115126,-0.0037802826,4.9178387e-05,-0.055755347,0.21724883,-0.16797289
4176000,4176000,0.00012303886,-0.0044020694,-0.00043936004,0.11723064,0.0118047865,-0.07449891
4184000,4184000,-0.0006077636,-0.0051830425,-0.0015561221,-0.060707286,-0.068212755,-0.123432085
4200000,4200000,-0.0007180229,-0.005436248,-0.00019369583,0.10833387,-0.021789752,0.0188386
4208000,4208000,-0.0010774225,-0.0037558055,0.0003655558,-0.026253864,0.15323998,0.047069706
4220000,4220000,-0.0018141707,-0.0033015213,0.0016674515,0.029780515,-0.009738365,0.0921671
4228000,4228000,-0.00042647088,-0.0052969777,-0.0019808768,0.14538656,-0.1877774,-0.19567534
4236000,4236000,0.0021858094,-0.003445462,-0.0021911352,0.2268582,0.16457398,-0.080400385
4248000,4248000,-0.0021816841,-0.0045972615,-0.0021682922,-0.18958445,-0.22639038,0.045707934
4256000,4256000,6.729516e-05,-0.0053221844,-0.0022939448,0.1407953,-0.15040733,-0.022985643
4264000,4264000,-0.00015919644,-0.0047342447,-0.003598472,-0.012030132,0.028611967,-0.12844796
4276000,4276000,-0.0051291827,-0.00078646373,-0.0033354084,-0.2763142,0.18651794,0.059205886
4284000,4284000,-0.0035362586,-0.0015848645,-0.0022472963,0.045735948,-0.017900372,0.11755036
4300000,4300000,0.0003296386,-0.0045569874,0.00017089315,0.22937432,-0.33222577,0.16253622
4308000,4308000,-0.0032800771,-0.0030206281,-0.0028733835,-0.23060194,0.0652073,-0.22338864
4320000,4320000,-0.0006730061,-0.0009039517,-0.00054800673,0.20303637,0.095098,0.26852557
4328000,4328000,0.0008747594,-0.0026307234,0.0011164038,0.16002281,-0.11074385,0.19221798
4340000,4340000,-0.00013704645,-0.004875321,-0.00052634627,0.035807345,-0.25575355,-0.056447867
4348000,4348000,-0.0004626207,-0.0064237686,-0.00016228767,-0.0627408,-0.1762051,0.0035226236
4360000,4360000,-0.00083205506,-0.00036773365,-0.0021554977,0.12611006,0.2696602,-0.10880733
4368000,4368000,0.0015500161,-0.0021037871,0.00038728677,0.21602994,-0.02348357,0.18779728
4380000,4380000,-0.0024197751,-0.0041352725,0.0005039406,-0.23714504,-0.2696479,0.041824527
4388000,4388000,-0.0035346725,-0.0036314197,-0.00086308626,-0.12235549,0.02978033,-0.13518232
4400000,4400000,0.0007934951,-0.0019954715,0.00040845096,0.204041,-1.8517825e-05,0.17947115
4408000,4408000,-0.0019367923,-0.002579396,0.00039839174,-0.18058856,-0.031537898,0.040394735
4420000,4420000,0.001177588,-0.003394026,-0.0013061708,0.18914837,-0.103780836,-0.106996134
4428000,4428000,0.00062410935,-0.003272074,-0.0008238499,0.011166181,-0.0140073225,0.0029400566
4440000,4440000,0.00021630422,-0.0027146006,-0.0032616234,-0.033559218,0.006177018,-0.12287308
4448000,4448000,-0.0014999956,0.00078463135,-0.0016961694,-0.14721957,0.17524701,0.07388046
4460000,4460000,-0.0020126433,-0.0033040666,-0.0008475702,-0.12545072,-0.27000344,0.08869282
4468000,4468000,0.00012848852,-0.0025516534,-0.0013459966,0.16709246,0.00040424633,-0.009592799
4480000,4480000,0.0017861936,-0.0024404405,0.00071219914,0.11042644,-0.0038052222,0.16909158
4488000,4488000,0.002137522,-0.001576344,-0.0033673542,0.032351263,0.07532371,-0.3121455
4500000,4500000,-0.00086505286,-0.0019789813,-0.0016598417,-0.14260554,-0.06025196,0.0822736
4508000,4508000,0.0006417507,-0.003266035,-0.00028378272,0.079515755,-0.10852074,0.13579455
4520000,4520000,0.00055615476,-0.00016242499,-2.6575057e-05,0.030303488,0.14843434,0.029498452
4528000,4528000,0.0019294384,-0.0017391327,-0.0017320416,0.09500288,-0.09259826,-0.12968454
4540000,4540000,0.0008682357,-0.0022246218,-4.7323876e-05,-0.067826584,0.051728748,0.066912316
4548000,4548000,-0.0017241389,-0.0019351579,-0.0030451883,-0.24109772,0.009255644,-0.23055494
4560000,4560000,0.0018950314,-0.0007285755,-0.0012014373,0.26092422,0.1740527,0.12510294
4568000,4568000,-4.8786926e-05,0.00027615298,-0.0016024291,-0.08633356,0.13400696,-0.011867047
4580000,4580000,-0.0045004147,-0.00068007456,-0.0020681617,-0.31498092,-0.12490145,-0.027943807
4588000,4588000,-0.0028475898,-0.00035650143,-0.002971424,0.04671605,0.029898698,-0.08895917
4600000,4600000,-0.001977742,-0.00043136114,-0.0014796205,0.08332789,-0.048011906,0.13848549
4608000,4608000,-0.0010158129,-0.0016275193,0.00069434056,0.091170676,-0.12920664,0.22883196
4620000,4620000,-0.001156952,-0.0030693752,-0.00015284156,-0.028854355,-0.0888137,-0.037460078
4628000,4628000,0.0011627355,-0.002565878,-0.00086548756,0.22350697,0.028746711,-0.056889992
4640000,4640000,-0.0019814342,-2.0374544e-05,-0.0013019901,-0.21707429,0.109752566,-0.14887601
4648000,4648000,-0.0029467707,-0.002566956,-0.0018928244,-0.15536714,-0.15718715,-0.053070847
4660000,4660000,0.0008275815,0.0016158733,-0.0027918476,0.2875104,0.24965148,-0.14340466
4668000,4668000,0.0007788676,-0.00021067448,-0.0028257575,0.080844134,-0.08543836,-0.02344847
4680000,4680000,-0.0020409657,0.00039388658,-0.0010350955,-0.17264934,-0.00021320464,0.14609766
4688000,4688000,-0.00040369085,0.0001874459,-0.00017473905,0.0799409,-0.01290762,0.08849515
4696000,4696000,0.0010245893,0.0014895767,-0.0011797503,0.1342251,0.077575855,-0.03683368
4708000,4708000,0.00012903032,0.0021331739,-0.0028056793,0.024446394,0.10481517,-0.1006377
4720000,4720000,-0.0010626422,-0.0013883933,-0.00043253286,-0.16139814,-0.19915923,0.13793507
4728000,4728000,-0.0016780789,-0.0024184207,0.00042447075,-0.060731262,-0.15918353,0.10410006
4740000,4740000,-8.404249e-05,0.0003239531,0.0020421206,0.087031916,0.21855654,0.16921636
4748000,4748000,-0.0005503716,0.0010545203,0.0001801966,-0.05601395,0.08264415,-0.121750414
4760000,4760000,-0.0001967568,-0.0023449357,0.0013486496,0.07379634,-0.17623232,0.07010159
4768000,4768000,-0.0009930889,-0.00051160203,-0.00088951294,-0.057893224,0.114374146,-0.16206232
4780000,4780000,-0.00028048188,-0.00067079114,0.002469286,0.07484302,-0.087877944,0.27161446
4788000,4788000,-0.00048694294,-0.0014638738,-0.0014001746,-0.010104638,-0.025342891,-0.26835874
4800000,4800000,-0.0009841912,0.00061999215,-0.0012125035,-0.005096283,0.011916616,-0.031019956
4808000,4808000,-0.000532366,-0.0010151244,-0.0012904054,0.028155355,-0.11971309,0.0016556995
4820000,4820000,-0.00048006768,0.00046045426,0.0028834401,0.091762684,0.057782907,0.2794671
4828000,4828000,0.0010023739,-0.0022285585,0.0023026767,0.14321615,-0.23504351,0.036476646
4840000,4840000,-0.0007007871,-0.00339582,-0.0038818708,-0.13411283,-0.046922248,-0.4018458
4848000,4848000,-0.0013547135,-0.001237879,-0.002054424,-0.1102695,0.17023797,0.069582984
4856000,4856000,-0.0028571624,0.00011457782,0.0008337196,-0.1517527,0.17664579,0.20131238
4864000,4864000,-0.0022179019,-8.64733e-07,-0.0014761866,0.009581305,0.025279598,-0.09352715
4880000,4880000,0.0007024315,0.00056781946,-0.0067030336,0.24136953,-0.053374335,-0.4700449
4888000,4888000,-2.1988468e-05,0.0004156297,-0.0026562777,0.006191358,-0.03707271,0.23537293
4900000,4900000,-0.0002813855,0.0028847903,-0.0008949649,-0.023007955,0.18268082,0.096628875
4904000,4904000,-0.00055553275,0.0024262879,-0.0016345868,-0.042579394,0.054878052,-0.024393966
4920000,4920000,0.0005677147,-0.00064873183,0.00020213588,0.20814526,-0.066499054,0.09098652
4928000,4928000,-0.00052846933,0.002323839,0.00012466195,-0.050165407,0.18184547,0.11804322
4940000,4940000,0.0004075775,0.0032535754,-0.0019799252,0.08136807,0.18367632,-0.1238388
4948000,4948000,0.0008463557,0.0044525503,-0.0020879556,0.05766529,0.15837133,-0.022253593
4960000,4960000,-0.00050940365,-0.0002821847,-0.0059736622,-0.101091444,-0.34402537,-0.4332558
4968000,4968000,0.0006031581,-0.0018192423,-0.0047373855,0.08239237,-0.233118,0.024970468
4980000,4980000,-0.0011465733,0.002171685,-0.004609845,-0.18807581,0.26460847,-0.013130345
4988000,4988000,0.0027089939,0.0022004154,-0.0041647432,0.29213622,0.05488397,0.023107445
5000000,5000000,0.0044553312,-0.0015424737,-0.0030372618,0.10126533,-0.26374388,0.06734981
5008000,5008000,0.0016093246,-0.0030606738,-0.0058026123,-0.18209033,-0.20914716,-0.23358124
5020000,5020000,0.0005520736,0.002028251,-0.004208351,-0.1459091,0.40582803,0.21188577
5028000,5028000,-0.0007242074,0.0019349968,-0.0036206986,-0.15217996,0.069842845,0.08568707
5040000,5040000,0.0037180062,0.0034497334,-0.0026610051,0.28581288,0.17927594,0.08367327
5048000,5048000,0.0017247838,0.00058599096,-0.005247242,-0.1022904,-0.19966067,-0.193784
5060000,5060000,0.00049824174,-0.00019577285,-0.002481644,-0.06292021,-0.07975347,0.0970002
5068000,5068000,0.002742021,0.0010370626,-0.0051218974,0.18342718,0.07354067,-0.15608525
5080000,5080000,-0.00035745814,0.0004754397,-0.0010990528,-0.2918271,-0.0064992374,0.11952087
5088000,5088000,-0.0017647387,-0.0002215989,-0.0012294785,-0.19217561,-0.05796452,0.03447961
5100000,5100000,0.0016069022,0.0006466657,-0.0009821651,0.18164167,0.050759003,-0.00019798712
5108000,5108000,0.0023098513,-0.0009776345,-0.0025347113,0.15535721,-0.11334714,-0.117200285
5120000,5120000,0.0016801727,0.00015682634,-0.0016976461,-0.056805145,0.04460953,0.03606893
5128000,5128000,0.0015035516,-0.00028087897,-0.0030691433,-0.06339567,-0.008594851,-0.13399115
5140000,5140000,-0.0028906388,0.004072544,-0.0029314584,-0.24488011,0.29295146,0.048212223
5148000,5148000,7.715053e-05,0.0016915228,-0.004068557,0.19049327,-0.13831526,-0.09293032
5160000,5160000,0.002181338,0.0007882281,-9.274692e-05,0.15542294,-0.08457726,0.33148116
5168000,5168000,0.00095608796,0.0004286184,0.0011362149,-0.07628332,-0.008892436,0.19008133
5180000,5180000,-0.000566398,0.00022329809,-0.0028747618,-0.06595433,-0.0070696464,-0.2729263
5188000,5188000,-0.00042761094,0.0021316183,-0.0013100067,0.014402587,0.147818,0.06463322
5200000,5200000,0.0018598475,0.0030283292,-0.003990122,0.10627981,0.0686671,-0.29669335
5208000,5208000,-6.1594066e-05,-0.0010653869,-0.006285998,-0.12759566,-0.32084072,-0.21808755
5220000,5220000,0.0015850177,0.0036552185,-0.00013679522,0.14633487,0.30007175,0.23367347
5228000,5228000,0.0034138025,0.0012515155,-0.003844791,0.1798164,-0.14149131,-0.22246519
5240000,5240000,-0.00020711892,0.0027532054,-0.00089040666,-0.2377134,0.08398196,0.21241193
5248000,5248000,0.0005573614,0.0028754477,-0.0020716349,0.010991134,0.039160036,-0.048338607
5260000,5260000,0.00028242078,0.00071847346,-0.0029077115,-0.082800835,-0.12770234,-0.012378903
5268000,5268000,-0.0009780333,0.000823088,-0.0040299525,-0.06842679,-0.034162406,-0.09168647
5280000,5280000,0.00076836656,-0.00050156796,-0.0024941242,-0.07397771,-0.10845076,0.090701744
5288000,5288000,0.001334946,-0.0014131591,-0.002283019,0.0601628,-0.10359003,0.051369794
5300000,5300000,-0.0011249261,0.0012268694,-0.003248203,-0.1268742,0.21875504,-0.053172138
5308000,5308000,0.0012898097,0.0025559068,-0.002715586,0.1474862,0.14802907,0.025883337
5320000,5320000,-0.00061237393,0.0018616777,-0.002569941,-0.15761946,-0.006675542,-0.046190258
5328000,5328000,-0.0020056888,-0.00016029505,-0.0019977393,-0.14941142,-0.18841799,0.058869027
5340000,5340000,0.0026023563,0.0030357768,-0.003249468,0.31161863,0.226266,-0.118544854
5348000,5348000,-0.0005941845,-0.00013904646,-0.0044442494,-0.17386611,-0.1935551,-0.122936174
5360000,5360000,-0.000622133,0.00035081664,-0.002337197,-0.06364781,-0.010721094,0.17133692
5368000,5368000,-0.00059633073,0.00051277736,-0.0014740666,0.010938607,-0.01294749,0.11018283
5380000,5380000,0.0016863539,-0.0021377732,0.00032566022,0.113278955,-0.17997587,0.14961997
5388000,5388000,-9.292166e-05,-0.0013165348,-0.0019587893,-0.13628264,0.025117252,-0.16763984
5400000,5400000,0.00074787904,0.000114590395,-0.0036655096,0.085008435,0.046410352,-0.044772275
5408000,5408000,0.00019170996,0.00043054763,-0.0040531456,-0.018044643,0.042339854,-0.051132865
5420000,5420000,0.0019357831,-0.0009016837,-0.002930264,0.09619148,-0.029220916,0.019336995
5428000,5428000,0.0007021219,0.0010324097,-0.0033462448,-0.09877263,0.16355377,-0.028839549
5440000,5440000,-0.00085061206,-0.001990085,0.002752597,-0.05804761,-0.25555712,0.40519926
5448000,5448000,-0.0014010095,0.0018476632,0.00034306245,-0.04298275,0.29232597,-0.079941474
5460000,5460000,0.0030148642,-0.0006760191,0.00061546965,0.3011068,-0.23600236,2.3180226e-05
5468000,5468000,0.0036095032,-0.0013724524,-0.001780919,0.11249974,-0.09955073,-0.18955652
5476000,5476000,0.002336,-0.0016104216,-0.0055820495,-0.066071615,-0.062908225,-0.4013719
5488000,5488000,-0.00052895234,0.0015978487,-0.004315117,-0.183907,0.20969567,0.15466231
5500000,5500000,0.0014043812,0.0004917891,-0.0015159927,0.14453582,-0.01950433,0.17852128
5508000,5508000,0.0031361943,0.00074411323,-0.003948992,0.1806348,0.014019184,-0.16488566
5516000,5516000,0.0019350252,0.00093142595,-0.004419853,-0.05416242,0.0016495967,-0.050072066
5524000,5524000,0.001755502,-0.00021658372,-0.00073657837,-0.012947623,-0.084994934,0.3605631
5536000,5536000,0.0017630185,0.003240473,-0.0006099178,-0.061205894,0.18315774,0.08595237
5544000,5544000,-0.0010789891,-0.0022024945,0.0017860008,-0.2670485,-0.42893374,0.20763059
5556000,5556000,-0.0010463225,-0.0011569974,-0.0012474117,-0.003566198,0.15599266,-0.14216346
5564000,5564000,0.0015054195,0.0007110932,-0.0020219148,0.18966985,0.16979887,-0.11266437
5576000,5576000,0.00387227,0.0010892316,-0.0045498433,0.26292965,0.10163158,-0.2264713
5588000,5588000,0.0007059906,-0.0011133999,-0.0037954785,-0.15305373,-0.037551522,0.043924734
5600000,5600000,0.00050942996,-0.00048426026,3.0873576e-05,-0.011229571,-0.059374444,0.2683356
5608000,5608000,0.0022465421,0.0011877725,-0.00049591926,0.13608694,0.12924573,0.011152701
5620000,5620000,0.00016544876,0.00043937564,-0.0034684953,-0.16177696,-0.02529688,-0.10732355
5628000,5628000,0.0022046177,0.0012975945,-0.0025510134,0.14455682,0.06127026,0.031579375
5640000,5640000,0.0002210493,-0.00023329956,-0.0027982127,-0.123499334,-0.059876643,-0.008218781
5648000,5648000,-0.0010111034,0.0010633515,-0.0005234014,-0.1420966,0.08322559,0.19597004
5660000,5660000,-0.00043151202,-0.0009085955,-0.001939806,0.03926285,-0.1619445,-0.12124622
5668000,5668000,-0.0011467943,-0.0010334672,-0.0028190857,-0.043113053,-0.041776013,-0.11417616
5680000,5680000,0.00077341544,0.00040413905,-0.004090215,0.14091614,0.042287212,-0.09641445
5688000,5688000,-0.00073631504,0.0012586145,-0.0026174826,-0.088974416,0.07384625,0.09210893
5700000,5700000,0.0011701225,0.002728326,-0.0035011168,0.09927117,0.15127072,-0.04453313
5708000,5708000,-0.0012190677,0.0023335954,-0.0006418256,-0.19498484,-0.010672634,0.24552748
5720000,5720000,0.0022797002,0.0021240574,-0.0031225993,0.2512794,0.03343335,-0.13825622
5728000,5728000,0.0008429667,0.0007579643,-0.003212257,-0.02066684,-0.11650498,-0.012534594
5740000,5740000,0.00204033,0.0015555196,-0.0012521464,0.056826785,0.03502021,0.16784614
5748000,5748000,0.0026319544,5.755946e-05,-0.0021537438,0.069216676,-0.11779941,-0.04662977
5760000,5760000,-0.00020600238,0.0026233671,-0.0037387898,-0.18887092,0.18286794,-0.0709634
5768000,5768000,0.00033354794,0.0037805159,-0.0032807952,-0.029339619,0.11796389,0.017111687
5780000,5780000,0.0001764578,-0.0015278067,-0.0026472767,0.046861522,-0.25719613,0.0059658205
5788000,5788000,-0.001094093,-0.0004619928,-0.0037030764,-0.09121992,0.030942636,-0.070688166
5800000,5800000,0.0012694215,0.00010811491,-0.0010417739,0.15004338,-0.020147048,-0.004685555
5808000,5808000,0.0018923404,-0.0002898872,-0.0050093057,0.07986738,-0.04703801,-0.35275656
5820000,5820000,-0.0027571665,0.0013579265,-0.003233178,-0.2685854,0.13001905,0.12908316
5824000,5824000,-0.0016332035,0.0013698889,-0.0026322925,-0.032339767,0.07541348,0.13816981
5836000,5836000,-0.0008989532,0.001196641,-0.001339142,-0.07683525,-0.006748824,0.08889831
5844000,5844000,4.9043098e-05,-0.0001140628,-0.0024502845,0.09479459,-0.13215335,-0.05090752
5860000,5860000,-0.0021073213,0.0011800323,-0.0026933353,-0.22225022,0.038718253,-0.045195755
5868000,5868000,-0.0012263398,0.0024060202,-0.00043472298,0.018692888,0.10915659,0.17510915
5880000,5880000,-0.0007959363,0.0020709247,-0.0027273262,-0.005020907,-0.00843544,-0.15020022
5884000,5884000,0.00012569281,0.0033244267,-0.0025327627,0.09618234,0.12990107,-0.064724624
5896000,5896000,0.00030154537,0.0027119254,-0.0013883223,0.004634373,-0.07413525,0.031156924
5904000,5904000,4.6911533e-05,0.00057511125,-0.003940909,-0.026503911,-0.21463093,-0.18732679
5920000,5920000,7.2874944e-05,-0.0009963186,-0.0015601581,0.20729627,-0.009044991,0.059844922
5928000,5928000,0.0017788815,9.4962306e-05,-0.0022776248,0.15622048,0.07960445,-0.025643954
5940000,5940000,-0.00020382041,-0.00026588235,-0.003098844,-0.07478644,-0.07382198,-0.11788207
5944000,5944000,-0.00017072447,-6.25439e-05,-0.0026993225,-0.039081354,-0.020235995,-0.024272777
5956000,5956000,0.0006443308,0.0015278691,0.0016996423,0.069114126,0.020845931,0.26016432
5968000,5968000,-0.00033680524,-6.818818e-05,-0.0022747386,-0.08301112,-0.06896284,-0.18626757
5980000,5980000,0.0008028052,-0.0014466522,0.0017544308,0.08998727,-0.14658415,0.27706757
5988000,5988000,-0.0011921874,-0.0006047054,-0.0009571177,-0.16487072,0.043290157,-0.18168744
6000000,6000000,-0.00041891728,0.0024638737,-0.002596342,0.0881425,0.25795537,-0.12797791
6008000,6008000,-0.0011773226,0.0027658283,-0.0022019637,-0.047502533,0.04006481,0.02335646
6020000,6020000,0.002332875,-0.0017669848,-0.001836966,0.3061344,-0.29280457,-0.04861845
6028000,6028000,0.002658034,-0.0042578923,-0.0026005092,0.09363187,-0.24803534,-0.079247855
6040000,6040000,0.0031737217,-0.0010033585,-0.001998026,0.08523548,0.10920452,0.078142144
6048000,6048000,0.0013655473,-0.0016903505,-0.001675222,-0.13684677,-0.024961704,0.031674016
6060000,6060000,0.0009716103,-0.0013694814,-0.0032864606,-0.07075002,0.052434076,-0.050471906
6068000,6068000,0.0014250502,0.00050540455,0.0007369007,0.051872402,0.1661028,0.30159
6080000,6080000,0.00039971527,3.6159996e-05,-0.0011902351,-0.14025773,0.011854096,-0.0583712
6088000,6088000,0.00020842184,0.0032632863,-0.0008145871,-0.0473397,0.25546402,-0.00035474004
6100000,6100000,0.0021099518,0.0018079178,-0.0034118474,0.13497965,-0.10491201,-0.16151208
6108000,6108000,0.0005714898,0.0010143034,0.00056882726,-0.1103203,-0.04065923,0.29018113
6120000,6120000,0.0004425156,0.00032945815,-0.000494286,-0.0048019104,-0.115664914,-0.016627772
6128000,6128000,0.0022827832,0.0007770858,-0.0017200473,0.14804548,-0.022309843,-0.119118735
6140000,6140000,-0.0019798803,0.0013308572,-0.0010423752,-0.27126232,0.12808436,0.060282018
6148000,6148000,-0.0022449528,0.0005601272,-0.0003126195,-0.091511525,-0.030763432,0.08669758
6160000,6160000,-0.002995611,-0.00045002298,7.198553e-05,-0.044366866,-0.07088892,0.009517628
6168000,6168000,0.00043569948,-0.00016592536,0.0009791288,0.27891552,-0.003619612,0.06830639
6180000,6180000,0.00028338667,0.001721059,-6.5064756e-05,0.0025713257,0.11143345,-0.06130478
6188000,6188000,0.00144989,0.0010147179,-0.0012351117,0.096793115,-0.026862852,-0.114717945
6200000,6200000,0.0006497318,-0.0023644678,-0.00015784445,-0.035710603,-0.29337987,0.05783761
6208000,6208000,0.0022795366,-0.0011912948,4.963763e-05,0.09824037,0.045670293,0.0022412844
6220000,6220000,0.00013962877,0.00021002628,-0.00039858324,0.017324165,-0.023237767,0.096168414
6228000,6228000,0.00030133338,-0.0026018107,0.0006479875,-0.016728166,-0.1874066,0.099373505
6240000,6240000,0.0020029538,0.003432804,0.002210399,0.18541072,0.30454302,0.16177985
6248000,6248000,0.002794624,0.00081481365,0.001349064,0.10490563,-0.106427856,-0.036081314
6260000,6260000,-0.00058283773,0.0003859559,-0.0016781156,-0.19991672,-0.09506834,-0.19829652
6268000,6268000,0.00041628233,-0.00077762175,-0.0016365121,0.016544282,-0.12216256,-0.06921269
6280000,6280000,-0.0014050298,-0.0004176004,-0.0029054545,-0.076970346,-0.038726423,-0.10277879
6288000,6288000,0.00020102644,-0.0021260148,-0.002786464,0.1235105,-0.11404944,-0.0073742326
6296000,6296000,0.003460209,0.0018902365,-0.0013821153,0.28417125,0.30014533,0.111149766
6308000,6308000,0.00029169896,-0.0010386826,-0.0013822891,-0.14788386,-0.22167847,0.039351027
6320000,6320000,0.0010550241,0.0034395102,-0.00074262853,0.12909557,0.29654512,0.0023072748
6328000,6328000,0.0013846349,-0.0011292035,-8.6446875e-05,0.00011245906,-0.29121518,0.07821232
6340000,6340000,-0.002154858,0.0031745308,-0.0023938788,-0.104154564,0.29053515,-0.16813803
6348000,6348000,0.0010506192,0.002266656,-0.003730033,0.23842861,-0.034596335,-0.15858206
6360000,6360000,0.00022759696,-0.002003605,-0.00043026154,-0.10711602,-0.22420122,0.25351763
6368000,6368000,-1.9724597e-05,0.00085918186,-0.0005926665,-0.013252929,0.18373752,0.062543444
6380000,6380000,0.0028077138,1.3522338e-05,-0.0051158634,0.21564135,-0.15080723,-0.4461811
6388000,6388000,0.0027843278,-0.00076041836,-0.0061722044,0.050342835,-0.088193156,-0.161114
6400000,6400000,0.0009764615,-0.0023448248,-0.00075619353,-0.11307441,-0.08816756,0.31143436
6408000,6408000,0.00084407383,-0.0022222302,0.0028353608,-0.030061826,-0.024088625,0.39926612
6420000,6420000,0.0010657315,0.001173839,-0.0018356375,-0.0049575064,0.18188713,-0.30644238
6428000,6428000,0.0033682582,0.0016255337,-0.0027945233,0.21278661,0.10611315,-0.12596467
6440000,6440000,0.0008869392,0.0012342129,-0.00018891424,-0.155799,0.027302338,0.10692203
6448000,6448000,0.0025101139,-0.00015829969,-0.00028681324,0.080726065,-0.13501371,0.02904096
6460000,6460000,0.0001968363,-0.004991546,-0.0008861064,-0.17081472,-0.24629818,-0.076147065
6468000,6468000,0.0024857565,-0.00085856346,0.003470065,0.18246397,0.27058366,0.33998662
6480000,6480000,0.0011874647,0.0019894494,-0.002201397,-0.15027864,0.23539218,-0.32170057
6484000,6484000,0.00053134817,0.0015363148,-0.0022255352,-0.15618955,0.08550731,-0.18600559
6500000,6500000,-0.0007080968,-0.0010211621,0.00038173958,-0.16203463,-0.11447297,0.097230874
6504000,6504000,-0.0012991609,-0.0014742925,0.0005132323,-0.155901,-0.113961264,0.06956551
6520000,6520000,-0.0007750251,-0.0029208432,-0.0017349769,-0.14529799,-0.07284944,-0.12994927
6528000,6528000,0.00097482605,0.00067010475,-0.0017229975,0.12356911,0.25513387,-0.024469048
6540000,6540000,0.00081828085,0.0006749034,-0.0005142333,-0.07434696,0.08828583,0.06266775
6548000,6548000,0.00021815277,0.0027471194,5.0871517e-05,-0.05052402,0.17955911,0.06393973
6560000,6560000,0.0020153138,-0.0010510096,0.000262468,0.111691706,-0.2766396,0.12211405
6568000,6568000,0.00065941695,0.0003843247,0.0012920896,-0.08846159,0.06278089,0.080778345
6580000,6580000,0.0018289039,0.0013915151,-0.0028112947,0.106710225,-0.05104019,-0.25754076
6588000,6588000,0.00039383373,-0.0021385183,-0.0031703392,-0.085678734,-0.3132768,-0.09048787
6600000,6600000,0.000609425,-0.00275173,-0.000998384,-0.012190717,-0.066636205,0.08688257
6608000,6608000,0.0012348145,0.00074494584,-0.00223662,0.046686094,0.32134882,-0.053067684
6620000,6620000,0.0017643443,-3.1092204e-05,-0.0018162098,0.078968436,-0.110984966,-0.028046915
6628000,6628000,0.00175069,0.0013761534,-0.0030189455,0.016074749,0.09604127,-0.08829888
6640000,6640000,-3.0271476e-05,0.0005411091,-0.0029386529,-0.11047284,-0.0544589,-0.023752563
6648000,6648000,0.00069046987,0.002615008,-0.0008454475,0.033364613,0.18121028,0.1812333
6660000,6660000,-0.00035854382,0.0018334994,0.0025399802,-0.040636934,-0.026898958,0.161782
6668000,6668000,0.00089934014,0.0008613146,-0.002107164,0.06863223,-0.12840739,-0.3446154
6676000,6676000,0.0003453967,0.00077978335,-0.0034467098,-0.0055088494,-0.013493237,-0.18483958
6684000,6684000,0.00064815837,-0.00037760986,-0.003138774,0.0043325685,-0.110349745,-0.05829813
6700000,6700000,0.0015718215,0.000698254,-0.00215693,0.12185298,0.04808136,0.04798342
6708000,6708000,0.0032239945,-0.001563007,-0.001943715,0.1660038,-0.1616796,0.036710832
6720000,6720000,0.00078807754,0.0012615607,-0.002230517,-0.15689328,0.15844193,-0.025924245
6724000,6724000,0.0008048708,0.001385625,-0.0020680376,-0.08764503,0.10366553,0.0026809908
6740000,6740000,-0.00042097305,0.0018051602,-0.0010767207,-0.10816716,0.05925991,0.10855071
6744000,6744000,0.0014251821,0.0009319931,0.00026362017,0.13673168,-0.06005091,0.20593083
6756000,6756000,0.0049412907,0.0012848964,0.0001934329,0.1782498,0.0033000235,-0.07131679
6764000,6764000,0.0024000145,-0.000427383,-0.004780926,-0.1663343,-0.11681132,-0.43109906
6780000,6780000,0.0022309409,-0.00088171614,-0.0012536375,0.047899045,-0.17490701,-0.0966872
6788000,6788000,-7.194502e-05,0.0032973327,-0.0015584662,-0.19760908,0.26739913,-0.019904757
6800000,6800000,0.001223933,0.00073925126,-0.004938038,0.13227025,-0.05664537,-0.24773335
6804000,6804000,0.0009668305,0.00053497544,-0.003624456,0.047781307,-0.054248247,-7.347857e-05
6820000,6820000,0.0020830063,-0.0021428075,0.0017387136,-0.075217955,-0.09371381,0.235894
6828000,6828000,0.000116031035,-0.0001682858,0.00091413665,-0.1654456,0.15253703,-0.030309198
6840000,6840000,0.00041259185,0.00074277446,-0.0035385103,0.0013384484,0.104276046,-0.2319392
6848000,6848000,0.003255573,-0.0013173274,-0.0017224922,0.2506107,-0.16098957,0.0668517
6860000,6860000,0.003283766,0.0007028207,-0.0027293453,0.0071297884,0.11568029,-0.035117406
6868000,6868000,5.4509263e-05,0.0032332966,-0.00029425137,-0.27811527,0.23477066,0.18630314
6880000,6880000,7.382373e-05,-0.0016729007,-0.0012095908,-0.0639234,-0.22860792,-0.074086286
6888000,6888000,0.00023461191,0.00096155005,-0.0026030063,0.011468697,0.12603034,-0.14162692
6900000,6900000,0.0005426605,-0.0013542632,-0.0022555068,-0.019015498,-0.052841157,0.082959965
6908000,6908000,0.00017530087,0.0003670929,-0.002548013,-0.02375257,0.10317245,-0.04883355
6920000,6920000,0.0041999053,0.0014418829,-0.00216976,0.23841,0.15428035,0.03985633
6928000,6928000,0.0025552642,0.002951916,-0.0014748811,-0.0931371,0.13569795,0.11040999
6940000,6940000,0.0027046143,-0.00080932723,-0.0033452744,0.09854767,-0.20044781,-0.22264968
6948000,6948000,0.0004049854,0.0008168877,-0.0031040593,-0.20073284,0.108119786,-0.15110971
6960000,6960000,0.0005725654,0.00090971636,0.0020560431,0.10616852,-0.049487513,0.38206404
6968000,6968000,0.0022403246,0.0011962489,0.0016036157,0.13775823,0.039562788,0.045452848
6976000,6976000,0.00073782937,0.00064047007,-0.00040696643,-0.062474445,-0.05009458,-0.13800976
6988000,6988000,0.0013047832,0.0007895366,0.0007612494,0.043135203,0.021553226,0.022804357
7000000,7000000,0.0009605442,-0.0010082312,-0.0033594698,-0.07096856,-0.07906516,-0.2967836
7008000,7008000,0.00034934212,0.0021692647,-0.0037030743,-0.04468132,0.23967484,-0.082172036
7020000,7020000,0.00026594405,2.7548987e-05,0.00013366964,-0.05113042,-0.035144534,0.24719566
7028000,7028000,0.0011317729,5.0934963e-05,-0.0007615391,0.067926444,-0.047869947,-0.03447535
7036000,7036000,0.002785282,0.0003251722,-0.0032003394,0.14502925,0.042008214,-0.17113973
7044000,7044000,0.0017617472,0.0019187673,-0.00065476086,-0.042105593,0.121862926,0.14914958
7056000,7056000,-0.0001383262,0.0016199313,0.0011968957,-0.1458877,0.0787343,0.19186541
7068000,7068000,0.0024896315,0.00059017586,0.00032972335,0.19113106,-0.10170288,-0.045184437
7080000,7080000,0.0015416634,-0.0022219517,0.002030141,-0.16525067,-0.29080117,0.094449095
7088000,7088000,-0.0011978257,-0.001141232,-0.0008555654,-0.2660452,0.05317754,-0.20492542
7100000,7100000,-0.0027037794,-0.00024003629,0.0012858051,-0.118044786,-0.09129076,0.0828357
7108000,7108000,0.00071650447,-0.0034845634,-0.0013423666,0.26368114,-0.28820413,-0.20093927
7116000,7116000,0.0018093957,-0.0047163065,-0.0007061485,0.12902127,-0.18725978,0.01267999
7128000,7128000,0.001216994,0.0009072684,-0.0021701893,0.019192526,0.2744663,-0.11826234
7140000,7140000,-6.4493855e-05,6.799074e-05,0.0014236523,-0.0866805,-0.029306673,0.19075692
7148000,7148000,0.00034587225,-0.00029133866,-0.0018354706,-0.0012850547,-0.019741308,-0.22771817
7160000,7160000,0.0007922808,-0.0008011977,-0.0011045609,0.042703457,-0.06610247,0.084474735
7168000,7168000,5.5844197e-05,0.0025131782,0.00049354654,-0.03780862,0.29417843,0.13308749
7180000,7180000,0.0003423508,0.00077996356,-0.0024075545,-0.0404822,-0.22458939,-0.20413801
7188000,7188000,0.00040075276,-0.00018820167,-0.0032347392,0.026487328,-0.11390968,-0.066198535
7200000,7200000,0.0011815813,0.001160644,-0.00027405538,0.06056888,0.09172596,0.06740084
7204000,7204000,0.0027744202,0.000610068,-0.0010498656,0.20571017,-0.0068730405,-0.04494685
7220000,7220000,0.0016302085,-0.0007243515,0.000632669,-0.07059573,0.06788333,0.09241907
7228000,7228000,0.0017062501,0.0024151844,-0.0012862094,-0.023500962,0.28527144,-0.15494932
7240000,7240000,-0.00133113,-0.00022903178,-0.0021073597,-0.17136097,-0.19589424,-0.050012913
7248000,7248000,-0.0021016025,-0.00070955,0.00019714766,-0.1409628,-0.07734229,0.18875961
7260000,7260000,0.00044701702,0.001070796,-0.0016308299,0.14513297,0.043060496,-0.090725034
7268000,7268000,-0.0015702196,-7.816125e-06,-0.0028834643,-0.10411093,-0.042814765,-0.1301382
7280000,7280000,-0.002384385,-0.0005084546,-0.00077527435,-0.07341733,-0.076437354,0.12042643
7284000,7284000,-0.0009050141,-0.0010572695,-0.0014175918,0.11712636,-0.102558926,-0.00036920042
7296000,7296000,0.0020871493,0.002411119,-0.0033060473,0.16738027,0.15823872,-0.10943546
7304000,7304000,0.002007447,0.00048105046,-0.002147225,0.050866917,-0.081242345,0.0772459
7316000,7316000,9.6598174e-05,0.004404785,-0.0028887421,-0.10057987,0.24874936,-0.007763199
7324000,7324000,0.0027127285,0.0023584757,-0.00097446184,0.19017743,-0.14675397,0.16540289
7336000,7336000,0.0018705267,-0.0013493388,-0.0032507605,-0.06314838,-0.20434627,-0.16670784
7344000,7344000,0.0011642565,-0.00050772773,-0.0031368884,-0.07157011,0.015808009,-0.037230298
7356000,7356000,-0.00014999369,-0.0020782962,0.00041987328,-0.10704769,-0.08541492,0.25315246
7368000,7368000,-0.0020709895,0.0020705215,0.00073687575,-0.20875822,0.24832669,0.038905207
7380000,7380000,0.0005893654,0.0051466664,0.0017891009,0.19203295,0.26305285,0.0139529975
7388000,7388000,0.0016497017,0.0015836961,-0.0022318503,0.14153592,-0.26234448,-0.31857914
7400000,7400000,0.0013961798,0.0002542357,-0.0026523215,0.022988223,0.017614365,0.030320838
7408000,7408000,-0.0010058803,0.0003794534,-0.0003669186,-0.20155308,-0.038879473,0.18650904
7416000,7416000,-0.00228932,0.00046719704,5.5263168e-05,-0.16718104,0.032218438,0.084513605
7424000,7424000,-0.00027313852,-0.00017174007,-0.0024003128,0.14002845,-0.07216855,-0.19391663
7436000,7436000,0.0031206245,0.00040098839,-0.00214907,0.24335873,0.08190645,0.07528132
7444000,7444000,0.005067406,-0.00042477716,-0.001298014,0.21415864,-0.07124136,0.08295472
7456000,7456000,0.002062275,-0.0014181999,-0.00064202526,-0.15947565,-0.15008628,0.023595216
7468000,7468000,0.0033389954,-0.00017366745,-0.0008654991,0.05005965,0.1277799,0.004833073
7480000,7480000,0.00077491335,0.0013181283,-0.0019295143,-0.14734171,0.1543118,-0.10355382
7488000,7488000,0.0025550886,0.0036015017,-5.1465002e-05,0.11065377,0.21685506,0.15162274
7500000,7500000,0.0010852844,0.0019258414,0.00077386043,-0.11302833,-0.009575883,0.09178498
7508000,7508000,0.0010662356,0.0030697852,0.0010474715,-0.024050426,0.0632825,0.012990185
7516000,7516000,0.003066474,0.0013965173,-0.00047329205,0.13691275,-0.09959552,-0.10353266
7524000,7524000,0.00015385437,-0.0008698441,-0.00018840225,-0.20845377,-0.2576913,-0.00015217143
7536000,7536000,0.0012045403,-0.002749106,0.00033593882,0.09237863,-0.09658862,0.041759368
7544000,7544000,-0.0027207744,-0.0011000503,-0.0010321485,-0.3154223,0.09238668,-0.12375606
7556000,7556000,0.0009858607,0.0005656737,-0.0014230682,0.2514704,0.041053683,0.037471116
7564000,7564000,0.0003651966,-0.0019819555,0.000861281,0.011226252,-0.1576138,0.18222986
7576000,7576000,-0.0026407458,-0.0021532974,-0.0007926198,-0.13364087,-0.06028716,-0.108630426
7588000,7588000,-0.00020816631,0.0009001782,-0.0010101576,0.046430465,0.2699531,0.038441945
7600000,7600000,0.00071757403,-0.0008779345,-0.00020177936,0.008407772,-0.12674694,0.025906937
7608000,7608000,-0.002088816,-0.0020558527,-0.00034252965,-0.21606693,-0.14411464,-0.028013827
7620000,7620000,0.00051812315,-0.0017577801,2.4009147e-05,0.08622826,0.09970317,0.12543838
7628000,7628000,0.00029701972,0.00090965955,-0.0010856618,0.023638066,0.27308697,-0.10606559
7636000,7636000,0.0018865555,0.0011200029,-0.0025130447,0.14601937,0.04253553,-0.106547676
7644000,7644000,3.60735e-05,-0.002844653,-0.00065235316,-0.14922516,-0.29799145,0.09872736
7660000,7660000,0.003897716,-0.0020646565,-0.0022607213,0.29210794,0.043617547,0.0075205127
7668000,7668000,0.0019421267,-0.0001544999,-0.00078261906,-0.06904842,0.19525816,0.13224633
7680000,7680000,-0.003623688,-0.00026977388,-0.0017995599,-0.5048092,-0.060426038,-0.13151337
7688000,7688000,-0.0034937921,-0.0022698157,-0.0012968946,-0.095747665,-0.15733203,0.02026661
7700000,7700000,-0.001487965,0.0014706189,-0.0017611189,0.07718982,0.24822068,-0.0772372
7708000,7708000,-0.0014483824,0.0012087142,-0.0024349832,0.057761688,0.03639517,-0.073016256
7720000,7720000,0.00028541288,0.0027800351,-0.0040930994,0.08614569,0.113063306,-0.086824216
7728000,7728000,0.00030485075,0.0021224217,-0.002911716,0.042214397,-0.0006184149,0.07818787
7740000,7740000,0.0018408976,-0.0005263486,-0.0025914737,0.10166028,-0.19481201,-0.02471644
7748000,7748000,0.0020715836,-0.00028110528,-0.0028485334,0.03579816,-0.05073913,-0.027931793
7760000,7760000,-0.00032005366,0.0018931623,0.0011486127,-0.21653087,0.16186178,0.24149418
7768000,7768000,-0.0001841035,-0.0014782976,-0.0017350398,0.004532978,-0.23526171,-0.18186295
7780000,7780000,0.0014241391,0.0010417844,-0.005703866,0.004700005,0.121177666,-0.22495194
7788000,7788000,0.000652467,0.0011930717,-0.00471992,-0.049727224,0.038877763,0.03683676
7796000,7796000,0.0011254936,0.0006482797,8.026685e-05,0.022193985,-0.020812526,0.400471
7808000,7808000,-0.0005279253,-0.0024908287,-0.0026399244,-0.11586593,-0.18762869,-0.17150384
7816000,7816000,-0.001846032,0.00053347973,-0.0011575805,-0.13847926,0.19083576,0.12136697
7828000,7828000,-0.0010492208,0.00018676929,-0.0019141193,0.092307925,-0.016881878,-0.087611616
7840000,7840000,0.00075193535,0.0022626338,-0.0015662294,-0.018206969,0.13373215,0.022450307
7848000,7848000,0.0023148353,0.003310788,-0.00040864616,0.17713001,0.13531789,0.096927054
7860000,7860000,-0.0016150486,0.0006791502,-0.00063184794,-0.3359,-0.1592308,-0.08275785
7868000,7868000,0.0008295607,0.0013818862,-0.0017732601,0.12803833,0.0048572123,-0.0954301
7880000,7880000,-0.00085374736,0.0022092855,4.612375e-06,-0.12914276,0.062085927,0.08749513
7888000,7888000,-0.0011204258,-0.0002699839,-0.00064293947,-0.057173777,-0.21391293,-0.025170429
7900000,7900000,0.00070197124,-0.0024846941,0.0037566985,0.12269686,-0.11121517,0.34980375
7908000,7908000,0.00084585906,-0.002582183,0.00012937177,0.04223161,-0.033036064,-0.23712188
7920000,7920000,0.00034667528,0.0019783261,-0.0016026036,0.017774433,0.29206485,-0.055696953
7928000,7928000,0.00039205176,0.0027426397,-0.0014382883,-0.0027749743,0.1339103,0.0026452956
7940000,7940000,0.0008044985,-0.00032097427,-0.0015585521,0.04956001,-0.16143478,0.024235055
7948000,7948000,0.0012272946,0.0007433519,0.0009354996,0.046443064,0.058130465,0.18079092
7960000,7960000,0.00019184814,-0.001559135,-0.00082063704,-0.13517705,-0.21095328,-0.021549188
7968000,7968000,-0.0010772303,-0.0009899763,7.792638e-05,-0.11837876,0.008513547,0.053440835
7980000,7980000,0.0012900634,-0.0008329516,-0.0025811403,0.049034648,0.019008633,-0.20151587
7988000,7988000,0.002555801,0.0013985657,-0.0012434855,0.15531659,0.22498317,0.071697615
8000000,8000000,0.0034227283,0.0011951053,-0.001906011,0.12109067,-0.117122255,-0.06810901
8008000,8008000,0.0029479025,0.0012682928,-0.002936228,-0.04843811,0.03752823,-0.07801393
8020000,8020000,-0.00043951464,0.0005000159,0.0020245698,-0.1433698,-0.19723727,0.2593662
8028000,8028000,0.0017748874,0.0023660536,-0.0008483187,0.1453429,0.12986358,-0.15740427
8040000,8040000,0.0014311417,-0.0023672162,-0.0019893455,-0.08817935,-0.32731974,-0.102059335
8048000,8048000,-6.875186e-05,0.0006256015,-0.0028159933,-0.108323574,0.1605816,-0.10982536
8060000,8060000,0.0026285707,-0.0019013006,0.0018675937,0.07300234,-0.14612179,0.2963115
8068000,8068000,-0.0002835322,0.0014330153,-0.00123091,-0.22234109,0.23533937,-0.13716927
8080000,8080000,-0.00037403242,0.00030949386,-0.0009091817,0.024261333,-0.072073296,-0.08496311
8088000,8088000,-9.483495e-05,0.00037274696,-0.0048776115,0.03720642,-0.008690554,-0.35410082
8100000,8100000,0.0013898623,-0.00074533746,-0.0014690778,0.05538413,-0.18423282,0.106040336
8108000,8108000,0.0013706058,-0.0020766603,-0.0052015134,0.018495012,-0.13140075,-0.27115175
8120000,8120000,0.0013962486,-0.00093852356,-0.0022111125,0.011517936,0.0022540968,0.20810595
8128000,8128000,0.00050181884,-0.0006659054,-0.0014741973,-0.07245159,0.041527044,0.1242038
8140000,8140000,0.00043439516,0.00024658255,-0.0014081919,-0.10305856,0.010420653,0.06784108
8148000,8148000,0.0010583437,-0.0003012647,0.00032648252,0.051387906,-0.045591462,0.13830324
8160000,8160000,-0.0006485649,0.00079519674,-0.00018834136,-0.15139869,0.07129052,0.05791948
8168000,8168000,-0.0018153978,-0.0007309411,4.740752e-05,-0.13935873,-0.09620258,0.028368616
8180000,8180000,0.0006061075,0.0014837389,-0.0012249746,0.15225267,0.03842578,-0.06833114
8188000,8188000,-9.546522e-05,-0.00039490778,-0.0010804639,-0.030267406,-0.10542391,0.003976742
8200000,8200000,0.00040105009,-0.00031821476,-0.0019535432,0.06297228,-0.062559545,-0.07363188
8208000,8208000,-0.00019477354,0.00057890546,-0.003695616,-0.025226522,0.06381605,-0.13821201
8220000,8220000,0.0009124916,0.0029225517,-0.0017950672,0.093996726,0.25530115,0.0666842
8228000,8228000,0.0003883876,0.0030258466,-0.0027109939,-0.011524012,0.060073026,-0.07769432
8240000,8240000,0.0005194037,-0.0013343086,-0.0019789324,-0.008543918,-0.2072955,0.15073864
8244000,8244000,0.0010060325,-0.00020158384,-0.0019049324,0.04742548,0.003545141,0.09389337
8256000,8256000,0.0009866948,0.0012066797,-0.0010787679,-0.10241177,0.052157376,0.11977776
8268000,8268000,-0.00083009293,0.0031121057,-0.0032758028,-0.051140927,0.110603414,-0.18768029
8280000,8280000,0.0004145212,-0.0004719603,-0.002950837,0.023562718,-0.113100864,-0.010455615
8288000,8288000,0.00073877786,0.00055256067,-0.0021886532,0.03959107,0.03714543,0.061585836
8300000,8300000,0.0014640968,0.0005083708,-0.0030977663,0.073558494,-0.048295356,0.0037193066
8308000,8308000,0.0009450068,0.0019585225,-0.0028671501,-0.029390821,0.13133697,-0.0017457842
8320000,8320000,0.0002530908,0.002122799,-0.001141933,-0.07033417,-0.041873742,0.13830706
8328000,8328000,-0.0015435449,0.0011770106,-0.00087453536,-0.16230358,-0.05569409,0.061071396
8340000,8340000,-0.00066498807,-0.0011252952,-0.0035752796,-0.039718863,-0.19883195,-0.11806843
8348000,8348000,0.0006398144,-0.0010627504,-0.0021701609,0.17469774,-0.065675914,0.033796787
8360000,8360000,0.0021213149,-0.001537533,-0.0018589924,-0.03381343,-0.07415242,0.06766641
8368000,8368000,0.0007565641,-0.0013057245,-0.0034767878,-0.09128162,0.051174637,-0.12324021
8380000,8380000,-0.00010849838,0.0009900075,0.00031726633,-0.18166144,0.067689545,0.29967
8388000,8388000,-0.000770933,0.0015584948,-0.000685306,-0.0869256,0.08373786,-0.004580675
8400000,8400000,6.545603e-05,0.003292837,-0.0014509979,0.008468632,0.059121944,-0.05337947
8408000,8408000,0.0017263438,-0.00011397153,-0.0026049593,0.15356676,-0.23934424,-0.12902604
8420000,8420000,-0.00095003913,0.0015758332,0.0010115933,-0.19072935,0.0034025372,0.28945008
8428000,8428000,6.827433e-05,0.001354883,-0.00034882512,0.04069251,0.008907107,-0.049509913
8440000,8440000,-0.0020244585,0.00089217257,-0.0050684754,-0.18901151,-0.04798699,-0.3300104
8448000,8448000,-0.00070709037,0.0008735969,-0.0047208425,0.074482985,-0.03656777,-0.06946988
8460000,8460000,0.0023281807,0.001065487,-0.0032294318,0.22946459,0.12410782,0.097896695
8468000,8468000,0.0011426525,0.0014439006,-0.0030892729,-0.07100621,0.006452947,0.051957477
8480000,8480000,-0.0012034308,-0.0013056337,-0.00037858041,-0.121035054,-0.10598363,0.18374619
8488000,8488000,-0.001736888,-0.00063055055,-0.00092447246,-0.071708046,0.027352396,0.024539132
8500000,8500000,0.0006143878,0.0008685724,-0.0012231822,0.052020743,0.12521653,-0.049253445
8508000,8508000,-0.00075243553,0.002697998,-0.00068057445,-0.0564441,0.19862825,0.035301246
8520000,8520000,0.004095359,0.0021473896,-0.0011802578,0.22955824,-0.043555215,-0.049779914
8528000,8528000,0.0015681179,0.00056821713,-0.0017113421,-0.11891283,-0.13497631,-0.05068731
8536000,8536000,0.0036204166,0.002474504,-0.0028337776,0.15240541,0.12904121,-0.12717235
8544000,8544000,0.0030826065,0.0023605619,-0.0026538544,-0.037490025,0.007257074,-0.0035258492
8556000,8556000,0.0007967844,0.0001958604,-0.0050852075,-0.0793702,-0.12868632,-0.1757167
8564000,8564000,0.002307903,0.00055134343,-0.0030502966,0.100620955,0.011487069,0.13178165
8576000,8576000,0.00046011613,-0.0011888007,-0.0016283675,-0.0949077,-0.15250263,0.040716242
8584000,8584000,0.002716118,0.000770587,-0.0028858245,0.15912838,0.121105306,-0.07402389
8596000,8596000,0.0015832887,-0.0006068605,-0.0037400653,-0.08986912,-0.07366723,-0.10008192
8604000,8604000,0.0002485878,-0.0006259624,-0.0032971743,-0.1294415,-0.027576411,0.01973198
8616000,8616000,0.0006158293,-0.0020510685,-0.003491209,0.006986685,-0.14171219,-0.03155318
8624000,8624000,-0.001977168,0.0016944245,-0.002549835,-0.21441764,0.302708,0.061958585
8636000,8636000,0.00093037484,0.0013515777,-9.1632246e-05,0.18354258,0.010827691,0.14018638
8644000,8644000,0.0024154643,0.00073665334,0.00019667333,0.16907139,-0.04820982,0.063088626
8656000,8656000,0.00042625942,0.001756202,-0.0016586207,-0.1485066,0.12070486,-0.13353983
8664000,8664000,-0.0002600199,0.0015094625,-0.0024116272,-0.07715464,0.006848724,-0.08865643
8680000,8680000,-0.0002659615,0.00028804177,-0.0010185624,-0.10978126,-0.06404908,0.09053955
8688000,8688000,-0.00064808724,-0.0006234753,-0.0026697926,-0.0144599825,-0.084072776,-0.15072992
8700000,8700000,0.0017541546,0.0026168956,-0.0018356799,0.068223044,0.14943649,0.15296617
8708000,8708000,0.0005178414,0.0012456146,0.00022823771,-0.05977616,-0.061688893,0.20561653
8716000,8716000,0.00024660275,0.0015570563,7.6545286e-05,-0.057263456,0.0002110747,0.054561935
8724000,8724000,-0.0016290359,-0.0011281637,-0.0015437687,-0.16084659,-0.21444798,-0.14110918
8736000,8736000,0.0020926287,0.00089671975,-0.0012716039,0.2067942,0.1112643,0.040399298
8744000,8744000,0.0023181308,0.0023539688,-0.0008978468,0.09212626,0.14661905,0.038543705
8760000,8760000,0.0012486192,0.00040872768,-0.0018916638,-0.035220575,-0.05190912,-0.024985177
8764000,8764000,0.00085875764,0.0012647831,-0.001977703,-0.061977677,0.06240288,-0.023491215
8780000,8780000,0.0009151759,0.0006490615,-0.0029020007,-0.06257419,0.06944796,-0.064450696
8784000,8784000,0.0005607997,0.0010348056,-0.0011968779,-0.07375932,0.08104928,0.14649944
8796000,8796000,0.0020907198,-0.0011295904,-0.00159932,0.06595079,-0.13948655,-0.07398128
8804000,8804000,0.0011937364,0.00083974656,-0.0019074788,-0.028904824,0.13400868,-0.033173513
8816000,8816000,0.00033981598,-0.0008400581,-0.00056582026,-0.12696892,-0.16624421,0.049873255
8824000,8824000,0.0010656388,-0.0018894491,-0.0013234374,0.04113317,-0.10944394,-0.009002646
8836000,8836000,-0.0021760918,-0.0021477137,-0.0014647256,-0.27827275,-0.071875736,-0.13903534
8844000,8844000,-0.0017770724,-0.0023977156,-0.002596972,-0.015905261,-0.048852574,-0.12350721
8856000,8856000,0.0019081249,-0.00097381,-0.002087356,0.20916173,0.07923055,0.02026974
8864000,8864000,0.0015742439,-0.0028768047,-0.0032137386,0.014728315,-0.13187231,-0.0892125
8876000,8876000,-8.504186e-05,0.001309929,-0.0007619229,-0.0053598583,0.22569057,0.18951432
8884000,8884000,0.0016248364,0.00024504866,0.00016750523,0.11435578,0.0059196004,0.10939337
8896000,8896000,-0.001385625,-7.999828e-05,-0.0042515965,-0.1801113,-0.1269511,-0.21768226
8904000,8904000,0.00044899073,0.0015489832,-0.0033334228,0.0931033,0.1255651,0.009675922
8916000,8916000,-0.0007368843,0.00055432646,-0.00014845142,-0.01594045,-0.13424379,0.24028724
8924000,8924000,0.0005271688,0.0005380935,0.00080712046,0.06649515,-0.008363727,0.14498718
8940000,8940000,-0.0005007279,-0.0012329533,-0.00039762817,-0.07191959,-0.040680476,0.06717743
8948000,8948000,-0.00052370806,0.00096212747,-0.0027607924,-0.021517793,0.1789808,-0.20001195
8960000,8960000,0.0009953988,0.0002932581,-0.0019924792,0.081465,-0.059349123,0.11120258
8964000,8964000,0.0011521332,0.0011031241,-0.0017933764,0.06328955,0.053197257,0.08479709
8980000,8980000,-0.0005740798,0.0006179805,4.5597204e-05,-0.082065836,-0.058238525,0.27916846
8988000,8988000,-0.00096212374,0.00091143884,-0.003521666,-0.06795324,0.015097693,-0.22732039
9000000,9000000,0.00020526152,0.0022508972,-0.0014840836,0.15572967,0.055713482,0.116490215
9004000,9004000,0.0013218132,-0.00012849597,-0.0019462159,0.20877904,-0.22394273,0.016750641
9020000,9020000,-0.00033402734,-0.00025083032,-0.0032068067,-0.21355289,0.28726202,-0.13914311
9028000,9028000,-0.0013483868,0.0025659124,-0.0039891005,-0.1444896,0.2916003,-0.07228278
9040000,9040000,0.0016616503,0.00026643882,-0.0015841667,0.22217128,-0.103700384,0.10654433
9048000,9048000,0.0021393825,-0.0007268698,-0.0019114148,0.11345599,-0.09925588,0.0028470831
9060000,9060000,-0.00018847489,0.0044884966,-0.0017381592,-0.16344365,0.3303415,0.06397603
9068000,9068000,-0.0016825725,0.0018010556,-0.0013848101,-0.17387065,-0.18190771,0.021459289
9080000,9080000,0.0013716576,-0.0023917877,-0.0026186474,0.20301062,-0.17320895,-0.056352176
9088000,9088000,0.0022657516,0.00044838665,-0.0016900643,0.14557174,0.17521992,0.082430966
9100000,9100000,0.0033335781,-0.00012584822,-0.0009529047,-0.07946245,0.029488413,0.01244174
9108000,9108000,-0.0019932904,0.00080414023,-0.0015295764,-0.40358004,0.076649554,-0.0519791
9120000,9120000,-0.0026502442,-0.0012322622,-0.002481652,-0.16777605,-0.10595032,-0.039610546
9128000,9128000,5.8216974e-06,0.0010697762,-0.0027305228,0.17944828,0.15121041,-0.016374517
9140000,9140000,-0.00019708113,-0.0002870229,-0.0019941782,-0.01828815,-0.035375975,0.05367461
9148000,9148000,-0.00014830555,0.0015690448,-0.00057713495,-0.0028074668,0.1404139,0.12272768
9160000,9160000,0.0019938936,0.001317326,-0.00021733285,0.21269456,0.018995902,0.07549201
9168000,9168000,0.0019765184,-0.00091514783,-0.0006325565,0.056641743,-0.20257749,-0.012055097
9180000,9180000,0.001693144,-9.547081e-05,-0.00057648355,-0.07435462,0.11929168,0.029237848
9188000,9188000,0.0004231226,0.0018086231,-0.0013461366,-0.12590407,0.16478519,-0.13262081
9196000,9196000,-0.0013853433,0.0011443188,-0.0023116753,-0.19869262,0.033657797,-0.09801878
9204000,9204000,-0.0017820434,0.0038162498,-0.0016840158,-0.06348015,0.22107768,0.034717385
9220000,9220000,-0.0022717353,0.0018933779,-0.0014577692,-0.05870666,-0.006686636,0.027856402
9228000,9228000,-0.00016546773,-0.0004862761,-0.0004859133,0.14613895,-0.23027258,0.097385176
9240000,9240000,0.0011847798,0.00092830183,-0.00242765,0.072475955,0.1377797,-0.117669255
9248000,9248000,0.0010259316,0.0032665443,-0.0019470027,-0.0050581284,0.22936389,0.016635496
9260000,9260000,-0.0015510859,-0.0008053258,-0.0012089391,-0.15327592,-0.27171773,0.022112278
9268000,9268000,0.00031497166,-0.0005383375,-0.0012133277,0.14122841,-0.042254664,-0.005433607
9280000,9280000,-0.00049912406,0.0023130965,-0.00062907574,-0.15171225,0.23901902,0.062656246
9288000,9288000,-0.00054495153,0.0020592443,3.2094424e-05,-0.02749239,0.0108205965,0.074191526
9300000,9300000,0.000450899,0.0010601771,-0.0011364378,0.064852275,-0.002716116,-0.03490889
9308000,9308000,0.00011620752,0.0014597848,0.0011286484,-0.016931659,-0.003034043,0.14604492
9320000,9320000,0.0006677328,0.0035405615,-0.005100196,0.11297815,0.15341346,-0.39232695
9328000,9328000,0.00039316923,-0.0013162848,-0.0029155267,-0.028959043,-0.39311498,0.08946697
9340000,9340000,-0.0025110526,-0.0016291649,0.00024299731,-0.14142345,-0.01921782,0.13725126
9348000,9348000,-0.00040842756,-0.0018241121,-0.0040227594,0.13934623,-0.008997861,-0.29727504
9360000,9360000,-0.00064481155,-0.0036539463,-0.00019924331,0.013371946,-0.21813479,0.18034649
9368000,9368000,0.00072592,-0.0035973154,-0.003913931,0.10802498,-0.0148823885,-0.25494292
9380000,9380000,0.0011834383,-0.0008200342,-0.0010721722,0.04603362,0.13413584,0.114117935
9388000,9388000,0.00085898436,0.0011136904,-0.0017406472,-0.019995624,0.18660325,0.0040085516
9400000,9400000,-0.00056065817,0.001472231,-0.0011824471,-0.09813894,0.112852216,-0.02084549
9408000,9408000,4.4276705e-05,3.4868717e-05,-0.0020880664,0.028175956,-0.12751117,-0.08723821
9420000,9420000,0.0001800966,0.0022980636,-0.0059741195,0.05792026,0.1438032,-0.24808624
9428000,9428000,0.0025536919,-0.0019706804,-0.0019824798,0.20283055,-0.34511667,0.29440436
9440000,9440000,-0.0001639754,0.0009553423,0.0017397539,-0.16095637,0.24185719,0.21673045
9448000,9448000,0.0015595487,0.0017675608,0.0028338083,0.13100463,0.12856907,0.15277125
9460000,9460000,0.0015637352,-0.001380472,-0.0011479735,-0.012534632,-0.23466985,-0.21879038
9468000,9468000,0.00091877254,-0.0033839783,-0.0020131115,-0.066631205,-0.23343815,-0.15139624
9480000,9480000,0.0029906554,0.0005169017,0.0005724783,0.16578767,0.32891503,0.21239652
9488000,9488000,0.0025525726,0.0020211872,5.148037e-05,-0.015150532,0.19048484,0.0078056413
9500000,9500000,0.00020285253,-0.0027359836,-0.00045906205,-0.11167819,-0.3334748,0.009410566
9508000,9508000,0.00071297743,-0.00050310185,0.0028362155,0.000215929,0.12283538,0.27970892
9520000,9520000,-0.0016241192,0.0026702415,-0.0007634723,-0.1403328,0.13836104,-0.26342022
9528000,9528000,0.00066176325,0.00031330064,-0.003134777,0.14325751,-0.14939062,-0.26077792
9540000,9540000,3.0462514e-05,-0.0021260679,-0.0024148952,0.01701223,-0.22660774,-0.06051534
9548000,9548000,-0.00025422685,-0.001319231,-0.0009920707,-0.024383068,0.0034826153,0.12438087
9560000,9560000,0.0005711119,-0.0022520646,-0.00023511419,0.067343324,-0.059330318,0.10948835
9568000,9568000,-0.002387885,-0.0007233694,0.0009561161,-0.2608406,0.09077829,0.115436
9580000,9580000,0.0014791396,-0.002904823,-0.0012435651,0.34921706,-0.08097567,-0.096475065
9588000,9588000,0.00068009127,0.0028651766,0.00033802667,-0.004898384,0.47617215,0.08260628
9596000,9596000,-0.0005628066,0.0023207432,0.0005083397,-0.07319561,0.05459039,0.054988783
9608000,9608000,0.0016207403,0.0016420621,0.0018056689,0.09479159,0.03896763,0.114742115
9620000,9620000,0.0011799809,0.004653017,8.7446766e-05,0.024339452,0.19248375,-0.17115447
9628000,9628000,0.0005378374,0.0019902373,-0.00080748607,-0.049836643,-0.18032831,-0.111899205
9640000,9640000,4.2173662e-05,0.0016368269,0.0003402629,-0.054714516,-0.06732335,0.01944449
9648000,9648000,-0.0001790598,0.00073256437,-0.0012526957,-0.024400193,-0.10812804,-0.14031076
9660000,9660000,0.0010015683,-0.0019020932,-0.001211771,0.0095240325,-0.13366227,0.05594941
9668000,9668000,-0.0007288089,-0.00048504397,-0.0016602166,-0.121515974,0.09093011,-0.032787606
9680000,9680000,0.002396056,0.0011100434,-0.0019473179,0.2037313,0.0764949,0.03498316
9688000,9688000,0.00054279226,0.0014222153,-0.0013436506,-0.09762588,0.08128734,0.041126225
9700000,9700000,0.0017878835,5.2572228e-05,-0.0011197345,0.026768122,-0.14167929,0.07834917
9704000,9704000,-0.0007075252,-0.0003834255,-0.000663902,-0.25291324,-0.12763125,0.09365635
9720000,9720000,0.00021343137,0.0004127249,-0.002094543,-0.024117216,0.12449546,-0.04560833
9728000,9728000,-0.00030514807,0.0029815377,-0.0021499025,-0.022134636,0.24392629,-0.0046314406
9740000,9740000,0.002767318,0.0013735085,-0.00079905253,0.23442155,-0.06036134,0.07182272
9748000,9748000,0.0023972294,0.0011703512,-0.002927207,-0.0025927275,-0.06824885,-0.15165013
9760000,9760000,0.0010608977,-0.0019378131,-0.0017053771,-0.050070077,-0.08675059,0.039636455
9768000,9768000,0.0017253784,0.0010922551,-0.0008238618,0.045153707,0.20188025,0.086318664
9780000,9780000,-0.00019484456,-0.0017084973,-0.001406475,-0.1913942,-0.18129858,0.010658127
9788000,9788000,2.573966e-05,-0.00089404173,-0.0007601754,-0.020963013,0.023109246,0.034537368
9800000,9800000,0.0028255123,-0.00034859125,0.002520156,0.13646838,0.020353703,0.25395188
9808000,9808000,0.0009533252,-0.0014110175,-4.8496295e-05,-0.105433784,-0.059571337,-0.17834768
9820000,9820000,0.00082558626,0.0035348684,-0.0024703643,-0.034456305,0.34848034,-0.14571032
9828000,9828000,-0.0021439907,0.0041818977,-0.0031524906,-0.27254975,0.1388784,-0.07831001
9840000,9840000,-0.0014937359,0.0013512429,0.0005152164,-0.0049209325,-0.11670551,0.18528509
9848000,9848000,-0.0010617208,0.00040208222,-0.0019134282,0.08913879,-0.12514272,-0.13633986
9860000,9860000,-0.0016241658,-8.466141e-05,0.0017301331,-0.15089066,-0.015451193,0.20247579
9868000,9868000,-0.0016021654,0.0042950353,-0.00011742045,-0.04352888,0.36288667,-0.10364004
9876000,9876000,-0.0020652716,0.0031094856,-0.0038045084,-0.038905185,-0.0002697794,-0.34946114
9884000,9884000,-0.0018727935,0.00068178773,-0.0037806705,0.0064511634,-0.20410572,-0.06388172
9896000,9896000,0.0001458259,0.001547893,-0.001718695,0.06736008,0.037027825,0.09607698
