timestamp,timestamp_sample,gyro_device_id,gyro_bias[0],gyro_bias[1],gyro_bias[2],gyro_bias_limit,gyro_bias_variance[0],gyro_bias_variance[1],gyro_bias_variance[2],accel_device_id,accel_bias[0],accel_bias[1],accel_bias[2],accel_bias_limit,accel_bias_variance[0],accel_bias_variance[1],accel_bias_variance[2],mag_device_id,mag_bias[0],mag_bias[1],mag_bias[2],mag_bias_limit,mag_bias_variance[0],mag_bias_variance[1],mag_bias_variance[2],gyro_bias_valid,gyro_bias_stable,accel_bias_valid,accel_bias_stable,mag_bias_valid,mag_bias_stable
3324000,3324000,1310988,0.0,0.0,0.0,0.15,0.009960121,0.009960121,0.009960038,1310988,0.0,0.0,0.0,0.4,0.039840482,0.039840482,0.039840482,197388,0.0,0.0,0.0,0.5,0.0,0.0,0.0,1,0,1,0,1,0
3644000,3564000,1310988,0.00021381157,-0.00039752308,3.8384194e-05,0.15,0.01015705,0.01016115,0.003240672,1310988,-0.0011886022,0.0019618336,-0.09757906,0.4,0.040918782,0.040923238,0.0045000785,197388,0.0,0.0,0.0,0.5,0.0,0.0,0.0,1,0,1,0,1,0
3700000,3620000,1310988,0.00021630646,-0.0004021571,3.89574e-05,0.15,0.010395246,0.010399451,0.0032885412,1310988,-0.0012024606,0.001984704,-0.098716654,0.4,0.041878417,0.04188298,0.0046056216,197388,0.0,0.0,0.0,0.5,0.0025000002,0.0025000002,0.0025000002,1,0,1,0,1,0
3756000,3676000,1310988,0.0002188928,-0.0004064583,5.4567437e-05,0.15,0.010624895,0.010629193,0.0033603741,1310988,-0.0012161698,0.0020060032,-0.09980109,0.4,0.04280359,0.042808253,0.004707373,197388,0.0,0.0,0.0,0.5,0.0025000002,0.0025000002,0.0025000002,1,0,1,0,1,0
3812000,3732000,1310988,0.0002209482,-0.00041077757,4.062215e-05,0.15,0.010845861,0.01085025,0.0034275472,1310988,-0.0012282735,0.0020272378,-0.10083355,0.4,0.04369378,0.043698546,0.0048052785,197388,0.0,0.0,0.0,0.5,0.0025000002,0.0025000002,0.0025000002,1,0,1,0,1,0
3852000,3772000,1310988,9.104449e-05,-0.00041721124,4.573767e-05,0.15,0.01086033,0.010864709,0.0034754882,1310988,-0.0012293049,0.001370738,-0.10173111,0.4,0.040913228,0.040917378,0.004836351,197388,0.0,0.0,0.0,0.5,0.0025000002,0.0025000002,0.0025000002,1,0,1,0,1,0
3916000,3836000,1310988,9.3236515e-05,-0.00042101566,0.00012655229,0.15,0.011092061,0.011096533,0.0035435264,1310988,-0.0012449473,0.0013827438,-0.102810726,0.4,0.041786212,0.041790448,0.0049395524,197388,0.0,0.0,0.0,0.5,0.0025000002,0.0025000002,0.0025000002,1,0,1,0,1,0
3980000,3900000,1310988,9.178889e-05,-0.00042629472,-2.0999105e-05,0.15,0.0113125285,0.011317091,0.00360406,1310988,-0.0012525908,0.0014010882,-0.103827424,0.4,0.042616762,0.042621084,0.005037739,197388,0.0,0.0,0.0,0.5,0.0025000002,0.0025000002,0.0025000002,1,0,1,0,1,0
4028000,3948000,1310988,-0.00023413812,-0.0007238812,6.382177e-05,0.15,0.010391379,0.010395663,0.0036379024,1310988,-0.00035073818,0.0004882567,-0.10458745,0.4,0.033891506,0.033893976,0.0051003695,197388,0.0,0.0,0.0,0.5,0.0025000002,0.0025000002,0.0025000002,1,0,1,0,1,0
4060000,3980000,1310988,-0.00022421892,-0.00093339366,6.178984e-05,0.15,0.0101224715,0.010126665,0.0036699483,1310988,-0.00027306256,0.0005167595,-0.10559632,0.4,0.03411763,0.034120284,0.005009263,197388,0.0,0.0,0.0,0.5,0.0025000002,0.0025000002,0.0025000002,1,0,1,0,1,0
4140000,4060000,1310988,-0.00022340399,-0.00094284944,0.00024289581,0.15,0.010334898,0.0103391865,0.0037255026,1310988,-0.0002789776,0.00051734265,-0.10669868,0.4,0.03483363,0.034836333,0.0051143956,197388,0.0,0.0,0.0,0.5,0.0025000002,0.0025000002,0.0025000002,1,0,1,0,1,0
4220000,4140000,1310988,-0.00020869687,-0.00095054536,0.0011323958,0.15,0.010532813,0.010537206,0.0037344145,1310988,-0.00029574253,0.00049928774,-0.10771309,0.4,0.03550076,0.035503488,0.005212336,197388,0.0,0.0,0.0,0.5,0.0025000002,0.0025000002,0.0025000002,1,0,1,0,1,0
4236000,4156000,1310988,-0.0004395803,-0.0021722834,0.0011284339,0.15,0.008039752,0.008043326,0.0037459978,1310988,0.00017394524,0.00047217743,-0.107917644,0.4,0.03526405,0.035267316,0.0052307853,197388,0.0,0.0,0.0,0.5,0.0025000002,0.0025000002,0.0025000002,1,0,1,0,1,0
4268000,4188000,1310988,-0.0004490845,-0.0025491875,0.0011301348,0.15,0.007357331,0.0073607187,0.0037718408,1310988,-7.19224e-05,0.00051414256,-0.109379,0.4,0.03524913,0.035252187,0.0049772756,197388,0.0,0.0,0.0,0.5,0.0025000002,0.0025000002,0.0025000002,1,0,1,0,1,0
4364000,4284000,1310988,-0.0004544418,-0.0025738447,0.0010954484,0.15,0.007502044,0.007505521,0.0037553296,1310988,-7.207273e-05,0.0005202066,-0.110449135,0.4,0.03594257,0.035945658,0.0050751846,197388,0.0,0.0,0.0,0.5,0.0025000002,0.0025000002,0.0025000002,1,0,1,0,1,0
4444000,4364000,1310988,-0.0005825863,-0.0040319,0.001060322,0.15,0.003868426,0.0038706847,0.0037520735,1310988,-0.0008630877,0.0006463328,-0.111250035,0.4,0.035324395,0.0353264,0.0051491135,197388,0.0,0.0,0.0,0.5,0.0025000002,0.0025000002,0.0025000002,1,0,1,0,1,0
4476000,4396000,1310988,-0.00055965007,-0.0042313575,0.0010618402,0.15,0.0034149266,0.0034169708,0.0037724848,1310988,-0.001087557,0.0006625675,-0.11307478,0.4,0.03507448,0.035076402,0.004728162,197388,0.0,0.0,0.0,0.5,0.0025000002,0.0025000002,0.0025000002,1,0,1,0,1,0
4596000,4516000,1310988,-0.00055947126,-0.0042759865,0.0013813206,0.15,0.0034798472,0.003481944,0.0037062732,1310988,-0.0011031718,0.0006623375,-0.114139296,0.4,0.035741683,0.035743624,0.004817993,197388,0.0,0.0,0.0,0.5,0.0025000002,0.0025000002,0.0025000002,1,0,1,0,1,0
4676000,4596000,1310988,-0.00061630644,-0.005149066,0.001641297,0.15,0.0013940211,0.0013949726,0.0036683888,1310988,-0.0018929396,0.00074366713,-0.11476852,0.4,0.03432603,0.034327485,0.0048703174,197388,0.0,0.0,0.0,0.5,0.0025000002,0.0025000002,0.0025000002,1,0,1,0,1,0
4684000,4604000,1310988,-0.0006562739,-0.0052351267,0.0016429408,0.15,0.00125745,0.0012582898,0.0036722135,1310988,-0.0020429275,0.00083403423,-0.11669681,0.4,0.034149777,0.034151386,0.004312177,197388,0.0,0.0,0.0,0.5,0.0025000002,0.0025000002,0.0025000002,1,0,1,0,1,0
4828000,4748000,1310988,-0.0006610554,-0.0052818544,0.0017081281,0.15,0.001279488,0.001280346,0.0035584236,1310988,-0.0020621344,0.0008405615,-0.117729396,0.4,0.0347499,0.034751542,0.004387681,197388,0.0,0.0,0.0,0.5,0.0025000002,0.0025000002,0.0025000002,1,0,1,0,1,0
4892000,4812000,1310988,-0.0010548218,-0.0055936575,0.0019762397,0.15,0.0004935162,0.0004937048,0.0034846936,1310988,-0.0024564525,0.001375252,-0.11999705,0.4,0.033834714,0.033836883,0.0038096653,197388,0.0,0.0,0.0,0.5,0.0025000002,0.0025000002,0.0025000002,1,0,1,0,1,0
4924000,4844000,1310988,-0.0010304712,-0.0056272144,0.003290089,0.15,0.0004950688,0.00049526256,0.0033936023,1310988,-0.0024878297,0.0013511081,-0.12018603,0.4,0.03394387,0.03394605,0.0038217753,197388,0.0,0.0,0.0,0.5,0.0025000002,0.0025000002,0.0025000002,1,0,1,0,1,0
5068000,4988000,1310988,-0.0014984163,-0.005611475,0.0018813398,0.15,0.00023509335,0.00023499997,0.003221098,1310988,-0.0024268313,0.0020044767,-0.12097634,0.4,0.033847466,0.03385008,0.003870994,197388,0.0,0.0,0.0,0.5,0.0025000002,0.0025000002,0.0025000002,1,0,1,0,1,0
5100000,5020000,1310988,-0.0015268361,-0.005594792,0.0018846265,0.15,0.00022427185,0.00022415972,0.003229489,1310988,-0.002433215,0.0020837893,-0.12286985,0.4,0.03390107,0.03390394,0.0032940763,197388,0.0,0.0,0.0,0.5,0.0025000002,0.0025000002,0.0025000002,1,0,1,0,1,0
5308000,5228000,1310988,-0.0017411662,-0.005550695,0.0020749262,0.15,0.00011709757,0.00011688311,0.0029342645,1310988,-0.0023423787,0.0024637417,-0.12527338,0.4,0.034093972,0.03409733,0.002814827,197388,0.0,0.0,0.0,0.5,0.0025000002,0.0025000002,0.0025000002,1,0,1,0,1,0
5516000,5436000,1310988,-0.0017920672,-0.00560866,0.0029594472,0.15,6.839546e-05,6.817128e-05,0.0026248,1310988,-0.0024242103,0.0025909715,-0.1272722,0.4,0.0343037,0.034307335,0.0023947686,197388,0.0,0.0,0.0,0.5,0.0025000002,0.0025000002,0.0025000002,1,0,1,0,1,0
5724000,5644000,1310988,-0.0016721109,-0.0056321323,0.0034431394,0.15,4.356184e-05,4.336273e-05,0.0023212042,1310988,-0.002447576,0.0023607323,-0.12900011,0.4,0.03449251,0.03449625,0.0020399208,197388,0.0,0.0,0.0,0.5,0.0025000002,0.0025000002,0.0025000002,1,0,1,0,1,0
5788000,5708000,1310988,-0.0017115824,-0.0056057507,0.0017282884,0.15,4.36126e-05,4.3424712e-05,0.0022234004,1310988,-0.0024132985,0.0023986746,-0.12915052,0.4,0.034571234,0.03457499,0.0020442177,197388,0.0,0.0,0.0,0.5,0.0025000002,0.0025000002,0.0025000002,1,0,1,0,1,0
5932000,5852000,1310988,-0.0016058937,-0.0056057675,0.0010875261,0.15,2.962857e-05,2.945782e-05,0.0020368237,1310988,-0.0024222576,0.0021415483,-0.13047287,0.4,0.03464934,0.034653123,0.0017452737,197388,0.0,0.0,0.0,0.5,0.0025000002,0.0025000002,0.0025000002,1,0,1,0,1,0
6140000,6060000,1310988,-0.0015553792,-0.0056200875,0.0010381739,0.15,2.1234653e-05,2.1075537e-05,0.0018646877,1310988,-0.002442498,0.0020159357,-0.13169605,0.4,0.034774896,0.034778714,0.0015033552,197388,0.0,0.0,0.0,0.5,0.0025000002,0.0025000002,0.0025000002,1,0,1,0,1,0
6348000,6268000,1310988,-0.001537789,-0.0056405426,0.0013024778,0.15,1.5803642e-05,1.566167e-05,0.0016251714,1310988,-0.0024765988,0.0019815648,-0.13273254,0.4,0.03487276,0.03487661,0.0013046409,197388,0.0,0.0,0.0,0.5,0.0025000002,0.0025000002,0.0025000002,1,0,1,0,1,0
6732000,6652000,1310988,-0.0015233842,-0.0055843657,0.0020030811,0.15,9.652335e-06,9.533162e-06,0.0012328002,1310988,-0.002241137,0.001999985,-0.13370721,0.4,0.034995507,0.034999374,0.0011429694,197388,0.0,0.0,0.0,0.5,0.0025000002,0.0025000002,0.0025000002,1,0,1,0,1,0
6940000,6860000,1310988,-0.0015429808,-0.0054858453,0.00054006494,0.15,7.768874e-06,7.659597e-06,0.0010762137,1310988,-0.0019603686,0.0020156333,-0.13426736,0.4,0.035041902,0.03504579,0.0010074228,197388,0.0,0.0,0.0,0.5,0.0025000002,0.0025000002,0.0025000002,1,0,1,0,1,0
7388000,7308000,1310988,-0.0014207514,-0.0054103825,0.0007100611,0.15,5.2681594e-06,5.1863917e-06,0.0008275974,1310988,-0.0015895993,0.0016328025,-0.13521104,0.4,0.035107397,0.03511124,0.0007783701,197388,0.0,0.0,0.0,0.5,0.0025000002,0.0025000002,0.0025000002,1,0,1,0,1,0
8188000,8108000,1310988,-0.0011658159,-0.005446117,0.0015299546,0.15,2.8793936e-06,2.8338716e-06,0.00053141284,1310988,-0.0014051695,0.00062064704,-0.13551836,0.4,0.035147965,0.035151538,0.00078019634,197388,0.0,0.0,0.0,0.5,0.0025000002,0.0025000002,0.0025000002,1,0,1,0,1,0
9188000,9108000,1310988,-0.0011556484,-0.0054144524,0.0009874506,0.15,2.190952e-06,2.1612266e-06,0.0003228617,1310988,-0.0012572918,0.0005221001,-0.13572088,0.4,0.03516551,0.035169072,0.0007809856,197388,0.0,0.0,0.0,0.5,0.0025000002,0.0025000002,0.0025000002,1,0,1,0,1,0
10188000,10108000,1310988,-0.0011648624,-0.0054129506,0.0005963319,0.15,2.1163492e-06,2.0972866e-06,0.00020854556,1310988,-0.001281859,0.00052635383,-0.13576312,0.4,0.03517412,0.035177737,0.0007811794,197388,0.0,0.0,0.0,0.5,0.0025000002,0.0025000002,0.0025000002,1,0,1,0,1,0
11188000,11108000,1310988,-0.0011666495,-0.00540188,0.0002491428,0.15,1.9966906e-06,1.9839167e-06,0.00014164568,1310988,-0.0012472839,0.00050454173,-0.13566452,0.4,0.03517327,0.035176896,0.0007812305,197388,0.0,0.0,0.0,0.5,0.0025000002,0.0025000002,0.0025000002,1,0,1,0,1,0
12188000,12108000,1310988,-0.001128472,-0.0054021804,-1.7420648e-06,0.15,1.6430943e-06,1.6338258e-06,0.00010031232,1310988,-0.0012116283,0.0002468601,-0.1356045,0.4,0.035160862,0.035164457,0.0007812492,197388,0.0,0.0,0.0,0.5,0.0025000002,0.0025000002,0.0025000002,1,0,1,0,1,0
13188000,13108000,1310988,-0.0011063349,-0.005415113,0.00021166673,0.15,1.3265249e-06,1.3195112e-06,7.3627954e-05,1310988,-0.0012470343,0.00013464421,-0.13541447,0.4,0.035147995,0.035151534,0.00078124634,197388,0.0,0.0,0.0,0.5,0.0025000002,0.0025000002,0.0025000002,1,0,1,0,1,0
14188000,14108000,1310988,-0.0011137334,-0.0054154205,0.00052052195,0.15,9.07728e-07,9.024064e-07,5.563992e-05,1310988,-0.0012838171,0.00027479246,-0.13475311,0.4,0.035129447,0.03513295,0.00078124576,197388,0.0,0.0,0.0,0.5,0.0025000002,0.0025000002,0.0025000002,1,0,1,0,1,0
15188000,15108000,1310988,-0.0011155949,-0.005406756,0.0006955396,0.15,7.1091745e-07,7.0683643e-07,4.3036896e-05,1310988,-0.0012747095,0.00039011243,-0.13394919,0.4,0.03511984,0.035123356,0.0007812492,197388,0.0,0.0,0.0,0.5,0.0025000002,0.0025000002,0.0025000002,1,0,1,0,1,0
15596000,15516000,1310988,-0.0011126586,-0.005431326,0.0007370463,0.15,5.708294e-07,5.6720404e-07,3.8794085e-05,1310988,-0.001521531,0.00041914592,-0.13295507,0.4,0.03511228,0.035115913,0.00078124576,197388,0.0,0.0,0.0,0.5,0.0025000002,0.0025000002,0.0025000002,1,0,1,0,1,0
16596000,16516000,1310988,-0.0011120503,-0.005437852,0.0009779207,0.15,4.7591783e-07,4.7306054e-07,3.0852418e-05,1310988,-0.0016331014,0.0005257279,-0.1320033,0.4,0.03510653,0.035110362,0.00078124803,197388,0.0,0.0,0.0,0.5,0.0025000002,0.0025000002,0.0025000002,1,0,1,0,1,0
17196000,17116000,1310988,-0.0011215331,-0.0054494054,0.000912226,0.15,4.0792688e-07,4.0539103e-07,2.7282194e-05,1310988,-0.001856321,0.00068673526,-0.13081023,0.4,0.035101965,0.035106104,0.00078124576,197388,0.0,0.0,0.0,0.5,0.0025000002,0.0025000002,0.0025000002,1,0,1,0,1,0
18196000,18116000,1310988,-0.0011350714,-0.005450035,0.0008621354,0.15,3.6110194e-07,3.5904347e-07,2.1970458e-05,1310988,-0.0019668196,0.0008646833,-0.12989475,0.4,0.035097934,0.035102468,0.0007812481,197388,0.0,0.0,0.0,0.5,0.0025000002,0.0025000002,0.0025000002,1,0,1,0,1,0
18796000,18716000,1310988,-0.001133017,-0.0054564355,0.0009454786,0.15,3.246653e-07,3.2282227e-07,1.9694762e-05,1310988,-0.002142317,0.00097048504,-0.12880121,0.4,0.0350942,0.035099275,0.00078124576,197388,0.0,0.0,0.0,0.5,0.0025000002,0.0025000002,0.0025000002,1,0,1,0,1,0
19596000,19516000,1310988,-0.0011438198,-0.005459762,0.000954734,0.15,2.9803235e-07,2.964302e-07,1.7049846e-05,1310988,-0.0023630224,0.0012219718,-0.1272668,0.4,0.03509062,0.03509628,0.00078124576,197388,0.0,0.0,0.0,0.5,0.0025000002,0.0025000002,0.0025000002,1,0,1,0,1,0
20396000,20316000,1310988,-0.0011101005,-0.0055151144,0.00096022856,0.15,2.7724744e-07,2.7631697e-07,1.4850809e-05,1310988,-0.0031480708,0.0015230246,-0.123715244,0.4,0.035083763,0.035093475,0.00078124576,197388,0.0,0.0,0.0,0.5,0.0025000002,0.0025000002,0.0025000002,1,0,1,0,1,0
20796000,20716000,1310988,-0.001014978,-0.0056155007,0.00095553516,0.15,2.6842926e-07,2.6835664e-07,1.37893485e-05,1310988,-0.0038916438,0.0023121762,-0.11880753,0.4,0.035065264,0.035082508,0.00078124576,197388,0.0,0.0,0.0,0.5,0.0025000002,0.0025000002,0.0025000002,1,0,1,0,1,0
21196000,21116000,1310988,-0.00089017174,-0.0057423464,0.0009442427,0.15,2.6055693e-07,2.6139622e-07,1.2815701e-05,1310988,-0.004897097,0.0034483818,-0.11198184,0.4,0.035030887,0.03505858,0.00078124576,197388,0.0,0.0,0.0,0.5,0.0025000002,0.0025000002,0.0025000002,1,0,1,0,1,0
21596000,21516000,1310988,-0.00075653294,-0.0058783875,0.0009742909,0.15,2.5355874e-07,2.5523417e-07,1.206618e-05,1310988,-0.0064328993,0.0042729964,-0.10405785,0.4,0.034985412,0.0350253,0.00078124576,197388,0.0,0.0,0.0,0.5,0.0025000002,0.0025000002,0.0025000002,1,0,1,0,1,0
21996000,21916000,1310988,-0.0006222631,-0.006013158,0.001007703,0.15,2.4714785e-07,2.4941562e-07,1.12599955e-05,1310988,-0.011526253,0.00076406985,-0.09566171,0.4,0.034943517,0.034996703,0.00078124576,197388,0.0,0.0,0.0,0.5,0.0025000002,0.0025000002,0.0025000002,1,0,1,0,1,0
22396000,22316000,1310988,-0.0005371156,-0.006102257,0.0009832331,0.15,2.415845e-07,2.437607e-07,1.0666015e-05,1310988,-0.019852873,-0.0102403965,-0.08672775,0.4,0.034842327,0.034934636,0.00078124576,197388,0.0,0.0,0.0,0.5,0.0025000002,0.0025000002,0.0025000002,1,0,1,0,1,0
22636000,22556000,1310988,-0.0005346809,-0.0061061056,0.0011434235,0.15,2.4340153e-07,2.4544195e-07,1.0220212e-05,1310988,-0.020043638,-0.011107408,-0.08624518,0.4,0.0348344,0.034924008,0.00078124576,197388,0.0,0.0,0.0,0.5,0.0025000002,0.0025000002,0.0025000002,1,0,1,0,1,0
22796000,22716000,1310988,-0.00046585614,-0.006180323,0.0012087338,0.15,2.3630665e-07,2.3750425e-07,9.983923e-06,1310988,-0.029109973,-0.02636632,-0.07849582,0.4,0.034712914,0.034823295,0.00078124576,197388,0.0,0.0,0.0,0.5,0.0025000002,0.0025000002,0.0025000002,1,0,1,0,1,0
23108000,23028000,1310988,-0.0004647373,-0.00618227,0.0012905983,0.15,2.387167e-07,2.397973e-07,9.578743e-06,1310988,-0.029818326,-0.026748374,-0.0777615,0.4,0.03470868,0.03482153,0.00078124576,197388,0.0,0.0,0.0,0.5,0.0025000002,0.0025000002,0.0025000002,1,0,1,0,1,0
23196000,23116000,1310988,-0.00042360416,-0.0062244,0.0013156824,0.15,2.3102439e-07,2.3185076e-07,9.478922e-06,1310988,-0.0378879,-0.03965218,-0.0715965,0.4,0.034515187,0.034645896,0.00078124576,197388,0.0,0.0,0.0,0.5,0.0025000002,0.0025000002,0.0025000002,1,0,1,0,1,0
23452000,23372000,1310988,-0.0004224193,-0.0062263208,0.0013999817,0.15,2.3298654e-07,2.3371187e-07,9.100598e-06,1310988,-0.038637165,-0.040011875,-0.0709928,0.4,0.034509413,0.03464421,0.00078124576,197388,0.0,0.0,0.0,0.5,0.0025000002,0.0025000002,0.0025000002,1,0,1,0,1,0
23596000,23516000,1310988,-0.00042904384,-0.0062219524,0.0014129006,0.15,2.258673e-07,2.2689326e-07,8.91153e-06,1310988,-0.04375566,-0.041657764,-0.06665103,0.4,0.034276392,0.034420766,0.00078124576,197388,0.0,0.0,0.0,0.5,0.0025000002,0.0025000002,0.0025000002,1,0,1,0,1,0
23932000,23852000,1310988,-0.0004283254,-0.0062232367,0.0014684695,0.15,2.2846474e-07,2.2935876e-07,8.478948e-06,1310988,-0.044521023,-0.042041987,-0.06605023,0.4,0.03426722,0.034418393,0.00078124576,197388,0.0,0.0,0.0,0.5,0.0025000002,0.0025000002,0.0025000002,1,0,1,0,1,0
23996000,23916000,1310988,-0.00048775782,-0.006175676,0.0014328004,0.15,2.2107483e-07,2.2261474e-07,8.454648e-06,1310988,-0.04679926,-0.029517211,-0.0644566,0.4,0.03403119,0.034178395,0.00078124576,197388,0.0,0.0,0.0,0.5,0.0025000002,0.0025000002,0.0025000002,1,0,1,0,1,0
24396000,24316000,1310988,-0.0005906989,-0.006088467,0.0014740817,0.15,2.1684173e-07,2.188138e-07,7.951795e-06,1310988,-0.0509234,-0.0075184694,-0.063272886,0.4,0.033834387,0.03397443,0.00078124576,197388,0.0,0.0,0.0,0.5,0.0025000002,0.0025000002,0.0025000002,1,0,1,0,1,0
24796000,24716000,1310988,-0.00072175707,-0.00595965,0.0015436354,0.15,2.1319012e-07,2.153626e-07,7.501082e-06,1310988,-0.057805244,0.017546155,-0.065608434,0.4,0.03369282,0.033819105,0.00078124576,197388,0.0,0.0,0.0,0.5,0.0025000002,0.0025000002,0.0025000002,1,0,1,0,1,0
25196000,25116000,1310988,-0.0008764324,-0.005803223,0.0014981037,0.15,2.1050755e-07,2.1273995e-07,7.292834e-06,1310988,-0.09252825,0.016521828,-0.07132597,0.4,0.03356363,0.03367229,0.00078124576,197388,0.0,0.0,0.0,0.5,0.0025000002,0.0025000002,0.0025000002,1,0,1,0,1,0
25596000,25516000,1310988,-0.0010039101,-0.005658224,0.0014227648,0.15,2.1010598e-07,2.1239549e-07,7.29475e-06,1310988,-0.21222551,-0.07725166,-0.08073292,0.4,0.03155035,0.03163936,0.00078124576,197388,0.0,0.0,0.0,0.5,0.0025000002,0.0025000002,0.0025000002,1,0,1,0,1,0
25996000,25916000,1310988,-0.0010654409,-0.00557672,0.0013770873,0.15,2.1183318e-07,2.1410199e-07,7.2967364e-06,1310988,-0.34558746,-0.20138174,-0.09331858,0.4,0.02764509,0.027729949,0.00078124576,197388,0.0,0.0,0.0,0.5,0.0025000002,0.0025000002,0.0025000002,1,0,1,0,1,0
26164000,26084000,1310988,-0.0010663609,-0.005577203,0.0013669692,0.15,2.1316959e-07,2.1544385e-07,7.297157e-06,1310988,-0.34475255,-0.20231512,-0.093347944,0.4,0.027638739,0.027722104,0.00078124576,197388,0.0,0.0,0.0,0.5,0.0025000002,0.0025000002,0.0025000002,1,0,1,0,1,0
26396000,26316000,1310988,-0.0010781572,-0.0055534695,0.0013495344,0.15,2.1455621e-07,2.1680226e-07,7.297642e-06,1310988,-0.4151303,-0.28010806,-0.10727843,0.4,0.024150824,0.02424349,0.00078124576,197388,0.0,0.0,0.0,0.5,0.0025000002,0.0025000002,0.0025000002,1,0,1,0,1,0
26404000,26324000,1310988,-0.0010781572,-0.0055534695,0.0013495344,0.15,2.1462021e-07,2.1686627e-07,7.297706e-06,1310988,-0.4,-0.28010806,-0.10727843,0.4,0.024150824,0.02424349,0.00078124634,197388,0.0,0.0,0.0,0.5,0.0025000002,0.0025000002,0.0025000002,1,0,1,0,1,0
26596000,26516000,1310988,-0.0010789137,-0.0055537317,0.0013376627,0.15,2.1614969e-07,2.1840144e-07,7.297629e-06,1310988,-0.39899635,-0.28108484,-0.107310005,0.4,0.024139332,0.024232512,0.00078124576,197388,0.0,0.0,0.0,0.5,0.0025000002,0.0025000002,0.0025000002,1,0,1,0,1,0
26796000,26716000,1310988,-0.0010783153,-0.0055461777,0.0013331157,0.15,2.1740274e-07,2.1965056e-07,7.297701e-06,1310988,-0.42501408,-0.31800205,-0.1221398,0.4,0.02189243,0.021999206,0.00078124576,197388,0.0,0.0,0.0,0.5,0.0025000002,0.0025000002,0.0025000002,1,0,1,0,1,0
26804000,26724000,1310988,-0.0010783153,-0.0055461777,0.0013331157,0.15,2.1746673e-07,2.1971455e-07,7.297764e-06,1310988,-0.4,-0.31800205,-0.1221398,0.4,0.02189243,0.021999206,0.00078124634,197388,0.0,0.0,0.0,0.5,0.0025000002,0.0025000002,0.0025000002,1,0,1,0,1,0
26956000,26876000,1310988,-0.0010788438,-0.0055462327,0.0013219039,0.15,2.1867758e-07,2.2093045e-07,7.2966714e-06,1310988,-0.39911163,-0.3188333,-0.12216666,0.4,0.021877792,0.021986283,0.00078124576,197388,0.0,0.0,0.0,0.5,0.0025000002,0.0025000002,0.0025000002,1,0,1,0,1,0
27172000,27092000,1310988,-0.001079452,-0.0055462345,0.0013072991,0.15,2.2040076e-07,2.2265833e-07,7.295599e-06,1310988,-0.39813983,-0.3197581,-0.12219629,0.4,0.021865368,0.021974742,0.00078124576,197388,0.0,0.0,0.0,0.5,0.0025000002,0.0025000002,0.0025000002,1,0,1,0,1,0
27196000,27116000,1310988,-0.0010830658,-0.0055373143,0.0013058962,0.15,2.2018213e-07,2.2244865e-07,7.2955627e-06,1310988,-0.39496604,-0.32518905,-0.13732934,0.4,0.020538395,0.020656135,0.00078124576,197388,0.0,0.0,0.0,0.5,0.0025000002,0.0025000002,0.0025000002,1,0,1,0,1,0
27388000,27308000,1310988,-0.0010834971,-0.005537228,0.0012936288,0.15,2.2171406e-07,2.2398439e-07,7.2937883e-06,1310988,-0.3941722,-0.3259602,-0.13735357,0.4,0.020524502,0.02064282,0.00078124576,197388,0.0,0.0,0.0,0.5,0.0025000002,0.0025000002,0.0025000002,1,0,1,0,1,0
27596000,27516000,1310988,-0.0010961905,-0.0055242334,0.0012771003,0.15,2.2294441e-07,2.252244e-07,7.2928237e-06,1310988,-0.379038,-0.31282204,-0.15123866,0.4,0.019711368,0.01982859,0.00078124576,197388,0.0,0.0,0.0,0.5,0.0025000002,0.0025000002,0.0025000002,1,0,1,0,1,0
27748000,27668000,1310988,-0.0010965914,-0.005524071,0.0012635665,0.15,2.2415668e-07,2.2643968e-07,7.28976e-06,1310988,-0.37832874,-0.31356537,-0.15126099,0.4,0.019699559,0.019815443,0.00078124576,197388,0.0,0.0,0.0,0.5,0.0025000002,0.0025000002,0.0025000002,1,0,1,0,1,0
27996000,27916000,1310988,-0.0011171252,-0.005505982,0.0012445684,0.15,2.2574739e-07,2.2802764e-07,7.2866587e-06,1310988,-0.35574868,-0.28886816,-0.16375017,0.4,0.01916787,0.019275013,0.00078124576,197388,0.0,0.0,0.0,0.5,0.0025000002,0.0025000002,0.0025000002,1,0,1,0,1,0
28396000,28316000,1310988,-0.001141759,-0.005484717,0.00121168,0.15,2.286269e-07,2.308935e-07,7.277202e-06,1310988,-0.329811,-0.25932902,-0.1736821,0.4,0.018790297,0.018884636,0.00078124576,197388,0.0,0.0,0.0,0.5,0.0025000002,0.0025000002,0.0025000002,1,0,1,0,1,0
28796000,28716000,1310988,-0.001168187,-0.005464574,0.0011941296,0.15,2.3159394e-07,2.3383994e-07,7.2664116e-06,1310988,-0.30587465,-0.22405192,-0.18120274,0.4,0.018511722,0.018596977,0.00078124576,197388,0.0,0.0,0.0,0.5,0.0025000002,0.0025000002,0.0025000002,1,0,1,0,1,0
29196000,29116000,1310988,-0.0011920198,-0.005446753,0.0011714909,0.15,2.3463579e-07,2.3686793e-07,7.249509e-06,1310988,-0.28368333,-0.18821436,-0.18507583,0.4,0.018293299,0.018370433,0.00078124576,197388,0.0,0.0,0.0,0.5,0.0025000002,0.0025000002,0.0025000002,1,0,1,0,1,0
29324000,29244000,1310988,-0.0011920774,-0.005446735,0.001169436,0.15,2.3565747e-07,2.3789167e-07,7.2475164e-06,1310988,-0.2836572,-0.1882486,-0.1850767,0.4,0.01829282,0.018369589,0.0007812492,197388,-0.00034954987,-0.0056174975,-0.0025591431,0.5,0.0012756583,0.0016708258,0.0016682884,1,0,1,0,1,0
29396000,29316000,1310988,-0.0011920774,-0.005446735,0.001169436,0.15,2.3623346e-07,2.3846755e-07,7.2480925e-06,1310988,-0.2836572,-0.1882486,-0.1850767,0.4,0.018292818,0.01836959,0.00078124576,197388,0.0004271278,-0.0073864707,-0.0037564812,0.5,0.0008602206,0.0015029453,0.0015007698,1,0,1,0,1,0
29596000,29516000,1310988,-0.0012097077,-0.0054341042,0.0011466081,0.15,2.3774692e-07,2.3996625e-07,7.2449184e-06,1310988,-0.2634747,-0.15314998,-0.18704613,0.4,0.01811478,0.018184826,0.00078124576,197388,0.00048409888,-0.0081458725,-0.0032397464,0.5,0.00052508485,0.0013906118,0.0013886124,1,0,1,0,1,0
29996000,29916000,1310988,-0.0012187408,-0.005429074,0.0011186239,0.15,2.408927e-07,2.4311245e-07,7.241868e-06,1310988,-0.24600105,-0.11855721,-0.18552314,0.4,0.017958654,0.018019496,0.00078124576,197388,0.0012055469,-0.007944162,-0.0032104768,0.5,0.0002483159,0.0013101193,0.0013084321,1,0,1,0,1,0
30172000,30092000,1310988,-0.0012190564,-0.0054289796,0.0011222576,0.15,2.422271e-07,2.444722e-07,7.2302983e-06,1310988,-0.24541648,-0.11772214,-0.18551107,0.4,0.017601416,0.017567739,0.00078124576,197388,0.0012510915,-0.007890701,-0.0030762325,0.5,0.00019933564,0.0012967027,0.0012950049,1,0,1,0,1,0
30388000,30308000,1310988,-0.0012192997,-0.005429624,0.0011112463,0.15,2.4387128e-07,2.4614903e-07,7.218157e-06,1310988,-0.24706884,-0.11738889,-0.18549098,0.4,0.017265696,0.017122898,0.00078124576,197388,0.0007644592,-0.007860695,-0.0031418179,0.5,0.00017171011,0.001288264,0.0012859553,1,0,1,0,1,0
30396000,30316000,1310988,-0.0012173215,-0.0054336675,0.0010892142,0.15,2.438908e-07,2.4618132e-07,7.214346e-06,1310988,-0.23518415,-0.09065761,-0.18177882,0.4,0.017105194,0.016977297,0.00078124576,197388,0.0010345561,-0.0077819577,-0.0029957981,0.5,0.00017149118,0.0012882615,0.0012859516,1,0,1,0,1,0
30532000,30452000,1310988,-0.0012165451,-0.005433116,0.0010958513,0.15,2.4493326e-07,2.4724255e-07,7.208483e-06,1310988,-0.23420602,-0.09218788,-0.18181857,0.4,0.016946845,0.016769348,0.00078124576,197388,0.001305765,-0.008005093,-0.0030031733,0.5,0.00015909679,0.0012839058,0.0012807559,1,0,1,0,1,0
30796000,30716000,1310988,-0.0012068219,-0.0054442803,0.0010754064,0.15,2.4692105e-07,2.4928337e-07,7.1984896e-06,1310988,-0.22299692,-0.06795067,-0.17783885,0.4,0.016614012,0.016400794,0.00078124576,197388,0.0016691997,-0.00779596,-0.0030538752,0.5,0.00014519226,0.0012788628,0.0012747243,1,0,1,0,1,0
31108000,31028000,1310988,-0.001207434,-0.005443992,0.0010831781,0.15,2.4932567e-07,2.5173048e-07,7.1885047e-06,1310988,-0.22221078,-0.06685166,-0.17770529,0.4,0.016415339,0.016138831,0.00078124576,197388,0.0019117957,-0.007620886,-0.0030535026,0.5,0.00013025838,0.001273,0.001267501,1,0,1,0,1,0
31204000,31124000,1310988,-0.0011904502,-0.0054600113,0.0010713713,0.15,2.4995717e-07,2.5241175e-07,7.184362e-06,1310988,-0.21396086,-0.04788114,-0.1733925,0.4,0.016233832,0.015973575,0.00078124576,197388,0.0022227645,-0.007531262,-0.0029800842,0.5,0.00012758175,0.0012720759,0.0012663172,1,0,1,0,1,0
31396000,31316000,1310988,-0.0011895731,-0.005459924,0.0010696052,0.15,2.514395e-07,2.5392092e-07,7.179003e-06,1310988,-0.21410252,-0.04909167,-0.17331924,0.4,0.016153632,0.015869189,0.00078124576,197388,0.0021751458,-0.0076378346,-0.003220825,0.5,0.00012173938,0.0012700807,0.0012639287,1,0,1,0,1,0
31596000,31516000,1310988,-0.0011687306,-0.0054807053,0.0010559873,0.15,2.5279456e-07,2.5534348e-07,7.1744294e-06,1310988,-0.20744173,-0.03501585,-0.16791382,0.4,0.015975764,0.015700774,0.00078124576,197388,0.00246147,-0.007566089,-0.0031746558,0.5,0.000118095115,0.0012690552,0.0012627611,1,0,1,0,1,0
31900000,31820000,1310988,-0.0011696464,-0.0054806084,0.0010616494,0.15,2.551301e-07,2.5773062e-07,7.164877e-06,1310988,-0.20723781,-0.03403193,-0.16746464,0.4,0.015884075,0.015582336,0.00078124576,197388,0.0025855794,-0.0073706782,-0.0031147187,0.5,0.00011149563,0.0012666121,0.0012597946,1,0,1,0,1,0
31996000,31916000,1310988,-0.0011456322,-0.005502323,0.0010640951,0.15,2.5553095e-07,2.5818815e-07,7.1626796e-06,1310988,-0.20265572,-0.022880914,-0.16127308,0.4,0.015752742,0.015465372,0.00078124576,197388,0.0029501633,-0.007362849,-0.0029425211,0.5,0.00011010014,0.001266103,0.0012591624,1,0,1,0,1,0
32396000,32316000,1310988,-0.0011184646,-0.005526601,0.0010656222,0.15,2.580848e-07,2.608268e-07,7.1524028e-06,1310988,-0.19950935,-0.0134852985,-0.15458463,0.4,0.015586338,0.015293107,0.00078124576,197388,0.0031685755,-0.00712527,-0.0029157791,0.5,0.000105148225,0.0012622479,0.001253887,1,0,1,0,1,0
32756000,32676000,1310988,-0.0011181581,-0.0055268207,0.0010641698,0.15,2.608424e-07,2.636563e-07,7.1399754e-06,1310988,-0.20001803,-0.013946939,-0.153772,0.4,0.01553284,0.015224537,0.00078124576,197388,0.0031675494,-0.007007573,-0.0029751693,0.5,0.00010138826,0.0012567774,0.0012458647,1,0,1,0,1,0
32796000,32716000,1310988,-0.0010898116,-0.005550823,0.0010682048,0.15,2.6034925e-07,2.6315658e-07,7.1360155e-06,1310988,-0.1977202,-0.005704195,-0.14740783,0.4,0.015441017,0.015137499,0.00078124576,197388,0.003313193,-0.0069347117,-0.0028958155,0.5,0.0001006417,0.0012556758,0.0012442102,1,0,1,0,1,0
33052000,32972000,1310988,-0.0010907946,-0.00555137,0.001062254,0.15,2.6228588e-07,2.6516028e-07,7.1238937e-06,1310988,-0.1983928,-0.00531685,-0.14665201,0.4,0.015407088,0.015093931,0.00078124576,197388,0.0032572094,-0.006787064,-0.0027537025,0.5,9.828391e-05,0.0012507304,0.0012366109,1,0,1,0,1,0
33196000,33116000,1310988,-0.001065993,-0.005574764,0.0010703634,0.15,2.6227735e-07,2.6510048e-07,7.114092e-06,1310988,-0.19681117,0.00071507745,-0.1395067,0.4,0.015324351,0.015009297,0.00078124576,197388,0.0033814695,-0.0068158996,-0.0026597457,0.5,9.720984e-05,0.0012484513,0.0012330129,1,0,1,0,1,0
33476000,33396000,1310988,-0.0010658659,-0.005575313,0.0010625264,0.15,2.6442223e-07,2.6730353e-07,7.1040577e-06,1310988,-0.19748016,0.00040995848,-0.13873881,0.4,0.015303589,0.014982586,0.00078124576,197388,0.0033156485,-0.0067712185,-0.002773856,0.5,9.5804084e-05,0.0012449409,0.0012274156,1,0,1,0,1,0
33596000,33516000,1310988,-0.0010406902,-0.0055984166,0.0010798533,0.15,2.6383788e-07,2.6659407e-07,7.0898527e-06,1310988,-0.19572219,0.0053517534,-0.13239753,0.4,0.015236812,0.014910221,0.00078124576,197388,0.003482845,-0.00679969,-0.002693682,0.5,9.4942385e-05,0.0012427473,0.0012239546,1,0,1,0,1,0
33956000,33876000,1310988,-0.0010417885,-0.0055983956,0.0010829382,0.15,2.6653765e-07,2.6940504e-07,7.069067e-06,1310988,-0.1960013,0.0056032855,-0.13145658,0.4,0.015209481,0.014874089,0.00078124576,197388,0.0035312953,-0.006685691,-0.0024382821,0.5,9.3097864e-05,0.0012376372,0.0012159931,1,0,1,0,1,0
33996000,33916000,1310988,-0.0010168082,-0.005622776,0.0010971267,0.15,2.649051e-07,2.675454e-07,7.0547494e-06,1310988,-0.194648,0.010073414,-0.12424114,0.4,0.015162674,0.014820526,0.00078124576,197388,0.0036246395,-0.0066277175,-0.0024522522,0.5,9.275098e-05,0.0012367562,0.0012146444,1,0,1,0,1,0
34364000,34284000,1310988,-0.0010175053,-0.0056224186,0.0011111461,0.15,2.6768558e-07,2.70409e-07,7.0141914e-06,1310988,-0.19475476,0.010141297,-0.12319398,0.4,0.015143679,0.014796007,0.00078124576,197388,0.003718184,-0.006540484,-0.0022044715,0.5,9.155475e-05,0.0012334572,0.0012096509,1,0,1,0,1,0
34396000,34316000,1310988,-0.0009965791,-0.0056407363,0.0011485886,0.15,2.655343e-07,2.6792043e-07,6.9807297e-06,1310988,-0.19427904,0.013438933,-0.11734544,0.4,0.015111222,0.014757349,0.00078124576,197388,0.003718184,-0.006540484,-0.0022044715,0.5,9.155475e-05,0.0012334572,0.0012096509,1,0,1,0,1,0
34780000,34700000,1310988,-0.0009965025,-0.005640899,0.0011532936,0.15,2.6858797e-07,2.7090962e-07,6.8748004e-06,1310988,-0.1946271,0.013244715,-0.11630125,0.4,0.015106429,0.014756944,0.00078124576,197388,0.003718184,-0.006540484,-0.0022044715,0.5,9.155475e-05,0.0012334572,0.0012096509,1,0,1,0,1,0
34796000,34716000,1310988,-0.0009756681,-0.005657634,0.0011601223,0.15,2.6577155e-07,2.6773765e-07,6.863277e-06,1310988,-0.1940747,0.016243914,-0.110760145,0.4,0.01508342,0.0147263985,0.00078124576,197388,0.003718184,-0.006540484,-0.0022044715,0.5,9.155475e-05,0.0012334572,0.0012096509,1,0,1,0,1,0
35196000,35116000,1310988,-0.00095877715,-0.0056691105,0.0011678772,0.15,2.6542827e-07,2.669766e-07,6.727128e-06,1310988,-0.19406141,0.018360939,-0.10474161,0.4,0.0150623545,0.014703024,0.00078124576,197388,0.003718184,-0.006540484,-0.0022044715,0.5,9.155475e-05,0.0012334572,0.0012096509,1,0,1,0,1,0
35596000,35516000,1310988,-0.0009499794,-0.005676331,0.001168343,0.15,2.6450158e-07,2.6567207e-07,6.6154107e-06,1310988,-0.19403426,0.019743385,-0.09911893,0.4,0.015047855,0.01468594,0.00078124576,197388,0.003718184,-0.006540484,-0.0022044715,0.5,9.155475e-05,0.0012334572,0.0012096509,1,0,1,0,1,0
35996000,35916000,1310988,-0.00093893195,-0.0056728604,0.0011740243,0.15,2.6298622e-07,2.6382534e-07,6.4854876e-06,1310988,-0.19425172,0.02116366,-0.093146674,0.4,0.015036843,0.014673715,0.00078124576,197388,0.003718184,-0.006540484,-0.0022044715,0.5,9.155475e-05,0.0012334572,0.0012096509,1,0,1,0,1,0
36396000,36316000,1310988,-0.00093541504,-0.0056654545,0.0011719351,0.15,2.6093036e-07,2.6149357e-07,6.3788257e-06,1310988,-0.19424717,0.022187894,-0.08794281,0.4,0.015029272,0.014664756,0.00078124576,197388,0.003718184,-0.006540484,-0.0022044715,0.5,9.155475e-05,0.0012334572,0.0012096509,1,0,1,0,1,0
36796000,36716000,1310988,-0.0009426123,-0.005658967,0.0011355616,0.15,2.5836889e-07,2.5871597e-07,6.2530557e-06,1310988,-0.19381462,0.02297786,-0.08368611,0.4,0.015022612,0.014657851,0.00078124576,197388,0.003718184,-0.006540484,-0.0022044715,0.5,9.155475e-05,0.0012334572,0.0012096509,1,0,1,0,1,0
37196000,37116000,1310988,-0.0009518726,-0.005646642,0.0011359213,0.15,2.553735e-07,2.5555192e-07,6.1493533e-06,1310988,-0.19351341,0.023638278,-0.07986095,0.4,0.015017214,0.014652055,0.00078124576,197388,0.003718184,-0.006540484,-0.0022044715,0.5,9.155475e-05,0.0012334572,0.0012096509,1,0,1,0,1,0
37596000,37516000,1310988,-0.0009683111,-0.005626999,0.0011310579,0.15,2.5198798e-07,2.5205503e-07,6.0255375e-06,1310988,-0.19289146,0.024478087,-0.07596226,0.4,0.015011049,0.014646396,0.00078124576,197388,0.003718184,-0.006540484,-0.0022044715,0.5,9.155475e-05,0.0012334572,0.0012096509,1,0,1,0,1,0
37996000,37916000,1310988,-0.0009796061,-0.0056015155,0.0011278329,0.15,2.483081e-07,2.4831004e-07,5.902129e-06,1310988,-0.1920661,0.025342839,-0.072282724,0.4,0.015004252,0.014640255,0.00078124576,197388,0.003718184,-0.006540484,-0.0022044715,0.5,9.155475e-05,0.0012334572,0.0012096509,1,0,1,0,1,0
38396000,38316000,1310988,-0.0009947148,-0.0055776755,0.0011228828,0.15,2.4443028e-07,2.4439626e-07,5.799864e-06,1310988,-0.19116244,0.026240272,-0.06911073,0.4,0.014997067,0.014633399,0.00078124576,197388,0.003718184,-0.006540484,-0.0022044715,0.5,9.155475e-05,0.0012334572,0.0012096509,1,0,1,0,1,0
38796000,38716000,1310988,-0.0010091913,-0.0055545205,0.0011260178,0.15,2.4040497e-07,2.4037809e-07,5.676928e-06,1310988,-0.19031599,0.026986312,-0.06674697,0.4,0.014988471,0.014625499,0.00078124576,197388,0.003718184,-0.006540484,-0.0022044715,0.5,9.155475e-05,0.0012334572,0.0012096509,1,0,1,0,1,0
39196000,39116000,1310988,-0.0010308789,-0.0055338987,0.0011114997,0.15,2.3631961e-07,2.3631516e-07,5.575084e-06,1310988,-0.18914866,0.028387766,-0.06324767,0.4,0.014979183,0.014616526,0.00078124576,197388,0.003718184,-0.006540484,-0.0022044715,0.5,9.155475e-05,0.0012334572,0.0012096509,1,0,1,0,1,0
39596000,39516000,1310988,-0.0010512966,-0.0055030147,0.0010707815,0.15,2.3221386e-07,2.3226973e-07,5.45292e-06,1310988,-0.18771985,0.029432159,-0.060930047,0.4,0.014968848,0.014606654,0.00078124576,197388,0.003718184,-0.006540484,-0.0022044715,0.5,9.155475e-05,0.0012334572,0.0012096509,1,0,1,0,1,0
39996000,39916000,1310988,-0.0010718376,-0.005480324,0.0010721663,0.15,2.2815358e-07,2.2829109e-07,5.3314734e-06,1310988,-0.18667422,0.030535804,-0.058695722,0.4,0.014958179,0.014596294,0.00078124576,197388,0.003718184,-0.006540484,-0.0022044715,0.5,9.155475e-05,0.0012334572,0.0012096509,1,0,1,0,1,0
40396000,40316000,1310988,-0.0010983958,-0.0054556867,0.0010684137,0.15,2.2417682e-07,2.2440882e-07,5.2107926e-06,1310988,-0.18557405,0.031762138,-0.056811705,0.4,0.014947154,0.014585328,0.00078124576,197388,0.003718184,-0.006540484,-0.0022044715,0.5,9.155475e-05,0.0012334572,0.0012096509,1,0,1,0,1,0
40796000,40716000,1310988,-0.0011208091,-0.0054285172,0.0010189454,0.15,2.2032886e-07,2.2065191e-07,5.110977e-06,1310988,-0.18420501,0.03289074,-0.055004995,0.4,0.014936156,0.014574055,0.00078124576,197388,0.003718184,-0.006540484,-0.0022044715,0.5,9.155475e-05,0.0012334572,0.0012096509,1,0,1,0,1,0
41196000,41116000,1310988,-0.0011462376,-0.005403593,0.0009957021,0.15,2.1661333e-07,2.1704093e-07,4.991141e-06,1310988,-0.18297419,0.034181118,-0.053068973,0.4,0.014924853,0.014562596,0.00078124576,197388,0.003718184,-0.006540484,-0.0022044715,0.5,9.155475e-05,0.0012334572,0.0012096509,1,0,1,0,1,0
41596000,41516000,1310988,-0.0011687832,-0.005384531,0.0009808383,0.15,2.1307706e-07,2.1359895e-07,4.892399e-06,1310988,-0.1820872,0.03521421,-0.05183879,0.4,0.014914189,0.0145515585,0.00078124576,197388,0.003718184,-0.006540484,-0.0022044715,0.5,9.155475e-05,0.0012334572,0.0012096509,1,0,1,0,1,0
41996000,41916000,1310988,-0.0011865589,-0.0053587616,0.00094976707,0.15,2.0970647e-07,2.1033131e-07,4.7742164e-06,1310988,-0.18087675,0.03611975,-0.05038544,0.4,0.014903762,0.014540842,0.00078124576,197388,0.003718184,-0.006540484,-0.0022044715,0.5,9.155475e-05,0.0012334572,0.0012096509,1,0,1,0,1,0
42396000,42316000,1310988,-0.0012045737,-0.005343206,0.00095269195,0.15,2.065192e-07,2.0724438e-07,4.6573646e-06,1310988,-0.18014418,0.03704378,-0.048863884,0.4,0.014893987,0.014530737,0.00078124576,197388,0.003718184,-0.006540484,-0.0022044715,0.5,9.155475e-05,0.0012334572,0.0012096509,1,0,1,0,1,0
42796000,42716000,1310988,-0.0012199152,-0.0053250864,0.0009304867,0.15,2.0353006e-07,2.0434037e-07,4.561358e-06,1310988,-0.17929906,0.037808698,-0.047509138,0.4,0.014885174,0.014521488,0.00078124576,197388,0.003718184,-0.006540484,-0.0022044715,0.5,9.155475e-05,0.0012334572,0.0012096509,1,0,1,0,1,0
43196000,43116000,1310988,-0.001233703,-0.00530689,0.00091834716,0.15,2.0071914e-07,2.0161691e-07,4.4467924e-06,1310988,-0.17849594,0.03850634,-0.0460746,0.4,0.014877087,0.0145130465,0.00078124576,197388,0.003718184,-0.006540484,-0.0022044715,0.5,9.155475e-05,0.0012334572,0.0012096509,1,0,1,0,1,0
43596000,43516000,1310988,-0.0012399125,-0.005293274,0.00088342914,0.15,1.9809661e-07,1.9906818e-07,4.3528785e-06,1310988,-0.17782608,0.038937464,-0.044617396,0.4,0.014869968,0.014505469,0.00078124576,197388,0.003718184,-0.006540484,-0.0022044715,0.5,9.155475e-05,0.0012334572,0.0012096509,1,0,1,0,1,0
43996000,43916000,1310988,-0.0012451953,-0.005285325,0.00085580995,0.15,1.9564379e-07,1.9668808e-07,4.2410716e-06,1310988,-0.17740528,0.039289173,-0.043299757,0.4,0.014863621,0.014498775,0.00078124576,197388,0.003718184,-0.006540484,-0.0022044715,0.5,9.155475e-05,0.0012334572,0.0012096509,1,0,1,0,1,0
44396000,44316000,1310988,-0.0012512166,-0.0052731684,0.0008374814,0.15,1.9336424e-07,1.9446938e-07,4.149664e-06,1310988,-0.17690577,0.039616797,-0.042068083,0.4,0.01485817,0.014492888,0.00078124576,197388,0.003718184,-0.006540484,-0.0022044715,0.5,9.155475e-05,0.0012334572,0.0012096509,1,0,1,0,1,0
44796000,44716000,1310988,-0.0012540551,-0.0052635493,0.0008129209,0.15,1.9123571e-07,1.9240004e-07,4.0410278e-06,1310988,-0.1765039,0.03982174,-0.0409581,0.4,0.014853275,0.014487654,0.00078124576,197388,0.003718184,-0.006540484,-0.0022044715,0.5,9.155475e-05,0.0012334572,0.0012096509,1,0,1,0,1,0
45196000,45116000,1310988,-0.001259425,-0.0052593676,0.0007693963,0.15,1.8925748e-07,1.9047246e-07,3.9342713e-06,1310988,-0.17622998,0.040102895,-0.039765067,0.4,0.014849004,0.014483062,0.00078124576,197388,0.003718184,-0.006540484,-0.0022044715,0.5,9.155475e-05,0.0012334572,0.0012096509,1,0,1,0,1,0
45596000,45516000,1310988,-0.0012641869,-0.005252329,0.00071453414,0.15,1.8742372e-07,1.8867964e-07,3.847293e-06,1310988,-0.17589585,0.04032616,-0.03883939,0.4,0.014845402,0.014479084,0.00078124576,197388,0.003718184,-0.006540484,-0.0022044715,0.5,9.155475e-05,0.0012334572,0.0012096509,1,0,1,0,1,0
45996000,45916000,1310988,-0.0012707382,-0.0052430048,0.00070064113,0.15,1.8571905e-07,1.8700857e-07,3.7442016e-06,1310988,-0.17558515,0.040575244,-0.037727885,0.4,0.014842203,0.014475612,0.00078124576,197388,0.003718184,-0.006540484,-0.0022044715,0.5,9.155475e-05,0.0012334572,0.0012096509,1,0,1,0,1,0
46796000,46716000,1310988,-0.0012785296,-0.0052301097,0.00069977477,0.15,1.8267895e-07,1.8400289e-07,3.5612359e-06,1310988,-0.17521757,0.04087462,-0.035901703,0.4,0.014837118,0.014469961,0.00078124576,197388,0.003718184,-0.006540484,-0.0022044715,0.5,9.155475e-05,0.0012334572,0.0012096509,1,0,1,0,1,0
47596000,47516000,1310988,-0.0012878277,-0.0052201725,0.00060791627,0.15,1.8007644e-07,1.8139501e-07,3.3862023e-06,1310988,-0.17482664,0.041198496,-0.034322537,0.4,0.014833452,0.014465812,0.00078124576,197388,0.003718184,-0.006540484,-0.0022044715,0.5,9.155475e-05,0.0012334572,0.0012096509,1,0,1,0,1,0
47996000,47916000,1310988,-0.0012942434,-0.005214149,0.0005673951,0.15,1.7891796e-07,1.802214e-07,3.293529e-06,1310988,-0.17462568,0.04139453,-0.033030618,0.4,0.014832021,0.014464198,0.00078124576,197388,0.003718184,-0.006540484,-0.0022044715,0.5,9.155475e-05,0.0012334572,0.0012096509,1,0,1,0,1,0
48796000,48716000,1310988,-0.0012979318,-0.005209383,0.0005307044,0.15,1.768538e-07,1.7810906e-07,3.1298018e-06,1310988,-0.17446606,0.041529436,-0.032005414,0.4,0.014829865,0.014461698,0.00078124576,197388,0.003718184,-0.006540484,-0.0022044715,0.5,9.155475e-05,0.0012334572,0.0012096509,1,0,1,0,1,0
49596000,49516000,1310988,-0.0013017318,-0.005195715,0.0004961097,0.15,1.7507323e-07,1.7626753e-07,2.9735008e-06,1310988,-0.17421398,0.04164603,-0.030199137,0.4,0.014828243,0.014459836,0.00078124576,197388,0.003718184,-0.006540484,-0.0022044715,0.5,9.155475e-05,0.0012334572,0.0012096509,1,0,1,0,1,0
49996000,49916000,1310988,-0.0013039884,-0.0051917452,0.0004828202,0.15,1.742775e-07,1.7543793e-07,2.891117e-06,1310988,-0.1741268,0.041717436,-0.029046634,0.4,0.01482761,0.014459126,0.00078124576,197388,0.003718184,-0.006540484,-0.0022044715,0.5,9.155475e-05,0.0012334572,0.0012096509,1,0,1,0,1,0
50396000,50316000,1310988,-0.0012762605,-0.005211651,0.00047198185,0.15,1.7353615e-07,1.7470857e-07,2.8246302e-06,1310988,-0.17452544,0.041533295,-0.02607172,0.4,0.014827109,0.014458645,0.00078124576,197388,0.003718184,-0.006540484,-0.0022044715,0.5,9.155475e-05,0.0012334572,0.0012096509,1,1,1,0,1,0
50796000,50716000,1310988,-0.0012112716,-0.0052682813,0.0004713639,0.15,1.7283315e-07,1.7402593e-07,2.746307e-06,1310988,-0.17589873,0.04068908,-0.021285713,0.4,0.014825752,0.014457123,0.00078124576,197388,0.003718184,-0.006540484,-0.0022044715,0.5,9.155475e-05,0.0012334572,0.0012096509,1,1,1,0,1,0
51196000,51116000,1310988,-0.0011268037,-0.0053508403,0.00046801925,0.15,1.7218643e-07,1.7339619e-07,2.6703306e-06,1310988,-0.17814898,0.03916483,-0.014541677,0.4,0.01482302,0.01445428,0.00078124576,197388,0.003718184,-0.006540484,-0.0022044715,0.5,9.155475e-05,0.0012334572,0.0012096509,1,1,1,0,1,0
51596000,51516000,1310988,-0.001032278,-0.005443553,0.00047202292,0.15,1.7160178e-07,1.7283432e-07,2.6091461e-06,1310988,-0.18095176,0.037113436,-0.0061917473,0.4,0.014818515,0.014450012,0.00078124576,197388,0.003718184,-0.006540484,-0.0022044715,0.5,9.155475e-05,0.0012334572,0.0012096509,1,1,1,0,1,0
51996000,51916000,1310988,-0.00093278114,-0.0055336817,0.00049598346,0.15,1.7108047e-07,1.7234231e-07,2.536893e-06,1310988,-0.18387586,0.035026137,0.0029959597,0.4,0.014812145,0.014444223,0.00078124576,197388,0.003718184,-0.006540484,-0.0022044715,0.5,9.155475e-05,0.0012334572,0.0012096509,1,1,1,0,1,0
52396000,52316000,1310988,-0.00084366364,-0.0056162234,0.0005255129,0.15,1.7062038e-07,1.7192284e-07,2.4662368e-06,1310988,-0.18670608,0.032969452,0.012835298,0.4,0.014804418,0.014437276,0.00078124576,197388,0.003718184,-0.006540484,-0.0022044715,0.5,9.155475e-05,0.0012334572,0.0012096509,1,1,1,0,1,0
52796000,52716000,1310988,-0.0007721905,-0.005681348,0.00053889083,0.15,1.702156e-07,1.7157038e-07,2.408528e-06,1310988,-0.1888265,0.03147751,0.021713875,0.4,0.014796291,0.014430123,0.00078124576,197388,0.003718184,-0.006540484,-0.0022044715,0.5,9.155475e-05,0.0012334572,0.0012096509,1,1,1,0,1,0
53196000,53116000,1310988,-0.0007228226,-0.005716859,0.00058620045,0.15,1.6985405e-07,1.712553e-07,2.3406758e-06,1310988,-0.19064799,0.030396469,0.029211173,0.4,0.01478901,0.014423977,0.00078124576,197388,0.003718184,-0.006540484,-0.0022044715,0.5,9.155475e-05,0.0012334572,0.0012096509,1,1,1,0,1,0
53596000,53516000,1310988,-0.0007067389,-0.005722769,0.00062233175,0.15,1.6952076e-07,1.7096515e-07,2.2861552e-06,1310988,-0.19214994,0.029355926,0.03514044,0.4,0.01478351,0.014419533,0.00078124576,197388,0.003718184,-0.006540484,-0.0022044715,0.5,9.155475e-05,0.0012334572,0.0012096509,1,1,1,0,1,0
53996000,53916000,1310988,-0.00072200113,-0.0056978315,0.00065424293,0.15,1.691966e-07,1.7065898e-07,2.223508e-06,1310988,-0.19348761,0.02833815,0.038473804,0.4,0.014779786,0.014416774,0.00078124576,197388,0.003718184,-0.006540484,-0.0022044715,0.5,9.155475e-05,0.0012334572,0.0012096509,1,1,1,0,1,0
54396000,54316000,1310988,-0.0007745366,-0.005630298,0.0006779436,0.15,1.6885593e-07,1.7031685e-07,2.1741432e-06,1310988,-0.19512789,0.026989754,0.039150134,0.4,0.01477733,0.014414933,0.00078124576,197388,0.003718184,-0.006540484,-0.0022044715,0.5,9.155475e-05,0.0012334572,0.0012096509,1,1,1,0,1,0
54796000,54716000,1310988,-0.0008607043,-0.0055358075,0.000714294,0.15,1.6847976e-07,1.6989627e-07,2.1163592e-06,1310988,-0.19705804,0.025214639,0.036787774,0.4,0.014773993,0.014412001,0.00078124576,197388,0.003718184,-0.006540484,-0.0022044715,0.5,9.155475e-05,0.0012334572,0.0012096509,1,1,1,0,1,0
55196000,55116000,1310988,-0.0009744629,-0.0054159933,0.00072378485,0.15,1.6806318e-07,1.693958e-07,2.068965e-06,1310988,-0.1991233,0.023230279,0.031591963,0.4,0.014767169,0.014405386,0.00078124576,197388,0.003718184,-0.006540484,-0.0022044715,0.5,9.155475e-05,0.0012334572,0.0012096509,1,1,1,0,1,0
55596000,55516000,1310988,-0.0011099678,-0.005276748,0.0007123092,0.15,1.6761732e-07,1.6880543e-07,2.010564e-06,1310988,-0.20142727,0.021074772,0.02346188,0.4,0.01475405,0.014392488,0.00078124576,197388,0.003718184,-0.006540484,-0.0022044715,0.5,9.155475e-05,0.0012334572,0.0012096509,1,1,1,0,1,0
55996000,55916000,1310988,-0.0012605733,-0.0051196786,0.00068095414,0.15,1.6716862e-07,1.6815675e-07,1.9502743e-06,1310988,-0.20331714,0.019312829,0.013093496,0.4,0.014732756,0.014371529,0.00078124576,197388,0.003718184,-0.006540484,-0.0022044715,0.5,9.155475e-05,0.0012334572,0.0012096509,1,1,1,0,1,0
56380000,56300000,1310988,-0.0012605268,-0.0051197046,0.0006810305,0.15,1.7024047e-07,1.7120807e-07,1.9086297e-06,1310988,-0.20354986,0.019083431,0.01204735,0.4,0.014732423,0.014371171,0.00078124576,197388,0.003718184,-0.006540484,-0.0022044715,0.5,9.155475e-05,0.0012334572,0.0012096509,1,1,1,0,1,0
56396000,56316000,1310988,-0.0014115792,-0.0049643535,0.00066355604,0.15,1.6675082e-07,1.6749406e-07,1.8969564e-06,1310988,-0.20525195,0.017557994,0.0007191244,0.4,0.014703079,0.014342439,0.00078124576,197388,0.003718184,-0.006540484,-0.0022044715,0.5,9.155475e-05,0.0012334572,0.0012096509,1,1,1,0,1,0
56684000,56604000,1310988,-0.0014115425,-0.0049641244,0.00064859295,0.15,1.6905472e-07,1.6978697e-07,1.8648857e-06,1310988,-0.20555387,0.017292995,-0.00022451521,0.4,0.014702636,0.014341937,0.00078124576,197388,0.003718184,-0.006540484,-0.0022044715,0.5,9.155475e-05,0.0012334572,0.0012096509,1,1,1,0,1,0
56796000,56716000,1310988,-0.0015590707,-0.004808602,0.00060595863,0.15,1.6639461e-07,1.6685787e-07,1.8341105e-06,1310988,-0.20672947,0.016161876,-0.012964817,0.4,0.014666891,0.014307023,0.00078124576,197388,0.003718184,-0.006540484,-0.0022044715,0.5,9.155475e-05,0.0012334572,0.0012096509,1,1,1,0,1,0
57044000,56964000,1310988,-0.0015591258,-0.0048083374,0.0005826534,0.15,1.6837774e-07,1.688372e-07,1.8115608e-06,1310988,-0.20714204,0.015835732,-0.013980119,0.4,0.014666216,0.014306256,0.00078124576,197388,0.003718184,-0.006540484,-0.0022044715,0.5,9.155475e-05,0.0012334572,0.0012096509,1,1,1,0,1,0
57196000,57116000,1310988,-0.0016894172,-0.0046687624,0.0005356048,0.15,1.6611426e-07,1.6628982e-07,1.780684e-06,1310988,-0.20822063,0.01470153,-0.027504593,0.4,0.01462707,0.0142680155,0.00078124576,197388,0.003718184,-0.006540484,-0.0022044715,0.5,9.155475e-05,0.0012334572,0.0012096509,1,1,1,0,1,0
57452000,57372000,1310988,-0.0016897342,-0.0046684607,0.00049458956,0.15,1.6815889e-07,1.683351e-07,1.7516597e-06,1310988,-0.20877092,0.014362472,-0.028541425,0.4,0.014626027,0.014266741,0.00078124576,197388,0.003718184,-0.006540484,-0.0022044715,0.5,9.155475e-05,0.0012334572,0.0012096509,1,1,1,0,1,0
57596000,57516000,1310988,-0.0017960283,-0.0045571774,0.00045831656,0.15,1.6591001e-07,1.6581262e-07,1.7225659e-06,1310988,-0.21007198,0.01321274,-0.04170638,0.4,0.014587588,0.014229004,0.00078124576,197388,0.003718184,-0.006540484,-0.0022044715,0.5,9.155475e-05,0.0012334572,0.0012096509,1,1,1,0,1,0
57812000,57732000,1310988,-0.0017963931,-0.0045570983,0.0004266683,0.15,1.6763319e-07,1.6754008e-07,1.702122e-06,1310988,-0.21057308,0.0129124075,-0.042549793,0.4,0.014586571,0.014227741,0.00078124576,197388,0.003718184,-0.006540484,-0.0022044715,0.5,9.155475e-05,0.0012334572,0.0012096509,1,1,1,0,1,0
57988000,57908000,1310988,-0.0017964899,-0.004557117,0.0004122592,0.15,1.69038e-07,1.689477e-07,1.6889006e-06,1310988,-0.21104205,0.012533098,-0.043370463,0.4,0.014585569,0.014226566,0.00078124576,197388,0.003718184,-0.006540484,-0.0022044715,0.5,9.155475e-05,0.0012334572,0.0012096509,1,1,1,0,1,0
57996000,57916000,1310988,-0.0018764078,-0.0044736713,0.00039814177,0.15,1.6577107e-07,1.6543531e-07,1.6765688e-06,1310988,-0.21211699,0.0114800995,-0.05508639,0.4,0.014552237,0.014193786,0.00078124576,197388,0.003718184,-0.006540484,-0.0022044715,0.5,9.155475e-05,0.0012334572,0.0012096509,1,1,1,0,1,0
58220000,58140000,1310988,-0.0018769494,-0.004473733,0.00036277325,0.15,1.6755571e-07,1.6722728e-07,1.6571238e-06,1310988,-0.21269199,0.011161984,-0.055979677,0.4,0.014551071,0.0141923325,0.00078124576,197388,0.003718184,-0.006540484,-0.0022044715,0.5,9.155475e-05,0.0012334572,0.0012096509,1,1,1,0,1,0
58396000,58316000,1310988,-0.0019187137,-0.0044316617,0.00032746905,0.15,1.656687e-07,1.6515142e-07,1.6288744e-06,1310988,-0.21487774,0.009181745,-0.06622949,0.4,0.014523708,0.014164828,0.00078124576,197388,0.003718184,-0.006540484,-0.0022044715,0.5,9.155475e-05,0.0012334572,0.0012096509,1,1,1,0,1,0
58612000,58532000,1310988,-0.0019190684,-0.0044318014,0.0003061204,0.15,1.6738704e-07,1.668792e-07,1.610211e-06,1310988,-0.21537696,0.008846382,-0.06704802,0.4,0.014522524,0.0141633535,0.00078124576,197388,0.003718184,-0.006540484,-0.0022044715,0.5,9.155475e-05,0.0012334572,0.0012096509,1,1,1,0,1,0
58796000,58716000,1310988,-0.0019246374,-0.004430879,0.00028525622,0.15,1.6557658e-07,1.6494594e-07,1.5866383e-06,1310988,-0.21838003,0.006154717,-0.07508863,0.4,0.01450325,0.014143604,0.00078124576,197388,0.003718184,-0.006540484,-0.0022044715,0.5,9.155475e-05,0.0012334572,0.0012096509,1,1,1,0,1,0
59092000,59012000,1310988,-0.0019253675,-0.004431163,0.0002493119,0.15,1.6792968e-07,1.6731313e-07,1.5628297e-06,1310988,-0.2189581,0.0058521396,-0.0760335,0.4,0.014501882,0.014141941,0.00078124576,197388,0.003718184,-0.006540484,-0.0022044715,0.5,9.155475e-05,0.0012334572,0.0012096509,1,1,1,0,1,0
59196000,59116000,1310988,-0.0018921681,-0.0044757584,0.0002532942,0.15,1.6546656e-07,1.6479568e-07,1.555279e-06,1310988,-0.22255918,0.002719171,-0.07989521,0.4,0.014489696,0.014129409,0.00078124576,197388,0.003718184,-0.006540484,-0.0022044715,0.5,9.155475e-05,0.0012334572,0.0012096509,1,1,1,0,1,0
59500000,59420000,1310988,-0.0018929327,-0.0044760816,0.00021796323,0.15,1.6787885e-07,1.6722612e-07,1.525813e-06,1310988,-0.22305347,0.0024782498,-0.08078497,0.4,0.014488368,0.014127874,0.00078124576,197388,0.003718184,-0.006540484,-0.0022044715,0.5,9.155475e-05,0.0012334572,0.0012096509,1,1,1,0,1,0
59596000,59516000,1310988,-0.0018141207,-0.0045602336,0.0002245088,0.15,1.6531101e-07,1.6468417e-07,1.5199819e-06,1310988,-0.22734901,-0.0017367174,-0.08095286,0.4,0.014480171,0.014119599,0.00078124576,197388,0.003718184,-0.006540484,-0.0022044715,0.5,9.155475e-05,0.0012334572,0.0012096509,1,1,1,0,1,0
59996000,59916000,1310988,-0.0017014998,-0.004675974,0.00020601289,0.15,1.6511284e-07,1.6460238e-07,1.4914604e-06,1310988,-0.23219346,-0.0063500716,-0.07847036,0.4,0.014471569,0.014111509,0.00078124576,197388,0.003718184,-0.006540484,-0.0022044715,0.5,9.155475e-05,0.0012334572,0.0012096509,1,1,1,0,1,0
60396000,60316000,1310988,-0.001594791,-0.004794035,0.00016824399,0.15,1.6490362e-07,1.645407e-07,1.4565871e-06,1310988,-0.23600453,-0.009625141,-0.07448431,0.4,0.01446259,0.014103749,0.00078124576,197388,0.003718184,-0.006540484,-0.0022044715,0.5,9.155475e-05,0.0012334572,0.0012096509,1,1,1,0,1,0
60796000,60716000,1310988,-0.0014923742,-0.004895842,0.00014840903,0.15,1.6470509e-07,1.6451467e-07,1.4204304e-06,1310988,-0.23792733,-0.011222448,-0.06951261,0.4,0.014452638,0.014095377,0.00078124576,197388,0.003718184,-0.006540484,-0.0022044715,0.5,9.155475e-05,0.0012334572,0.0012096509,1,1,1,0,1,0
61196000,61116000,1310988,-0.0014031155,-0.004986603,0.00013744182,0.15,1.6452829e-07,1.6452032e-07,1.3878072e-06,1310988,-0.23840909,-0.011505423,-0.06446894,0.4,0.014440139,0.014084683,0.00078124576,197388,0.003718184,-0.006540484,-0.0022044715,0.5,9.155475e-05,0.0012334572,0.0012096509,1,1,1,0,1,0
61596000,61516000,1310988,-0.0013266718,-0.0050657275,0.00012980419,0.15,1.6439232e-07,1.6455819e-07,1.3484755e-06,1310988,-0.23827747,-0.011262662,-0.059052788,0.4,0.014425196,0.014071659,0.00078124576,197388,0.003718184,-0.006540484,-0.0022044715,0.5,9.155475e-05,0.0012334572,0.0012096509,1,1,1,0,1,0
61996000,61916000,1310988,-0.0012602418,-0.0051344545,0.00012033902,0.15,1.6431014e-07,1.646248e-07,1.3102273e-06,1310988,-0.23795107,-0.010791022,-0.05336976,0.4,0.014408572,0.014057019,0.00078124576,197388,0.003718184,-0.006540484,-0.0022044715,0.5,9.155475e-05,0.0012334572,0.0012096509,1,1,1,0,1,0
62396000,62316000,1310988,-0.0012010129,-0.005197127,0.000117939926,0.15,1.6427677e-07,1.6470948e-07,1.2796294e-06,1310988,-0.23752952,-0.010260592,-0.04740758,0.4,0.014391252,0.014041745,0.00078124576,197388,0.003718184,-0.006540484,-0.0022044715,0.5,9.155475e-05,0.0012334572,0.0012096509,1,1,1,0,1,0
62796000,62716000,1310988,-0.0011548183,-0.005250619,0.00012219639,0.15,1.6427548e-07,1.6479356e-07,1.2475361e-06,1310988,-0.2373557,-0.010160103,-0.04096098,0.4,0.014373749,0.014026446,0.00078124576,197388,0.003718184,-0.006540484,-0.0022044715,0.5,9.155475e-05,0.0012334572,0.0012096509,1,1,1,0,1,0
63196000,63116000,1310988,-0.0011164135,-0.005294175,0.00013460491,0.15,1.6428697e-07,1.6486155e-07,1.2187876e-06,1310988,-0.23734097,-0.010082597,-0.034610562,0.4,0.014356572,0.014011659,0.00078124576,197388,0.003718184,-0.006540484,-0.0022044715,0.5,9.155475e-05,0.0012334572,0.0012096509,1,1,1,0,1,0
63596000,63516000,1310988,-0.0010858624,-0.0053320485,0.0001431098,0.15,1.6429387e-07,1.6490208e-07,1.1971798e-06,1310988,-0.23741986,-0.0101564415,-0.028234296,0.4,0.014340632,0.013997949,0.00078124576,197388,0.003718184,-0.006540484,-0.0022044715,0.5,9.155475e-05,0.0012334572,0.0012096509,1,1,1,0,1,0
63996000,63916000,1310988,-0.0010674018,-0.005366893,0.00015480357,0.15,1.6428244e-07,1.6490127e-07,1.173007e-06,1310988,-0.23739822,-0.010671028,-0.021911968,0.4,0.014325992,0.013985448,0.00078124576,197388,0.003718184,-0.006540484,-0.0022044715,0.5,9.155475e-05,0.0012334572,0.0012096509,1,1,1,0,1,0
64396000,64316000,1310988,-0.0010567793,-0.005393577,0.00016644306,0.15,1.6424801e-07,1.648631e-07,1.1543781e-06,1310988,-0.23767546,-0.011439064,-0.01550535,0.4,0.014313248,0.013974573,0.00078124576,197388,0.003718184,-0.006540484,-0.0022044715,0.5,9.155475e-05,0.0012334572,0.0012096509,1,1,1,0,1,0
64796000,64716000,1310988,-0.0010492352,-0.0054178406,0.00017456932,0.15,1.6418869e-07,1.6478259e-07,1.1322848e-06,1310988,-0.23785241,-0.0120707955,-0.009577503,0.4,0.014302222,0.013965349,0.00078124576,197388,0.003718184,-0.006540484,-0.0022044715,0.5,9.155475e-05,0.0012334572,0.0012096509,1,1,1,0,1,0
65196000,65116000,1310988,-0.0010400177,-0.005427493,0.00018680118,0.15,1.641067e-07,1.646684e-07,1.1107517e-06,1310988,-0.2385798,-0.012518983,-0.00377928,0.4,0.014293215,0.013957931,0.00078124576,197388,0.003718184,-0.006540484,-0.0022044715,0.5,9.155475e-05,0.0012334572,0.0012096509,1,1,1,0,1,0
65604000,65524000,1310988,-0.0010410286,-0.005439074,0.00019698522,0.15,1.6404826e-07,1.6457065e-07,1.089736e-06,1310988,-0.23906188,-0.013192925,0.0021585582,0.4,0.014285971,0.013952102,0.00078124576,197388,0.003718184,-0.006540484,-0.0022044715,0.5,9.155475e-05,0.0012334572,0.0012096509,1,1,1,0,1,0
65996000,65916000,1310988,-0.0010441042,-0.00544487,0.00021169234,0.15,1.6387762e-07,1.6436213e-07,1.0729129e-06,1310988,-0.23948805,-0.013751638,0.0068084197,0.4,0.014280598,0.013947826,0.00078124576,197388,0.003718184,-0.006540484,-0.0022044715,0.5,9.155475e-05,0.0012334572,0.0012096509,1,1,1,0,1,0
66396000,66316000,1310988,-0.001052531,-0.005450954,0.0002236183,0.15,1.6378685e-07,1.6423259e-07,1.052591e-06,1310988,-0.23977877,-0.014359499,0.011960555,0.4,0.014275056,0.013943326,0.00078124576,197388,0.003718184,-0.006540484,-0.0022044715,0.5,9.155475e-05,0.0012334572,0.0012096509,1,1,1,0,1,0
66796000,66716000,1310988,-0.001058844,-0.005451312,0.00023785942,0.15,1.6386727e-07,1.6427869e-07,1.0364453e-06,1310988,-0.24018507,-0.015133901,0.016667921,0.4,0.014253467,0.013923361,0.00078124576,197388,0.003718184,-0.006540484,-0.0022044715,0.5,9.155475e-05,0.0012334572,0.0012096509,1,1,1,0,1,0
67196000,67116000,1310988,-0.0010682619,-0.0054528997,0.00025368895,0.15,1.6386214e-07,1.6423829e-07,1.0169327e-06,1310988,-0.24034083,-0.015850544,0.020020436,0.4,0.014241808,0.013912826,0.00078124576,197388,0.003718184,-0.006540484,-0.0022044715,0.5,9.155475e-05,0.0012334572,0.0012096509,1,1,1,0,1,0
67596000,67516000,1310988,-0.0010807683,-0.005449542,0.00027390875,0.15,1.6381215e-07,1.6415478e-07,9.97932e-07,1310988,-0.2406147,-0.016487617,0.023538994,0.4,0.014234894,0.013906729,0.00078124576,197388,0.003718184,-0.006540484,-0.0022044715,0.5,9.155475e-05,0.0012334572,0.0012096509,1,1,1,0,1,0
67996000,67916000,1310988,-0.0010942316,-0.005448265,0.00028470648,0.15,1.637347e-07,1.6404681e-07,9.829644e-07,1310988,-0.24074806,-0.016893074,0.027251016,0.4,0.014230899,0.013903279,0.00078124576,197388,0.003718184,-0.006540484,-0.0022044715,0.5,9.155475e-05,0.0012334572,0.0012096509,1,1,1,0,1,0
68396000,68316000,1310988,-0.0011080843,-0.0054437416,0.00029988654,0.15,1.6363721e-07,1.6391922e-07,9.649277e-07,1310988,-0.24088265,-0.0172149,0.029748488,0.4,0.014228587,0.013901433,0.00078124576,197388,0.003718184,-0.006540484,-0.0022044715,0.5,9.155475e-05,0.0012334572,0.0012096509,1,1,1,0,1,0
68796000,68716000,1310988,-0.0011225267,-0.005442056,0.0003130342,0.15,1.635225e-07,1.6377652e-07,9.4739954e-07,1310988,-0.2409313,-0.01737787,0.03193911,0.4,0.014227386,0.013900592,0.00078124576,197388,0.003718184,-0.006540484,-0.0022044715,0.5,9.155475e-05,0.0012334572,0.0012096509,1,1,1,0,1,0
69196000,69116000,1310988,-0.001140299,-0.0054368856,0.00032494208,0.15,1.6339479e-07,1.6362353e-07,9.303834e-07,1310988,-0.24094048,-0.017385311,0.03376104,0.4,0.014226589,0.013900096,0.00078124576,197388,0.003718184,-0.006540484,-0.0022044715,0.5,9.155475e-05,0.0012334572,0.0012096509,1,1,1,0,1,0
69596000,69516000,1310988,-0.00115552,-0.0054329773,0.00033461137,0.15,1.6325811e-07,1.634651e-07,9.170887e-07,1310988,-0.24091889,-0.017219057,0.035659287,0.4,0.01422569,0.013899415,0.00078124576,197388,0.003718184,-0.006540484,-0.0022044715,0.5,9.155475e-05,0.0012334572,0.0012096509,1,1,1,0,1,0
69996000,69916000,1310988,-0.0011735095,-0.0054281587,0.00035516554,0.15,1.6311961e-07,1.633065e-07,9.0096694e-07,1310988,-0.24079943,-0.016914437,0.037361205,0.4,0.0142241595,0.01389818,0.00078124576,197388,0.003718184,-0.006540484,-0.0022044715,0.5,9.155475e-05,0.0012334572,0.0012096509,1,1,1,0,1,0
