timestamp,timestamp_sample,time_last_fuse,device_id,observation,observation_variance,innovation,innovation_variance,test_ratio,estimator_instance,fusion_enabled,innovation_rejected,fused
3436000,3353914,0,0,-0.001373291,12.25,-6.9490634e-06,112.451,1.7177076e-14,0,0,0,0
3500000,3414907,0,0,-0.03704834,12.25,0.03803264,112.25,5.1545004e-07,0,0,0,0
3556000,3475031,0,0,0.029418945,12.25,-0.029137865,112.25,3.0254438e-07,0,0,0,0
3620000,3535069,0,0,-0.037750244,12.25,0.037136484,62.25,8.861805e-07,0,0,0,0
3676000,3593167,0,0,-0.03262329,12.25,0.033461325,62.249985,7.1946056e-07,0,0,0,0
3740000,3655192,0,0,0.13119507,12.25,-0.13044938,62.249985,1.0934648e-05,0,0,0,0
3796000,3715283,0,0,-0.013031006,12.25,0.013583766,62.249985,1.1856626e-07,0,0,0,0
3860000,3775305,0,0,-0.00793457,12.25,0.007992707,45.58333,5.6058532e-08,0,0,0,0
3916000,3835384,0,0,-0.02444458,12.25,0.024121106,45.58333,5.1056185e-07,0,0,0,0
3972000,3891402,0,0,0.14233398,12.25,-0.14309075,45.58333,1.7967064e-05,0,0,0,0
4028000,3943454,0,0,0.034576416,12.25,-0.03581754,45.58337,1.1257582e-06,0,0,0,0
4084000,4003486,4004000,0,-0.059326172,12.25,0.05794072,37.250046,3.6049644e-06,0,0,0,0
4148000,4062196,4068000,0,-0.048980713,12.25,0.04697598,37.250107,2.3696498e-06,0,1,0,1
4204000,4119558,4124000,0,-0.1381836,12.25,0.10401212,20.47152,2.1138676e-05,0,1,0,1
4252000,4169588,4172000,0,-0.006713867,12.25,-0.06982502,17.169724,1.1358444e-05,0,1,0,1
4316000,4230286,4236000,0,-0.07244873,12.25,0.015209738,15.760099,5.8714386e-07,0,1,0,1
4372000,4291646,4292000,0,-0.12408447,12.25,0.06272047,14.978389,1.0505421e-05,0,1,0,1
4436000,4351673,4356000,0,0.10128784,12.25,-0.17500752,14.481491,8.4598e-05,0,1,0,1
4492000,4411695,4412000,0,-0.06304932,12.25,0.015791994,14.137716,7.055936e-07,0,1,0,1
4556000,4471719,4476000,0,-0.119384766,12.25,0.069104694,13.885798,1.3756381e-05,0,1,0,1
4612000,4529735,4532000,0,-0.06304932,12.25,0.0037687123,13.693243,4.1489635e-08,0,1,0,1
4660000,4579751,4580000,0,0.030853271,12.25,-0.09130714,13.541277,2.4626906e-05,0,1,0,1
4724000,4639772,4644000,0,-0.044281006,12.25,-0.007832602,13.418297,1.8288357e-07,0,1,0,1
4780000,4699786,4700000,0,0.044921875,12.25,-0.09720809,13.316791,2.8383454e-05,0,1,0,1
4844000,4759806,4764000,0,-0.011413574,12.25,-0.034100574,13.231623,3.5153637e-06,0,1,0,1
4900000,4819816,4820000,0,-0.08181763,12.25,0.03888929,13.15893,4.5972643e-06,0,1,0,1
4964000,4879832,4884000,0,-0.06774902,12.25,0.021205723,13.0964775,1.3734464e-06,0,1,0,1
5020000,4939843,4940000,0,0.06842041,12.25,-0.11716108,13.0421,4.209972e-05,0,1,0,1
5084000,4999855,5004000,0,-0.086517334,12.25,0.04393325,12.99443,5.9414083e-06,0,1,0,1
5140000,5059864,5060000,0,-0.086517334,12.25,0.04182835,12.95189,5.403415e-06,0,1,0,1
5204000,5119876,5124000,0,0.01675415,12.25,-0.06458699,12.914313,1.2920484e-05,0,1,0,1
5260000,5179884,5180000,0,-0.05834961,12.25,0.013051823,12.880594,5.290131e-07,0,1,0,1
5324000,5239894,5244000,0,0.026153564,12.25,-0.07161286,12.849842,1.5964091e-05,0,1,0,1
5380000,5299900,5300000,0,-0.030181885,12.25,-0.012653433,12.822298,4.9947164e-07,0,1,0,1
5444000,5359909,5364000,0,-0.09591675,12.25,0.052797314,12.797338,8.712926e-06,0,1,0,1
5500000,5419914,5420000,0,0.05432129,12.25,-0.10046307,12.774493,3.1603064e-05,0,1,0,1
5564000,5478587,5484000,0,-0.05834961,12.25,0.016985875,12.753006,9.0494734e-07,0,1,0,1
5620000,5539926,5540000,0,-0.06774902,12.25,0.025043435,12.733718,1.9701195e-06,0,1,0,1
5684000,5598599,5604000,0,-0.06774902,12.25,0.023306169,12.716036,1.7086377e-06,0,1,0,1
5740000,5659937,5660000,0,-0.025482178,12.25,-0.018896233,12.698859,1.1247236e-06,0,1,0,1
5804000,5719942,5724000,0,0.08718872,12.25,-0.13164088,12.683659,5.4650864e-05,0,1,0,1
5860000,5779946,5780000,0,-0.044281006,12.25,0.0036742277,12.669467,4.2622e-08,0,1,0,1
5924000,5839950,5844000,0,-0.09591675,12.25,0.0544145,12.656368,9.357938e-06,0,1,0,1
5980000,5899953,5900000,0,-0.044281006,12.25,0.0020878874,12.643126,1.379176e-08,0,1,0,1
6044000,5958623,5964000,0,-0.044281006,12.25,0.0013162382,12.63165,5.486165e-09,0,1,0,1
6100000,6017960,6020000,0,-0.0020141602,12.25,-0.041638028,12.620826,5.494808e-06,0,1,0,1
6148000,6067962,6068000,0,-0.06774902,12.25,0.026455358,12.6096,2.2201687e-06,0,1,0,1
6212000,6127966,6132000,0,-0.048980713,12.25,0.006267745,12.600093,1.2471219e-07,0,1,0,1
6268000,6187967,6188000,0,0.007385254,12.25,-0.050877616,12.591069,8.223389e-06,0,1,0,1
6332000,6247971,6252000,0,-0.053649902,12.25,0.010791738,12.582696,3.7022778e-07,0,1,0,1
6388000,6307972,6308000,0,0.040252686,12.25,-0.08225635,12.573583,2.1524833e-05,0,1,0,1
6452000,6367974,6372000,0,-0.0395813,12.25,-0.000900615,12.566067,2.5818974e-09,0,1,0,1
6508000,6427976,6428000,0,0.021453857,12.25,-0.062457144,12.558878,1.2424342e-05,0,1,0,1
6572000,6487978,6492000,0,-0.07244873,12.25,0.03392793,12.551041,3.6685544e-06,0,1,0,1
6628000,6547979,6548000,0,0.026153564,12.25,-0.0659586,12.544534,1.3872294e-05,0,1,0,1
6692000,6607981,6612000,0,-0.11468506,12.25,0.07590868,12.538487,1.838221e-05,0,1,0,1
6748000,6667983,6668000,0,0.03555298,12.25,-0.07651772,12.5326605,1.8687053e-05,0,1,0,1
6812000,6727984,6732000,0,0.0026855469,12.25,-0.041145273,12.525977,5.4061525e-06,0,1,0,1
6868000,6787985,6788000,0,-0.11468506,12.25,0.07674415,12.520655,1.8815834e-05,0,1,0,1
6932000,6847986,6852000,0,-0.048980713,12.25,0.0088957995,12.515724,2.5291465e-07,0,1,0,1
6988000,6907987,6908000,0,-0.05834961,12.25,0.018866252,12.50965,1.138115e-06,0,1,0,1
7052000,6967988,6972000,0,0.012054443,12.25,-0.052273426,12.505122,8.740454e-06,0,1,0,1
7108000,7027989,7028000,0,-0.0020141602,12.25,-0.037399538,12.500716,4.475665e-06,0,1,0,1
7172000,7087990,7092000,0,-0.006713867,12.25,-0.032239176,12.496654,3.3268568e-06,0,1,0,1
7228000,7145991,7148000,0,-0.06304932,12.25,0.025319189,12.49129,2.0528266e-06,0,1,0,1
7276000,7195991,7196000,0,0.03555298,12.25,-0.07396047,12.4873,1.7522287e-05,0,1,0,1
7340000,7255992,7260000,0,0.01675415,12.25,-0.053984504,12.483731,9.337999e-06,0,1,0,1
7396000,7315993,7316000,0,-0.011413574,12.25,-0.024475794,12.478876,1.9202516e-06,0,1,0,1
7460000,7375993,7380000,0,-0.044281006,12.25,0.00866852,12.475561,2.4092938e-07,0,1,0,1
7516000,7435994,7436000,0,0.012054443,12.25,-0.047980793,12.472297,7.3832643e-06,0,1,0,1
7580000,7495994,7500000,0,-0.025482178,12.25,-0.009765089,12.469315,3.058932e-07,0,1,0,1
7636000,7555995,7556000,0,0.012054443,12.25,-0.046809226,12.464924,7.031262e-06,0,1,0,1
7700000,7615995,7620000,0,-0.07714844,12.25,0.04312503,12.462138,5.969339e-06,0,1,0,1
7756000,7675995,7676000,0,-0.05834961,12.25,0.023525111,12.4593725,1.7767536e-06,0,1,0,1
7820000,7735996,7740000,0,-0.011413574,12.25,-0.02380392,12.455443,1.8196915e-06,0,1,0,1
7876000,7795996,7796000,0,-0.07714844,12.25,0.042306505,12.452849,5.7491757e-06,0,1,0,1
7940000,7855997,7860000,0,-0.08181763,12.25,0.046223685,12.450499,6.864397e-06,0,1,0,1
7996000,7915997,7916000,0,0.012054443,12.25,-0.048431356,12.448145,7.5371754e-06,0,1,0,1
8060000,7975997,7980000,0,-0.044281006,12.25,0.008742966,12.444537,2.4569638e-07,0,1,0,1
8116000,8035997,8036000,0,-0.11468506,12.25,0.0789554,12.442319,2.0041134e-05,0,1,0,1
8180000,8094664,8100000,0,0.021453857,12.25,-0.05848349,12.440331,1.0997515e-05,0,1,0,1
8236000,8153998,8156000,0,-0.09121704,12.25,0.0551925,12.436855,9.797371e-06,0,1,0,1
8284000,8203998,8204000,0,-0.11468506,12.25,0.07778394,12.434738,1.9462706e-05,0,1,0,1
8348000,8263998,8268000,0,-0.030181885,12.25,-0.007963207,12.432953,2.0401481e-07,0,1,0,1
8404000,8323998,8324000,0,-0.025482178,12.25,-0.012662265,12.431139,5.159076e-07,0,1,0,1
8468000,8383998,8388000,0,-0.13348389,12.25,0.09585045,12.42803,2.9569639e-05,0,1,0,1
8524000,8441999,8444000,0,-0.0395813,12.25,0.00042760372,12.426308,5.885737e-10,0,1,0,1
8572000,8491999,8492000,0,-0.05834961,12.25,0.019085865,12.424541,1.1727444e-06,0,1,0,1
8636000,8551999,8556000,0,-0.07714844,12.25,0.03749533,12.423111,4.526724e-06,0,1,0,1
8692000,8609999,8612000,0,-0.025482178,12.25,-0.0144622885,12.420082,6.736116e-07,0,1,0,1
8740000,8659999,8660000,0,-0.10531616,12.25,0.0655282,12.41847,1.3830832e-05,0,1,0,1
8804000,8719999,8724000,0,-0.040039062,12.250135,-0.03407626,13.250149,3.505444e-06,0,1,0,1
8860000,8779999,8780000,0,-0.04473877,12.251081,-0.027369551,13.176425,2.2740383e-06,0,1,0,1
8924000,8839999,8844000,0,-0.13864136,12.252164,0.06781252,13.114882,1.40254015e-05,0,1,0,1
8980000,8899999,8900000,0,0.08673096,12.25311,-0.16257545,13.06232,8.0937476e-05,0,1,0,1
9044000,8958666,8964000,0,-0.09640503,12.254191,0.030055948,13.018259,2.7756705e-06,0,1,0,1
9100000,9020000,9020000,0,-0.035369873,12.2551365,-0.033262096,12.979787,3.4095078e-06,0,1,0,1
9164000,9078666,9084000,0,-0.13397217,12.256216,0.06660966,12.947782,1.3706893e-05,0,1,0,1
9220000,9138000,9140000,0,-0.09637451,12.25716,0.022184938,12.651249,1.5561199e-06,0,1,0,1
9268000,9188000,9188000,0,-0.11514282,12.257967,0.039816998,12.642132,5.0162216e-06,0,1,0,1
9332000,9245333,9252000,0,-0.13391113,12.259044,0.05679527,12.635286,1.0211727e-05,0,1,0,1
9380000,9296000,9300000,0,-0.021209717,12.259849,-0.05803913,12.62815,1.0669942e-05,0,1,0,1
9436000,9356000,9356000,0,-0.035308838,12.260788,-0.042765424,12.622621,5.795568e-06,0,1,0,1
9500000,9416000,9420000,0,0.016296387,12.26186,-0.093756974,12.618825,2.7864307e-05,0,1,0,1
9556000,9476000,9476000,0,-0.058898926,12.262795,-0.016397767,12.615008,8.525932e-07,0,1,0,1
9620000,9536000,9540000,0,-0.058929443,12.2638645,-0.0147100985,12.517316,6.914805e-07,0,1,0,1
9676000,9595000,9596000,0,-0.082458496,12.264795,0.00880149,12.516414,2.4756685e-07,0,1,0,1
9740000,9656000,9660000,0,0.044311523,12.26586,-0.11849188,12.516617,4.4869397e-05,0,1,0,1
9796000,9716000,9716000,0,-0.049743652,12.266786,-0.022312254,12.51656,1.5909696e-06,0,1,0,1
9860000,9776000,9780000,0,-0.012207031,12.267845,-0.059677795,12.517664,1.1380524e-05,0,1,0,1
9916000,9835000,9836000,0,-0.016998291,12.268766,-0.053897634,12.518353,9.282227e-06,0,1,0,1
9980000,9896000,9900000,0,-0.054626465,12.269819,-0.015402049,12.520259,7.5788563e-07,0,1,0,1
10036000,9955000,9956000,0,-0.101623535,12.270735,0.032885678,12.465676,3.470226e-06,0,1,0,1
10100000,10016000,10020000,0,0.15197754,12.271782,-0.22130054,12.467786,0.0001571215,0,1,0,1
10156000,10076000,10076000,0,-0.054992676,12.272691,-0.010883905,12.4694805,3.7999783e-07,0,1,0,1
10220000,10136000,10140000,0,-0.22406006,12.27373,0.15835935,12.472137,8.042786e-05,0,1,0,1
10276000,10196000,10196000,0,-0.035949707,12.274632,-0.032266602,12.474277,3.3384981e-06,0,1,0,1
10340000,10256000,10260000,0,-0.18154907,12.275665,0.113932386,12.47743,4.161302e-05,0,1,0,1
10396000,10315000,10316000,0,-0.10620117,12.276559,0.03652312,12.471856,4.2782344e-06,0,1,0,1
10460000,10376000,10380000,0,0.006591797,12.277584,-0.075750776,12.442826,1.844655e-05,0,1,0,1
10516000,10436000,10436000,0,-0.049957275,12.278469,-0.01811514,12.445228,1.0547283e-06,0,1,0,1
10580000,10496000,10500000,0,-0.11102295,12.279486,0.043294564,12.448488,6.0229618e-06,0,1,0,1
10636000,10556000,10556000,0,-0.059265137,12.280362,-0.008991033,12.451194,2.596977e-07,0,1,0,1
10700000,10616000,10620000,0,-0.03112793,12.28137,-0.036886558,12.454802,4.3697787e-06,0,1,0,1
10756000,10676000,10676000,0,-0.10165405,12.282237,0.034338005,12.457778,3.7859033e-06,0,1,0,1
10820000,10736000,10740000,0,-0.1156311,12.283236,0.044060178,12.429231,6.2475283e-06,0,1,0,1
10876000,10796000,10796000,0,0.0065612793,12.284093,-0.07865554,12.431932,1.9905816e-05,0,1,0,1
10940000,10856000,10860000,0,-0.031219482,12.285081,-0.039879747,12.435425,5.115689e-06,0,1,0,1
10996000,10916000,10916000,0,-0.040740967,12.285929,-0.029766053,12.438351,2.84931e-06,0,1,0,1
11060000,10976000,10980000,0,-0.30844116,12.286906,0.23848936,12.4421015,0.00018285391,0,1,0,1
11116000,11035000,11036000,0,-0.10586548,12.287744,0.033123687,12.445228,3.526424e-06,0,1,0,1
11180000,11096000,11100000,0,-0.13394165,12.288711,0.061052084,12.449214,1.19762e-05,0,1,0,1
11236000,11156000,11156000,0,-0.01638794,12.289536,-0.055567935,12.42455,9.940949e-06,0,1,0,1
11300000,11216000,11220000,0,0.01159668,12.290492,-0.08251816,12.428099,2.1915652e-05,0,1,0,1
11356000,11276000,11276000,0,-0.11541748,12.2913065,0.04586278,12.431084,6.7681776e-06,0,1,0,1
11420000,11336000,11340000,0,0.02557373,12.292251,-0.09508342,12.434836,2.9082354e-05,0,1,0,1
11476000,11396000,11396000,0,-0.031097412,12.293054,-0.03675895,12.437975,4.345468e-06,0,1,0,1
11540000,11456000,11460000,0,-0.16268921,12.293986,0.09596773,12.441914,2.960897e-05,0,1,0,1
11596000,11515000,11516000,0,0.0066833496,12.294777,-0.07251754,12.438679,1.6911097e-05,0,1,0,1
11660000,11576000,11580000,0,0.011077881,12.295698,-0.07772067,12.424095,1.9447703e-05,0,1,0,1
11716000,11636000,11636000,0,-0.054901123,12.296476,-0.010092288,12.427055,3.2784686e-07,0,1,0,1
11780000,11696000,11700000,0,-0.078430176,12.297384,0.014592305,12.430739,6.8518966e-07,0,1,0,1
11836000,11756000,11756000,0,-0.08306885,12.29815,0.02006656,12.433825,1.2953916e-06,0,1,0,1
11900000,11816000,11820000,0,-0.120513916,12.299045,0.05847719,12.437659,1.0997509e-05,0,1,0,1
11956000,11876000,11876000,0,-0.07333374,12.299798,0.01172024,12.440853,4.416547e-07,0,1,0,1
12020000,11936000,11940000,0,-0.13430786,12.30068,0.068385035,12.422085,1.5058706e-05,0,1,0,1
12076000,11996000,11996000,0,-0.06829834,12.30142,0.002687037,12.424978,2.3244041e-08,0,1,0,1
12140000,12056000,12060000,0,-0.044830322,12.302289,-0.019657195,12.428557,1.2436047e-06,0,1,0,1
12196000,12116000,12116000,0,-0.01675415,12.303015,-0.046546042,12.431553,6.9710813e-06,0,1,0,1
12260000,12176000,12180000,0,-0.09207153,12.30387,0.030444913,12.435261,2.981498e-06,0,1,0,1
12316000,12236000,12236000,0,-0.13891602,12.304584,0.07806517,12.43835,1.9598006e-05,0,1,0,1
12380000,12296000,12300000,0,0.030456543,12.305426,-0.09090063,12.442174,2.6564248e-05,0,1,0,1
12436000,12356000,12356000,0,-0.06854248,12.306126,0.004051283,12.424098,5.284213e-08,0,1,0,1
12500000,12416000,12420000,0,-0.07791138,12.306953,0.014528573,12.427556,6.793916e-07,0,1,0,1
12556000,12476000,12476000,0,-0.12008667,12.307639,0.057595547,12.430449,1.0674586e-05,0,1,0,1
12612000,12532000,12532000,0,0.049194336,12.308318,-0.11120136,12.43338,3.97824e-05,0,1,0,1
12668000,12582666,12588000,0,-0.1015625,12.3089905,0.041768063,12.436347,5.6112012e-06,0,1,0,1
12724000,12642000,12644000,0,-0.13894653,12.309657,0.079878375,12.439349,2.0517326e-05,0,1,0,1
12772000,12692000,12692000,0,-0.09158325,12.310183,0.03269268,12.4417095,3.4362197e-06,0,1,0,1
12836000,12752000,12756000,0,-0.124298096,12.310973,0.06565781,12.425559,1.3877679e-05,0,1,0,1
12892000,12812000,12812000,0,-0.062927246,12.31162,0.0049382225,12.428326,7.8485364e-08,0,1,0,1
12956000,12870666,12876000,0,-0.086364746,12.312396,0.029828675,12.431739,2.8628333e-06,0,1,0,1
13012000,12928000,12932000,0,-0.034576416,12.313029,-0.020903934,12.434582,1.4056749e-06,0,1,0,1
13060000,12980000,12980000,0,-0.03466797,12.313521,-0.019414164,12.436824,1.212238e-06,0,1,0,1
13124000,13040000,13044000,0,-0.119262695,12.314279,0.067014545,12.440371,1.443992e-05,0,1,0,1
13180000,13100000,13100000,0,-0.16589355,12.314893,0.11442248,12.443308,4.2086893e-05,0,1,0,1
13244000,13160000,13164000,0,-0.09954834,12.315636,0.043601293,12.427996,6.118679e-06,0,1,0,1
13300000,13220000,13220000,0,-0.038269043,12.316236,-0.016687509,12.430687,8.9608227e-07,0,1,0,1
13364000,13280000,13284000,0,-0.014892578,12.316964,-0.03827014,12.4340105,4.7116046e-06,0,1,0,1
13420000,13340000,13340000,0,0.060028076,12.31755,-0.11132944,12.436771,3.9863222e-05,0,1,0,1
13484000,13400000,13404000,0,-0.034484863,12.318265,-0.01396177,12.440188,6.2677833e-07,0,1,0,1
13540000,13458000,13460000,0,-0.08154297,12.318836,0.034812566,12.443013,3.8958883e-06,0,1,0,1
13588000,13508000,13508000,0,-0.10482788,12.319266,0.059128623,12.445221,1.1237065e-05,0,1,0,1
13652000,13568000,13572000,0,-0.06222534,12.3199625,0.007429268,12.430562,1.776075e-07,0,1,0,1
13708000,13628000,13628000,0,-0.16079712,12.320516,0.10733319,12.433181,3.7063448e-05,0,1,0,1
13772000,13688000,13692000,0,-0.11791992,12.3211975,0.065118775,12.436421,1.3638826e-05,0,1,0,1
13828000,13748000,13748000,0,-0.108184814,12.321736,0.05620498,12.439107,1.0158285e-05,0,1,0,1
13892000,13808000,13812000,0,-0.046813965,12.322404,-0.004024029,12.442436,5.205671e-08,0,1,0,1
13948000,13868000,13868000,0,-0.20178223,12.322928,0.15248954,12.445185,7.473754e-05,0,1,0,1
14012000,13928000,13932000,0,-0.03186035,12.323583,-0.02029407,12.431196,1.3252121e-06,0,1,0,1
14068000,13988000,13988000,0,-0.097717285,12.324094,0.047222402,12.4337225,7.1738946e-06,0,1,0,1
14132000,14048000,14052000,0,-0.13031006,12.324734,0.0811185,12.436854,2.1163587e-05,0,1,0,1
14188000,14108000,14108000,0,-0.012451172,12.325232,-0.035942316,12.439449,4.154043e-06,0,1,0,1
14252000,14168000,14172000,0,-0.045532227,12.325858,-0.000697311,12.442672,1.5631454e-09,0,1,0,1
14308000,14228000,14228000,0,-0.012664795,12.326342,-0.031884886,12.44533,3.267558e-06,0,1,0,1
14372000,14286666,14292000,0,0.010650635,12.326955,-0.052936774,12.44864,9.004364e-06,0,1,0,1
14428000,14348000,14348000,0,0.057250977,12.327426,-0.106864944,12.434337,3.6737354e-05,0,1,0,1
14492000,14408000,14412000,0,0.05657959,12.328025,-0.10350033,12.437372,3.445203e-05,0,1,0,1
14548000,14468000,14468000,0,-0.061431885,12.328482,0.017041374,12.439883,9.33798e-07,0,1,0,1
14612000,14526666,14532000,0,0.004425049,12.329068,-0.047102638,12.443011,7.132224e-06,0,1,0,1
14668000,14588000,14588000,0,-0.028747559,12.329513,-0.011846229,12.44559,4.5102936e-07,0,1,0,1
14732000,14648000,14652000,0,-0.09454346,12.330086,0.05599092,12.448808,1.00731995e-05,0,1,0,1
14788000,14708000,14708000,0,-0.075408936,12.330517,0.038039673,12.45145,4.6485084e-06,0,1,0,1
14852000,14765333,14772000,0,-0.10803223,12.331079,0.06404804,12.437929,1.3192392e-05,0,1,0,1
14908000,14826000,14828000,0,-0.065338135,12.331496,0.022356465,12.440367,1.6070637e-06,0,1,0,1
14956000,14876000,14876000,0,-0.13562012,12.331774,0.093754694,12.4422655,2.8258335e-05,0,1,0,1
15020000,14936000,14940000,0,-0.07397461,12.332317,0.033073217,12.445345,3.5156522e-06,0,1,0,1
15076000,14996000,14996000,0,-0.05496216,12.33272,0.015346747,12.447881,7.5682806e-07,0,1,0,1
15140000,15054666,15060000,0,-0.07366943,12.333251,0.035718113,12.451052,4.098557e-06,0,1,0,1
15196000,15116000,15116000,0,-0.049926758,12.333641,0.0064219236,12.449464,1.3250724e-07,0,1,0,1
15260000,15176000,15180000,0,-0.1015625,12.334161,0.055858098,12.440353,1.0032278e-05,0,1,0,1
15316000,15236000,15236000,0,-0.04486084,12.3345375,0.00014279783,12.442754,6.555211e-11,0,1,0,1
15380000,15296000,15300000,0,-0.15283203,12.335045,0.10986438,12.445762,3.8792903e-05,0,1,0,1
15436000,15356000,15356000,0,0.054504395,12.33541,-0.09690209,12.448236,3.0172996e-05,0,1,0,1
15500000,15416000,15420000,0,-0.11987305,12.335906,0.08017315,12.45134,2.0649131e-05,0,1,0,1
15556000,15476000,15476000,0,-0.06768799,12.33626,0.028863724,12.453885,2.6758382e-06,0,1,0,1
15620000,15536000,15540000,0,-0.16607666,12.336743,0.11998229,12.440887,4.628528e-05,0,1,0,1
15676000,15596000,15596000,0,-0.14175415,12.337085,0.096155986,12.443231,2.97221e-05,0,1,0,1
15740000,15656000,15660000,0,-0.07537842,12.337558,0.03071542,12.446176,3.0320546e-06,0,1,0,1
15796000,15716000,15716000,0,0.0093688965,12.337888,-0.052741997,12.448595,8.9382565e-06,0,1,0,1
15860000,15774666,15780000,0,-0.03326416,12.338348,-0.007781185,12.451638,1.9450242e-07,0,1,0,1
15916000,15834000,15836000,0,0.00894165,12.338669,-0.04821633,12.454133,7.466805e-06,0,1,0,1
15964000,15884000,15884000,0,-0.080596924,12.338848,0.04325255,12.456049,6.007629e-06,0,1,0,1
16028000,15944000,15948000,0,-0.09439087,12.339296,0.052433927,12.443144,8.838013e-06,0,1,0,1
16084000,16004000,16004000,0,-0.10809326,12.3396015,0.06732668,12.445467,1.456878e-05,0,1,0,1
16148000,16064000,16068000,0,-0.079437256,12.340038,0.03995849,12.448395,5.130559e-06,0,1,0,1
16204000,16124000,16124000,0,-0.14959717,12.340333,0.111442,12.450796,3.9898878e-05,0,1,0,1
16268000,16182666,16188000,0,-0.07836914,12.340759,0.041227642,12.453826,5.4592656e-06,0,1,0,1
16324000,16244000,16244000,0,-0.08276367,12.341044,0.04704907,12.4563055,7.108417e-06,0,1,0,1
16388000,16304000,16308000,0,-0.05895996,12.34146,0.024900123,12.4594345,1.9905112e-06,0,1,0,1
16444000,16364000,16364000,0,0.044525146,12.341736,-0.08674696,12.44587,2.4184841e-05,0,1,0,1
16508000,16424000,16428000,0,-0.11105347,12.342141,0.07150072,12.448747,1.6426884e-05,0,1,0,1
16564000,16484000,16484000,0,-0.04949951,12.342405,0.011058632,12.451106,3.9287545e-07,0,1,0,1
16628000,16542666,16548000,0,-0.072906494,12.342801,0.03639809,12.454087,4.2550564e-06,0,1,0,1
16684000,16604000,16604000,0,-0.1524353,12.343056,0.117466256,12.456526,4.430873e-05,0,1,0,1
16748000,16662666,16668000,0,-0.043548584,12.343443,0.009711813,12.459612,3.0280017e-07,0,1,0,1
16804000,16724000,16724000,0,-0.048187256,12.343688,0.0065632276,12.44621,1.3843879e-07,0,1,0,1
16868000,16782666,16788000,0,-0.17019653,12.344065,0.1306405,12.4490385,5.4837787e-05,0,1,0,1
16924000,16844000,16844000,0,-0.11288452,12.3443,0.074118376,12.451357,1.7647984e-05,0,1,0,1
16988000,16902666,16908000,0,-0.112335205,12.344667,0.075144425,12.454293,1.8135705e-05,0,1,0,1
17044000,16960000,16964000,0,-0.0037841797,12.344894,-0.032099053,12.456695,3.3085798e-06,0,1,0,1
17092000,17010000,17012000,0,0.010070801,12.344983,-0.043909658,12.458531,6.190322e-06,0,1,0,1
17140000,17060000,17060000,0,-0.05130005,12.34507,0.019665789,12.460391,1.2415125e-06,0,1,0,1
17204000,17120000,17124000,0,0.00048828125,12.345426,-0.03902882,12.447643,4.8948987e-06,0,1,0,1
17260000,17180000,17180000,0,-0.018585205,12.345641,-0.017639015,12.449907,9.996375e-07,0,1,0,1
17324000,17238666,17244000,0,-0.08444214,12.345987,0.050714683,12.452777,8.261543e-06,0,1,0,1
17380000,17300000,17300000,0,-0.11691284,12.346194,0.08483411,12.455126,2.311282e-05,0,1,0,1
17444000,17358666,17364000,0,-0.092803955,12.346533,0.06239368,12.458106,1.2499401e-05,0,1,0,1
17500000,17420000,17420000,0,-0.040649414,12.346731,0.011834072,12.460538,4.4956408e-07,0,1,0,1
17564000,17480000,17484000,0,-0.0687561,12.347062,0.04234813,12.463626,5.755514e-06,0,1,0,1
17620000,17540000,17540000,0,-0.13882446,12.347252,0.10504824,12.45011,3.5453926e-05,0,1,0,1
17684000,17600000,17604000,0,-0.053497314,12.347574,0.021216609,12.45294,1.445906e-06,0,1,0,1
17740000,17660000,17660000,0,-0.04864502,12.347756,0.018295586,12.455253,1.0749793e-06,0,1,0,1
17804000,17720000,17724000,0,0.017242432,12.34807,-0.0453552,12.458192,6.604792e-06,0,1,0,1
17860000,17780000,17780000,0,-0.09112549,12.348245,0.06549671,12.46059,1.37708375e-05,0,1,0,1
17924000,17840000,17844000,0,-0.02017212,12.348552,-0.003651511,12.46364,4.2791775e-08,0,1,0,1
17980000,17900000,17900000,0,-0.006134033,12.348719,-0.015521929,12.46612,7.7307226e-07,0,1,0,1
18044000,17960000,17964000,0,0.012542725,12.349019,-0.039859608,12.453003,5.10331e-06,0,1,0,1
18100000,18020000,18020000,0,-0.034729004,12.349177,0.009775281,12.455278,3.068775e-07,0,1,0,1
18164000,18080000,18084000,0,-0.09567261,12.34947,0.07303487,12.4581785,1.7126395e-05,0,1,0,1
18220000,18138000,18140000,0,-0.07159424,12.349622,0.05046385,12.460541,8.174927e-06,0,1,0,1
18268000,18188000,18188000,0,-0.10876465,12.349637,0.08906676,12.462339,2.5461954e-05,0,1,0,1
18332000,18248000,18252000,0,0.018707275,12.349921,-0.036641628,12.465392,4.3082764e-06,0,1,0,1
18388000,18308000,18308000,0,-0.03326416,12.350067,0.018028095,12.467874,1.0427191e-06,0,1,0,1
18452000,18368000,18372000,0,-0.0753479,12.350346,0.05093351,12.454668,8.331727e-06,0,1,0,1
18508000,18428000,18428000,0,-0.004547119,12.350483,-0.01808201,12.4569435,1.0498853e-06,0,1,0,1
18572000,18488000,18492000,0,-0.01876831,12.350755,-0.0011503231,12.4598465,4.248024e-09,0,1,0,1
18628000,18548000,18548000,0,-0.03753662,12.350886,0.0199045,12.462209,1.2716498e-06,0,1,0,1
18692000,18606666,18612000,0,0.004852295,12.3511505,-0.019982561,12.465222,1.2813338e-06,0,1,0,1
18748000,18668000,18668000,0,0.028167725,12.351276,-0.0407145,12.46767,5.3183e-06,0,1,0,1
18812000,18728000,18732000,0,-0.089538574,12.351536,0.07096477,12.454537,1.6174019e-05,0,1,0,1
18868000,18788000,18788000,0,-0.046691895,12.351654,0.029889219,12.456776,2.8686889e-06,0,1,0,1
18932000,18848000,18852000,0,-0.15444946,12.351906,0.14011256,12.459636,6.302441e-05,0,1,0,1
18988000,18908000,18908000,0,0.0016479492,12.352019,-0.014769144,12.461964,7.001388e-07,0,1,0,1
19052000,18966666,18972000,0,-0.11584473,12.352265,0.10566713,12.464935,3.5830246e-05,0,1,0,1
19108000,19028000,19028000,0,-0.03048706,12.352373,0.021859862,12.467348,1.5331361e-06,0,1,0,1
19172000,19088000,19092000,0,0.011962891,12.352613,-0.017862098,12.47043,1.0233955e-06,0,1,0,1
19228000,19148000,19148000,0,-0.021057129,12.3527155,0.004855018,12.4565,7.569125e-08,0,1,0,1
19292000,19208000,19212000,0,-0.04449463,12.35295,0.030981502,12.459316,3.0815606e-06,0,1,0,1
19348000,19268000,19268000,0,-0.07241821,12.353046,0.061054885,12.461606,1.1965388e-05,0,1,0,1
19412000,19328000,19332000,0,-0.010864258,12.353275,0.0017764308,12.464535,1.0126993e-08,0,1,0,1
19468000,19388000,19388000,0,-0.020263672,12.353366,0.013660017,12.466911,5.986922e-07,0,1,0,1
19532000,19445333,19452000,0,0.017425537,12.353591,-0.021240782,12.469952,1.4472256e-06,0,1,0,1
19580000,19496000,19500000,0,0.012542725,12.353541,-0.013949306,12.471775,6.240752e-07,0,1,0,1
19636000,19556000,19556000,0,-0.08148193,12.353628,0.06898917,12.457766,1.5282052e-05,0,1,0,1
19692000,19612000,19612000,0,-0.13723755,12.353713,0.12650996,12.460007,5.137965e-05,0,1,0,1
19748000,19664000,19668000,0,-0.03756714,12.353796,0.028095141,12.462289,2.5335216e-06,0,1,0,1
19804000,19724000,19724000,0,-0.18289185,12.353878,0.17553352,12.464612,9.887838e-05,0,1,0,1
19868000,19782666,19788000,0,-0.049957275,12.354094,0.04374032,12.467586,6.138208e-06,0,1,0,1
19924000,19842000,19844000,0,-0.082458496,12.354171,0.078268126,12.469994,1.9650048e-05,0,1,0,1
19972000,19892000,19892000,0,0.13415527,12.354112,-0.13695697,12.471807,6.0158767e-05,0,1,0,1
20036000,19950666,19956000,0,-0.10171509,12.354324,0.088536724,12.458429,2.5167703e-05,0,1,0,1
20092000,20012000,20012000,0,0.044555664,12.354397,-0.056177557,12.460662,1.013082e-05,0,1,0,1
20156000,20072000,20076000,0,-0.068573,12.354604,0.0615002,12.463525,1.2138698e-05,0,1,0,1
20212000,20132000,20132000,0,-0.021118164,12.354672,0.018760525,12.465846,1.129349e-06,0,1,0,1
20276000,20190666,20196000,0,0.016601562,12.354876,-0.011179309,12.468822,4.0092627e-07,0,1,0,1
20332000,20252000,20252000,0,-0.05392456,12.354939,0.068140134,12.471228,1.4892127e-05,0,1,0,1
20396000,20312000,20316000,0,0.017089844,12.355138,-0.0,12.469714,1.6064221e-06,0,1,0,1
20452000,20372000,20372000,0,0.077941895,12.355198,-0.0,12.460131,2.0627127e-05,0,1,0,1
20516000,20432000,20436000,0,0.05380249,12.3553915,-0.0,12.462949,5.512349e-06,0,1,0,1
20572000,20492000,20492000,0,-0.10147095,12.355447,0.12825386,12.465232,5.2783784e-05,0,1,0,1
20636000,20552000,20556000,0,-0.09567261,12.355636,0.13968278,12.468163,6.259553e-05,0,1,0,1
20692000,20612000,20612000,0,-0.06161499,12.355687,0.12198977,12.470532,4.773334e-05,0,1,0,1
20756000,20672000,20676000,0,-0.07467651,12.355873,0.1558624,12.473575,7.790258e-05,0,1,0,1
20812000,20732000,20732000,0,-0.0029296875,12.355921,0.03404831,12.459499,3.7217787e-06,0,1,0,1
20876000,20792000,20796000,0,-0.021453857,12.356102,0.07576614,12.462272,1.8425239e-05,0,1,0,1
20932000,20852000,20852000,0,-0.09121704,12.356145,0.16694146,12.464518,8.9436115e-05,0,1,0,1
20996000,20912000,20916000,0,0.060455322,12.356323,0.0406634,12.467405,5.305072e-06,0,1,0,1
21052000,20970000,20972000,0,0.013824463,12.356362,0.11182433,12.469739,4.011209e-05,0,1,0,1
21100000,21020000,21020000,0,-0.00869751,12.356267,0.15571015,12.471491,7.776344e-05,0,1,0,1
21164000,21080000,21084000,0,0.07241821,12.356442,0.104468554,12.474535,3.4995064e-05,0,1,0,1
21220000,21140000,21140000,0,-0.07223511,12.356481,0.17664349,12.460397,0.00010016671,0,1,0,1
21284000,21198666,21204000,0,0.056030273,12.356652,0.078320086,12.463172,1.9686919e-05,0,1,0,1
21340000,21258000,21260000,0,-0.027801514,12.356687,0.19016427,12.465419,0.00011604086,0,1,0,1
21388000,21308000,21308000,0,-0.06375122,12.356585,0.24990588,12.467108,0.0002003767,0,1,0,1
21452000,21368000,21372000,0,-0.028747559,12.356754,0.24781278,12.470043,0.00019698785,0,1,0,1
21508000,21428000,21428000,0,0.06259155,12.356787,0.18598118,12.472414,0.000110929606,0,1,0,1
21572000,21488000,21492000,0,0.045410156,12.356955,0.23888275,12.475464,0.00018296705,0,1,0,1
21628000,21548000,21548000,0,-0.14035034,12.356984,0.33628052,12.461258,0.00036299578,0,1,0,1
21692000,21608000,21612000,0,-0.043548584,12.357147,0.2717936,12.464037,0.0002370717,0,1,0,1
21748000,21668000,21668000,0,-0.07876587,12.357172,0.33454913,12.466284,0.00035912264,0,1,0,1
21812000,21728000,21732000,0,0.07434082,12.357332,0.21148187,12.469179,0.00014347241,0,1,0,1
21868000,21788000,21788000,0,-0.017730713,12.357355,0.3297172,12.471517,0.0003486775,0,1,0,1
21932000,21848000,21852000,0,-0.014892578,12.357512,0.35511827,12.4745245,0.0004043729,0,1,0,1
21988000,21908000,21908000,0,-0.04940796,12.3575325,0.41297555,12.476949,0.0005467645,0,1,0,1
22052000,21966666,21972000,0,-0.03173828,12.357687,0.29128912,12.463172,0.00027232026,0,1,0,1
22108000,22028000,22028000,0,-0.06680298,12.357703,0.3463339,12.465387,0.00038489673,0,1,0,1
22172000,22088000,22092000,0,-0.030944824,12.357854,0.33265042,12.468245,0.00035500203,0,1,0,1
22228000,22148000,22148000,0,-0.09851074,12.357867,0.41934305,12.470553,0.0005640443,0,1,0,1
22292000,22208000,22212000,0,-0.09487915,12.358016,0.43808722,12.473533,0.00061544846,0,1,0,1
22348000,22268000,22268000,0,-0.14743042,12.358027,0.5118922,12.475935,0.00084012497,0,1,0,1
22412000,22328000,22332000,0,0.030731201,12.358173,0.2204546,12.462259,0.00015599171,0,1,0,1
22468000,22388000,22388000,0,-0.122283936,12.358181,0.3978788,12.464443,0.00050802925,0,1,0,1
22532000,22448000,22452000,0,-0.13293457,12.358323,0.43480492,12.467259,0.00060656574,0,1,0,1
22588000,22506000,22508000,0,-0.09158325,12.358329,0.41394493,12.469535,0.00054966094,0,1,0,1
22636000,22556000,22556000,0,-0.06921387,12.358198,0.406729,12.471237,0.00053059205,0,1,0,1
22700000,22614666,22620000,0,-0.20181274,12.358341,0.5570017,12.4742155,0.0009948551,0,1,0,1
22756000,22676000,22676000,0,-0.10305786,12.358347,0.46652123,12.476615,0.00069775997,0,1,0,1
22820000,22736000,22740000,0,-0.13186646,12.358487,0.36605835,12.462893,0.0004300726,0,1,0,1
22876000,22794000,22796000,0,-0.24139404,12.35849,0.47329384,12.465078,0.0007188308,0,1,0,1
22940000,22853333,22860000,0,-0.22787476,12.358627,0.45206493,12.467898,0.00065564446,0,1,0,1
22988000,22904000,22908000,0,-0.20516968,12.358492,0.419802,12.469571,0.0005653241,0,1,0,1
23044000,22964000,22964000,0,-0.33764648,12.358494,0.5392574,12.471884,0.0009326532,0,1,0,1
23108000,23024000,23028000,0,-0.28601074,12.358632,0.4688099,12.474867,0.00070472166,0,1,0,1
23164000,23084000,23084000,0,-0.34762573,12.358632,0.5112033,12.477266,0.0008377758,0,1,0,1
23228000,23144000,23148000,0,-0.45117188,12.358768,0.47095618,12.4635,0.00071183767,0,1,0,1
23284000,23204000,23204000,0,-0.43295288,12.358766,0.4264734,12.465686,0.0005836167,0,1,0,1
23340000,23260000,23260000,0,-0.56069946,12.358763,0.52604926,12.467913,0.00088780804,0,1,0,1
23396000,23312000,23316000,0,-0.5514221,12.35876,0.48563302,12.470181,0.00075649074,0,1,0,1
23452000,23372000,23372000,0,-0.4673767,12.358758,0.36883956,12.472491,0.00043629654,0,1,0,1
23516000,23430666,23436000,0,-0.57684326,12.3588915,0.44034025,12.47547,0.00062169856,0,1,0,1
23572000,23492000,23492000,0,-0.57299805,12.358888,0.40027425,12.477862,0.00051361194,0,1,0,1
23636000,23552000,23556000,0,-0.7056885,12.359018,0.39996874,12.464067,0.00051339576,0,1,0,1
23692000,23612000,23612000,0,-0.749115,12.359012,0.40264273,12.466247,0.0005201924,0,1,0,1
23756000,23672000,23676000,0,-0.7597046,12.359139,0.36504707,12.469059,0.0004274881,0,1,0,1
23812000,23732000,23732000,0,-0.75650024,12.359131,0.31782204,12.471322,0.00032397802,0,1,0,1
23876000,23792000,23796000,0,-0.8335266,12.359258,0.34357843,12.474242,0.00037852765,0,1,0,1
23932000,23852000,23852000,0,-0.92910767,12.359247,0.3921181,12.476586,0.00049294444,0,1,0,1
23996000,23912000,23916000,0,-0.90686035,12.359372,0.32180333,12.4749365,0.0003320494,0,1,0,1
24052000,23972000,23972000,0,-1.0355225,12.35936,0.34544635,12.4650955,0.00038293548,0,1,0,1
24116000,24032000,24036000,0,-1.0090332,12.359482,0.26046216,12.467847,0.00021764958,0,1,0,1
24172000,24092000,24092000,0,-0.98327637,12.359467,0.18314576,12.470058,0.000107593296,0,1,0,1
24236000,24152000,24156000,0,-1.0990295,12.359588,0.24084723,12.472916,0.00018602672,0,1,0,1
24292000,24212000,24212000,0,-1.1297913,12.3595705,0.22031873,12.475205,0.00015563783,0,1,0,1
24356000,24272000,24276000,0,-1.1654358,12.35969,0.1985749,12.478164,0.00012640319,0,1,0,1
24412000,24332000,24332000,0,-1.3374023,12.359673,0.29450786,12.463867,0.00027835625,0,1,0,1
24476000,24390666,24396000,0,-1.3676758,12.359789,0.26943564,12.466556,0.00023292903,0,1,0,1
24532000,24452000,24452000,0,-1.3371277,12.359768,0.19149065,12.468714,0.000117634176,0,1,0,1
24596000,24510666,24516000,0,-1.3495178,12.359883,0.15170026,12.471506,7.3809744e-05,0,1,0,1
24652000,24570000,24572000,0,-1.324707,12.359861,0.08210492,12.473744,2.1617305e-05,0,1,0,1
24716000,24630666,24636000,0,-1.3474426,12.359976,0.055254698,12.47664,9.788154e-06,0,1,0,1
24772000,24692000,24692000,0,-1.4267883,12.359953,0.09195769,12.478954,2.7105529e-05,0,1,0,1
24836000,24752000,24756000,0,-1.4447327,12.360065,0.09155011,12.465204,2.689542e-05,0,1,0,1
24892000,24812000,24812000,0,-1.3782043,12.36004,-0.0,12.467314,7.842547e-07,0,1,0,1
24956000,24872000,24876000,0,-1.4910278,12.36015,0.052204847,12.470049,8.742054e-06,0,1,0,1
25012000,24932000,24932000,0,-1.5187683,12.360124,0.040651917,12.472241,5.3000203e-06,0,1,0,1
25076000,24992000,24996000,0,-1.4902039,12.360233,-0.0,12.475083,3.283505e-06,0,1,0,1
25132000,25052000,25052000,0,-1.4012756,12.360206,-0.0,12.477357,8.064029e-05,0,1,0,1
25196000,25112000,25116000,0,-1.3980103,12.360313,-0.0,12.47577,4.1767085e-05,0,1,0,1
25252000,25172000,25172000,0,-1.4036865,12.360285,-0.0,12.465893,8.216957e-05,0,1,0,1
25316000,25230666,25236000,0,-1.4285889,12.360391,-0.0,12.468583,9.638721e-05,0,1,0,1
25372000,25292000,25292000,0,-1.4958191,12.360359,-0.0,12.470743,6.1582694e-05,0,1,0,1
25436000,25352000,25356000,0,-1.4595032,12.360464,-0.0,12.473547,0.00014247744,0,1,0,1
25492000,25412000,25412000,0,-1.4519653,12.360433,-0.0,12.475794,0.00019751351,0,1,0,1
25556000,25469333,25476000,0,-1.3696594,12.360537,-0.0,12.478708,0.00041984435,0,1,0,1
25604000,25520000,25524000,0,-1.2836609,12.360369,-0.0,12.463927,0.00042766085,0,1,0,1
25660000,25580000,25580000,0,-1.4230347,12.360338,-0.0,12.466009,0.0001900689,0,1,0,1
25724000,25640000,25644000,0,-1.3312988,12.360443,-0.0,12.468712,0.0003944939,0,1,0,1
25780000,25700000,25700000,0,-1.3015442,12.360411,-0.0,12.470883,0.00049016654,0,1,0,1
25844000,25760000,25764000,0,-1.2627563,12.360515,-0.0,12.4737015,0.00062004715,0,1,0,1
25900000,25818000,25820000,0,-1.2854309,12.360482,-0.0,12.475962,0.0005796666,0,1,0,1
25964000,25880000,25884000,0,-1.0966797,12.360585,-0.0,12.478893,0.0012468862,0,1,0,1
26020000,25940000,25940000,0,-1.2102051,12.360552,-0.0,12.464668,0.00044091756,0,1,0,1
26084000,26000000,26004000,0,-1.0679626,12.360653,-0.0,12.46734,0.00087156,0,1,0,1
26140000,26060000,26060000,0,-1.0585022,12.360618,-0.0,12.469489,0.00093461777,0,1,0,1
26204000,26120000,26124000,0,-0.9975586,12.360718,-0.0,12.472279,0.0012097144,0,1,0,1
26260000,26180000,26180000,0,-0.9842529,12.360681,-0.0,12.474517,0.0013229328,0,1,0,1
26324000,26240000,26244000,0,-0.8772888,12.360781,-0.0,12.477423,0.0018985376,0,1,0,1
26380000,26299000,26300000,0,-0.87002563,12.3607435,-0.0,12.479751,0.0020357785,0,1,0,1
26444000,26360000,26364000,0,-0.80667114,12.360843,-0.0,12.466001,0.0015390705,0,1,0,1
26500000,26419000,26420000,0,-0.87857056,12.360803,-0.0,12.468123,0.0013125401,0,1,0,1
26556000,26476000,26476000,0,-0.77627563,12.3607645,-0.0,12.470291,0.0018612364,0,1,0,1
26612000,26528000,26532000,0,-0.8346863,12.360727,-0.0,12.472503,0.0016838862,0,1,0,1
26668000,26588000,26588000,0,-0.7331543,12.360691,-0.0,12.474756,0.0023135801,0,1,0,1
26732000,26646666,26652000,0,-0.8251953,12.36079,-0.0,12.477677,0.0019835767,0,1,0,1
26788000,26708000,26708000,0,-0.75234985,12.360753,-0.0,12.480019,0.0025218385,0,1,0,1
26852000,26768000,26772000,0,-0.73205566,12.360851,-0.0,12.466246,0.0016229933,0,1,0,1
26908000,26828000,26828000,0,-0.7055054,12.360812,-0.0,12.468382,0.0018663743,0,1,0,1
26972000,26888000,26892000,0,-0.66534424,12.3609085,-0.0,12.471152,0.0022212951,0,1,0,1
27028000,26948000,26948000,0,-0.60232544,12.360869,-0.0,12.47338,0.0027282687,0,1,0,1
27092000,27008000,27012000,0,-0.59646606,12.360965,-0.0,12.476266,0.0029655134,0,1,0,1
27148000,27066000,27068000,0,-0.49700928,12.360925,-0.0,12.4785795,0.003827056,0,1,0,1
27196000,27116000,27116000,0,-0.61001587,12.36075,-0.0,12.475679,0.002269242,0,1,0,1
27260000,27176000,27180000,0,-0.5235901,12.360848,-0.0,12.466496,0.0024472657,0,1,0,1
27316000,27236000,27236000,0,-0.4750061,12.360809,-0.0,12.468637,0.0029027178,0,1,0,1
27380000,27294666,27300000,0,-0.5210266,12.360906,-0.0,12.4714155,0.0028298744,0,1,0,1
27436000,27356000,27356000,0,-0.44018555,12.360866,-0.0,12.473645,0.0035457877,0,1,0,1
27500000,27416000,27420000,0,-0.39785767,12.360962,-0.0,12.476535,0.0041098343,0,1,0,1
27556000,27476000,27476000,0,-0.36099243,12.360922,-0.0,12.47885,0.0046525756,0,1,0,1
27620000,27536000,27540000,0,-0.44210815,12.361017,-0.0,12.465206,0.0026276144,0,1,0,1
27676000,27596000,27596000,0,-0.27645874,12.360975,-0.0,12.467312,0.0039054418,0,1,0,1
27740000,27656000,27660000,0,-0.36611938,12.361069,-0.0,12.470044,0.0035476326,0,1,0,1
27796000,27716000,27716000,0,-0.44119263,12.361026,-0.0,12.472236,0.0032755085,0,1,0,1
27860000,27776000,27780000,0,-0.38916016,12.361119,-0.0,12.475079,0.003904183,0,1,0,1
27916000,27836000,27836000,0,-0.45065308,12.361075,-0.0,12.477354,0.0037374422,0,1,0,1
27980000,27896000,27900000,0,-0.41329956,12.361169,-0.0,12.480304,0.0043307254,0,1,0,1
28036000,27956000,27956000,0,-0.45651245,12.361125,-0.0,12.46595,0.00259712,0,1,0,1
28100000,28016000,28020000,0,-0.32839966,12.361216,-0.0,12.468634,0.0036675234,0,1,0,1
28156000,28076000,28076000,0,-0.35202026,12.36117,-0.0,12.470786,0.0037564556,0,1,0,1
28220000,28136000,28140000,0,-0.3428955,12.36126,-0.0,12.47358,0.004126088,0,1,0,1
28276000,28196000,28196000,0,-0.3201599,12.361215,-0.0,12.475817,0.0045889323,0,1,0,1
28340000,28256000,28260000,0,-0.387146,12.361304,-0.0,12.478717,0.0044350056,0,1,0,1
28396000,28316000,28316000,0,-0.36947632,12.3612585,-0.0,12.476461,0.004103468,0,1,0,1
28460000,28376000,28380000,0,-0.50164795,12.361348,-0.0,12.467198,0.0027037647,0,1,0,1
28516000,28432000,28436000,0,-0.44882202,12.3612995,-0.0,12.469312,0.003268316,0,1,0,1
28564000,28482000,28484000,0,-0.48599243,12.361117,-0.0,12.470877,0.0032410547,0,1,0,1
28628000,28541333,28548000,0,-0.57006836,12.361209,-0.0,12.473668,0.0029919217,0,1,0,1
28676000,28592000,28596000,0,-0.49884033,12.361029,-0.0,12.475291,0.0036827116,0,1,0,1
28732000,28652000,28652000,0,-0.5600281,12.360987,-0.0,12.47756,0.0035471676,0,1,0,1
28796000,28712000,28716000,0,-0.55532837,12.361081,-0.0,12.475968,0.0034096984,0,1,0,1
28852000,28772000,28772000,0,-0.5832825,12.361038,-0.0,12.466195,0.0026845029,0,1,0,1
28916000,28832000,28836000,0,-0.69473267,12.361131,-0.0,12.468881,0.0023029475,0,1,0,1
28972000,28892000,28892000,0,-0.7069702,12.361087,-0.0,12.471035,0.002446011,0,1,0,1
29036000,28952000,28956000,0,-0.7006531,12.361179,-0.0,12.473833,0.0027361978,0,1,0,1
29092000,29012000,29012000,0,-0.74176025,12.361135,-0.0,12.476074,0.0027253167,0,1,0,1
29156000,29072000,29076000,0,-0.8016052,12.361226,-0.0,12.478985,0.0026415011,0,1,0,1
29212000,29132000,29132000,0,-0.8003235,12.361181,-0.0,12.464842,0.0020558918,0,1,0,1
29276000,29192000,29196000,0,-0.98117065,12.361271,-0.0,12.467491,0.0014092824,0,1,0,1
29332000,29251000,29252000,0,-0.940155,12.361224,-0.0,12.46962,0.0017614345,0,1,0,1
29396000,29312000,29316000,0,-0.7918396,12.361314,-0.0,12.472386,0.0027823905,0,1,0,1
29452000,29372000,29372000,0,-1.0536499,12.361267,-0.0,12.474606,0.0016004556,0,1,0,1
29516000,29432000,29436000,0,-1.0270691,12.361356,-0.0,12.4774885,0.0019267648,0,1,0,1
29572000,29492000,29492000,0,-1.0339966,12.361308,-0.0,12.479796,0.0020776065,0,1,0,1
29636000,29552000,29556000,0,-1.1304016,12.361398,-0.0,12.46612,0.001308946,0,1,0,1
29692000,29612000,29612000,0,-1.1924438,12.361348,-0.0,12.4682255,0.0011973724,0,1,0,1
29748000,29668000,29668000,0,-1.2636414,12.3613,-0.0,12.470377,0.0010536923,0,1,0,1
29812000,29730000,29732000,0,-1.2734375,12.361388,-0.0,12.473173,0.0011578213,0,1,0,1
29876000,29792000,29796000,0,-1.4900818,12.361475,-0.0,12.476033,0.0005689281,0,1,0,1
29932000,29852000,29852000,0,-1.3952637,12.361425,-0.0,12.478328,0.00096282474,0,1,0,1
29996000,29912000,29916000,0,-1.5644531,12.361512,-0.0,12.47667,0.0006715094,0,1,0,1
30052000,29971000,29972000,0,-1.615509,12.361462,-0.0,12.466866,0.0003808633,0,1,0,1
30116000,30032000,30036000,0,-1.5904236,12.361547,-0.0,12.469582,0.0005237347,0,1,0,1
30172000,30092000,30092000,0,-1.6738281,12.361496,-0.0,12.471765,0.00039588936,0,1,0,1
30236000,30152000,30156000,0,-1.7145386,12.361581,-0.0,12.474603,0.0003840414,0,1,0,1
30292000,30212000,30212000,0,-1.8490906,12.361528,-0.0,12.476878,0.00018815718,0,1,0,1
30356000,30272000,30276000,0,-1.9404602,12.361613,-0.0,12.479834,0.00010977269,0,1,0,1
30412000,30332000,30332000,0,-1.9233093,12.361562,-0.0,12.465522,0.00016885379,0,1,0,1
30476000,30392000,30396000,0,-2.0427246,12.361645,-0.0,12.468208,6.52311e-05,0,1,0,1
30532000,30452000,30452000,0,-2.0815735,12.361591,-0.0,12.470367,5.481735e-05,0,1,0,1
30596000,30512000,30516000,0,-2.0874329,12.361674,-0.0,12.473175,7.604033e-05,0,1,0,1
30652000,30572000,30572000,0,-2.1592407,12.361621,-0.0,12.475428,3.6066835e-05,0,1,0,1
30716000,30632000,30636000,0,-2.2540894,12.361704,-0.0,12.478352,4.303963e-06,0,1,0,1
30772000,30691000,30692000,0,-2.301361,12.36165,-0.0,12.480694,3.193035e-07,0,1,0,1
30836000,30752000,30756000,0,-2.2122498,12.361733,-0.0,12.466837,6.24992e-05,0,1,0,1
30892000,30812000,30812000,0,-2.387207,12.361678,0.016718626,12.468969,8.9666577e-07,0,1,0,1
30956000,30872000,30876000,0,-2.5936584,12.361759,0.20331049,12.47174,0.00013257221,0,1,0,1
31012000,30931000,30932000,0,-2.55896,12.361704,0.15093946,12.473964,7.3056886e-05,0,1,0,1
31076000,30992000,30996000,0,-2.4543152,12.361786,0.028427362,12.476852,2.5907652e-06,0,1,0,1
31132000,31052000,31052000,0,-2.5996094,12.361731,0.16065717,12.479165,8.273222e-05,0,1,0,1
31196000,31112000,31116000,0,-2.6169739,12.361812,0.16340995,12.482165,8.557109e-05,0,1,0,1
31252000,31172000,31172000,0,-2.6577454,12.361756,0.15444183,12.467507,7.6526216e-05,0,1,0,1
31316000,31232000,31236000,0,-2.5624695,12.361836,0.046015024,12.470237,6.7917954e-06,0,1,0,1
31372000,31292000,31292000,0,-2.71698,12.36178,0.19097233,12.472428,0.000116963376,0,1,0,1
31436000,31352000,31356000,0,-2.6307678,12.361859,0.09389782,12.475272,2.8269684e-05,0,1,0,1
31492000,31412000,31412000,0,-2.8364868,12.361803,0.29214406,12.477551,0.00027360546,0,1,0,1
31556000,31472000,31476000,0,-2.7681274,12.361883,0.21489143,12.480509,0.00014800143,0,1,0,1
31612000,31531000,31532000,0,-2.8319397,12.361826,0.2103498,12.466091,0.00014197566,0,1,0,1
31676000,31592000,31596000,0,-2.9380493,12.361904,0.3089869,12.468778,0.0003062783,0,1,0,1
31732000,31652000,31652000,0,-2.944641,12.361847,0.3089552,12.470935,0.0003061625,0,1,0,1
31796000,31712000,31716000,0,-3.068634,12.361925,0.42678475,12.473736,0.000584092,0,1,0,1
31852000,31772000,31772000,0,-2.9521484,12.361867,0.30464578,12.47598,0.00029756076,0,1,0,1
31916000,31832000,31836000,0,-2.996338,12.361946,0.34545326,12.478893,0.0003825274,0,1,0,1
31972000,31892000,31892000,0,-3.0026245,12.361888,0.34933567,12.481222,0.00039110085,0,1,0,1
32036000,31952000,31956000,0,-3.0229492,12.361966,0.28708267,12.467304,0.0002644243,0,1,0,1
32092000,32011000,32012000,0,-3.1236877,12.361907,0.38607407,12.469424,0.00047813976,0,1,0,1
32156000,32072000,32076000,0,-3.2469788,12.361984,0.50775146,12.47218,0.00082683715,0,1,0,1
32212000,32132000,32132000,0,-3.1579285,12.361925,0.41670895,12.474389,0.00055680913,0,1,0,1
32276000,32192000,32196000,0,-3.2292786,12.362002,0.488549,12.477257,0.0007651686,0,1,0,1
32332000,32252000,32252000,0,-3.3046875,12.361944,0.56454325,12.479551,0.0010215403,0,1,0,1
32396000,32312000,32316000,0,-3.1916504,12.362021,0.3776908,12.477841,0.0004572917,0,1,0,1
32452000,32372000,32372000,0,-3.2445984,12.361962,0.42288733,12.467905,0.0005737409,0,1,0,1
32516000,32432000,32436000,0,-3.3253174,12.362038,0.50685644,12.470614,0.0008240282,0,1,0,1
32572000,32492000,32492000,0,-3.2926025,12.361978,0.47641253,12.472787,0.0007278851,0,1,0,1
32636000,32552000,32556000,0,-3.227295,12.362054,0.41564155,12.47561,0.000553906,0,1,0,1
32692000,32612000,32612000,0,-3.322174,12.361994,0.5155904,12.477867,0.00085217605,0,1,0,1
32756000,32672000,32676000,0,-3.4161377,12.36207,0.6162572,12.4808,0.0012171429,0,1,0,1
32812000,32732000,32732000,0,-3.3354797,12.362011,0.44350672,12.46638,0.0006311317,0,1,0,1
32876000,32792000,32796000,0,-3.411316,12.362085,0.5264797,12.469045,0.0008891809,0,1,0,1
32932000,32852000,32852000,0,-3.3690186,12.362024,0.48968315,12.471181,0.0007690999,0,1,0,1
32996000,32912000,32916000,0,-3.5758972,12.3621,0.7044182,12.473959,0.0015911708,0,1,0,1
33052000,32971000,32972000,0,-3.461609,12.362039,0.59541273,12.476182,0.0011366181,0,1,0,1
33116000,33032000,33036000,0,-3.4327698,12.362114,0.575706,12.47907,0.0010623785,0,1,0,1
33172000,33091000,33092000,0,-3.4698792,12.362054,0.6212778,12.481377,0.0012369985,0,1,0,1
33236000,33152000,33156000,0,-3.4924622,12.362129,0.5480437,12.467481,0.00096363307,0,1,0,1
33292000,33212000,33212000,0,-3.5250854,12.362067,0.58876634,12.469583,0.0011119725,0,1,0,1
33356000,33272000,33276000,0,-3.477539,12.362142,0.5511935,12.472317,0.00097436353,0,1,0,1
33412000,33332000,33332000,0,-3.514862,12.36208,0.5974498,12.474505,0.0011445624,0,1,0,1
33476000,33392000,33396000,0,-3.4906921,12.362154,0.5848367,12.47735,0.0010964957,0,1,0,1
33532000,33452000,33452000,0,-3.4432068,12.362092,0.54791474,12.479623,0.0009622424,0,1,0,1
33596000,33512000,33516000,0,-3.5086975,12.362167,0.5597117,12.47794,0.0010042593,0,1,0,1
33652000,33572000,33572000,0,-3.480194,12.362105,0.51101327,12.467996,0.0008377756,0,1,0,1
33716000,33632000,33636000,0,-3.4427185,12.362179,0.48739123,12.470687,0.0007619475,0,1,0,1
33772000,33691000,33692000,0,-3.4946594,12.362116,0.5513227,12.472842,0.00097477937,0,1,0,1
33836000,33752000,33756000,0,-3.4709473,12.36219,0.54198265,12.475646,0.00094181957,0,1,0,1
33892000,33812000,33812000,0,-3.4707642,12.362127,0.55459785,12.477887,0.0009859963,0,1,0,1
33956000,33872000,33876000,0,-3.58786,12.362202,0.6878376,12.480801,0.0015163148,0,1,0,1
34012000,33932000,33932000,0,-3.544098,12.362139,0.5404229,12.466426,0.0009370991,0,1,0,1
34068000,33988000,33988000,0,-3.5815125,12.362077,0.5903623,12.468502,0.001118106,0,1,0,1
34124000,34040000,34044000,0,-3.5104675,12.362016,0.53149056,12.470621,0.0009060726,0,1,0,1
34180000,34100000,34100000,0,-3.543274,12.361956,0.57702374,12.47278,0.0010677857,0,1,0,1
34244000,34160000,34164000,0,-3.4394836,12.362033,0.4886341,12.47559,0.0007655375,0,1,0,1
34300000,34220000,34220000,0,-3.4069214,12.361973,0.4705212,12.477835,0.00070970715,0,1,0,1
34364000,34280000,34284000,0,-3.5153809,12.36205,0.59725237,12.480754,0.0011432335,0,1,0,1
34420000,34340000,34340000,0,-3.4395752,12.36199,0.43446064,12.466405,0.0006056471,0,1,0,1
34484000,34400000,34404000,0,-3.538971,12.362065,0.55166626,12.469062,0.0009762905,0,1,0,1
34540000,34460000,34460000,0,-3.5481262,12.362005,0.57504797,12.471191,0.0010606209,0,1,0,1
34604000,34520000,34524000,0,-3.4490662,12.362081,0.492908,12.473961,0.00077908946,0,1,0,1
34660000,34580000,34580000,0,-3.4868774,12.36202,0.5461011,12.476177,0.0009561468,0,1,0,1
34724000,34638666,34644000,0,-3.500763,12.362096,0.5784662,12.479058,0.0010725909,0,1,0,1
34780000,34700000,34700000,0,-3.5002747,12.362035,0.59372306,12.481358,0.0011297076,0,1,0,1
34844000,34760000,34764000,0,-3.4526672,12.362111,0.4656012,12.467521,0.0006955175,0,1,0,1
34900000,34820000,34820000,0,-3.4062195,12.362049,0.4348395,12.46962,0.0006065474,0,1,0,1
34964000,34880000,34884000,0,-3.4962158,12.362124,0.5434916,12.472351,0.0009473214,0,1,0,1
35020000,34940000,34940000,0,-3.4021301,12.362062,0.46441197,12.474538,0.0006915799,0,1,0,1
35084000,35000000,35004000,0,-3.4824524,12.362138,0.56377864,12.477382,0.0010189521,0,1,0,1
35140000,35060000,35060000,0,-3.500885,12.362076,0.5979092,12.479652,0.0011458506,0,1,0,1
35204000,35120000,35124000,0,-3.4109802,12.362151,0.43268013,12.465998,0.0006007128,0,1,0,1
35260000,35180000,35180000,0,-3.4352417,12.362088,0.4730637,12.468066,0.00071795983,0,1,0,1
35324000,35240000,35244000,0,-3.4779663,12.362163,0.53429437,12.470759,0.00091564737,0,1,0,1
35380000,35300000,35300000,0,-3.369873,12.3621,0.44120336,12.472917,0.0006242659,0,1,0,1
35444000,35358666,35364000,0,-3.4692078,12.362174,0.559361,12.475722,0.0010031795,0,1,0,1
35500000,35418000,35420000,0,-3.3608704,12.362112,0.46626306,12.477966,0.0006969124,0,1,0,1
35548000,35468000,35468000,0,-3.4458923,12.361916,0.5647776,12.479619,0.001022383,0,1,0,1
35612000,35526666,35532000,0,-3.464325,12.361994,0.513577,12.465983,0.00084633933,0,1,0,1
35668000,35588000,35588000,0,-3.4597168,12.361934,0.5241008,12.468059,0.000881233,0,1,0,1
35732000,35648000,35652000,0,-3.3704834,12.362011,0.4524355,12.470761,0.00065656897,0,1,0,1
35788000,35708000,35708000,0,-3.2819214,12.361951,0.37910986,12.472925,0.00046091608,0,1,0,1
35852000,35766666,35772000,0,-3.4005737,12.362028,0.51659274,12.47574,0.00085563835,0,1,0,1
35908000,35828000,35828000,0,-3.3771667,12.361968,0.5083122,12.477991,0.00082827854,0,1,0,1
35972000,35888000,35892000,0,-3.302185,12.362045,0.4516647,12.480916,0.00065380137,0,1,0,1
36028000,35948000,35948000,0,-3.3544617,12.361985,0.42649746,12.466573,0.00058364106,0,1,0,1
36092000,36008000,36012000,0,-3.421051,12.3620615,0.51058435,12.469238,0.00083628646,0,1,0,1
36148000,36068000,36068000,0,-3.33667,12.362,0.440104,12.471374,0.00062123564,0,1,0,1
36212000,36128000,36132000,0,-3.2669678,12.362076,0.38745308,12.474151,0.0004813791,0,1,0,1
36268000,36188000,36188000,0,-3.3104248,12.362016,0.44603634,12.476375,0.0006378405,0,1,0,1
36332000,36248000,36252000,0,-3.306427,12.362091,0.45976567,12.479263,0.00067755434,0,1,0,1
36388000,36308000,36308000,0,-3.2835388,12.362031,0.45202255,12.481571,0.0006548035,0,1,0,1
36452000,36368000,36372000,0,-3.2278137,12.362107,0.32968998,12.467728,0.0003487259,0,1,0,1
36508000,36428000,36428000,0,-3.2248535,12.362045,0.34194112,12.469833,0.00037506106,0,1,0,1
36572000,36488000,36492000,0,-3.1983032,12.362121,0.33289957,12.472575,0.00035541056,0,1,0,1
36628000,36548000,36548000,0,-3.312683,12.362059,0.46234655,12.47477,0.0006854294,0,1,0,1
36692000,36606666,36612000,0,-3.2662964,12.362134,0.43272638,12.477623,0.00060028135,0,1,0,1
36748000,36668000,36668000,0,-3.257721,12.362072,0.43880916,12.479902,0.00061716343,0,1,0,1
36812000,36728000,36732000,0,-3.239685,12.362147,0.36482453,12.46623,0.00042706393,0,1,0,1
36868000,36788000,36788000,0,-3.23172,12.362085,0.37127542,12.4683075,0.00044222662,0,1,0,1
36932000,36848000,36852000,0,-3.2236938,12.362159,0.37987018,12.47101,0.00046283772,0,1,0,1
36988000,36908000,36908000,0,-3.1498413,12.362097,0.31984162,12.473177,0.00032805966,0,1,0,1
37052000,36968000,36972000,0,-3.2080078,12.362171,0.39488912,12.475993,0.0004999599,0,1,0,1
37108000,37028000,37028000,0,-3.1575317,12.362109,0.35831952,12.478246,0.00041157348,0,1,0,1
37172000,37088000,37092000,0,-3.1871643,12.362183,0.40486312,12.481173,0.00052531646,0,1,0,1
37228000,37148000,37148000,0,-3.1506958,12.362122,0.31603813,12.466795,0.00032046763,0,1,0,1
37292000,37208000,37212000,0,-3.1196594,12.362194,0.30107236,12.4694605,0.00029077302,0,1,0,1
37348000,37268000,37268000,0,-3.0794067,12.362131,0.2743523,12.471598,0.00024140994,0,1,0,1
37412000,37325333,37332000,0,-3.0393677,12.362205,0.25017452,12.474378,0.0002006907,0,1,0,1
37460000,37376000,37380000,0,-3.2202148,12.362006,0.44253302,12.475988,0.0006278796,0,1,0,1
37516000,37436000,37436000,0,-3.0941772,12.361947,0.3285749,12.478249,0.0003460789,0,1,0,1
37580000,37496000,37500000,0,-3.0348816,12.362024,0.2847283,12.481184,0.00025981574,0,1,0,1
37636000,37556000,37556000,0,-3.1121216,12.361965,0.3078847,12.466815,0.00030414498,0,1,0,1
37700000,37616000,37620000,0,-3.1234436,12.362041,0.33343387,12.46949,0.00035664055,0,1,0,1
37756000,37676000,37676000,0,-2.974884,12.361981,0.19649482,12.471635,0.00012383368,0,1,0,1
37820000,37736000,37740000,0,-3.1984863,12.362058,0.43487573,12.474423,0.00060641486,0,1,0,1
37876000,37796000,37796000,0,-3.0349426,12.361998,0.28195834,12.476656,0.00025487758,0,1,0,1
37940000,37856000,37860000,0,-3.1591797,12.362074,0.42041993,12.479556,0.000566536,0,1,0,1
37996000,37915000,37916000,0,-3.0098572,12.362013,0.25635505,12.477269,0.00021068043,0,1,0,1
38060000,37976000,37980000,0,-2.9841003,12.362089,0.20732069,12.467997,0.00013789503,0,1,0,1
38116000,38036000,38036000,0,-3.0197754,12.362028,0.2547047,12.470112,0.00020809594,0,1,0,1
38180000,38096000,38100000,0,-2.8813477,12.362103,0.1292448,12.472864,5.35698e-05,0,1,0,1
38236000,38155000,38156000,0,-3.0116577,12.362042,0.27172232,12.475068,0.00023673785,0,1,0,1
38300000,38216000,38220000,0,-3.21109,12.362118,0.48417044,12.477932,0.00075147394,0,1,0,1
38356000,38275000,38276000,0,-2.9672852,12.362057,0.2496078,12.480221,0.00019968895,0,1,0,1
38420000,38336000,38340000,0,-2.866455,12.362132,0.104561806,12.466512,3.508013e-05,0,1,0,1
38476000,38396000,38396000,0,-3.0063477,12.362069,0.2562945,12.468596,0.00021072739,0,1,0,1
38540000,38456000,38460000,0,-2.8773193,12.3621435,0.13938236,12.471312,6.231083e-05,0,1,0,1
38596000,38515000,38516000,0,-2.9981384,12.362082,0.2714126,12.473486,0.00023622844,0,1,0,1
38660000,38576000,38580000,0,-3.042633,12.362156,0.327749,12.476314,0.00034439474,0,1,0,1
38716000,38636000,38636000,0,-2.8894348,12.362095,0.18419981,12.478576,0.00010876104,0,1,0,1
38780000,38696000,38700000,0,-2.7610168,12.362169,0.068666935,12.481513,1.51108225e-05,0,1,0,1
38836000,38756000,38756000,0,-2.8214417,12.362107,0.094352245,12.4670925,2.8562701e-05,0,1,0,1
38900000,38816000,38820000,0,-2.9144897,12.362181,0.20019841,12.4697695,0.00012856502,0,1,0,1
38956000,38875000,38876000,0,-2.9267883,12.362118,0.22245955,12.471914,0.00015871903,0,1,0,1
39012000,38932000,38932000,0,-2.934143,12.362057,0.23941731,12.474102,0.0001838069,0,1,0,1
39068000,38984000,38988000,0,-2.903839,12.361997,0.21857262,12.47633,0.00015316681,0,1,0,1
39124000,39044000,39044000,0,-2.8971863,12.3619375,0.22157526,12.478598,0.00015737537,0,1,0,1
39188000,39104000,39108000,0,-2.7449646,12.362015,0.080587626,12.481544,2.08127e-05,0,1,0,1
39244000,39164000,39164000,0,-2.8193665,12.361956,0.10477924,12.467129,3.5224435e-05,0,1,0,1
39308000,39224000,39228000,0,-2.888855,12.362032,0.18502736,12.469814,0.000109817585,0,1,0,1
39364000,39282000,39284000,0,-2.8402405,12.361972,0.14474225,12.471967,6.719171e-05,0,1,0,1
39428000,39341333,39348000,0,-2.8248596,12.362048,0.13936043,12.474766,6.227397e-05,0,1,0,1
39476000,39392000,39396000,0,-2.8517761,12.361854,0.17359567,12.476391,9.661595e-05,0,1,0,1
39532000,39452000,39452000,0,-2.807953,12.361796,0.13838577,12.478665,6.138676e-05,0,1,0,1
39596000,39512000,39516000,0,-2.7174988,12.3618765,0.042858124,12.47702,5.888646e-06,0,1,0,1
39652000,39571000,39572000,0,-2.8344727,12.36182,0.13999438,12.467203,6.287995e-05,0,1,0,1
39716000,39632000,39636000,0,-2.8191528,12.361898,0.13450861,12.469897,5.803597e-05,0,1,0,1
39772000,39690000,39692000,0,-2.8414001,12.361841,0.16512132,12.472058,8.744362e-05,0,1,0,1
39836000,39752000,39756000,0,-2.90094,12.361919,0.23412561,12.474866,0.00017576078,0,1,0,1
39892000,39811000,39812000,0,-2.7673645,12.361862,0.10816574,12.477114,3.7508118e-05,0,1,0,1
39956000,39872000,39876000,0,-2.6724854,12.36194,0.02354908,12.480032,1.7774287e-06,0,1,0,1
40012000,39932000,39932000,0,-2.756775,12.361883,0.074288845,12.465779,1.7708746e-05,0,1,0,1
40076000,39992000,39996000,0,-2.892273,12.36196,0.2195437,12.468435,0.00015462865,0,1,0,1
40132000,40052000,40052000,0,-2.7588196,12.361901,0.09314346,12.470567,2.782778e-05,0,1,0,1
40188000,40108000,40108000,0,-2.6734924,12.361844,0.015813112,12.47274,8.019233e-07,0,1,0,1
40244000,40160000,40164000,0,-2.687439,12.361787,0.03845644,12.474954,4.7419744e-06,0,1,0,1
40300000,40218000,40220000,0,-2.8702087,12.361732,0.22979212,12.477208,0.0001692828,0,1,0,1
40348000,40268000,40268000,0,-2.7789307,12.361543,0.14405584,12.478873,6.65191e-05,0,1,0,1
40412000,40328000,40332000,0,-2.7729797,12.361627,0.10937858,12.465324,3.8390248e-05,0,1,0,1
40468000,40388000,40388000,0,-2.6217651,12.361574,-0.034510136,12.467412,3.8209996e-06,0,1,0,1
40532000,40448000,40452000,0,-2.6455383,12.361657,-0.0011658669,12.470124,4.360006e-09,0,1,0,1
40588000,40508000,40508000,0,-2.6408386,12.361604,0.0021305084,12.4723,1.4557271e-08,0,1,0,1
40652000,40568000,40572000,0,-2.6736755,12.361687,0.04406452,12.475125,6.2257714e-06,0,1,0,1
40708000,40628000,40628000,0,-2.5699768,12.361633,-0.05198288,12.477388,8.662773e-06,0,1,0,1
40772000,40688000,40692000,0,-2.6878052,12.361715,0.07563782,12.480324,1.8336317e-05,0,1,0,1
40828000,40748000,40748000,0,-2.6636658,12.361662,0.020821095,12.466042,1.3910366e-06,0,1,0,1
40892000,40808000,40812000,0,-2.7057495,12.361744,0.07111907,12.468718,1.6225958e-05,0,1,0,1
40948000,40868000,40868000,0,-2.5595703,12.361689,-0.06852937,12.470864,1.5063188e-05,0,1,0,1
41012000,40928000,40932000,0,-2.715088,12.36177,0.09557629,12.473653,2.9293189e-05,0,1,0,1
41068000,40988000,40988000,0,-2.7658997,12.361714,0.15249658,12.475886,7.45605e-05,0,1,0,1
41132000,41048000,41052000,0,-2.689392,12.361795,0.08258438,12.478787,2.1861675e-05,0,1,0,1
41188000,41108000,41108000,0,-2.6417236,12.361741,0.041172266,12.481107,5.432709e-06,0,1,0,1
41252000,41168000,41172000,0,-2.6178894,12.361822,-0.012842655,12.467302,5.291724e-07,0,1,0,1
41308000,41228000,41228000,0,-2.6696472,12.361765,0.045253515,12.469419,6.5692893e-06,0,1,0,1
41372000,41288000,41292000,0,-2.725586,12.361845,0.107786655,12.472171,3.7260437e-05,0,1,0,1
41428000,41348000,41348000,0,-2.5509033,12.361789,-0.061706543,12.474376,1.2209661e-05,0,1,0,1
41492000,41408000,41412000,0,-2.7251587,12.361868,0.12031531,12.47724,4.6406978e-05,0,1,0,1
41548000,41468000,41468000,0,-2.6630554,12.361812,0.063515425,12.47953,1.29306445e-05,0,1,0,1
41612000,41528000,41532000,0,-2.6296082,12.361892,0.008330345,12.465882,2.2267064e-07,0,1,0,1
41668000,41588000,41588000,0,-2.6201477,12.361834,0.004788637,12.467968,7.3567875e-08,0,1,0,1
41732000,41648000,41652000,0,-2.7421875,12.361912,0.13354683,12.470681,5.7205398e-05,0,1,0,1
41788000,41708000,41708000,0,-2.6001587,12.361855,-0.0038318634,12.472857,4.7088413e-08,0,1,0,1
41852000,41768000,41772000,0,-2.5344543,12.361933,-0.062862635,12.475684,1.2670122e-05,0,1,0,1
41908000,41828000,41828000,0,-2.680542,12.361875,0.0896709,12.477946,2.5776259e-05,0,1,0,1
41972000,41888000,41892000,0,-2.6797485,12.361954,0.09478426,12.480885,2.879301e-05,0,1,0,1
42028000,41948000,41948000,0,-2.7164612,12.361896,0.104733706,12.466517,3.5195553e-05,0,1,0,1
42092000,42008000,42012000,0,-2.6216125,12.361973,0.015012741,12.4691925,7.230056e-07,0,1,0,1
42148000,42068000,42068000,0,-2.6121216,12.361914,0.010526419,12.471338,3.5539247e-07,0,1,0,1
42212000,42128000,42132000,0,-2.6918335,12.361991,0.09594321,12.474127,2.9517416e-05,0,1,0,1
