timestamp,timestamp_sample,lat,lon,alt,alt_ellipsoid,delta_alt,eph,epv,terrain_alt,lat_lon_reset_counter,alt_reset_counter,terrain_alt_valid,dead_reckoning
3428000,0,47.3977508,8.5456074,488.104,0.0,0.0,0.0,0.0,0.0,0,0,0,0
3432000,0,47.3977508,8.5456074,488.104,0.0,0.0,0.0,0.0,0.0,0,0,0,0
3528000,0,47.3977508,8.5456074,488.104,0.0,0.0,0.0,0.0,0.0,0,0,0,0
3628000,0,47.3977508,8.5456074,488.104,0.0,0.0,0.0,0.0,0.0,0,0,0,0
3728000,0,47.3977508,8.5456074,488.104,0.0,0.0,0.0,0.0,0.0,0,0,0,0
3828000,0,47.3977508,8.5456074,488.104,0.0,0.0,0.0,0.0,0.0,0,0,0,0
3928000,0,47.3977508,8.5456074,488.104,0.0,0.0,0.0,0.0,0.0,0,0,0,0
4028000,0,47.3977508,8.5456074,488.104,0.0,0.0,0.0,0.0,0.0,0,0,0,0
4128000,0,47.3977508,8.5456074,488.104,0.0,0.0,0.0,0.0,0.0,0,0,0,0
4228000,0,47.3977508,8.5456074,488.104,0.0,0.0,0.0,0.0,0.0,0,0,0,0
4328000,0,47.3977508,8.5456074,488.104,0.0,0.0,0.0,0.0,0.0,0,0,0,0
4428000,0,47.3977508,8.5456074,488.104,0.0,0.0,0.0,0.0,0.0,0,0,0,0
4528000,0,47.3977508,8.5456074,488.104,0.0,0.0,0.0,0.0,0.0,0,0,0,0
4628000,0,47.3977508,8.5456074,488.104,0.0,0.0,0.0,0.0,0.0,0,0,0,0
4728000,0,47.3977508,8.5456074,488.104,0.0,0.0,0.0,0.0,0.0,0,0,0,0
4828000,0,47.3977508,8.5456074,488.104,0.0,0.0,0.0,0.0,0.0,0,0,0,0
4928000,0,47.3977508,8.5456074,488.104,0.0,0.0,0.0,0.0,0.0,0,0,0,0
5028000,0,47.3977508,8.5456074,488.104,0.0,0.0,0.0,0.0,0.0,0,0,0,0
5128000,0,47.3977508,8.5456074,488.104,0.0,0.0,0.0,0.0,0.0,0,0,0,0
5228000,0,47.3977508,8.5456074,488.104,0.0,0.0,0.0,0.0,0.0,0,0,0,0
5328000,0,47.3977508,8.5456074,488.104,0.0,0.0,0.0,0.0,0.0,0,0,0,0
5428000,0,47.3977508,8.5456074,488.104,0.0,0.0,0.0,0.0,0.0,0,0,0,0
5528000,0,47.3977508,8.5456074,488.104,0.0,0.0,0.0,0.0,0.0,0,0,0,0
5628000,0,47.3977508,8.5456074,488.104,0.0,0.0,0.0,0.0,0.0,0,0,0,0
5728000,0,47.3977508,8.5456074,488.104,0.0,0.0,0.0,0.0,0.0,0,0,0,0
5828000,0,47.3977508,8.5456074,488.104,0.0,0.0,0.0,0.0,0.0,0,0,0,0
5928000,0,47.3977508,8.5456074,488.104,0.0,0.0,0.0,0.0,0.0,0,0,0,0
6028000,0,47.3977508,8.5456074,488.104,0.0,0.0,0.0,0.0,0.0,0,0,0,0
6128000,0,47.3977508,8.5456074,488.104,0.0,0.0,0.0,0.0,0.0,0,0,0,0
6228000,0,47.3977508,8.5456074,488.104,0.0,0.0,0.0,0.0,0.0,0,0,0,0
6328000,0,47.3977508,8.5456074,488.104,0.0,0.0,0.0,0.0,0.0,0,0,0,0
6428000,0,47.3977508,8.5456074,488.104,0.0,0.0,0.0,0.0,0.0,0,0,0,0
6528000,0,47.3977508,8.5456074,488.104,0.0,0.0,0.0,0.0,0.0,0,0,0,0
6628000,0,47.3977508,8.5456074,488.104,0.0,0.0,0.0,0.0,0.0,0,0,0,0
6728000,0,47.3977508,8.5456074,488.104,0.0,0.0,0.0,0.0,0.0,0,0,0,0
6828000,0,47.3977508,8.5456074,488.104,0.0,0.0,0.0,0.0,0.0,0,0,0,0
6928000,0,47.3977508,8.5456074,488.104,0.0,0.0,0.0,0.0,0.0,0,0,0,0
7028000,0,47.3977508,8.5456074,488.104,0.0,0.0,0.0,0.0,0.0,0,0,0,0
7128000,0,47.3977508,8.5456074,488.104,0.0,0.0,0.0,0.0,0.0,0,0,0,0
7228000,0,47.3977508,8.5456074,488.104,0.0,0.0,0.0,0.0,0.0,0,0,0,0
7328000,0,47.3977508,8.5456074,488.104,0.0,0.0,0.0,0.0,0.0,0,0,0,0
7428000,0,47.3977508,8.5456074,488.104,0.0,0.0,0.0,0.0,0.0,0,0,0,0
7528000,0,47.3977508,8.5456074,488.104,0.0,0.0,0.0,0.0,0.0,0,0,0,0
7628000,0,47.3977508,8.5456074,488.104,0.0,0.0,0.0,0.0,0.0,0,0,0,0
7728000,0,47.3977508,8.5456074,488.104,0.0,0.0,0.0,0.0,0.0,0,0,0,0
7828000,0,47.3977508,8.5456074,488.104,0.0,0.0,0.0,0.0,0.0,0,0,0,0
7928000,0,47.3977508,8.5456074,488.104,0.0,0.0,0.0,0.0,0.0,0,0,0,0
8028000,0,47.3977508,8.5456074,488.104,0.0,0.0,0.0,0.0,0.0,0,0,0,0
8128000,0,47.3977508,8.5456074,488.104,0.0,0.0,0.0,0.0,0.0,0,0,0,0
8228000,0,47.3977508,8.5456074,488.104,0.0,0.0,0.0,0.0,0.0,0,0,0,0
8328000,0,47.3977508,8.5456074,488.104,0.0,0.0,0.0,0.0,0.0,0,0,0,0
8428000,0,47.3977508,8.5456074,488.104,0.0,0.0,0.0,0.0,0.0,0,0,0,0
8528000,0,47.3977508,8.5456074,488.104,0.0,0.0,0.0,0.0,0.0,0,0,0,0
8628000,0,47.3977508,8.5456074,488.104,0.0,0.0,0.0,0.0,0.0,0,0,0,0
8728000,0,47.3977508,8.5456074,488.104,0.0,0.0,0.0,0.0,0.0,0,0,0,0
8828000,0,47.3977508,8.5456074,488.104,0.0,0.0,0.0,0.0,0.0,0,0,0,0
8928000,0,47.3977508,8.5456074,488.104,0.0,0.0,0.0,0.0,0.0,0,0,0,0
9028000,0,47.3977508,8.5456074,488.104,0.0,0.0,0.0,0.0,0.0,0,0,0,0
9128000,0,47.3977508,8.5456074,488.104,0.0,0.0,0.0,0.0,0.0,0,0,0,0
9228000,0,47.3977508,8.5456074,488.104,0.0,0.0,0.0,0.0,0.0,0,0,0,0
9328000,0,47.3977508,8.5456074,488.104,0.0,0.0,0.0,0.0,0.0,0,0,0,0
9428000,0,47.3977508,8.5456074,488.104,0.0,0.0,0.0,0.0,0.0,0,0,0,0
9528000,0,47.3977508,8.5456074,488.104,0.0,0.0,0.0,0.0,0.0,0,0,0,0
9628000,0,47.3977508,8.5456074,488.104,0.0,0.0,0.0,0.0,0.0,0,0,0,0
9728000,0,47.3977508,8.5456074,488.104,0.0,0.0,0.0,0.0,0.0,0,0,0,0
9828000,0,47.3977508,8.5456074,488.104,0.0,0.0,0.0,0.0,0.0,0,0,0,0
9928000,0,47.3977508,8.5456074,488.104,0.0,0.0,0.0,0.0,0.0,0,0,0,0
10028000,0,47.3977508,8.5456074,488.104,0.0,0.0,0.0,0.0,0.0,0,0,0,0
10128000,0,47.3977508,8.5456074,488.104,0.0,0.0,0.0,0.0,0.0,0,0,0,0
10228000,0,47.3977508,8.5456074,488.104,0.0,0.0,0.0,0.0,0.0,0,0,0,0
10328000,0,47.3977508,8.5456074,488.104,0.0,0.0,0.0,0.0,0.0,0,0,0,0
10428000,0,47.3977508,8.5456074,488.104,0.0,0.0,0.0,0.0,0.0,0,0,0,0
10528000,0,47.3977508,8.5456074,488.104,0.0,0.0,0.0,0.0,0.0,0,0,0,0
10628000,0,47.3977508,8.5456074,488.104,0.0,0.0,0.0,0.0,0.0,0,0,0,0
10728000,0,47.3977508,8.5456074,488.104,0.0,0.0,0.0,0.0,0.0,0,0,0,0
10828000,0,47.3977508,8.5456074,488.104,0.0,0.0,0.0,0.0,0.0,0,0,0,0
10928000,0,47.3977508,8.5456074,488.104,0.0,0.0,0.0,0.0,0.0,0,0,0,0
11028000,0,47.3977508,8.5456074,488.104,0.0,0.0,0.0,0.0,0.0,0,0,0,0
11128000,0,47.3977508,8.5456074,488.104,0.0,0.0,0.0,0.0,0.0,0,0,0,0
11228000,0,47.3977508,8.5456074,488.104,0.0,0.0,0.0,0.0,0.0,0,0,0,0
11328000,0,47.3977508,8.5456074,488.104,0.0,0.0,0.0,0.0,0.0,0,0,0,0
11428000,0,47.3977508,8.5456074,488.104,0.0,0.0,0.0,0.0,0.0,0,0,0,0
11528000,0,47.3977508,8.5456074,488.104,0.0,0.0,0.0,0.0,0.0,0,0,0,0
11628000,0,47.3977508,8.5456074,488.104,0.0,0.0,0.0,0.0,0.0,0,0,0,0
11728000,0,47.3977508,8.5456074,488.104,0.0,0.0,0.0,0.0,0.0,0,0,0,0
11828000,0,47.3977508,8.5456074,488.104,0.0,0.0,0.0,0.0,0.0,0,0,0,0
11928000,0,47.3977508,8.5456074,488.104,0.0,0.0,0.0,0.0,0.0,0,0,0,0
12028000,0,47.3977508,8.5456074,488.104,0.0,0.0,0.0,0.0,0.0,0,0,0,0
12128000,0,47.3977508,8.5456074,488.104,0.0,0.0,0.0,0.0,0.0,0,0,0,0
12228000,0,47.3977508,8.5456074,488.104,0.0,0.0,0.0,0.0,0.0,0,0,0,0
12328000,0,47.3977508,8.5456074,488.104,0.0,0.0,0.0,0.0,0.0,0,0,0,0
12428000,0,47.3977508,8.5456074,488.104,0.0,0.0,0.0,0.0,0.0,0,0,0,0
12528000,0,47.3977508,8.5456074,488.104,0.0,0.0,0.0,0.0,0.0,0,0,0,0
12628000,0,47.3977508,8.5456074,488.104,0.0,0.0,0.0,0.0,0.0,0,0,0,0
12728000,0,47.3977508,8.5456074,488.104,0.0,0.0,0.0,0.0,0.0,0,0,0,0
12828000,0,47.3977508,8.5456074,488.104,0.0,0.0,0.0,0.0,0.0,0,0,0,0
12928000,0,47.3977508,8.5456074,488.104,0.0,0.0,0.0,0.0,0.0,0,0,0,0
13028000,0,47.3977508,8.5456074,488.104,0.0,0.0,0.0,0.0,0.0,0,0,0,0
13128000,0,47.3977508,8.5456074,488.104,0.0,0.0,0.0,0.0,0.0,0,0,0,0
13228000,0,47.3977508,8.5456074,488.104,0.0,0.0,0.0,0.0,0.0,0,0,0,0
13328000,0,47.3977508,8.5456074,488.104,0.0,0.0,0.0,0.0,0.0,0,0,0,0
13428000,0,47.3977508,8.5456074,488.104,0.0,0.0,0.0,0.0,0.0,0,0,0,0
13528000,0,47.3977508,8.5456074,488.104,0.0,0.0,0.0,0.0,0.0,0,0,0,0
13628000,0,47.3977508,8.5456074,488.104,0.0,0.0,0.0,0.0,0.0,0,0,0,0
13728000,0,47.3977508,8.5456074,488.104,0.0,0.0,0.0,0.0,0.0,0,0,0,0
13828000,0,47.3977508,8.5456074,488.104,0.0,0.0,0.0,0.0,0.0,0,0,0,0
13928000,0,47.3977508,8.5456074,488.104,0.0,0.0,0.0,0.0,0.0,0,0,0,0
14028000,0,47.3977508,8.5456074,488.104,0.0,0.0,0.0,0.0,0.0,0,0,0,0
14128000,0,47.3977508,8.5456074,488.104,0.0,0.0,0.0,0.0,0.0,0,0,0,0
14228000,0,47.3977508,8.5456074,488.104,0.0,0.0,0.0,0.0,0.0,0,0,0,0
14328000,0,47.3977508,8.5456074,488.104,0.0,0.0,0.0,0.0,0.0,0,0,0,0
14428000,0,47.3977508,8.5456074,488.104,0.0,0.0,0.0,0.0,0.0,0,0,0,0
14528000,0,47.3977508,8.5456074,488.104,0.0,0.0,0.0,0.0,0.0,0,0,0,0
14628000,0,47.3977508,8.5456074,488.104,0.0,0.0,0.0,0.0,0.0,0,0,0,0
14728000,0,47.3977508,8.5456074,488.104,0.0,0.0,0.0,0.0,0.0,0,0,0,0
14828000,0,47.3977508,8.5456074,488.104,0.0,0.0,0.0,0.0,0.0,0,0,0,0
14928000,0,47.3977508,8.5456074,488.104,0.0,0.0,0.0,0.0,0.0,0,0,0,0
15028000,0,47.3977508,8.5456074,488.104,0.0,0.0,0.0,0.0,0.0,0,0,0,0
15128000,0,47.3977508,8.5456074,488.104,0.0,0.0,0.0,0.0,0.0,0,0,0,0
15228000,0,47.3977508,8.5456074,488.104,0.0,0.0,0.0,0.0,0.0,0,0,0,0
15328000,0,47.3977508,8.5456074,488.104,0.0,0.0,0.0,0.0,0.0,0,0,0,0
15428000,0,47.3977508,8.5456074,488.104,0.0,0.0,0.0,0.0,0.0,0,0,0,0
15528000,0,47.3977508,8.5456074,488.104,0.0,0.0,0.0,0.0,0.0,0,0,0,0
15628000,0,47.3977508,8.5456074,488.104,0.0,0.0,0.0,0.0,0.0,0,0,0,0
15728000,0,47.3977508,8.5456074,488.104,0.0,0.0,0.0,0.0,0.0,0,0,0,0
15828000,0,47.3977508,8.5456074,488.104,0.0,0.0,0.0,0.0,0.0,0,0,0,0
15928000,0,47.3977508,8.5456074,488.104,0.0,0.0,0.0,0.0,0.0,0,0,0,0
16028000,0,47.3977508,8.5456074,488.104,0.0,0.0,0.0,0.0,0.0,0,0,0,0
16128000,0,47.3977508,8.5456074,488.104,0.0,0.0,0.0,0.0,0.0,0,0,0,0
16228000,0,47.3977508,8.5456074,488.104,0.0,0.0,0.0,0.0,0.0,0,0,0,0
16328000,0,47.3977508,8.5456074,488.104,0.0,0.0,0.0,0.0,0.0,0,0,0,0
16428000,0,47.3977508,8.5456074,488.104,0.0,0.0,0.0,0.0,0.0,0,0,0,0
16528000,0,47.3977508,8.5456074,488.104,0.0,0.0,0.0,0.0,0.0,0,0,0,0
16628000,0,47.3977508,8.5456074,488.104,0.0,0.0,0.0,0.0,0.0,0,0,0,0
16728000,0,47.3977508,8.5456074,488.104,0.0,0.0,0.0,0.0,0.0,0,0,0,0
16828000,0,47.3977508,8.5456074,488.104,0.0,0.0,0.0,0.0,0.0,0,0,0,0
16928000,0,47.3977508,8.5456074,488.104,0.0,0.0,0.0,0.0,0.0,0,0,0,0
17028000,0,47.3977508,8.5456074,488.104,0.0,0.0,0.0,0.0,0.0,0,0,0,0
17128000,0,47.3977508,8.5456074,488.104,0.0,0.0,0.0,0.0,0.0,0,0,0,0
17228000,0,47.3977508,8.5456074,488.104,0.0,0.0,0.0,0.0,0.0,0,0,0,0
17328000,0,47.3977508,8.5456074,488.104,0.0,0.0,0.0,0.0,0.0,0,0,0,0
17428000,0,47.3977508,8.5456074,488.104,0.0,0.0,0.0,0.0,0.0,0,0,0,0
17528000,0,47.3977508,8.5456074,488.104,0.0,0.0,0.0,0.0,0.0,0,0,0,0
17628000,0,47.3977508,8.5456074,488.104,0.0,0.0,0.0,0.0,0.0,0,0,0,0
17728000,0,47.3977508,8.5456074,488.104,0.0,0.0,0.0,0.0,0.0,0,0,0,0
17828000,0,47.3977508,8.5456074,488.104,0.0,0.0,0.0,0.0,0.0,0,0,0,0
17928000,0,47.3977508,8.5456074,488.104,0.0,0.0,0.0,0.0,0.0,0,0,0,0
18028000,0,47.3977508,8.5456074,488.104,0.0,0.0,0.0,0.0,0.0,0,0,0,0
18128000,0,47.3977508,8.5456074,488.104,0.0,0.0,0.0,0.0,0.0,0,0,0,0
18228000,0,47.3977508,8.5456074,488.104,0.0,0.0,0.0,0.0,0.0,0,0,0,0
18328000,0,47.3977508,8.5456074,488.104,0.0,0.0,0.0,0.0,0.0,0,0,0,0
18428000,0,47.3977508,8.5456074,488.104,0.0,0.0,0.0,0.0,0.0,0,0,0,0
18528000,0,47.3977508,8.5456074,488.104,0.0,0.0,0.0,0.0,0.0,0,0,0,0
18628000,0,47.3977508,8.5456074,488.104,0.0,0.0,0.0,0.0,0.0,0,0,0,0
18728000,0,47.3977508,8.5456074,488.104,0.0,0.0,0.0,0.0,0.0,0,0,0,0
18828000,0,47.3977508,8.5456074,488.104,0.0,0.0,0.0,0.0,0.0,0,0,0,0
18928000,0,47.3977508,8.5456074,488.104,0.0,0.0,0.0,0.0,0.0,0,0,0,0
19028000,0,47.3977508,8.5456074,488.104,0.0,0.0,0.0,0.0,0.0,0,0,0,0
19128000,0,47.3977508,8.5456074,488.104,0.0,0.0,0.0,0.0,0.0,0,0,0,0
19228000,0,47.3977508,8.5456074,488.104,0.0,0.0,0.0,0.0,0.0,0,0,0,0
19328000,0,47.3977508,8.5456074,488.104,0.0,0.0,0.0,0.0,0.0,0,0,0,0
19428000,0,47.3977508,8.5456074,488.104,0.0,0.0,0.0,0.0,0.0,0,0,0,0
19528000,0,47.3977508,8.5456074,488.104,0.0,0.0,0.0,0.0,0.0,0,0,0,0
19628000,0,47.3977508,8.5456074,488.104,0.0,0.0,0.0,0.0,0.0,0,0,0,0
19728000,0,47.3977508,8.5456074,488.104,0.0,0.0,0.0,0.0,0.0,0,0,0,0
19828000,0,47.3977508,8.5456074,488.104,0.0,0.0,0.0,0.0,0.0,0,0,0,0
19928000,0,47.3977508,8.5456074,488.104,0.0,0.0,0.0,0.0,0.0,0,0,0,0
20028000,0,47.3977508,8.5456074,488.104,0.0,0.0,0.0,0.0,0.0,0,0,0,0
20128000,0,47.3977508,8.5456074,488.104,0.0,0.0,0.0,0.0,0.0,0,0,0,0
20228000,0,47.3977508,8.5456074,488.104,0.0,0.0,0.0,0.0,0.0,0,0,0,0
20328000,0,47.3977508,8.5456074,488.104,0.0,0.0,0.0,0.0,0.0,0,0,0,0
20428000,0,47.3977508,8.5456074,488.104,0.0,0.0,0.0,0.0,0.0,0,0,0,0
20528000,0,47.3977508,8.5456074,488.104,0.0,0.0,0.0,0.0,0.0,0,0,0,0
20628000,0,47.3977508,8.5456074,488.104,0.0,0.0,0.0,0.0,0.0,0,0,0,0
20728000,0,47.3977508,8.5456074,488.104,0.0,0.0,0.0,0.0,0.0,0,0,0,0
20828000,0,47.3977508,8.5456074,488.104,0.0,0.0,0.0,0.0,0.0,0,0,0,0
20928000,0,47.3977508,8.5456074,488.104,0.0,0.0,0.0,0.0,0.0,0,0,0,0
21028000,0,47.3977508,8.5456074,488.104,0.0,0.0,0.0,0.0,0.0,0,0,0,0
21128000,0,47.3977508,8.5456074,488.104,0.0,0.0,0.0,0.0,0.0,0,0,0,0
21228000,0,47.3977508,8.5456074,488.104,0.0,0.0,0.0,0.0,0.0,0,0,0,0
21328000,0,47.3977508,8.5456074,488.104,0.0,0.0,0.0,0.0,0.0,0,0,0,0
21428000,0,47.3977508,8.5456074,488.104,0.0,0.0,0.0,0.0,0.0,0,0,0,0
21528000,0,47.3977508,8.5456074,488.104,0.0,0.0,0.0,0.0,0.0,0,0,0,0
21628000,0,47.3977508,8.5456074,488.106,0.0,0.0,0.0,0.0,0.0,0,0,0,0
21728000,0,47.3977508,8.5456074,488.113,0.0,0.0,0.0,0.0,0.0,0,0,0,0
21828000,0,47.3977508,8.5456073,488.125,0.0,0.0,0.0,0.0,0.0,0,0,0,0
21928000,0,47.3977508,8.5456072,488.14,0.0,0.0,0.0,0.0,0.0,0,0,0,0
22028000,0,47.397750699999996,8.5456071,488.158,0.0,0.0,0.0,0.0,0.0,0,0,0,0
22128000,0,47.397750699999996,8.5456069,488.178,0.0,0.0,0.0,0.0,0.0,0,0,0,0
22228000,0,47.3977508,8.5456067,488.197,0.0,0.0,0.0,0.0,0.0,0,0,0,0
22328000,0,47.397751,8.5456063,488.209,0.0,0.0,0.0,0.0,0.0,0,0,0,0
22428000,0,47.397751299999996,8.5456056,488.217,0.0,0.0,0.0,0.0,0.0,0,0,0,0
22528000,0,47.397751799999995,8.5456047,488.23,0.0,0.0,0.0,0.0,0.0,0,0,0,0
22628000,0,47.397752399999995,8.5456037,488.253,0.0,0.0,0.0,0.0,0.0,0,0,0,0
22728000,0,47.397752999999994,8.5456028,488.288,0.0,0.0,0.0,0.0,0.0,0,0,0,0
22828000,0,47.397753599999994,8.5456018,488.339,0.0,0.0,0.0,0.0,0.0,0,0,0,0
22928000,0,47.3977542,8.545601,488.398,0.0,0.0,0.0,0.0,0.0,0,0,0,0
23028000,0,47.3977547,8.545600199999999,488.461,0.0,0.0,0.0,0.0,0.0,0,0,0,0
23128000,0,47.3977551,8.5455995,488.535,0.0,0.0,0.0,0.0,0.0,0,0,0,0
23228000,0,47.3977554,8.545599,488.611,0.0,0.0,0.0,0.0,0.0,0,0,0,0
23328000,0,47.3977557,8.5455986,488.69,0.0,0.0,0.0,0.0,0.0,0,0,0,0
23428000,0,47.3977558,8.5455983,488.772,0.0,0.0,0.0,0.0,0.0,0,0,0,0
23528000,0,47.3977559,8.545598199999999,488.852,0.0,0.0,0.0,0.0,0.0,0,0,0,0
23628000,0,47.3977559,8.545598199999999,488.936,0.0,0.0,0.0,0.0,0.0,0,0,0,0
23728000,0,47.3977557,8.5455983,489.024,0.0,0.0,0.0,0.0,0.0,0,0,0,0
23828000,0,47.397755499999995,8.5455986,489.108,0.0,0.0,0.0,0.0,0.0,0,0,0,0
23928000,0,47.3977552,8.5455989,489.192,0.0,0.0,0.0,0.0,0.0,0,0,0,0
24028000,0,47.397754899999995,8.5455994,489.272,0.0,0.0,0.0,0.0,0.0,0,0,0,0
24128000,0,47.3977545,8.5456,489.354,0.0,0.0,0.0,0.0,0.0,0,0,0,0
24228000,0,47.397754,8.5456006,489.425,0.0,0.0,0.0,0.0,0.0,0,0,0,0
24328000,0,47.3977534,8.5456013,489.49,0.0,0.0,0.0,0.0,0.0,0,0,0,0
24428000,0,47.3977528,8.5456022,489.548,0.0,0.0,0.0,0.0,0.0,0,0,0,0
24528000,0,47.3977522,8.545603,489.593,0.0,0.0,0.0,0.0,0.0,0,0,0,0
24628000,0,47.3977516,8.5456039,489.634,0.0,0.0,0.0,0.0,0.0,0,0,0,0
24728000,0,47.3977509,8.545604899999999,489.666,0.0,0.0,0.0,0.0,0.0,0,0,0,0
24828000,0,47.3977502,8.5456059,489.69,0.0,0.0,0.0,0.0,0.0,0,0,0,0
24928000,0,47.397749499999996,8.5456069,489.706,0.0,0.0,0.0,0.0,0.0,0,0,0,0
25028000,0,47.397748799999995,8.5456079,489.716,0.0,0.0,0.0,0.0,0.0,0,0,0,0
25128000,0,47.3977481,8.5456089,489.718,0.0,0.0,0.0,0.0,0.0,0,0,0,0
25228000,0,47.3977473,8.54561,489.713,0.0,0.0,0.0,0.0,0.0,0,0,0,0
25328000,0,47.3977466,8.5456111,489.699,0.0,0.0,0.0,0.0,0.0,0,0,0,0
25428000,0,47.3977459,8.5456121,489.676,0.0,0.0,0.0,0.0,0.0,0,0,0,0
25528000,0,47.397745199999996,8.545613099999999,489.64,0.0,0.0,0.0,0.0,0.0,0,0,0,0
25628000,0,47.397744599999996,8.5456141,489.586,0.0,0.0,0.0,0.0,0.0,0,0,0,0
25728000,0,47.397743899999995,8.545615,489.518,0.0,0.0,0.0,0.0,0.0,0,0,0,0
25828000,0,47.397743299999995,8.545615999999999,489.443,0.0,0.0,0.0,0.0,0.0,0,0,0,0
25928000,0,47.397742699999995,8.5456168,489.365,0.0,0.0,0.0,0.0,0.0,0,0,0,0
26028000,0,47.397742199999996,8.5456176,489.286,0.0,0.0,0.0,0.0,0.0,0,0,0,0
26128000,0,47.3977418,8.5456183,489.214,0.0,0.0,0.0,0.0,0.0,0,0,0,0
26228000,0,47.3977414,8.5456189,489.141,0.0,0.0,0.0,0.0,0.0,0,0,0,0
26328000,0,47.3977411,8.5456194,489.074,0.0,0.0,0.0,0.0,0.0,0,0,0,0
26428000,0,47.3977408,8.5456197,489.008,0.0,0.0,0.0,0.0,0.0,0,0,0,0
26528000,0,47.3977407,8.5456199,488.942,0.0,0.0,0.0,0.0,0.0,0,0,0,0
26628000,0,47.3977407,8.54562,488.88,0.0,0.0,0.0,0.0,0.0,0,0,0,0
26728000,0,47.3977408,8.5456199,488.82,0.0,0.0,0.0,0.0,0.0,0,0,0,0
26828000,0,47.397740899999995,8.5456196,488.762,0.0,0.0,0.0,0.0,0.0,0,0,0,0
26928000,0,47.3977412,8.5456193,488.704,0.0,0.0,0.0,0.0,0.0,0,0,0,0
27028000,0,47.397741499999995,8.5456187,488.649,0.0,0.0,0.0,0.0,0.0,0,0,0,0
27128000,0,47.397742,8.5456181,488.601,0.0,0.0,0.0,0.0,0.0,0,0,0,0
27228000,0,47.3977425,8.5456173,488.55,0.0,0.0,0.0,0.0,0.0,0,0,0,0
27328000,0,47.3977431,8.5456165,488.503,0.0,0.0,0.0,0.0,0.0,0,0,0,0
27428000,0,47.3977438,8.5456155,488.461,0.0,0.0,0.0,0.0,0.0,0,0,0,0
27528000,0,47.397744499999995,8.5456145,488.424,0.0,0.0,0.0,0.0,0.0,0,0,0,0
27628000,0,47.3977453,8.545613399999999,488.391,0.0,0.0,0.0,0.0,0.0,0,0,0,0
27728000,0,47.3977462,8.5456123,488.361,0.0,0.0,0.0,0.0,0.0,0,0,0,0
27828000,0,47.397746999999995,8.5456112,488.338,0.0,0.0,0.0,0.0,0.0,0,0,0,0
27928000,0,47.3977479,8.54561,488.32,0.0,0.0,0.0,0.0,0.0,0,0,0,0
28028000,0,47.397748799999995,8.5456089,488.308,0.0,0.0,0.0,0.0,0.0,0,0,0,0
28128000,0,47.3977497,8.5456077,488.3,0.0,0.0,0.0,0.0,0.0,0,0,0,0
28228000,0,47.397750599999995,8.5456066,488.3,0.0,0.0,0.0,0.0,0.0,0,0,0,0
28328000,0,47.3977515,8.5456054,488.307,0.0,0.0,0.0,0.0,0.0,0,0,0,0
28428000,0,47.3977523,8.5456044,488.319,0.0,0.0,0.0,0.0,0.0,0,0,0,0
28528000,0,47.3977532,8.5456033,488.335,0.0,0.0,0.0,0.0,0.0,0,0,0,0
28628000,0,47.397754,8.5456024,488.359,0.0,0.0,0.0,0.0,0.0,0,0,0,0
28728000,0,47.3977548,8.5456015,488.389,0.0,0.0,0.0,0.0,0.0,0,0,0,0
28828000,0,47.397755499999995,8.5456006,488.426,0.0,0.0,0.0,0.0,0.0,0,0,0,0
28928000,0,47.397756199999996,8.5455998,488.466,0.0,0.0,0.0,0.0,0.0,0,0,0,0
29028000,0,47.3977569,8.545599,488.516,0.0,0.0,0.0,0.0,0.0,0,0,0,0
29128000,0,47.3977575,8.5455984,488.569,0.0,0.0,0.0,0.0,0.0,0,0,0,0
29228000,0,47.3977581,8.5455977,488.632,0.0,0.0,0.0,0.0,0.0,0,0,0,0
29328000,0,47.3977587,8.5455972,488.697,0.0,0.0,0.0,0.0,0.0,0,0,0,0
29428000,0,47.397759199999996,8.545596699999999,488.765,0.0,0.0,0.0,0.0,0.0,0,0,0,0
29528000,0,47.397759699999995,8.5455962,488.845,0.0,0.0,0.0,0.0,0.0,0,0,0,0
29628000,0,47.3977601,8.5455958,488.926,0.0,0.0,0.0,0.0,0.0,0,0,0,0
29728000,0,47.3977605,8.5455954,489.008,0.0,0.0,0.0,0.0,0.0,0,0,0,0
29828000,0,47.3977608,8.5455951,489.097,0.0,0.0,0.0,0.0,0.0,0,0,0,0
29928000,0,47.3977611,8.5455948,489.192,0.0,0.0,0.0,0.0,0.0,0,0,0,0
30028000,0,47.3977614,8.5455945,489.29,0.0,0.0,0.0,0.0,0.0,0,0,0,0
30128000,0,47.3977617,8.5455943,489.392,0.0,0.0,0.0,0.0,0.0,0,0,0,0
30228000,0,47.3977619,8.545594099999999,489.494,0.0,0.0,0.0,0.0,0.0,0,0,0,0
30328000,0,47.3977621,8.5455939,489.595,0.0,0.0,0.0,0.0,0.0,0,0,0,0
30428000,0,47.397762199999995,8.545593799999999,489.696,0.0,0.0,0.0,0.0,0.0,0,0,0,0
30528000,0,47.3977623,8.5455937,489.791,0.0,0.0,0.0,0.0,0.0,0,0,0,0
30628000,0,47.3977623,8.5455937,489.881,0.0,0.0,0.0,0.0,0.0,0,0,0,0
30728000,0,47.3977623,8.545593799999999,489.968,0.0,0.0,0.0,0.0,0.0,0,0,0,0
30828000,0,47.397762199999995,8.5455939,490.051,0.0,0.0,0.0,0.0,0.0,0,0,0,0
30928000,0,47.397762,8.545594099999999,490.131,0.0,0.0,0.0,0.0,0.0,0,0,0,0
31028000,0,47.3977619,8.5455943,490.208,0.0,0.0,0.0,0.0,0.0,0,0,0,0
31128000,0,47.397761599999995,8.5455946,490.282,0.0,0.0,0.0,0.0,0.0,0,0,0,0
31228000,0,47.3977614,8.5455949,490.352,0.0,0.0,0.0,0.0,0.0,0,0,0,0
31328000,0,47.3977611,8.5455953,490.42,0.0,0.0,0.0,0.0,0.0,0,0,0,0
31428000,0,47.3977607,8.5455957,490.483,0.0,0.0,0.0,0.0,0.0,0,0,0,0
31528000,0,47.397760399999996,8.5455961,490.545,0.0,0.0,0.0,0.0,0.0,0,0,0,0
31628000,0,47.39776,8.5455966,490.605,0.0,0.0,0.0,0.0,0.0,0,0,0,0
31728000,0,47.3977596,8.5455971,490.663,0.0,0.0,0.0,0.0,0.0,0,0,0,0
31828000,0,47.397759099999995,8.545597599999999,490.72,0.0,0.0,0.0,0.0,0.0,0,0,0,0
31928000,0,47.3977587,8.5455981,490.773,0.0,0.0,0.0,0.0,0.0,0,0,0,0
32028000,0,47.3977583,8.5455986,490.822,0.0,0.0,0.0,0.0,0.0,0,0,0,0
32128000,0,47.3977578,8.5455991,490.87,0.0,0.0,0.0,0.0,0.0,0,0,0,0
32228000,0,47.397757399999996,8.5455996,490.915,0.0,0.0,0.0,0.0,0.0,0,0,0,0
32328000,0,47.397757,8.5456001,490.955,0.0,0.0,0.0,0.0,0.0,0,0,0,0
32428000,0,47.3977565,8.5456006,490.995,0.0,0.0,0.0,0.0,0.0,0,0,0,0
32528000,0,47.397756099999995,8.545601099999999,491.035,0.0,0.0,0.0,0.0,0.0,0,0,0,0
32628000,0,47.3977557,8.5456016,491.069,0.0,0.0,0.0,0.0,0.0,0,0,0,0
32728000,0,47.3977554,8.5456021,491.104,0.0,0.0,0.0,0.0,0.0,0,0,0,0
32828000,0,47.397755,8.5456025,491.135,0.0,0.0,0.0,0.0,0.0,0,0,0,0
32928000,0,47.3977547,8.5456029,491.165,0.0,0.0,0.0,0.0,0.0,0,0,0,0
33028000,0,47.397754299999995,8.5456033,491.191,0.0,0.0,0.0,0.0,0.0,0,0,0,0
33128000,0,47.397754,8.5456037,491.217,0.0,0.0,0.0,0.0,0.0,0,0,0,0
33228000,0,47.397753699999996,8.545603999999999,491.241,0.0,0.0,0.0,0.0,0.0,0,0,0,0
33328000,0,47.3977535,8.545604299999999,491.263,0.0,0.0,0.0,0.0,0.0,0,0,0,0
33428000,0,47.3977532,8.545604599999999,491.283,0.0,0.0,0.0,0.0,0.0,0,0,0,0
33528000,0,47.397752999999994,8.545604899999999,491.3,0.0,0.0,0.0,0.0,0.0,0,0,0,0
33628000,0,47.3977528,8.545605199999999,491.316,0.0,0.0,0.0,0.0,0.0,0,0,0,0
33728000,0,47.3977526,8.5456054,491.33,0.0,0.0,0.0,0.0,0.0,0,0,0,0
33828000,0,47.397752399999995,8.5456056,491.343,0.0,0.0,0.0,0.0,0.0,0,0,0,0
33928000,0,47.3977522,8.545605799999999,491.354,0.0,0.0,0.0,0.0,0.0,0,0,0,0
34028000,0,47.3977521,8.545606,491.365,0.0,0.0,0.0,0.0,0.0,0,0,0,0
34128000,0,47.397751899999996,8.545606099999999,491.374,0.0,0.0,0.0,0.0,0.0,0,0,0,0
34228000,0,47.397751799999995,8.5456063,491.382,0.0,0.0,0.0,0.0,0.0,0,0,0,0
34328000,0,47.3977517,8.5456064,491.387,0.0,0.0,0.0,0.0,0.0,0,0,0,0
34428000,0,47.3977516,8.5456065,491.391,0.0,0.0,0.0,0.0,0.0,0,0,0,0
34528000,0,47.3977515,8.5456066,491.395,0.0,0.0,0.0,0.0,0.0,0,0,0,0
34628000,0,47.3977514,8.5456067,491.397,0.0,0.0,0.0,0.0,0.0,0,0,0,0
34728000,0,47.3977514,8.5456068,491.397,0.0,0.0,0.0,0.0,0.0,0,0,0,0
34828000,0,47.397751299999996,8.5456069,491.397,0.0,0.0,0.0,0.0,0.0,0,0,0,0
34928000,0,47.397751199999995,8.545607,491.397,0.0,0.0,0.0,0.0,0.0,0,0,0,0
35028000,0,47.397751199999995,8.5456071,491.395,0.0,0.0,0.0,0.0,0.0,0,0,0,0
35128000,0,47.3977511,8.5456072,491.392,0.0,0.0,0.0,0.0,0.0,0,0,0,0
35228000,0,47.397751,8.5456072,491.388,0.0,0.0,0.0,0.0,0.0,0,0,0,0
35328000,0,47.397751,8.5456073,491.385,0.0,0.0,0.0,0.0,0.0,0,0,0,0
35428000,0,47.3977509,8.5456074,491.38,0.0,0.0,0.0,0.0,0.0,0,0,0,0
35528000,0,47.3977509,8.5456074,491.374,0.0,0.0,0.0,0.0,0.0,0,0,0,0
35628000,0,47.3977508,8.5456075,491.368,0.0,0.0,0.0,0.0,0.0,0,0,0,0
35728000,0,47.3977508,8.5456076,491.363,0.0,0.0,0.0,0.0,0.0,0,0,0,0
35828000,0,47.397750699999996,8.5456077,491.356,0.0,0.0,0.0,0.0,0.0,0,0,0,0
35928000,0,47.397750699999996,8.5456077,491.349,0.0,0.0,0.0,0.0,0.0,0,0,0,0
36028000,0,47.397750699999996,8.545607799999999,491.341,0.0,0.0,0.0,0.0,0.0,0,0,0,0
36128000,0,47.397750599999995,8.5456079,491.334,0.0,0.0,0.0,0.0,0.0,0,0,0,0
36228000,0,47.397750599999995,8.545608,491.326,0.0,0.0,0.0,0.0,0.0,0,0,0,0
36328000,0,47.3977505,8.545608099999999,491.316,0.0,0.0,0.0,0.0,0.0,0,0,0,0
36428000,0,47.3977505,8.545608099999999,491.306,0.0,0.0,0.0,0.0,0.0,0,0,0,0
36528000,0,47.3977504,8.5456082,491.296,0.0,0.0,0.0,0.0,0.0,0,0,0,0
36628000,0,47.3977504,8.5456083,491.286,0.0,0.0,0.0,0.0,0.0,0,0,0,0
36728000,0,47.3977503,8.545608399999999,491.275,0.0,0.0,0.0,0.0,0.0,0,0,0,0
36828000,0,47.3977503,8.545608399999999,491.263,0.0,0.0,0.0,0.0,0.0,0,0,0,0
36928000,0,47.3977502,8.5456085,491.252,0.0,0.0,0.0,0.0,0.0,0,0,0,0
37028000,0,47.397750099999996,8.5456086,491.241,0.0,0.0,0.0,0.0,0.0,0,0,0,0
37128000,0,47.397750099999996,8.545608699999999,491.228,0.0,0.0,0.0,0.0,0.0,0,0,0,0
37228000,0,47.397749999999995,8.545608699999999,491.216,0.0,0.0,0.0,0.0,0.0,0,0,0,0
37328000,0,47.397749999999995,8.5456088,491.205,0.0,0.0,0.0,0.0,0.0,0,0,0,0
37428000,0,47.3977499,8.5456088,491.194,0.0,0.0,0.0,0.0,0.0,0,0,0,0
37528000,0,47.3977499,8.5456089,491.183,0.0,0.0,0.0,0.0,0.0,0,0,0,0
37628000,0,47.3977498,8.545608999999999,491.171,0.0,0.0,0.0,0.0,0.0,0,0,0,0
37728000,0,47.3977498,8.545608999999999,491.16,0.0,0.0,0.0,0.0,0.0,0,0,0,0
37828000,0,47.3977498,8.5456091,491.15,0.0,0.0,0.0,0.0,0.0,0,0,0,0
37928000,0,47.3977497,8.5456091,491.138,0.0,0.0,0.0,0.0,0.0,0,0,0,0
38028000,0,47.3977497,8.5456092,491.127,0.0,0.0,0.0,0.0,0.0,0,0,0,0
38128000,0,47.3977497,8.545609299999999,491.116,0.0,0.0,0.0,0.0,0.0,0,0,0,0
38228000,0,47.3977496,8.545609299999999,491.106,0.0,0.0,0.0,0.0,0.0,0,0,0,0
38328000,0,47.3977496,8.545609299999999,491.094,0.0,0.0,0.0,0.0,0.0,0,0,0,0
38428000,0,47.3977496,8.5456094,491.084,0.0,0.0,0.0,0.0,0.0,0,0,0,0
38528000,0,47.3977496,8.5456094,491.073,0.0,0.0,0.0,0.0,0.0,0,0,0,0
38628000,0,47.3977496,8.5456095,491.062,0.0,0.0,0.0,0.0,0.0,0,0,0,0
38728000,0,47.397749499999996,8.5456095,491.051,0.0,0.0,0.0,0.0,0.0,0,0,0,0
38828000,0,47.397749499999996,8.5456095,491.04,0.0,0.0,0.0,0.0,0.0,0,0,0,0
38928000,0,47.397749499999996,8.5456095,491.03,0.0,0.0,0.0,0.0,0.0,0,0,0,0
39028000,0,47.397749499999996,8.5456095,491.021,0.0,0.0,0.0,0.0,0.0,0,0,0,0
39128000,0,47.397749499999996,8.5456095,491.011,0.0,0.0,0.0,0.0,0.0,0,0,0,0
39228000,0,47.397749499999996,8.5456095,491.002,0.0,0.0,0.0,0.0,0.0,0,0,0,0
39328000,0,47.397749499999996,8.5456095,490.994,0.0,0.0,0.0,0.0,0.0,0,0,0,0
39428000,0,47.397749499999996,8.5456095,490.985,0.0,0.0,0.0,0.0,0.0,0,0,0,0
39528000,0,47.397749499999996,8.5456095,490.976,0.0,0.0,0.0,0.0,0.0,0,0,0,0
39628000,0,47.397749499999996,8.5456095,490.967,0.0,0.0,0.0,0.0,0.0,0,0,0,0
39728000,0,47.397749499999996,8.5456095,490.959,0.0,0.0,0.0,0.0,0.0,0,0,0,0
39828000,0,47.397749399999995,8.5456095,490.95,0.0,0.0,0.0,0.0,0.0,0,0,0,0
39928000,0,47.397749399999995,8.5456095,490.942,0.0,0.0,0.0,0.0,0.0,0,0,0,0
40028000,0,47.397749399999995,8.5456095,490.933,0.0,0.0,0.0,0.0,0.0,0,0,0,0
40128000,0,47.397749399999995,8.5456095,490.925,0.0,0.0,0.0,0.0,0.0,0,0,0,0
40228000,0,47.397749399999995,8.5456095,490.917,0.0,0.0,0.0,0.0,0.0,0,0,0,0
40328000,0,47.397749399999995,8.5456095,490.91,0.0,0.0,0.0,0.0,0.0,0,0,0,0
40428000,0,47.397749399999995,8.5456094,490.902,0.0,0.0,0.0,0.0,0.0,0,0,0,0
40528000,0,47.397749399999995,8.5456094,490.895,0.0,0.0,0.0,0.0,0.0,0,0,0,0
40628000,0,47.397749399999995,8.5456094,490.888,0.0,0.0,0.0,0.0,0.0,0,0,0,0
40728000,0,47.397749399999995,8.5456094,490.881,0.0,0.0,0.0,0.0,0.0,0,0,0,0
40828000,0,47.397749399999995,8.5456094,490.875,0.0,0.0,0.0,0.0,0.0,0,0,0,0
40928000,0,47.397749399999995,8.545609299999999,490.87,0.0,0.0,0.0,0.0,0.0,0,0,0,0
41028000,0,47.397749399999995,8.545609299999999,490.864,0.0,0.0,0.0,0.0,0.0,0,0,0,0
41128000,0,47.397749399999995,8.545609299999999,490.859,0.0,0.0,0.0,0.0,0.0,0,0,0,0
41228000,0,47.397749399999995,8.545609299999999,490.854,0.0,0.0,0.0,0.0,0.0,0,0,0,0
41328000,0,47.397749399999995,8.545609299999999,490.85,0.0,0.0,0.0,0.0,0.0,0,0,0,0
41428000,0,47.397749399999995,8.5456092,490.845,0.0,0.0,0.0,0.0,0.0,0,0,0,0
41528000,0,47.397749399999995,8.5456092,490.841,0.0,0.0,0.0,0.0,0.0,0,0,0,0
41628000,0,47.397749499999996,8.5456092,490.836,0.0,0.0,0.0,0.0,0.0,0,0,0,0
41728000,0,47.397749499999996,8.5456092,490.833,0.0,0.0,0.0,0.0,0.0,0,0,0,0
41828000,0,47.397749499999996,8.5456091,490.829,0.0,0.0,0.0,0.0,0.0,0,0,0,0
41928000,0,47.397749499999996,8.5456091,490.825,0.0,0.0,0.0,0.0,0.0,0,0,0,0
42028000,0,47.397749499999996,8.5456091,490.822,0.0,0.0,0.0,0.0,0.0,0,0,0,0
42128000,0,47.3977496,8.5456091,490.819,0.0,0.0,0.0,0.0,0.0,0,0,0,0
42228000,0,47.3977496,8.545608999999999,490.816,0.0,0.0,0.0,0.0,0.0,0,0,0,0
42328000,0,47.3977496,8.545608999999999,490.813,0.0,0.0,0.0,0.0,0.0,0,0,0,0
42428000,0,47.3977497,8.545608999999999,490.81,0.0,0.0,0.0,0.0,0.0,0,0,0,0
42528000,0,47.3977497,8.545608999999999,490.808,0.0,0.0,0.0,0.0,0.0,0,0,0,0
42628000,0,47.3977497,8.5456089,490.805,0.0,0.0,0.0,0.0,0.0,0,0,0,0
42728000,0,47.3977498,8.5456089,490.802,0.0,0.0,0.0,0.0,0.0,0,0,0,0
42828000,0,47.3977498,8.5456089,490.8,0.0,0.0,0.0,0.0,0.0,0,0,0,0
42928000,0,47.3977499,8.5456088,490.797,0.0,0.0,0.0,0.0,0.0,0,0,0,0
43028000,0,47.3977499,8.5456088,490.794,0.0,0.0,0.0,0.0,0.0,0,0,0,0
43128000,0,47.397749999999995,8.5456088,490.792,0.0,0.0,0.0,0.0,0.0,0,0,0,0
43228000,0,47.397749999999995,8.5456088,490.789,0.0,0.0,0.0,0.0,0.0,0,0,0,0
43328000,0,47.397749999999995,8.545608699999999,490.786,0.0,0.0,0.0,0.0,0.0,0,0,0,0
43428000,0,47.397750099999996,8.545608699999999,490.784,0.0,0.0,0.0,0.0,0.0,0,0,0,0
43528000,0,47.397750099999996,8.545608699999999,490.781,0.0,0.0,0.0,0.0,0.0,0,0,0,0
43628000,0,47.3977502,8.5456086,490.779,0.0,0.0,0.0,0.0,0.0,0,0,0,0
43728000,0,47.3977502,8.5456086,490.777,0.0,0.0,0.0,0.0,0.0,0,0,0,0
43828000,0,47.3977503,8.5456085,490.775,0.0,0.0,0.0,0.0,0.0,0,0,0,0
43928000,0,47.3977503,8.5456085,490.772,0.0,0.0,0.0,0.0,0.0,0,0,0,0
44028000,0,47.3977504,8.5456085,490.769,0.0,0.0,0.0,0.0,0.0,0,0,0,0
44128000,0,47.3977504,8.545608399999999,490.767,0.0,0.0,0.0,0.0,0.0,0,0,0,0
44228000,0,47.3977504,8.545608399999999,490.765,0.0,0.0,0.0,0.0,0.0,0,0,0,0
44328000,0,47.3977505,8.5456083,490.762,0.0,0.0,0.0,0.0,0.0,0,0,0,0
44428000,0,47.3977505,8.5456083,490.76,0.0,0.0,0.0,0.0,0.0,0,0,0,0
44528000,0,47.3977505,8.5456083,490.758,0.0,0.0,0.0,0.0,0.0,0,0,0,0
44628000,0,47.3977505,8.5456082,490.756,0.0,0.0,0.0,0.0,0.0,0,0,0,0
44728000,0,47.397750599999995,8.5456082,490.754,0.0,0.0,0.0,0.0,0.0,0,0,0,0
44828000,0,47.397750599999995,8.5456082,490.752,0.0,0.0,0.0,0.0,0.0,0,0,0,0
44928000,0,47.397750599999995,8.545608099999999,490.75,0.0,0.0,0.0,0.0,0.0,0,0,0,0
45028000,0,47.397750599999995,8.545608099999999,490.749,0.0,0.0,0.0,0.0,0.0,0,0,0,0
45128000,0,47.397750599999995,8.545608099999999,490.747,0.0,0.0,0.0,0.0,0.0,0,0,0,0
45228000,0,47.397750599999995,8.545608,490.745,0.0,0.0,0.0,0.0,0.0,0,0,0,0
45328000,0,47.397750599999995,8.545608,490.743,0.0,0.0,0.0,0.0,0.0,0,0,0,0
45428000,0,47.397750599999995,8.545608,490.742,0.0,0.0,0.0,0.0,0.0,0,0,0,0
45528000,0,47.397750599999995,8.5456079,490.74,0.0,0.0,0.0,0.0,0.0,0,0,0,0
45628000,0,47.397750599999995,8.5456079,490.738,0.0,0.0,0.0,0.0,0.0,0,0,0,0
45728000,0,47.397750599999995,8.5456079,490.737,0.0,0.0,0.0,0.0,0.0,0,0,0,0
45828000,0,47.397750599999995,8.5456079,490.736,0.0,0.0,0.0,0.0,0.0,0,0,0,0
45928000,0,47.397750599999995,8.5456079,490.734,0.0,0.0,0.0,0.0,0.0,0,0,0,0
46028000,0,47.397750599999995,8.5456079,490.733,0.0,0.0,0.0,0.0,0.0,0,0,0,0
46128000,0,47.397750599999995,8.545607799999999,490.732,0.0,0.0,0.0,0.0,0.0,0,0,0,0
46228000,0,47.397750599999995,8.545607799999999,490.73,0.0,0.0,0.0,0.0,0.0,0,0,0,0
46328000,0,47.397750599999995,8.545607799999999,490.729,0.0,0.0,0.0,0.0,0.0,0,0,0,0
46428000,0,47.397750599999995,8.545607799999999,490.728,0.0,0.0,0.0,0.0,0.0,0,0,0,0
46528000,0,47.397750599999995,8.545607799999999,490.727,0.0,0.0,0.0,0.0,0.0,0,0,0,0
46628000,0,47.397750599999995,8.545607799999999,490.726,0.0,0.0,0.0,0.0,0.0,0,0,0,0
46728000,0,47.397750599999995,8.545607799999999,490.725,0.0,0.0,0.0,0.0,0.0,0,0,0,0
46828000,0,47.397750599999995,8.545607799999999,490.724,0.0,0.0,0.0,0.0,0.0,0,0,0,0
46928000,0,47.3977505,8.545607799999999,490.724,0.0,0.0,0.0,0.0,0.0,0,0,0,0
47028000,0,47.3977505,8.545607799999999,490.724,0.0,0.0,0.0,0.0,0.0,0,0,0,0
47128000,0,47.3977505,8.545607799999999,490.723,0.0,0.0,0.0,0.0,0.0,0,0,0,0
47228000,0,47.3977505,8.545607799999999,490.722,0.0,0.0,0.0,0.0,0.0,0,0,0,0
47328000,0,47.3977505,8.545607799999999,490.721,0.0,0.0,0.0,0.0,0.0,0,0,0,0
47428000,0,47.3977505,8.545607799999999,490.72,0.0,0.0,0.0,0.0,0.0,0,0,0,0
47528000,0,47.3977505,8.545607799999999,490.719,0.0,0.0,0.0,0.0,0.0,0,0,0,0
47628000,0,47.3977505,8.545607799999999,490.718,0.0,0.0,0.0,0.0,0.0,0,0,0,0
47728000,0,47.3977505,8.545607799999999,490.717,0.0,0.0,0.0,0.0,0.0,0,0,0,0
47828000,0,47.3977505,8.545607799999999,490.716,0.0,0.0,0.0,0.0,0.0,0,0,0,0
47928000,0,47.3977505,8.5456077,490.716,0.0,0.0,0.0,0.0,0.0,0,0,0,0
48028000,0,47.3977505,8.5456077,490.715,0.0,0.0,0.0,0.0,0.0,0,0,0,0
48128000,0,47.3977505,8.5456077,490.715,0.0,0.0,0.0,0.0,0.0,0,0,0,0
48228000,0,47.3977505,8.5456077,490.715,0.0,0.0,0.0,0.0,0.0,0,0,0,0
48328000,0,47.3977505,8.5456077,490.714,0.0,0.0,0.0,0.0,0.0,0,0,0,0
48428000,0,47.3977505,8.5456077,490.713,0.0,0.0,0.0,0.0,0.0,0,0,0,0
48528000,0,47.3977505,8.5456077,490.713,0.0,0.0,0.0,0.0,0.0,0,0,0,0
48628000,0,47.3977505,8.5456077,490.713,0.0,0.0,0.0,0.0,0.0,0,0,0,0
48728000,0,47.3977505,8.5456077,490.713,0.0,0.0,0.0,0.0,0.0,0,0,0,0
48828000,0,47.3977505,8.5456077,490.713,0.0,0.0,0.0,0.0,0.0,0,0,0,0
48928000,0,47.3977505,8.5456077,490.713,0.0,0.0,0.0,0.0,0.0,0,0,0,0
49028000,0,47.3977505,8.5456077,490.714,0.0,0.0,0.0,0.0,0.0,0,0,0,0
49128000,0,47.3977505,8.5456077,490.715,0.0,0.0,0.0,0.0,0.0,0,0,0,0
49228000,0,47.3977505,8.5456077,490.716,0.0,0.0,0.0,0.0,0.0,0,0,0,0
49328000,0,47.3977505,8.545607799999999,490.717,0.0,0.0,0.0,0.0,0.0,0,0,0,0
49428000,0,47.3977505,8.545607799999999,490.719,0.0,0.0,0.0,0.0,0.0,0,0,0,0
49528000,0,47.3977505,8.545607799999999,490.72,0.0,0.0,0.0,0.0,0.0,0,0,0,0
49628000,0,47.3977505,8.545607799999999,490.722,0.0,0.0,0.0,0.0,0.0,0,0,0,0
49728000,0,47.3977505,8.545607799999999,490.724,0.0,0.0,0.0,0.0,0.0,0,0,0,0
49828000,0,47.3977505,8.545607799999999,490.726,0.0,0.0,0.0,0.0,0.0,0,0,0,0
49928000,0,47.3977505,8.5456079,490.728,0.0,0.0,0.0,0.0,0.0,0,0,0,0
50028000,0,47.3977505,8.5456079,490.731,0.0,0.0,0.0,0.0,0.0,0,0,0,0
50128000,0,47.3977505,8.5456079,490.733,0.0,0.0,0.0,0.0,0.0,0,0,0,0
50228000,0,47.397750599999995,8.5456079,490.739,0.0,0.0,0.0,0.0,0.0,0,0,0,0
50328000,0,47.397750599999995,8.5456079,490.75,0.0,0.0,0.0,0.0,0.0,0,0,0,0
50428000,0,47.397750699999996,8.545607799999999,490.765,0.0,0.0,0.0,0.0,0.0,0,0,0,0
50528000,0,47.397750699999996,8.545607799999999,490.786,0.0,0.0,0.0,0.0,0.0,0,0,0,0
50628000,0,47.3977509,8.5456076,490.81,0.0,0.0,0.0,0.0,0.0,0,0,0,0
50728000,0,47.397751,8.5456074,490.838,0.0,0.0,0.0,0.0,0.0,0,0,0,0
50828000,0,47.397751199999995,8.5456072,490.869,0.0,0.0,0.0,0.0,0.0,0,0,0,0
50928000,0,47.3977515,8.5456069,490.905,0.0,0.0,0.0,0.0,0.0,0,0,0,0
51028000,0,47.397751799999995,8.5456066,490.944,0.0,0.0,0.0,0.0,0.0,0,0,0,0
51128000,0,47.3977521,8.5456062,490.984,0.0,0.0,0.0,0.0,0.0,0,0,0,0
51228000,0,47.397752399999995,8.545605799999999,491.025,0.0,0.0,0.0,0.0,0.0,0,0,0,0
51328000,0,47.3977528,8.5456053,491.071,0.0,0.0,0.0,0.0,0.0,0,0,0,0
51428000,0,47.397753099999996,8.5456048,491.117,0.0,0.0,0.0,0.0,0.0,0,0,0,0
51528000,0,47.3977535,8.5456044,491.16,0.0,0.0,0.0,0.0,0.0,0,0,0,0
51628000,0,47.3977539,8.5456038,491.208,0.0,0.0,0.0,0.0,0.0,0,0,0,0
51728000,0,47.397754299999995,8.5456033,491.254,0.0,0.0,0.0,0.0,0.0,0,0,0,0
51828000,0,47.3977547,8.5456028,491.298,0.0,0.0,0.0,0.0,0.0,0,0,0,0
51928000,0,47.3977551,8.545602299999999,491.343,0.0,0.0,0.0,0.0,0.0,0,0,0,0
52028000,0,47.397755499999995,8.5456019,491.386,0.0,0.0,0.0,0.0,0.0,0,0,0,0
52128000,0,47.3977558,8.545601399999999,491.427,0.0,0.0,0.0,0.0,0.0,0,0,0,0
52228000,0,47.397756199999996,8.545601,491.468,0.0,0.0,0.0,0.0,0.0,0,0,0,0
52328000,0,47.3977565,8.5456006,491.502,0.0,0.0,0.0,0.0,0.0,0,0,0,0
52428000,0,47.397756799999996,8.545600199999999,491.538,0.0,0.0,0.0,0.0,0.0,0,0,0,0
52528000,0,47.397757,8.5456,491.568,0.0,0.0,0.0,0.0,0.0,0,0,0,0
52628000,0,47.3977572,8.5455997,491.596,0.0,0.0,0.0,0.0,0.0,0,0,0,0
52728000,0,47.397757399999996,8.5455995,491.62,0.0,0.0,0.0,0.0,0.0,0,0,0,0
52828000,0,47.3977575,8.5455994,491.64,0.0,0.0,0.0,0.0,0.0,0,0,0,0
52928000,0,47.3977576,8.5455993,491.656,0.0,0.0,0.0,0.0,0.0,0,0,0,0
53028000,0,47.3977577,8.5455993,491.668,0.0,0.0,0.0,0.0,0.0,0,0,0,0
53128000,0,47.3977577,8.5455993,491.674,0.0,0.0,0.0,0.0,0.0,0,0,0,0
53228000,0,47.3977576,8.5455994,491.676,0.0,0.0,0.0,0.0,0.0,0,0,0,0
53328000,0,47.3977575,8.5455996,491.675,0.0,0.0,0.0,0.0,0.0,0,0,0,0
53428000,0,47.397757399999996,8.5455998,491.667,0.0,0.0,0.0,0.0,0.0,0,0,0,0
53528000,0,47.3977572,8.5456001,491.653,0.0,0.0,0.0,0.0,0.0,0,0,0,0
53628000,0,47.3977569,8.545600499999999,491.635,0.0,0.0,0.0,0.0,0.0,0,0,0,0
53728000,0,47.3977566,8.5456009,491.612,0.0,0.0,0.0,0.0,0.0,0,0,0,0
53828000,0,47.3977563,8.545601399999999,491.582,0.0,0.0,0.0,0.0,0.0,0,0,0,0
53928000,0,47.3977559,8.5456018,491.548,0.0,0.0,0.0,0.0,0.0,0,0,0,0
54028000,0,47.397755499999995,8.5456024,491.506,0.0,0.0,0.0,0.0,0.0,0,0,0,0
54128000,0,47.3977551,8.545603,491.463,0.0,0.0,0.0,0.0,0.0,0,0,0,0
54228000,0,47.3977546,8.5456037,491.411,0.0,0.0,0.0,0.0,0.0,0,0,0,0
54328000,0,47.3977541,8.5456044,491.356,0.0,0.0,0.0,0.0,0.0,0,0,0,0
54428000,0,47.397753599999994,8.5456051,491.299,0.0,0.0,0.0,0.0,0.0,0,0,0,0
54528000,0,47.397752999999994,8.5456059,491.235,0.0,0.0,0.0,0.0,0.0,0,0,0,0
54628000,0,47.397752399999995,8.5456067,491.168,0.0,0.0,0.0,0.0,0.0,0,0,0,0
54728000,0,47.397751799999995,8.5456075,491.094,0.0,0.0,0.0,0.0,0.0,0,0,0,0
54828000,0,47.397751199999995,8.5456083,491.023,0.0,0.0,0.0,0.0,0.0,0,0,0,0
54928000,0,47.3977505,8.5456092,490.942,0.0,0.0,0.0,0.0,0.0,0,0,0,0
55028000,0,47.3977499,8.54561,490.865,0.0,0.0,0.0,0.0,0.0,0,0,0,0
55128000,0,47.3977492,8.5456109,490.783,0.0,0.0,0.0,0.0,0.0,0,0,0,0
55228000,0,47.3977485,8.5456118,490.699,0.0,0.0,0.0,0.0,0.0,0,0,0,0
55328000,0,47.3977479,8.5456126,490.612,0.0,0.0,0.0,0.0,0.0,0,0,0,0
55428000,0,47.3977472,8.5456135,490.522,0.0,0.0,0.0,0.0,0.0,0,0,0,0
55528000,0,47.3977466,8.5456143,490.438,0.0,0.0,0.0,0.0,0.0,0,0,0,0
55628000,0,47.3977459,8.5456152,490.346,0.0,0.0,0.0,0.0,0.0,0,0,0,0
55728000,0,47.3977453,8.545615999999999,490.257,0.0,0.0,0.0,0.0,0.0,0,0,0,0
55828000,0,47.3977447,8.5456168,490.169,0.0,0.0,0.0,0.0,0.0,0,0,0,0
55928000,0,47.3977441,8.545617499999999,490.085,0.0,0.0,0.0,0.0,0.0,0,0,0,0
56028000,0,47.3977435,8.5456182,489.999,0.0,0.0,0.0,0.0,0.0,0,0,0,0
56128000,0,47.397743,8.545619,489.91,0.0,0.0,0.0,0.0,0.0,0,0,0,0
56228000,0,47.3977425,8.5456196,489.827,0.0,0.0,0.0,0.0,0.0,0,0,0,0
56328000,0,47.397742,8.5456202,489.747,0.0,0.0,0.0,0.0,0.0,0,0,0,0
56428000,0,47.397741499999995,8.5456208,489.668,0.0,0.0,0.0,0.0,0.0,0,0,0,0
56528000,0,47.3977411,8.5456214,489.59,0.0,0.0,0.0,0.0,0.0,0,0,0,0
56628000,0,47.3977408,8.5456218,489.519,0.0,0.0,0.0,0.0,0.0,0,0,0,0
56728000,0,47.397740399999996,8.5456223,489.45,0.0,0.0,0.0,0.0,0.0,0,0,0,0
56828000,0,47.3977401,8.5456227,489.381,0.0,0.0,0.0,0.0,0.0,0,0,0,0
56928000,0,47.3977399,8.545622999999999,489.319,0.0,0.0,0.0,0.0,0.0,0,0,0,0
57028000,0,47.397739699999995,8.545623299999999,489.26,0.0,0.0,0.0,0.0,0.0,0,0,0,0
57128000,0,47.3977395,8.5456235,489.204,0.0,0.0,0.0,0.0,0.0,0,0,0,0
57228000,0,47.3977394,8.545623599999999,489.154,0.0,0.0,0.0,0.0,0.0,0,0,0,0
57328000,0,47.3977393,8.5456237,489.109,0.0,0.0,0.0,0.0,0.0,0,0,0,0
57428000,0,47.3977392,8.5456238,489.066,0.0,0.0,0.0,0.0,0.0,0,0,0,0
57528000,0,47.3977393,8.5456237,489.033,0.0,0.0,0.0,0.0,0.0,0,0,0,0
57628000,0,47.3977393,8.545623599999999,489.002,0.0,0.0,0.0,0.0,0.0,0,0,0,0
57728000,0,47.3977394,8.5456234,488.975,0.0,0.0,0.0,0.0,0.0,0,0,0,0
57828000,0,47.3977396,8.5456232,488.955,0.0,0.0,0.0,0.0,0.0,0,0,0,0
57928000,0,47.3977398,8.5456229,488.941,0.0,0.0,0.0,0.0,0.0,0,0,0,0
58028000,0,47.39774,8.5456225,488.932,0.0,0.0,0.0,0.0,0.0,0,0,0,0
58124000,0,47.397740299999995,8.5456221,488.928,0.0,0.0,0.0,0.0,0.0,0,0,0,0
58228000,0,47.3977406,8.5456216,488.929,0.0,0.0,0.0,0.0,0.0,0,0,0,0
58328000,0,47.397740999999996,8.545620999999999,488.937,0.0,0.0,0.0,0.0,0.0,0,0,0,0
58428000,0,47.397741499999995,8.545620399999999,488.949,0.0,0.0,0.0,0.0,0.0,0,0,0,0
58528000,0,47.3977419,8.5456197,488.965,0.0,0.0,0.0,0.0,0.0,0,0,0,0
58628000,0,47.3977424,8.5456189,488.987,0.0,0.0,0.0,0.0,0.0,0,0,0,0
58728000,0,47.397743,8.5456181,489.016,0.0,0.0,0.0,0.0,0.0,0,0,0,0
58828000,0,47.3977435,8.5456173,489.047,0.0,0.0,0.0,0.0,0.0,0,0,0,0
58928000,0,47.3977441,8.5456164,489.085,0.0,0.0,0.0,0.0,0.0,0,0,0,0
59028000,0,47.3977447,8.5456155,489.125,0.0,0.0,0.0,0.0,0.0,0,0,0,0
59128000,0,47.3977454,8.5456145,489.173,0.0,0.0,0.0,0.0,0.0,0,0,0,0
59228000,0,47.3977461,8.5456135,489.225,0.0,0.0,0.0,0.0,0.0,0,0,0,0
59328000,0,47.3977468,8.5456124,489.282,0.0,0.0,0.0,0.0,0.0,0,0,0,0
59428000,0,47.397747599999995,8.5456113,489.346,0.0,0.0,0.0,0.0,0.0,0,0,0,0
59528000,0,47.397748299999996,8.5456102,489.412,0.0,0.0,0.0,0.0,0.0,0,0,0,0
59628000,0,47.3977491,8.5456092,489.482,0.0,0.0,0.0,0.0,0.0,0,0,0,0
59728000,0,47.3977499,8.545608,489.556,0.0,0.0,0.0,0.0,0.0,0,0,0,0
59828000,0,47.397750599999995,8.5456069,489.634,0.0,0.0,0.0,0.0,0.0,0,0,0,0
59928000,0,47.3977514,8.545605799999999,489.715,0.0,0.0,0.0,0.0,0.0,0,0,0,0
60028000,0,47.3977522,8.5456047,489.799,0.0,0.0,0.0,0.0,0.0,0,0,0,0
60128000,0,47.397752999999994,8.5456036,489.886,0.0,0.0,0.0,0.0,0.0,0,0,0,0
60228000,0,47.3977538,8.5456026,489.969,0.0,0.0,0.0,0.0,0.0,0,0,0,0
60328000,0,47.3977545,8.5456015,490.056,0.0,0.0,0.0,0.0,0.0,0,0,0,0
60428000,0,47.3977552,8.5456006,490.137,0.0,0.0,0.0,0.0,0.0,0,0,0,0
60528000,0,47.3977559,8.5455997,490.215,0.0,0.0,0.0,0.0,0.0,0,0,0,0
60628000,0,47.3977565,8.5455989,490.286,0.0,0.0,0.0,0.0,0.0,0,0,0,0
60728000,0,47.3977571,8.5455981,490.359,0.0,0.0,0.0,0.0,0.0,0,0,0,0
60828000,0,47.3977576,8.5455975,490.424,0.0,0.0,0.0,0.0,0.0,0,0,0,0
60928000,0,47.397757999999996,8.5455969,490.488,0.0,0.0,0.0,0.0,0.0,0,0,0,0
61028000,0,47.3977584,8.545596399999999,490.551,0.0,0.0,0.0,0.0,0.0,0,0,0,0
61128000,0,47.3977587,8.5455961,490.605,0.0,0.0,0.0,0.0,0.0,0,0,0,0
61228000,0,47.3977589,8.5455957,490.661,0.0,0.0,0.0,0.0,0.0,0,0,0,0
61328000,0,47.397759099999995,8.5455955,490.713,0.0,0.0,0.0,0.0,0.0,0,0,0,0
61428000,0,47.3977593,8.5455954,490.759,0.0,0.0,0.0,0.0,0.0,0,0,0,0
61528000,0,47.3977593,8.5455953,490.805,0.0,0.0,0.0,0.0,0.0,0,0,0,0
61628000,0,47.3977594,8.5455953,490.848,0.0,0.0,0.0,0.0,0.0,0,0,0,0
61728000,0,47.3977593,8.5455954,490.889,0.0,0.0,0.0,0.0,0.0,0,0,0,0
61828000,0,47.3977593,8.5455955,490.929,0.0,0.0,0.0,0.0,0.0,0,0,0,0
61928000,0,47.397759199999996,8.5455957,490.963,0.0,0.0,0.0,0.0,0.0,0,0,0,0
62028000,0,47.397759,8.5455959,490.998,0.0,0.0,0.0,0.0,0.0,0,0,0,0
62128000,0,47.3977589,8.5455962,491.031,0.0,0.0,0.0,0.0,0.0,0,0,0,0
62228000,0,47.3977587,8.5455965,491.062,0.0,0.0,0.0,0.0,0.0,0,0,0,0
62328000,0,47.3977584,8.5455968,491.09,0.0,0.0,0.0,0.0,0.0,0,0,0,0
62428000,0,47.3977582,8.5455972,491.115,0.0,0.0,0.0,0.0,0.0,0,0,0,0
62528000,0,47.397757899999995,8.545597599999999,491.142,0.0,0.0,0.0,0.0,0.0,0,0,0,0
62628000,0,47.3977577,8.545597899999999,491.164,0.0,0.0,0.0,0.0,0.0,0,0,0,0
62728000,0,47.397757399999996,8.5455983,491.186,0.0,0.0,0.0,0.0,0.0,0,0,0,0
62828000,0,47.3977571,8.5455987,491.206,0.0,0.0,0.0,0.0,0.0,0,0,0,0
62928000,0,47.397756799999996,8.5455991,491.226,0.0,0.0,0.0,0.0,0.0,0,0,0,0
63028000,0,47.3977565,8.5455995,491.243,0.0,0.0,0.0,0.0,0.0,0,0,0,0
63128000,0,47.397756199999996,8.5455999,491.26,0.0,0.0,0.0,0.0,0.0,0,0,0,0
63228000,0,47.3977559,8.5456003,491.275,0.0,0.0,0.0,0.0,0.0,0,0,0,0
63328000,0,47.397755599999996,8.5456007,491.289,0.0,0.0,0.0,0.0,0.0,0,0,0,0
63428000,0,47.3977553,8.545601099999999,491.302,0.0,0.0,0.0,0.0,0.0,0,0,0,0
63528000,0,47.397755,8.545601399999999,491.313,0.0,0.0,0.0,0.0,0.0,0,0,0,0
63628000,0,47.3977547,8.5456018,491.323,0.0,0.0,0.0,0.0,0.0,0,0,0,0
63728000,0,47.3977544,8.5456021,491.333,0.0,0.0,0.0,0.0,0.0,0,0,0,0
63828000,0,47.3977542,8.5456024,491.342,0.0,0.0,0.0,0.0,0.0,0,0,0,0
63928000,0,47.3977539,8.5456027,491.349,0.0,0.0,0.0,0.0,0.0,0,0,0,0
64028000,0,47.397753699999996,8.545603,491.355,0.0,0.0,0.0,0.0,0.0,0,0,0,0
64128000,0,47.3977534,8.5456033,491.362,0.0,0.0,0.0,0.0,0.0,0,0,0,0
64228000,0,47.3977532,8.5456036,491.366,0.0,0.0,0.0,0.0,0.0,0,0,0,0
64328000,0,47.397752999999994,8.5456038,491.37,0.0,0.0,0.0,0.0,0.0,0,0,0,0
64428000,0,47.3977528,8.545603999999999,491.373,0.0,0.0,0.0,0.0,0.0,0,0,0,0
64528000,0,47.3977526,8.545604299999999,491.376,0.0,0.0,0.0,0.0,0.0,0,0,0,0
64628000,0,47.397752399999995,8.5456045,491.377,0.0,0.0,0.0,0.0,0.0,0,0,0,0
64728000,0,47.3977523,8.5456047,491.377,0.0,0.0,0.0,0.0,0.0,0,0,0,0
64828000,0,47.3977521,8.545604899999999,491.377,0.0,0.0,0.0,0.0,0.0,0,0,0,0
64928000,0,47.397751899999996,8.5456051,491.377,0.0,0.0,0.0,0.0,0.0,0,0,0,0
65028000,0,47.397751799999995,8.545605199999999,491.375,0.0,0.0,0.0,0.0,0.0,0,0,0,0
65128000,0,47.3977517,8.5456054,491.373,0.0,0.0,0.0,0.0,0.0,0,0,0,0
65228000,0,47.3977516,8.545605499999999,491.37,0.0,0.0,0.0,0.0,0.0,0,0,0,0
65328000,0,47.3977515,8.5456057,491.367,0.0,0.0,0.0,0.0,0.0,0,0,0,0
65428000,0,47.3977514,8.545605799999999,491.363,0.0,0.0,0.0,0.0,0.0,0,0,0,0
65528000,0,47.397751299999996,8.545606,491.358,0.0,0.0,0.0,0.0,0.0,0,0,0,0
65628000,0,47.397751199999995,8.545606099999999,491.353,0.0,0.0,0.0,0.0,0.0,0,0,0,0
65728000,0,47.3977511,8.5456062,491.348,0.0,0.0,0.0,0.0,0.0,0,0,0,0
65828000,0,47.397751,8.5456063,491.342,0.0,0.0,0.0,0.0,0.0,0,0,0,0
65928000,0,47.3977509,8.5456064,491.336,0.0,0.0,0.0,0.0,0.0,0,0,0,0
66028000,0,47.3977509,8.5456065,491.328,0.0,0.0,0.0,0.0,0.0,0,0,0,0
66128000,0,47.3977508,8.5456066,491.321,0.0,0.0,0.0,0.0,0.0,0,0,0,0
66228000,0,47.397750699999996,8.5456067,491.312,0.0,0.0,0.0,0.0,0.0,0,0,0,0
66328000,0,47.397750699999996,8.5456068,491.296,0.0,0.0,0.0,0.0,0.0,0,0,0,0
66428000,0,47.397750599999995,8.5456068,491.267,0.0,0.0,0.0,0.0,0.0,0,0,0,0
66528000,0,47.3977505,8.5456069,491.222,0.0,0.0,0.0,0.0,0.0,0,0,0,0
66628000,0,47.3977505,8.545607,491.158,0.0,0.0,0.0,0.0,0.0,0,0,0,0
66728000,0,47.3977504,8.545607,491.073,0.0,0.0,0.0,0.0,0.0,0,0,0,0
66828000,0,47.3977504,8.5456071,490.988,0.0,0.0,0.0,0.0,0.0,0,0,0,0
66928000,0,47.3977503,8.5456071,490.897,0.0,0.0,0.0,0.0,0.0,0,0,0,0
67028000,0,47.3977502,8.5456071,490.817,0.0,0.0,0.0,0.0,0.0,0,0,0,0
67128000,0,47.3977502,8.5456072,490.736,0.0,0.0,0.0,0.0,0.0,0,0,0,0
67228000,0,47.397750099999996,8.5456072,490.66,0.0,0.0,0.0,0.0,0.0,0,0,0,0
67328000,0,47.397750099999996,8.5456072,490.588,0.0,0.0,0.0,0.0,0.0,0,0,0,0
67428000,0,47.397749999999995,8.5456072,490.509,0.0,0.0,0.0,0.0,0.0,0,0,0,0
67528000,0,47.397749999999995,8.5456073,490.436,0.0,0.0,0.0,0.0,0.0,0,0,0,0
67628000,0,47.397749999999995,8.5456073,490.356,0.0,0.0,0.0,0.0,0.0,0,0,0,0
67728000,0,47.3977499,8.5456073,490.279,0.0,0.0,0.0,0.0,0.0,0,0,0,0
67828000,0,47.3977499,8.5456074,490.204,0.0,0.0,0.0,0.0,0.0,0,0,0,0
67928000,0,47.3977498,8.5456074,490.123,0.0,0.0,0.0,0.0,0.0,0,0,0,0
68028000,0,47.3977498,8.5456074,490.044,0.0,0.0,0.0,0.0,0.0,0,0,0,0
68128000,0,47.3977498,8.5456074,489.968,0.0,0.0,0.0,0.0,0.0,0,0,0,0
68228000,0,47.3977497,8.5456074,489.885,0.0,0.0,0.0,0.0,0.0,0,0,0,0
68328000,0,47.3977497,8.5456075,489.807,0.0,0.0,0.0,0.0,0.0,0,0,0,0
68428000,0,47.3977497,8.5456075,489.723,0.0,0.0,0.0,0.0,0.0,0,0,0,0
68528000,0,47.3977496,8.5456075,489.641,0.0,0.0,0.0,0.0,0.0,0,0,0,0
68628000,0,47.3977496,8.5456075,489.56,0.0,0.0,0.0,0.0,0.0,0,0,0,0
68728000,0,47.3977496,8.5456075,489.478,0.0,0.0,0.0,0.0,0.0,0,0,0,0
68828000,0,47.3977496,8.5456076,489.395,0.0,0.0,0.0,0.0,0.0,0,0,0,0
68928000,0,47.397749499999996,8.5456076,489.317,0.0,0.0,0.0,0.0,0.0,0,0,0,0
69028000,0,47.397749499999996,8.5456076,489.234,0.0,0.0,0.0,0.0,0.0,0,0,0,0
69128000,0,47.397749499999996,8.5456076,489.148,0.0,0.0,0.0,0.0,0.0,0,0,0,0
69228000,0,47.397749499999996,8.5456076,489.065,0.0,0.0,0.0,0.0,0.0,0,0,0,0
69328000,0,47.397749399999995,8.5456076,488.983,0.0,0.0,0.0,0.0,0.0,0,0,0,0
69428000,0,47.397749399999995,8.5456077,488.904,0.0,0.0,0.0,0.0,0.0,0,0,0,0
69528000,0,47.397749399999995,8.5456077,488.821,0.0,0.0,0.0,0.0,0.0,0,0,0,0
69628000,0,47.397749399999995,8.5456077,488.738,0.0,0.0,0.0,0.0,0.0,0,0,0,0
69728000,0,47.397749399999995,8.5456077,488.653,0.0,0.0,0.0,0.0,0.0,0,0,0,0
69828000,0,47.397749399999995,8.545607799999999,488.57,0.0,0.0,0.0,0.0,0.0,0,0,0,0
69928000,0,47.3977493,8.545607799999999,488.487,0.0,0.0,0.0,0.0,0.0,0,0,0,0
70028000,0,47.3977493,8.545607799999999,488.407,0.0,0.0,0.0,0.0,0.0,0,0,0,0
70128000,0,47.3977493,8.545607799999999,488.32,0.0,0.0,0.0,0.0,0.0,0,0,0,0
70228000,0,47.3977493,8.5456079,488.237,0.0,0.0,0.0,0.0,0.0,0,0,0,0
70328000,0,47.3977493,8.5456079,488.153,0.0,0.0,0.0,0.0,0.0,0,0,0,0
70428000,0,47.3977493,8.5456079,488.104,0.0,0.0,0.0,0.0,0.0,0,0,0,0
70528000,0,47.3977493,8.5456079,488.122,0.0,0.0,0.0,0.0,0.0,0,0,0,0
70628000,0,47.3977493,8.5456079,488.163,0.0,0.0,0.0,0.0,0.0,0,0,0,0
70728000,0,47.3977493,8.5456079,488.209,0.0,0.0,0.0,0.0,0.0,0,0,0,0
70828000,0,47.397749399999995,8.545608,488.258,0.0,0.0,0.0,0.0,0.0,0,0,0,0
70928000,0,47.397749399999995,8.545608,488.308,0.0,0.0,0.0,0.0,0.0,0,0,0,0
71028000,0,47.397749399999995,8.545608099999999,488.348,0.0,0.0,0.0,0.0,0.0,0,0,0,0
71128000,0,47.397749399999995,8.545608099999999,488.384,0.0,0.0,0.0,0.0,0.0,0,0,0,0
71228000,0,47.397749499999996,8.5456082,488.412,0.0,0.0,0.0,0.0,0.0,0,0,0,0
71328000,0,47.397749499999996,8.5456083,488.435,0.0,0.0,0.0,0.0,0.0,0,0,0,0
71428000,0,47.397749499999996,8.5456083,488.449,0.0,0.0,0.0,0.0,0.0,0,0,0,0
71528000,0,47.3977496,8.545608399999999,488.455,0.0,0.0,0.0,0.0,0.0,0,0,0,0
71628000,0,47.3977496,8.5456085,488.455,0.0,0.0,0.0,0.0,0.0,0,0,0,0
71728000,0,47.3977497,8.5456085,488.449,0.0,0.0,0.0,0.0,0.0,0,0,0,0
71828000,0,47.3977497,8.5456086,488.436,0.0,0.0,0.0,0.0,0.0,0,0,0,0
71928000,0,47.3977498,8.5456086,488.416,0.0,0.0,0.0,0.0,0.0,0,0,0,0
72028000,0,47.3977499,8.5456086,488.391,0.0,0.0,0.0,0.0,0.0,0,0,0,0
72128000,0,47.3977499,8.5456086,488.361,0.0,0.0,0.0,0.0,0.0,0,0,0,0
72228000,0,47.397749999999995,8.545608699999999,488.328,0.0,0.0,0.0,0.0,0.0,0,0,0,0
72328000,0,47.397750099999996,8.5456086,488.287,0.0,0.0,0.0,0.0,0.0,0,0,0,0
72428000,0,47.3977502,8.5456086,488.241,0.0,0.0,0.0,0.0,0.0,0,0,0,0
72528000,0,47.3977502,8.5456086,488.194,0.0,0.0,0.0,0.0,0.0,0,0,0,0
72628000,0,47.3977503,8.5456086,488.143,0.0,0.0,0.0,0.0,0.0,0,0,0,0
72728000,0,47.3977504,8.5456085,488.104,0.0,0.0,0.0,0.0,0.0,0,0,0,0
72828000,0,47.3977504,8.5456085,488.104,0.0,0.0,0.0,0.0,0.0,0,0,0,0
72928000,0,47.3977504,8.5456085,488.104,0.0,0.0,0.0,0.0,0.0,0,0,0,0
73028000,0,47.3977504,8.5456085,488.104,0.0,0.0,0.0,0.0,0.0,0,0,0,0
73128000,0,47.3977504,8.5456085,488.104,0.0,0.0,0.0,0.0,0.0,0,0,0,0
73228000,0,47.3977504,8.5456085,488.104,0.0,0.0,0.0,0.0,0.0,0,0,0,0
73328000,0,47.3977504,8.5456085,488.104,0.0,0.0,0.0,0.0,0.0,0,0,0,0
73428000,0,47.3977504,8.5456085,488.104,0.0,0.0,0.0,0.0,0.0,0,0,0,0
73528000,0,47.3977504,8.5456085,488.104,0.0,0.0,0.0,0.0,0.0,0,0,0,0
73628000,0,47.3977504,8.5456085,488.104,0.0,0.0,0.0,0.0,0.0,0,0,0,0
73728000,0,47.3977504,8.5456085,488.104,0.0,0.0,0.0,0.0,0.0,0,0,0,0
73828000,0,47.3977504,8.5456085,488.104,0.0,0.0,0.0,0.0,0.0,0,0,0,0
73928000,0,47.3977504,8.5456085,488.104,0.0,0.0,0.0,0.0,0.0,0,0,0,0
74028000,0,47.3977504,8.5456085,488.104,0.0,0.0,0.0,0.0,0.0,0,0,0,0
74128000,0,47.3977504,8.5456085,488.104,0.0,0.0,0.0,0.0,0.0,0,0,0,0
74228000,0,47.3977504,8.5456085,488.104,0.0,0.0,0.0,0.0,0.0,0,0,0,0
74328000,0,47.3977504,8.5456085,488.104,0.0,0.0,0.0,0.0,0.0,0,0,0,0
74428000,0,47.3977504,8.5456085,488.104,0.0,0.0,0.0,0.0,0.0,0,0,0,0
74528000,0,47.3977504,8.5456085,488.104,0.0,0.0,0.0,0.0,0.0,0,0,0,0
74628000,0,47.3977504,8.5456085,488.104,0.0,0.0,0.0,0.0,0.0,0,0,0,0
74728000,0,47.3977504,8.5456085,488.104,0.0,0.0,0.0,0.0,0.0,0,0,0,0
74828000,0,47.3977504,8.5456085,488.104,0.0,0.0,0.0,0.0,0.0,0,0,0,0
74928000,0,47.3977504,8.5456085,488.104,0.0,0.0,0.0,0.0,0.0,0,0,0,0
