timestamp,timestamp_sample,device_id,magnetometer_ga[0],magnetometer_ga[1],magnetometer_ga[2],calibration_count
3308000,3300000,197388,0.0077647674,-0.21514224,0.43165603,0
3432000,3370909,197388,0.008032996,-0.2149184,0.42801005,0
3444000,3444000,197388,0.008672916,-0.21414082,0.4225591,0
3576000,3514545,197388,0.010897768,-0.2174407,0.42869076,0
3588000,3588000,197388,0.007741824,-0.21585001,0.43132615,0
3720000,3658181,197388,0.009291656,-0.21401808,0.42823958,0
3728000,3728000,197388,0.007889714,-0.21945001,0.43088266,0
3852000,3796400,197388,0.010662653,-0.21670087,0.42924553,0
3864000,3864000,197388,0.0057816585,-0.21710347,0.42763993,0
3996000,3934909,197388,0.010181616,-0.21698053,0.4298451,0
4004000,4004000,197388,0.011510726,-0.2147896,0.43202254,0
4128000,4073200,197388,0.012463499,-0.21577811,0.42927662,0
4140000,4140000,197388,0.016487628,-0.21667601,0.43037853,0
4272000,4210545,197388,0.011489913,-0.2158975,0.42863384,0
4280000,4280000,197388,0.007844141,-0.21890222,0.4316715,0
4404000,4349600,197388,0.0095620705,-0.21692787,0.4283153,0
4428000,4422000,197388,0.01079293,-0.21921384,0.43051976,0
4544000,4492400,197388,0.010571427,-0.21594231,0.428957,0
4560000,4560000,197388,0.0115292715,-0.21229427,0.43061873,0
4688000,4630181,197388,0.00951471,-0.21667302,0.42743295,0
4704000,4704000,197388,0.009593707,-0.21537589,0.42354137,0
4836000,4775272,197388,0.011200298,-0.21657638,0.43113324,0
4848000,4848000,197388,0.017634215,-0.21182914,0.42742392,0
4980000,4920000,197388,0.01016707,-0.21609513,0.42932573,0
4992000,4992000,197388,0.0014270293,-0.21375047,0.44027957,0
5120000,5063272,197388,0.0081674885,-0.21672525,0.42640454,0
5136000,5136000,197388,0.0101843355,-0.21177225,0.4302635,0
5264000,5206181,197388,0.011170092,-0.21734884,0.42967686,0
5280000,5280000,197388,0.008684722,-0.21455692,0.4293879,0
5412000,5352000,197388,0.010674906,-0.21631621,0.42829007,0
5424000,5424000,197388,0.014808082,-0.21133718,0.4310706,0
5556000,5494909,197388,0.011376785,-0.21561755,0.42923963,0
5568000,5568000,197388,0.01116129,-0.21576543,0.43019813,0
5700000,5638909,197388,0.011032428,-0.21546504,0.430469,0
5712000,5712000,197388,-0.00038428605,-0.20912348,0.42361706,0
5840000,5782545,197388,0.008554788,-0.21605429,0.43035245,0
5856000,5856000,197388,0.006396198,-0.22248529,0.43262073,0
5984000,5926909,197388,0.010631564,-0.21536028,0.42791632,0
6000000,6000000,197388,0.0077666994,-0.21636182,0.43319273,0
6132000,6071636,197388,0.0096557755,-0.21635234,0.42726678,0
6144000,6144000,197388,0.010584283,-0.21636824,0.42612374,0
6276000,6215636,197388,0.009664528,-0.21468827,0.4295678,0
6288000,6288000,197388,0.013444149,-0.21912412,0.43026313,0
6416000,6358909,197388,0.010314512,-0.21345939,0.42959383,0
6432000,6432000,197388,0.011156017,-0.21321467,0.42791042,0
6560000,6502545,197388,0.009139683,-0.21623439,0.42732188,0
6576000,6576000,197388,0.009645332,-0.22416125,0.43466383,0
6708000,6648000,197388,0.010424283,-0.21557698,0.42935997,0
6720000,6720000,197388,0.0054610367,-0.21231653,0.4319994,0
6852000,6791636,197388,0.0105250785,-0.21762085,0.4269039,0
6864000,6864000,197388,0.00060439704,-0.21949978,0.4369037,0
6996000,6934909,197388,0.010045794,-0.21615216,0.43060535,0
7004000,7004000,197388,0.00588824,-0.21735843,0.42946404,0
7128000,7073600,197388,0.011316824,-0.21633907,0.42972466,0
7152000,7144000,197388,0.008274551,-0.21527502,0.42966115,0
7260000,7211555,197388,0.010402825,-0.21440068,0.42851868,0
7296000,7284000,197388,0.01185221,-0.21486287,0.43072197,0
7400000,7353777,197388,0.009848316,-0.21513076,0.4291805,0
7428000,7422000,197388,0.0083130095,-0.2132193,0.4335335,0
7548000,7493200,197388,0.009836782,-0.21367888,0.43304253,0
7560000,7560000,197388,0.006765709,-0.2128539,0.43048778,0
7688000,7630545,197388,0.009297738,-0.21669304,0.43085507,0
7704000,7704000,197388,0.012434333,-0.21520542,0.4352715,0
7836000,7775272,197388,0.011741137,-0.21540025,0.42851576,0
7844000,7844000,197388,0.019211145,-0.21862443,0.4303684,0
7968000,7913200,197388,0.009545058,-0.2153898,0.42686802,0
7980000,7980000,197388,0.010559557,-0.21438414,0.43223318,0
8112000,8051272,197388,0.010402105,-0.2156812,0.42947707,0
8124000,8124000,197388,0.013709326,-0.21925037,0.42796504,0
8256000,8194909,197388,0.010634895,-0.21724136,0.42774513,0
8268000,8268000,197388,0.0073675998,-0.21691175,0.42547813,0
8400000,8340000,197388,0.008680807,-0.21646127,0.43029916,0
8412000,8412000,197388,0.0004967252,-0.21894869,0.42992714,0
8544000,8482909,197388,0.009016954,-0.21575761,0.42895794,0
8552000,8552000,197388,0.016183404,-0.21781217,0.42216924,0
8676000,8620000,197388,0.009269728,-0.21383552,0.42871013,0
8688000,8688000,197388,0.009497533,-0.21588668,0.43281233,0
8816000,8758909,197388,0.009106519,-0.21654157,0.42885235,0
8832000,8832000,197388,0.010662961,-0.21920197,0.42817265,0
8964000,8904000,197388,0.009922648,-0.2164501,0.42818514,0
8976000,8976000,197388,0.009292091,-0.21170849,0.43331376,0
9104000,9046909,197388,0.008657508,-0.21572885,0.42753625,0
9120000,9120000,197388,0.00442722,-0.21721178,0.4246163,0
9248000,9190181,197388,0.009375173,-0.21500762,0.4295922,0
9264000,9264000,197388,0.009243225,-0.22014731,0.4277441,0
9396000,9334909,197388,0.0088817505,-0.21687678,0.42862287,0
9408000,9408000,197388,0.005218528,-0.22172184,0.43458056,0
9540000,9479636,197388,0.009934043,-0.21462095,0.42937306,0
9552000,9552000,197388,0.0076609096,-0.22232488,0.42970476,0
9680000,9622545,197388,0.008229741,-0.21664739,0.43161502,0
9696000,9696000,197388,0.008472171,-0.21552537,0.42433032,0
9824000,9766909,197388,0.008881012,-0.21462238,0.42784327,0
9840000,9840000,197388,0.014635727,-0.21555395,0.43330386,0
9972000,9911272,197388,0.009599002,-0.21746625,0.42807993,0
9984000,9984000,197388,0.013033759,-0.21517111,0.4232061,0
10112000,10055636,197388,0.008765149,-0.21649103,0.42875966,0
10128000,10128000,197388,0.006823242,-0.21678852,0.43073192,0
10256000,10198909,197388,0.009123744,-0.21746029,0.43008715,0
10272000,10272000,197388,0.009233756,-0.21559903,0.42750582,0
10400000,10341818,197388,0.0099699795,-0.21493077,0.42806098,0
10416000,10416000,197388,0.007631936,-0.21624048,0.43272746,0
10544000,10486545,197388,0.010122485,-0.21507578,0.43002534,0
10560000,10560000,197388,0.009708629,-0.21555014,0.42558992,0
10692000,10630909,197388,0.009877413,-0.21433365,0.42993006,0
10704000,10704000,197388,0.0069912244,-0.22139019,0.4336708,0
10836000,10776000,197388,0.008943931,-0.21607845,0.4289207,0
10848000,10848000,197388,0.007851876,-0.2141292,0.42842332,0
10980000,10918909,197388,0.010165168,-0.21417765,0.4295094,0
10992000,10992000,197388,0.007470862,-0.21340801,0.4317227,0
11124000,11063272,197388,0.008931787,-0.21679752,0.42918062,0
11136000,11136000,197388,0.010584343,-0.21757625,0.43390453,0
11264000,11206909,197388,0.009130999,-0.21621293,0.42957723,0
11280000,11280000,197388,0.0047280807,-0.21284045,0.42834145,0
11408000,11350545,197388,0.009472382,-0.21724828,0.43142948,0
11424000,11424000,197388,0.006582268,-0.21375704,0.42785138,0
11556000,11495636,197388,0.010392288,-0.21668895,0.42933226,0
11568000,11568000,197388,0.003506667,-0.21357816,0.43487176,0
11696000,11639272,197388,0.009284466,-0.21598123,0.43023047,0
11712000,11712000,197388,0.0070766876,-0.21401627,0.4247244,0
11840000,11782181,197388,0.0082078595,-0.21564555,0.42824954,0
11856000,11856000,197388,0.011561174,-0.21784778,0.42702413,0
11984000,11926909,197388,0.009450438,-0.21507052,0.42975786,0
12000000,12000000,197388,0.008519827,-0.21898408,0.43071777,0
12132000,12070909,197388,0.009663334,-0.21455054,0.42718664,0
12144000,12144000,197388,0.009158182,-0.21609417,0.43051887,0
12272000,12215272,197388,0.008754405,-0.21529922,0.428787,0
12284000,12284000,197388,0.010271429,-0.21085873,0.43271068,0
12408000,12352800,197388,0.009519828,-0.21618144,0.42910525,0
12432000,12424000,197388,0.007862997,-0.22017808,0.42619574,0
12536000,12491111,197388,0.010234967,-0.21707244,0.4297612,0
12576000,12562666,197388,0.012151472,-0.21787044,0.4263911,0
12684000,12634222,197388,0.008368175,-0.21730825,0.42842513,0
12708000,12702000,197388,0.010426162,-0.21381086,0.42776746,0
12824000,12772400,197388,0.010540179,-0.21614952,0.42758837,0
12840000,12840000,197388,0.007890868,-0.21669085,0.43016607,0
12972000,12909818,197388,0.010642551,-0.21593092,0.42757368,0
12984000,12984000,197388,0.013101432,-0.21608232,0.429988,0
13112000,13055272,197388,0.0075536915,-0.21680035,0.4289945,0
13128000,13128000,197388,0.008415528,-0.21392953,0.42968297,0
13260000,13198181,197388,0.009363178,-0.21417713,0.42892796,0
13272000,13272000,197388,0.013242872,-0.21275654,0.42254862,0
13404000,13342909,197388,0.009757412,-0.21681684,0.42857122,0
13416000,13416000,197388,0.005248762,-0.217798,0.4354626,0
13548000,13486909,197388,0.008524263,-0.21807507,0.43031693,0
13560000,13560000,197388,0.015331607,-0.21637508,0.4346079,0
13688000,13630181,197388,0.009137163,-0.21612188,0.43050155,0
13704000,13704000,197388,0.0142327035,-0.21685857,0.4286622,0
13836000,13775636,197388,0.007999785,-0.21688025,0.430729,0
13848000,13848000,197388,0.012358934,-0.21925634,0.428524,0
13976000,13919636,197388,0.010573236,-0.21581464,0.4291723,0
13992000,13992000,197388,0.015503823,-0.2219754,0.42680448,0
14124000,14063636,197388,0.009610719,-0.21539812,0.42956662,0
14136000,14136000,197388,0.012713691,-0.22685759,0.4275752,0
14264000,14206909,197388,0.0110469535,-0.21660542,0.42928186,0
14280000,14280000,197388,0.0067526456,-0.21916927,0.42965302,0
14412000,14352000,197388,0.010040255,-0.21470281,0.42881793,0
14424000,14424000,197388,0.015452777,-0.21422753,0.42556027,0
14552000,14494181,197388,0.00785726,-0.21634464,0.4282926,0
14568000,14568000,197388,0.013604626,-0.2172588,0.43255448,0
14696000,14638909,197388,0.01011107,-0.21473274,0.42919812,0
14712000,14712000,197388,0.014077302,-0.21596704,0.42730287,0
14844000,14783272,197388,0.009131374,-0.21498035,0.4300677,0
14856000,14856000,197388,0.00628487,-0.2204677,0.43012506,0
14988000,14927636,197388,0.011354786,-0.21558344,0.42836216,0
15000000,15000000,197388,0.011565301,-0.21390475,0.43136668,0
15132000,15070545,197388,0.009537843,-0.21618547,0.43111876,0
15144000,15144000,197388,0.014103667,-0.21845874,0.43339366,0
15276000,15215272,197388,0.008319552,-0.21465772,0.42939556,0
15288000,15288000,197388,0.011170049,-0.21408418,0.4340141,0
15420000,15358909,197388,0.009235634,-0.21556394,0.4315924,0
15432000,15432000,197388,0.0088386405,-0.21591017,0.43703088,0
15560000,15503272,197388,0.011868961,-0.2140489,0.42978653,0
15576000,15576000,197388,0.014712018,-0.21290806,0.4311603,0
15708000,15646909,197388,0.010721135,-0.21700448,0.43003005,0
15720000,15720000,197388,0.0173864,-0.21030061,0.43355462,0
15848000,15790181,197388,0.010474247,-0.21505877,0.430057,0
15864000,15864000,197388,0.009983613,-0.2199344,0.4264746,0
15996000,15935272,197388,0.009919929,-0.2158653,0.4296687,0
16008000,16008000,197388,0.011952474,-0.21272923,0.4306344,0
16136000,16077454,197388,0.009877712,-0.21656331,0.42921874,0
16152000,16152000,197388,0.011236607,-0.21492368,0.4296391,0
16280000,16222545,197388,0.011526178,-0.21673988,0.43050182,0
16292000,16292000,197388,0.010339106,-0.2162762,0.4317417,0
16416000,16361200,197388,0.010889139,-0.21560235,0.43125492,0
16428000,16428000,197388,0.013074139,-0.21787044,0.43008187,0
16560000,16499272,197388,0.008852827,-0.2151678,0.4298316,0
16572000,16572000,197388,0.009296666,-0.21346112,0.4230742,0
16704000,16643272,197388,0.009886798,-0.21791762,0.4285973,0
16712000,16712000,197388,0.010880911,-0.22190592,0.4230879,0
16836000,16781600,197388,0.008535402,-0.21715789,0.42852217,0
16860000,16854000,197388,0.006803889,-0.21583119,0.43098992,0
16980000,16925200,197388,0.010882232,-0.21632648,0.43055615,0
17004000,16996000,197388,0.0076606274,-0.22008777,0.42597255,0
17108000,17062666,197388,0.010769873,-0.21408601,0.43000832,0
17136000,17130000,197388,0.0063124727,-0.21631475,0.43314254,0
17256000,17200800,197388,0.009892907,-0.21398269,0.42754778,0
17268000,17268000,197388,0.0059157885,-0.21696997,0.4316967,0
17400000,17338909,197388,0.010405409,-0.21416067,0.43025565,0
17408000,17408000,197388,0.007788397,-0.21580349,0.42940882,0
17528000,17477200,197388,0.008413974,-0.21709721,0.43054911,0
17544000,17544000,197388,0.010939901,-0.21190575,0.43147838,0
17676000,17615272,197388,0.00960356,-0.21598315,0.42942685,0
17688000,17688000,197388,0.011166296,-0.21509703,0.4312691,0
17820000,17758909,197388,0.009389832,-0.21656282,0.43027455,0
17832000,17832000,197388,0.009874459,-0.22126997,0.43401834,0
17964000,17903272,197388,0.008882629,-0.21561956,0.42849058,0
17976000,17976000,197388,0.014839328,-0.2176595,0.42951372,0
18108000,18046909,197388,0.008683569,-0.2183455,0.42898193,0
18120000,18120000,197388,0.012436309,-0.20940131,0.43116876,0
18252000,18191272,197388,0.008618099,-0.21555069,0.43099117,0
18264000,18264000,197388,0.010777675,-0.21526428,0.43189898,0
18392000,18335636,197388,0.009663343,-0.21483278,0.42959517,0
18408000,18408000,197388,0.011874926,-0.21131577,0.42723083,0
18536000,18478181,197388,0.010004688,-0.21528924,0.43220967,0
18552000,18552000,197388,0.013077128,-0.21657418,0.42454985,0
18680000,18622909,197388,0.008672383,-0.21616797,0.42943016,0
18696000,18696000,197388,0.017157605,-0.21575773,0.42563778,0
18824000,18766909,197388,0.009718155,-0.21604389,0.42922866,0
18840000,18840000,197388,0.012123806,-0.21108572,0.43150553,0
18968000,18910545,197388,0.0094711445,-0.21445724,0.4287088,0
18984000,18984000,197388,0.00721254,-0.22001523,0.4320518,0
19116000,19056000,197388,0.009757424,-0.2150478,0.42890725,0
19128000,19128000,197388,0.011497483,-0.21496138,0.4328803,0
19260000,19198545,197388,0.010068912,-0.21642727,0.42985004,0
19272000,19272000,197388,0.011023031,-0.22044657,0.42728847,0
19404000,19343272,197388,0.010420253,-0.21664421,0.4288675,0
19416000,19416000,197388,0.011584383,-0.21622585,0.42652872,0
19548000,19487272,197388,0.00971984,-0.214789,0.428516,0
19560000,19560000,197388,0.011588627,-0.21402958,0.42679995,0
19692000,19631272,197388,0.008434862,-0.21486199,0.42940548,0
19704000,19704000,197388,0.008899839,-0.20920688,0.4342051,0
19836000,19774909,197388,0.010326578,-0.21637397,0.42891365,0
19848000,19848000,197388,0.01266541,-0.21303089,0.4362242,0
19976000,19918545,197388,0.008976067,-0.21555313,0.42973658,0
19992000,19992000,197388,0.01300357,-0.21487764,0.422279,0
20124000,20062545,197388,0.008132863,-0.21549892,0.42916435,0
20136000,20136000,197388,0.008517884,-0.2130662,0.434363,0
20268000,20206909,197388,0.008302534,-0.21589486,0.42947358,0
20276000,20276000,197388,0.01368669,-0.21729244,0.4297449,0
20400000,20345600,197388,0.010453829,-0.21580832,0.4311835,0
20424000,20418000,197388,0.008283639,-0.21594991,0.43158627,0
20544000,20488400,197388,0.0105389245,-0.21526924,0.42798004,0
20556000,20556000,197388,0.010106141,-0.21510446,0.43104756,0
20688000,20627272,197388,0.007556688,-0.21359985,0.4296684,0
20700000,20700000,197388,0.0096516,-0.21526493,0.43245745,0
20832000,20770909,197388,0.008239262,-0.21663788,0.4289854,0
20844000,20844000,197388,0.009930879,-0.21292064,0.43485147,0
20976000,20914909,197388,0.010745664,-0.21514818,0.42869002,0
20984000,20984000,197388,0.0018766864,-0.21208878,0.4293286,0
21104000,21052800,197388,0.011061116,-0.21446617,0.42906985,0
21120000,21120000,197388,0.00906564,-0.20974103,0.42868966,0
21248000,21190545,197388,0.01024479,-0.21268596,0.43043736,0
21264000,21264000,197388,0.0061905026,-0.21512905,0.4281675,0
21396000,21334909,197388,0.008973313,-0.2140376,0.42939115,0
21408000,21408000,197388,0.009802025,-0.21943218,0.43329903,0
21536000,21478909,197388,0.009448127,-0.21631584,0.42774463,0
21552000,21552000,197388,0.016166558,-0.20995747,0.42432117,0
21680000,21622909,197388,0.005017581,-0.21603608,0.42934424,0
21696000,21696000,197388,0.000335739,-0.21888286,0.4277823,0
21828000,21766545,197388,-0.011543502,-0.22235088,0.4268996,0
21840000,21840000,197388,-0.02256303,-0.23268573,0.41866404,0
21972000,21911272,197388,-0.035631657,-0.23736529,0.41479486,0
21984000,21984000,197388,-0.056950577,-0.24712119,0.40685186,0
22116000,22054181,197388,-0.0670921,-0.2609079,0.39840084,0
22128000,22128000,197388,-0.08612677,-0.2706278,0.38607135,0
22260000,22199636,197388,-0.098930895,-0.28385222,0.37293747,0
22272000,22272000,197388,-0.10842998,-0.29631752,0.3614012,0
22400000,22342181,197388,-0.10842236,-0.29053918,0.3674215,0
22416000,22416000,197388,-0.09108473,-0.28010094,0.3819594,0
22548000,22486909,197388,-0.068765,-0.26586077,0.39361867,0
22560000,22560000,197388,-0.04276767,-0.24584489,0.40854555,0
22692000,22631272,197388,-0.025603013,-0.23278987,0.4185928,0
22704000,22704000,197388,-0.008677657,-0.2253332,0.42968228,0
22832000,22775272,197388,-0.0010585893,-0.21098712,0.43080127,0
22848000,22848000,197388,-0.0017416191,-0.21180713,0.43079492,0
22976000,22917818,197388,0.007235341,-0.20059752,0.43586767,0
22992000,22992000,197388,0.01645371,-0.19358228,0.44172016,0
23124000,23062909,197388,0.019032786,-0.19180669,0.44132152,0
23136000,23136000,197388,0.02884394,-0.18669064,0.44035044,0
23264000,23206545,197388,0.028908692,-0.18387994,0.44191226,0
23280000,23280000,197388,0.028711537,-0.18380131,0.44399923,0
23412000,23350545,197388,0.035759408,-0.18028733,0.4427995,0
23424000,23424000,197388,0.033421293,-0.1769433,0.44802225,0
23552000,23493818,197388,0.038170446,-0.17485487,0.44650984,0
23568000,23568000,197388,0.03791068,-0.17334269,0.4439278,0
23696000,23639272,197388,0.038742602,-0.17513718,0.4476459,0
23712000,23712000,197388,0.034845073,-0.1719052,0.4383658,0
23840000,23782181,197388,0.039406974,-0.17551537,0.446504,0
23856000,23856000,197388,0.04193693,-0.18299447,0.45363304,0
23984000,23927272,197388,0.0394042,-0.17878419,0.444204,0
24000000,24000000,197388,0.035878208,-0.17849484,0.4435953,0
24128000,24071272,197388,0.03780592,-0.17753823,0.44376796,0
24144000,24144000,197388,0.029902194,-0.18124306,0.45136526,0
24276000,24216000,197388,0.03402879,-0.18279667,0.44095168,0
24288000,24288000,197388,0.040367752,-0.18859118,0.44601214,0
24416000,24358909,197388,0.031642724,-0.1849006,0.44026515,0
24432000,24432000,197388,0.03407082,-0.18653068,0.44710517,0
24564000,24503636,197388,0.03149114,-0.1875253,0.4405463,0
24576000,24576000,197388,0.031022552,-0.18397664,0.44194666,0
24708000,24646909,197388,0.02609177,-0.19273432,0.4402475,0
24720000,24720000,197388,0.027866356,-0.2014776,0.44188187,0
24852000,24791272,197388,0.022204766,-0.196747,0.43693826,0
24864000,24864000,197388,0.022524573,-0.19667329,0.44271305,0
24996000,24936000,197388,0.021181127,-0.19828911,0.43708605,0
25008000,25008000,197388,0.015100208,-0.20103355,0.43811417,0
25136000,25079636,197388,0.014132832,-0.20469138,0.4348659,0
25152000,25152000,197388,0.01558561,-0.20777991,0.42860392,0
25284000,25222909,197388,0.012192761,-0.20513242,0.43391594,0
25296000,25296000,197388,0.008887936,-0.20705779,0.42918596,0
25424000,25366545,197388,0.011538869,-0.2093385,0.433631,0
25440000,25440000,197388,0.005219232,-0.20898047,0.42792737,0
25568000,25509454,197388,0.0031391855,-0.21568112,0.4310165,0
25584000,25584000,197388,0.0017245415,-0.21643357,0.4248491,0
25712000,25654909,197388,0.0021048703,-0.21510446,0.42723158,0
25728000,25728000,197388,0.002891042,-0.21513754,0.42890188,0
25860000,25799272,197388,-0.0038927672,-0.22289151,0.42615217,0
25872000,25872000,197388,-0.015116383,-0.23211034,0.41664743,0
26000000,25942181,197388,-0.017042318,-0.23492698,0.42038885,0
26016000,26016000,197388,-0.02027318,-0.23439442,0.41409725,0
26148000,26086545,197388,-0.020361844,-0.23684876,0.41869438,0
26160000,26160000,197388,-0.021455117,-0.23606831,0.40990183,0
26288000,26231272,197388,-0.030345641,-0.24605374,0.41037703,0
26304000,26304000,197388,-0.04352742,-0.25647146,0.40910777,0
26436000,26374909,197388,-0.042051226,-0.25522807,0.40267324,0
26448000,26448000,197388,-0.0405467,-0.2464927,0.40299225,0
26580000,26518909,197388,-0.04191004,-0.2544198,0.4021155,0
26592000,26592000,197388,-0.037662398,-0.26430205,0.400373,0
26720000,26662909,197388,-0.04601805,-0.26236364,0.39974824,0
26736000,26736000,197388,-0.044003908,-0.2618526,0.39742893,0
26864000,26806909,197388,-0.047802303,-0.26293987,0.39804658,0
26880000,26880000,197388,-0.04450593,-0.26189628,0.39360172,0
27012000,26951636,197388,-0.04578287,-0.26128605,0.3994315,0
27024000,27024000,197388,-0.04322986,-0.2641546,0.40270075,0
27156000,27095272,197388,-0.04299517,-0.26308295,0.3975926,0
27168000,27168000,197388,-0.039910235,-0.2654711,0.39521006,0
27300000,27239272,197388,-0.03799527,-0.26071563,0.40405214,0
27312000,27312000,197388,-0.0348351,-0.25646916,0.39642924,0
27444000,27383636,197388,-0.032026432,-0.25635993,0.40365863,0
27456000,27456000,197388,-0.028501092,-0.25028858,0.4070027,0
27584000,27527272,197388,-0.024494598,-0.25120494,0.4057427,0
27600000,27600000,197388,-0.026342807,-0.249471,0.40879893,0
27728000,27671272,197388,-0.019411042,-0.25151873,0.4102284,0
27744000,27744000,197388,-0.014396154,-0.24669464,0.41239014,0
27876000,27815272,197388,-0.012093008,-0.24181318,0.4162569,0
27888000,27888000,197388,-0.004360273,-0.23686701,0.4170631,0
28020000,27959272,197388,-0.0030697186,-0.23466091,0.41930914,0
28032000,28032000,197388,-0.0076955142,-0.22903869,0.42103595,0
28164000,28104000,197388,-0.0025101413,-0.23320216,0.42367408,0
28176000,28176000,197388,0.0044538425,-0.22635224,0.41954005,0
28304000,28246909,197388,0.008617301,-0.22629474,0.4238194,0
28320000,28320000,197388,0.0033164676,-0.22112522,0.42295325,0
28448000,28389818,197388,0.011042855,-0.22009534,0.42773014,0
28464000,28464000,197388,0.009640689,-0.2157891,0.43130252,0
28596000,28534909,197388,0.009910665,-0.21948573,0.42708087,0
28608000,28608000,197388,0.01790847,-0.21041727,0.4271241,0
28740000,28678545,197388,0.01946648,-0.21276002,0.43114957,0
28752000,28752000,197388,0.019677725,-0.22071236,0.4294675,0
28880000,28822181,197388,0.016952503,-0.21449992,0.43062854,0
28892000,28892000,197388,0.021108467,-0.21317174,0.42832068,0
29016000,28961600,197388,0.018196804,-0.2119029,0.43058643,0
29040000,29034000,197388,0.016186606,-0.20396577,0.42770356,0
29156000,29104800,197388,0.022633133,-0.20729652,0.43442383,0
29172000,29172000,197388,0.018977592,-0.20744155,0.42994392,0
29304000,29242909,197388,0.018106017,-0.20806769,0.43357414,0
29316000,29316000,197388,0.018484475,-0.21285276,0.42961368,0
29448000,29386909,197388,0.019273575,-0.20730919,0.43568572,0
29460000,29460000,197388,0.01948254,-0.20642625,0.43868148,0
29592000,29530909,197388,0.019331204,-0.2031836,0.43730435,0
29600000,29600000,197388,0.022364996,-0.206137,0.43731368,0
29724000,29668800,197388,0.016398476,-0.20706987,0.43258116,0
29736000,29736000,197388,0.013705662,-0.20775925,0.43168545,0
29864000,29806545,197388,0.014593049,-0.20583723,0.43361804,0
29880000,29880000,197388,0.021505067,-0.20157523,0.44186324,0
30012000,29950909,197388,0.014968936,-0.20435071,0.43512636,0
30024000,30024000,197388,0.016252106,-0.20797741,0.43855515,0
30152000,30094909,197388,0.01058541,-0.20926523,0.4339312,0
30168000,30168000,197388,0.009978824,-0.2082297,0.43810827,0
30296000,30238545,197388,0.020335427,-0.1983107,0.43538427,0
30312000,30312000,197388,0.016682375,-0.19257258,0.4374205,0
30444000,30383272,197388,0.025797116,-0.1931608,0.4400482,0
30456000,30456000,197388,0.031027073,-0.20219806,0.43956023,0
30584000,30526181,197388,0.02486335,-0.19419478,0.43864867,0
30600000,30600000,197388,0.024417806,-0.18954317,0.4410777,0
30728000,30670909,197388,0.02675284,-0.18799886,0.43842837,0
30744000,30744000,197388,0.025342736,-0.1912153,0.4442592,0
30876000,30815636,197388,0.029505692,-0.18845272,0.4433694,0
30888000,30888000,197388,0.024257766,-0.1895829,0.44125673,0
31020000,30958909,197388,0.026115945,-0.1926197,0.44093984,0
31032000,31032000,197388,0.033329897,-0.18930489,0.44249853,0
31164000,31102909,197388,0.028187161,-0.18941824,0.43998468,0
31176000,31176000,197388,0.02428239,-0.19377498,0.43693373,0
31304000,31246909,197388,0.023748927,-0.19325483,0.43688494,0
31320000,31320000,197388,0.022819221,-0.20243,0.4307375,0
31452000,31390909,197388,0.022310399,-0.19667812,0.43833435,0
31464000,31464000,197388,0.017531188,-0.19982526,0.43567544,0
31592000,31535272,197388,0.020204699,-0.19608435,0.4384522,0
31608000,31608000,197388,0.01914393,-0.19495723,0.43676743,0
31740000,31678545,197388,0.018320829,-0.20064063,0.4365998,0
31752000,31752000,197388,0.018041648,-0.20405851,0.4371281,0
31884000,31823636,197388,0.017055573,-0.20272036,0.43404156,0
31896000,31896000,197388,0.021372927,-0.20632827,0.440175,0
32024000,31966545,197388,0.013529214,-0.2066435,0.4338078,0
32040000,32040000,197388,0.013705182,-0.20937735,0.43198782,0
32168000,32110181,197388,0.011941604,-0.21049269,0.43289274,0
32184000,32184000,197388,0.007281301,-0.21279705,0.4267799,0
32312000,32254181,197388,0.011458618,-0.21233,0.43060023,0
32328000,32328000,197388,0.009461926,-0.21391079,0.42973077,0
32460000,32399272,197388,0.009518181,-0.21416411,0.42852712,0
32472000,32472000,197388,0.0046886,-0.2177727,0.42696926,0
32600000,32543272,197388,0.0061980644,-0.2179707,0.42865238,0
32616000,32616000,197388,0.0028142584,-0.22071642,0.4323039,0
32744000,32686181,197388,0.004393867,-0.21622995,0.42816395,0
32760000,32760000,197388,0.0038659861,-0.21477835,0.4333012,0
32888000,32830909,197388,0.0039956225,-0.21790728,0.42785645,0
32904000,32904000,197388,-0.0014875476,-0.21734388,0.42367724,0
33036000,32974545,197388,0.00066608214,-0.22066996,0.42848584,0
33048000,33048000,197388,0.0014674963,-0.22169915,0.43169716,0
33180000,33119272,197388,0.0011681779,-0.21848366,0.42812058,0
33192000,33192000,197388,0.0016889882,-0.22639574,0.42974815,0
33320000,33262909,197388,0.001988828,-0.22251004,0.42651147,0
33336000,33336000,197388,-0.0072905812,-0.21790525,0.42537603,0
33464000,33406181,197388,0.00023797473,-0.2197099,0.42903408,0
33476000,33476000,197388,0.005367515,-0.22791001,0.4271592,0
33600000,33544800,197388,0.0014735127,-0.21970999,0.42663264,0
33624000,33616000,197388,0.0011669302,-0.21808736,0.42848885,0
33732000,33683111,197388,0.0019796104,-0.22220944,0.42523518,0
33756000,33750000,197388,0.00024396967,-0.22185871,0.4289463,0
33872000,33819600,197388,-0.00016190224,-0.2203121,0.42709407,0
33888000,33888000,197388,0.00051651685,-0.22395697,0.42369768,0
34016000,33957818,197388,0.00065111695,-0.22126028,0.42794245,0
34032000,34032000,197388,0.007932999,-0.21564868,0.42633194,0
34164000,34104000,197388,0.0005608114,-0.21728902,0.42851186,0
34176000,34176000,197388,0.0025517303,-0.22609434,0.42632383,0
34304000,34246181,197388,0.0033732292,-0.21769421,0.4278137,0
34320000,34320000,197388,0.0150741525,-0.22390196,0.42867053,0
34448000,34391272,197388,0.004566636,-0.2178464,0.4274061,0
34464000,34464000,197388,0.0016214766,-0.22533941,0.42972448,0
34596000,34534181,197388,0.0039981403,-0.22002023,0.42903513,0
34608000,34608000,197388,0.003407366,-0.2226593,0.42794693,0
34736000,34677818,197388,0.0033475037,-0.21889518,0.4278627,0
34752000,34752000,197388,0.008427809,-0.22082406,0.43462807,0
34880000,34821818,197388,0.0034604322,-0.21808885,0.42714736,0
34896000,34896000,197388,-0.003306362,-0.21561265,0.42418504,0
35028000,34966909,197388,0.0017000041,-0.21792452,0.42807335,0
35040000,35040000,197388,0.009224211,-0.21254057,0.42772618,0
35172000,35111272,197388,0.004638117,-0.21726091,0.42873693,0
35184000,35184000,197388,0.0008866729,-0.21518007,0.43414065,0
35316000,35255272,197388,0.0051095835,-0.21556537,0.42885453,0
35328000,35328000,197388,0.0051635625,-0.21894386,0.43040565,0
35456000,35398909,197388,0.0058266087,-0.21575217,0.4275933,0
35472000,35472000,197388,0.0035618744,-0.21290825,0.43530282,0
35600000,35542545,197388,0.0049152584,-0.21493563,0.42800987,0
35616000,35616000,197388,0.0025600186,-0.21508059,0.42843646,0
35748000,35687272,197388,0.0051961825,-0.21353428,0.4303651,0
35760000,35760000,197388,0.008015097,-0.21874462,0.43258297,0
35888000,35830545,197388,0.0059494637,-0.21673998,0.4277064,0
35904000,35904000,197388,0.008682598,-0.22043432,0.4284541,0
36036000,35975636,197388,0.004426669,-0.21504974,0.4294601,0
36048000,36048000,197388,0.007875986,-0.2168978,0.43034586,0
36180000,36119272,197388,0.004255103,-0.21524356,0.42898878,0
36192000,36192000,197388,0.0033953434,-0.21107039,0.43025655,0
36320000,36261818,197388,0.0059893406,-0.21440451,0.43178576,0
36336000,36336000,197388,-0.00078709953,-0.2195259,0.4277093,0
36464000,36406181,197388,0.0047304304,-0.21403968,0.42965293,0
36480000,36480000,197388,0.005631008,-0.21636319,0.4354275,0
36608000,36550545,197388,0.003804446,-0.21612662,0.43065163,0
36624000,36624000,197388,-0.007831415,-0.21522452,0.42555135,0
36756000,36696000,197388,0.0038884408,-0.21372788,0.4301568,0
36768000,36768000,197388,0.00058311236,-0.2169453,0.4266288,0
36900000,36838909,197388,0.005167469,-0.21511815,0.42769095,0
36912000,36912000,197388,0.0039457455,-0.21402825,0.42984858,0
37044000,36984000,197388,0.0042388276,-0.21338724,0.42865247,0
37056000,37056000,197388,0.0055052293,-0.21192107,0.4306012,0
37188000,37126909,197388,0.0028518802,-0.21533468,0.42912862,0
37200000,37200000,197388,0.0034776428,-0.21285787,0.42541122,0
37328000,37271272,197388,0.0038916003,-0.21630967,0.42897537,0
37344000,37344000,197388,0.0039778487,-0.21549395,0.43482506,0
37476000,37414909,197388,0.0051989816,-0.21593606,0.42679936,0
37488000,37488000,197388,0.004611293,-0.2125699,0.42976645,0
37620000,37559636,197388,0.0040612957,-0.21343869,0.42977014,0
37632000,37632000,197388,0.0065935547,-0.22308283,0.42685673,0
37764000,37702545,197388,0.005888012,-0.21828315,0.4285121,0
37776000,37776000,197388,-0.0035021517,-0.21922565,0.4265994,0
37908000,37848000,197388,0.0023099151,-0.21869707,0.42818874,0
37920000,37920000,197388,0.00854466,-0.21470213,0.43207517,0
38048000,37990909,197388,0.0040126415,-0.21933791,0.42910773,0
38064000,38064000,197388,0.0030326566,-0.21559897,0.42875835,0
38196000,38135636,197388,0.003408235,-0.21589367,0.4290983,0
38208000,38208000,197388,0.0025191917,-0.21814986,0.4280411,0
38340000,38278909,197388,0.0036631909,-0.21634825,0.42935026,0
38352000,38352000,197388,0.0031900646,-0.21748447,0.42855057,0
38480000,38423272,197388,0.0030015048,-0.21746647,0.42749605,0
38496000,38496000,197388,0.0004911776,-0.21671402,0.4335896,0
38624000,38566545,197388,0.0044802586,-0.21843466,0.4282087,0
38640000,38640000,197388,0.005218435,-0.2130381,0.42718065,0
38772000,38710545,197388,0.0017995475,-0.2177429,0.4295735,0
38784000,38784000,197388,-0.002826589,-0.21912576,0.42842293,0
38912000,38855636,197388,0.002906731,-0.21630764,0.4285516,0
38928000,38928000,197388,0.006861901,-0.22244701,0.43062434,0
39056000,38998545,197388,0.0019182119,-0.2161362,0.4293535,0
39068000,39068000,197388,0.00099288,-0.21492167,0.4288183,0
39192000,39137200,197388,0.0032530967,-0.21660022,0.42828098,0
39204000,39204000,197388,-0.0030376478,-0.22100212,0.42748743,0
39336000,39274545,197388,0.0026212547,-0.21636567,0.42784023,0
39344000,39344000,197388,0.0032200627,-0.21094048,0.43307814,0
39468000,39413200,197388,0.0031796487,-0.21634448,0.4281982,0
39480000,39480000,197388,-0.004699534,-0.21171935,0.42872685,0
39608000,39550545,197388,0.0054599606,-0.21703693,0.4281715,0
39620000,39620000,197388,0.006441187,-0.21210583,0.42821017,0
39744000,39688400,197388,0.0036342999,-0.21460688,0.43059427,0
39768000,39760000,197388,0.005634227,-0.21719483,0.42327875,0
39876000,39826666,197388,0.0039182073,-0.2173043,0.42855284,0
39900000,39894000,197388,-0.00010550587,-0.21501261,0.42535788,0
40016000,39964800,197388,0.0017613836,-0.21611224,0.42880806,0
40032000,40032000,197388,0.001126741,-0.2149168,0.43227684,0
40160000,40103272,197388,0.0028931438,-0.21631467,0.4294131,0
40176000,40176000,197388,0.0073735244,-0.2229302,0.4312469,0
40304000,40246545,197388,0.003972993,-0.21774197,0.42895126,0
40320000,40320000,197388,0.004175826,-0.21594675,0.4311668,0
40448000,40391272,197388,0.0024709196,-0.21822378,0.42876348,0
40464000,40464000,197388,-0.0035041312,-0.21738291,0.43624392,0
40596000,40534545,197388,0.0013609829,-0.216233,0.42939028,0
40608000,40608000,197388,-0.002457237,-0.21577637,0.4280742,0
40740000,40678909,197388,0.0031351259,-0.21507572,0.42924133,0
40752000,40752000,197388,0.0047803605,-0.2158009,0.42624184,0
40880000,40822181,197388,0.003304887,-0.21738152,0.4283652,0
40896000,40896000,197388,0.0005238982,-0.22137828,0.4239655,0
41028000,40967636,197388,0.0032497826,-0.21798228,0.4287423,0
41040000,41040000,197388,0.0015883227,-0.21446252,0.42788634,0
41172000,41111272,197388,0.0036692617,-0.21773756,0.42882055,0
41180000,41180000,197388,0.000111600406,-0.21311249,0.42712107,0
41304000,41248000,197388,0.0052193254,-0.21707633,0.4285451,0
41328000,41320000,197388,0.00750315,-0.21557565,0.43154055,0
41436000,41387111,197388,0.0033566705,-0.21756002,0.42942053,0
41472000,41458666,197388,0.0019445862,-0.2206028,0.42695984,0
41576000,41530222,197388,0.0009806629,-0.21955797,0.4292751,0
41616000,41602666,197388,0.0025352142,-0.2222457,0.4285072,0
41720000,41674666,197388,0.0014709961,-0.2165304,0.42921928,0
41760000,41746666,197388,0.0039973552,-0.22013836,0.4288251,0
41868000,41818666,197388,0.0016955516,-0.21877058,0.43023303,0
41892000,41886000,197388,0.004604684,-0.22248349,0.43110102,0
42008000,41956800,197388,0.0045145536,-0.2184137,0.43035337,0
42024000,42024000,197388,0.0055470616,-0.20851651,0.429487,0
42156000,42094909,197388,0.0037800227,-0.2169566,0.42830074,0
42168000,42168000,197388,0.011096971,-0.21944028,0.43105307,0
42300000,42238909,197388,0.002486912,-0.22098544,0.42852148,0
42312000,42312000,197388,0.005194831,-0.2241055,0.42859322,0
42440000,42382909,197388,0.002935227,-0.21758899,0.42948645,0
42456000,42456000,197388,-9.174226e-05,-0.21702318,0.42584163,0
42588000,42526545,197388,0.0017256266,-0.21693468,0.42956853,0
42600000,42600000,197388,0.00509009,-0.21663241,0.42636713,0
42732000,42671272,197388,0.004586196,-0.21849021,0.42825106,0
42744000,42744000,197388,0.0027837383,-0.21035066,0.4332373,0
42872000,42814909,197388,0.00493562,-0.2182264,0.4304155,0
42888000,42888000,197388,0.0016341126,-0.21781757,0.42731413,0
43016000,42958545,197388,0.0052659772,-0.2191583,0.42708108,0
43032000,43032000,197388,0.0092833545,-0.21789332,0.42739674,0
43160000,43102545,197388,0.0028679848,-0.21763533,0.42730883,0
43176000,43176000,197388,-0.0021770885,-0.22109312,0.42249388,0
43308000,43248000,197388,0.0030125794,-0.21644829,0.427894,0
43320000,43320000,197388,0.010529977,-0.21960025,0.4249177,0
43448000,43390909,197388,0.0018347563,-0.21454829,0.42769545,0
43464000,43464000,197388,-0.0026900363,-0.21682543,0.4390767,0
43596000,43535272,197388,0.00344965,-0.21648955,0.4287426,0
43608000,43608000,197388,0.007873813,-0.2113119,0.43169716,0
43740000,43679272,197388,0.001031037,-0.21562037,0.42763576,0
43752000,43752000,197388,0.008750108,-0.21025513,0.43056548,0
43884000,43824000,197388,0.0027147941,-0.21416473,0.4293743,0
43896000,43896000,197388,-0.0063976743,-0.20147032,0.43182158,0
44028000,43966545,197388,0.0041067936,-0.21503042,0.4313969,0
44040000,44040000,197388,0.008700777,-0.21950406,0.42778546,0
44172000,44110909,197388,0.00031844544,-0.2153387,0.42785653,0
44184000,44184000,197388,0.0025155295,-0.21285588,0.42574787,0
44312000,44254181,197388,0.0023370993,-0.2171174,0.4303544,0
44328000,44328000,197388,0.002269967,-0.21756208,0.42966467,0
44460000,44398909,197388,0.0032603003,-0.21644253,0.4309986,0
44472000,44472000,197388,0.006161205,-0.21530557,0.42693776,0
44604000,44542909,197388,0.0037964943,-0.21463712,0.4292875,0
44616000,44616000,197388,0.004888241,-0.21045887,0.43586823,0
44744000,44686909,197388,0.0039879535,-0.21562365,0.4326921,0
44760000,44760000,197388,0.0046824054,-0.21466057,0.4324973,0
44892000,44831272,197388,0.0035655424,-0.21401894,0.43094057,0
44904000,44904000,197388,-0.0036730387,-0.2163772,0.4274494,0
45036000,44975272,197388,0.0035813402,-0.2157793,0.43058336,0
45048000,45048000,197388,0.0024056819,-0.2174054,0.4322654,0
45176000,45118909,197388,0.005326356,-0.21594375,0.42911163,0
45192000,45192000,197388,0.0014575073,-0.2137303,0.4258178,0
45324000,45264000,197388,0.0024043557,-0.2154522,0.42839438,0
45336000,45336000,197388,-0.002650245,-0.22005172,0.43065122,0
45464000,45407272,197388,0.0036575121,-0.213602,0.42742738,0
45480000,45480000,197388,0.00037497733,-0.21124776,0.4321603,0
45608000,45550181,197388,0.0035472286,-0.21701157,0.4307945,0
45624000,45624000,197388,0.010121364,-0.22110002,0.4271107,0
45756000,45694909,197388,0.0046637193,-0.21529543,0.42962608,0
45768000,45768000,197388,0.00555793,-0.21554974,0.43179953,0
45896000,45838181,197388,0.0049961186,-0.21503118,0.42991388,0
45912000,45912000,197388,0.0039818967,-0.21621121,0.43338388,0
46040000,45981818,197388,0.005387234,-0.2177175,0.42972487,0
46056000,46056000,197388,0.010417234,-0.21440978,0.43117175,0
46188000,46127636,197388,0.004686535,-0.21692249,0.4292398,0
46200000,46200000,197388,0.004954142,-0.2129227,0.42563063,0
46332000,46270909,197388,0.0052306065,-0.21471618,0.4309102,0
46344000,46344000,197388,0.009514479,-0.21419983,0.42486885,0
46476000,46414545,197388,0.0041824435,-0.21647012,0.42924935,0
46484000,46484000,197388,0.007727727,-0.21611431,0.42624232,0
46608000,46553200,197388,0.0041430276,-0.21558554,0.42954347,0
46620000,46620000,197388,0.008417235,-0.2137911,0.43639496,0
46752000,46691272,197388,0.0038843197,-0.2141763,0.43093276,0
46760000,46760000,197388,0.001175116,-0.21577887,0.4267077,0
46880000,46828800,197388,0.0035733592,-0.21614204,0.4283617,0
46896000,46896000,197388,0.0010263211,-0.21369699,0.42912188,0
47028000,46966909,197388,0.002871949,-0.21478412,0.42952222,0
47040000,47040000,197388,-0.0053986395,-0.21320328,0.42979652,0
47172000,47111272,197388,0.0038012043,-0.21712875,0.42904124,0
47184000,47184000,197388,0.001995204,-0.2118308,0.43061915,0
47312000,47255272,197388,0.0032454869,-0.21600923,0.42999637,0
47328000,47328000,197388,0.003947676,-0.22118266,0.42745593,0
47460000,47399636,197388,0.0031953447,-0.21620652,0.43029922,0
47472000,47472000,197388,0.0022347171,-0.21618292,0.43274322,0
47600000,47542909,197388,0.0047401823,-0.21745446,0.43086514,0
47616000,47616000,197388,-2.72086e-05,-0.21740273,0.4326614,0
47744000,47686909,197388,0.0046850205,-0.2160249,0.42938066,0
47760000,47760000,197388,-0.001462731,-0.22851066,0.4292737,0
47888000,47830545,197388,0.0036089106,-0.21858877,0.43035725,0
47904000,47904000,197388,0.00444964,-0.22286385,0.42818052,0
48032000,47975636,197388,0.003511548,-0.21552849,0.43112913,0
48048000,48048000,197388,0.0038466381,-0.21849681,0.43253815,0
48176000,48118545,197388,0.0041477685,-0.21566777,0.4293334,0
48192000,48192000,197388,0.0068038525,-0.22193977,0.42905152,0
48320000,48263636,197388,0.003907111,-0.2178243,0.4300477,0
48336000,48336000,197388,0.0060885935,-0.21653967,0.43101805,0
48464000,48407272,197388,0.0053546103,-0.2181455,0.4270904,0
48480000,48480000,197388,-0.0025135002,-0.21593994,0.4253664,0
48608000,48550909,197388,0.003994283,-0.21747167,0.4285486,0
48624000,48624000,197388,0.008893108,-0.21317847,0.42718738,0
48756000,48695636,197388,0.0055895983,-0.21559636,0.42981037,0
48768000,48768000,197388,0.0023006147,-0.21268803,0.4305181,0
48896000,48838909,197388,0.005240405,-0.21648,0.42986476,0
48912000,48912000,197388,0.0067755356,-0.21833754,0.4352201,0
49040000,48982545,197388,0.0050987443,-0.21664047,0.4261562,0
49056000,49056000,197388,0.0016655843,-0.21268168,0.42902413,0
49188000,49127636,197388,0.0070391474,-0.2157654,0.42998043,0
49200000,49200000,197388,0.00416233,-0.2166249,0.42802557,0
49328000,49270545,197388,0.007057334,-0.21856384,0.42954698,0
49344000,49344000,197388,0.009203635,-0.21415815,0.43427312,0
49472000,49414545,197388,0.0068399487,-0.21580291,0.4298122,0
49488000,49488000,197388,0.0026121184,-0.21251984,0.42566207,0
49616000,49559636,197388,0.0051320274,-0.21683836,0.42909145,0
49632000,49632000,197388,0.0041171852,-0.2167444,0.42779362,0
49760000,49702545,197388,0.004527684,-0.21634187,0.42923236,0
49776000,49776000,197388,0.0054651126,-0.2128076,0.42551437,0
49904000,49845090,197388,0.0063991304,-0.21659574,0.4278755,0
49920000,49920000,197388,0.0064452845,-0.21646194,0.42984545,0
50052000,49990545,197388,0.004965908,-0.21873754,0.42844576,0
50064000,50064000,197388,0.0050957375,-0.2143225,0.42880523,0
50192000,50135272,197388,0.0030955083,-0.22018087,0.42838067,0
50204000,50204000,197388,-0.0014080366,-0.2279274,0.42742145,0
50328000,50272800,197388,-0.003106915,-0.2292213,0.42224118,0
50352000,50344000,197388,-0.007897591,-0.22538045,0.42238754,0
50456000,50410666,197388,-0.008719891,-0.23296063,0.42088008,0
50496000,50482666,197388,-0.0092795845,-0.23557721,0.41978082,0
50600000,50553777,197388,-0.012518979,-0.23442218,0.42116773,0
50640000,50626666,197388,-0.013751799,-0.23277675,0.4165574,0
50736000,50693500,197388,-0.01075275,-0.23558226,0.41843677,0
50784000,50766000,197388,-0.013639362,-0.2358484,0.41973537,0
50880000,50838000,197388,-0.014786856,-0.23879632,0.41760382,0
50928000,50909000,197388,-0.015352309,-0.23566382,0.41817242,0
51024000,50980500,197388,-0.014194266,-0.23416553,0.4177409,0
51072000,51051000,197388,-0.0158888,-0.23184283,0.4194933,0
51152000,51118285,197388,-0.010917324,-0.23155908,0.42117482,0
51204000,51186000,197388,-0.010755575,-0.23372875,0.42047533,0
51296000,51257000,197388,-0.0116655575,-0.23276693,0.41762537,0
51348000,51329000,197388,-0.011610918,-0.2320332,0.42324203,0
51440000,51401000,197388,-0.008797823,-0.23015715,0.42151555,0
51492000,51473000,197388,-0.00773607,-0.22836491,0.42317015,0
51588000,51545000,197388,-0.0028695217,-0.22449146,0.4219066,0
51624000,51612000,197388,-0.007060251,-0.2239123,0.4293418,0
51732000,51683111,197388,-0.0016388809,-0.22423021,0.42626396,0
51756000,51750000,197388,-0.002635574,-0.22150365,0.42287624,0
51876000,51821200,197388,0.0030137736,-0.21988396,0.4272905,0
51888000,51888000,197388,0.0091854045,-0.215026,0.43030384,0
52016000,51959272,197388,0.006465241,-0.21715058,0.4309339,0
52032000,52032000,197388,0.0068455962,-0.21045661,0.43151152,0
52160000,52102545,197388,0.007774917,-0.21356325,0.43123,0
52176000,52176000,197388,0.011603691,-0.2108206,0.43463367,0
52308000,52246545,197388,0.0124612525,-0.20855765,0.43275923,0
52320000,52320000,197388,0.01602891,-0.20720002,0.4326169,0
52452000,52391272,197388,0.015145573,-0.20617221,0.4352708,0
52464000,52464000,197388,0.013984274,-0.20178345,0.4314788,0
52596000,52535636,197388,0.019287536,-0.20189856,0.43650445,0
52608000,52608000,197388,0.013197314,-0.1978387,0.43262017,0
52740000,52679272,197388,0.021622011,-0.19682774,0.43638664,0
52752000,52752000,197388,0.023392675,-0.19702579,0.43694192,0
52880000,52822909,197388,0.02420041,-0.19678363,0.4372353,0
52896000,52896000,197388,0.021548416,-0.19468595,0.43557093,0
53024000,52966545,197388,0.02658727,-0.19498776,0.43757343,0
53040000,53040000,197388,0.0312958,-0.19211628,0.44193754,0
53168000,53110909,197388,0.028010413,-0.19200568,0.43931574,0
53184000,53184000,197388,0.02819278,-0.19042747,0.43859044,0
53316000,53256000,197388,0.026951572,-0.19247626,0.44044653,0
53328000,53328000,197388,0.028974269,-0.1927815,0.43486404,0
53456000,53399636,197388,0.030307906,-0.18929386,0.44086727,0
53472000,53472000,197388,0.03227646,-0.18817356,0.4468514,0
53600000,53542909,197388,0.02830877,-0.18814553,0.44153002,0
53616000,53616000,197388,0.028928086,-0.19029997,0.44056815,0
53748000,53686909,197388,0.029641148,-0.19008301,0.43975744,0
53760000,53760000,197388,0.029536473,-0.18971525,0.4442748,0
53892000,53831272,197388,0.028522477,-0.19011115,0.44146547,0
53904000,53904000,197388,0.031244092,-0.19733451,0.4405124,0
54036000,53975272,197388,0.028118238,-0.1901602,0.44188213,0
54048000,54048000,197388,0.027643787,-0.19343925,0.4475232,0
54176000,54118909,197388,0.028526817,-0.18678722,0.44248396,0
54192000,54192000,197388,0.029198624,-0.19033885,0.4425469,0
54324000,54262545,197388,0.026004573,-0.19100961,0.44196624,0
54336000,54336000,197388,0.02985969,-0.18969277,0.44058317,0
54468000,54407272,197388,0.024522513,-0.19092648,0.43930355,0
54480000,54480000,197388,0.03142273,-0.19416377,0.44057068,0
54608000,54550909,197388,0.023625592,-0.19384621,0.43951717,0
54624000,54624000,197388,0.024362037,-0.18662992,0.43429804,0
54756000,54695636,197388,0.022104848,-0.19680241,0.437959,0
54768000,54768000,197388,0.02206008,-0.19922988,0.43555212,0
54896000,54838909,197388,0.02095575,-0.1967195,0.4384546,0
54912000,54912000,197388,0.020457191,-0.20052844,0.4403442,0
55044000,54982909,197388,0.017897965,-0.2001086,0.435637,0
55056000,55056000,197388,0.014084588,-0.19853833,0.4336077,0
55184000,55126545,197388,0.012060277,-0.20537424,0.4348252,0
55200000,55200000,197388,0.00923369,-0.20769665,0.4352733,0
55332000,55271636,197388,0.01296938,-0.20422597,0.4347257,0
55344000,55344000,197388,0.0098587265,-0.19785632,0.43198848,0
55476000,55414909,197388,0.009868746,-0.20692451,0.43275315,0
55488000,55488000,197388,0.015887324,-0.2218672,0.43093884,0
55616000,55558181,197388,0.0066536586,-0.21213675,0.43011793,0
55632000,55632000,197388,0.00243819,-0.20873086,0.43782088,0
55760000,55702545,197388,0.0073404904,-0.21159717,0.42933416,0
55776000,55776000,197388,0.010322992,-0.21266231,0.43480062,0
55908000,55846181,197388,0.0038466505,-0.21724069,0.42792633,0
55920000,55920000,197388,-0.0012993917,-0.21877852,0.436615,0
56048000,55990545,197388,0.0009193669,-0.21830228,0.4278468,0
56064000,56064000,197388,0.010563454,-0.21729614,0.43379945,0
56192000,56134181,197388,0.0031311398,-0.21914172,0.42764276,0
56208000,56208000,197388,0.0021411702,-0.21905732,0.42357847,0
56340000,56278909,197388,-0.005305082,-0.22339696,0.42753416,0
56352000,56352000,197388,-0.0012303671,-0.23574182,0.42595693,0
56480000,56422545,197388,-0.0045651756,-0.22525942,0.4248161,0
56496000,56496000,197388,-0.004870002,-0.22615343,0.42242762,0
56628000,56567272,197388,-0.0051300633,-0.22554526,0.4240171,0
56640000,56640000,197388,-0.012502343,-0.23202345,0.42290562,0
56768000,56711272,197388,-0.009621048,-0.23086932,0.41986778,0
56784000,56784000,197388,-0.010495294,-0.2366264,0.42762393,0
56916000,56855272,197388,-0.0099024745,-0.23090751,0.42208192,0
56928000,56928000,197388,-0.012712296,-0.23513593,0.42289308,0
57060000,56999636,197388,-0.014082132,-0.23346065,0.4220501,0
57072000,57072000,197388,-0.014791045,-0.2396311,0.41898507,0
57200000,57143272,197388,-0.016341476,-0.23712222,0.416542,0
57216000,57216000,197388,-0.022214087,-0.2282559,0.41469306,0
57344000,57286181,197388,-0.016223466,-0.23634458,0.42067736,0
57360000,57360000,197388,-0.014141376,-0.23158282,0.41723424,0
57492000,57430909,197388,-0.017918203,-0.23837173,0.41764486,0
57504000,57504000,197388,-0.019075168,-0.23617396,0.41457352,0
57632000,57574545,197388,-0.019920856,-0.23912072,0.41471592,0
57648000,57648000,197388,-0.024404818,-0.23495279,0.41988495,0
57776000,57718909,197388,-0.019013923,-0.23656201,0.41838747,0
57792000,57792000,197388,-0.018558305,-0.23579608,0.42111525,0
57920000,57862181,197388,-0.020312712,-0.24046044,0.41629776,0
57936000,57936000,197388,-0.023856418,-0.24874727,0.41058534,0
58064000,58006909,197388,-0.024240062,-0.24029648,0.41620976,0
58080000,58080000,197388,-0.02392742,-0.24189931,0.41491276,0
58208000,58150181,197388,-0.022547215,-0.23861925,0.4167725,0
58224000,58224000,197388,-0.021220034,-0.23644602,0.41709247,0
58356000,58295272,197388,-0.023041988,-0.24174432,0.41504267,0
58364000,58364000,197388,-0.018290663,-0.24840884,0.41077647,0
58488000,58433200,197388,-0.024838435,-0.24215035,0.41440335,0
58512000,58504000,197388,-0.020107403,-0.24308562,0.41978174,0
58620000,58570666,197388,-0.02064599,-0.24352755,0.41419846,0
58644000,58638000,197388,-0.021158189,-0.23844638,0.41524822,0
58764000,58708800,197388,-0.01962133,-0.23965108,0.4166442,0
58776000,58776000,197388,-0.020101137,-0.24199778,0.41909602,0
58908000,58847636,197388,-0.021221215,-0.23937926,0.4138543,0
58920000,58920000,197388,-0.021388682,-0.24065146,0.4172545,0
59052000,58990181,197388,-0.019096265,-0.24008465,0.4168905,0
59064000,59064000,197388,-0.014838787,-0.24038851,0.41334462,0
59196000,59135272,197388,-0.016506407,-0.23916142,0.41585764,0
59208000,59208000,197388,-0.01651298,-0.23937304,0.41159323,0
59340000,59280000,197388,-0.017549781,-0.23770265,0.41737747,0
59352000,59352000,197388,-0.012854403,-0.2392869,0.42168444,0
59480000,59423272,197388,-0.013708703,-0.23641562,0.41744488,0
59496000,59496000,197388,-0.006617219,-0.24216437,0.42409912,0
59624000,59566181,197388,-0.011691364,-0.23355214,0.4206023,0
59640000,59640000,197388,-0.0065861065,-0.2333174,0.4215274,0
59772000,59710909,197388,-0.010008403,-0.23261437,0.4190423,0
59784000,59784000,197388,-0.009125811,-0.23158951,0.4154866,0
59912000,59854909,197388,-0.008025344,-0.23025154,0.42412734,0
59928000,59928000,197388,-0.010458504,-0.22910763,0.41721913,0
60056000,59998545,197388,-0.0041839583,-0.2280899,0.42527717,0
60068000,60068000,197388,-0.009292403,-0.23190379,0.42454597,0
60192000,60136000,197388,-0.0032053178,-0.22344486,0.4242765,0
60216000,60208000,197388,0.0017864937,-0.22202337,0.42497006,0
60336000,60280400,197388,0.009199787,-0.21359403,0.43098688,0
60348000,60348000,197388,0.015624619,-0.20778124,0.43382138,0
60480000,60420000,197388,0.016413717,-0.207234,0.4351069,0
60488000,60488000,197388,0.010276992,-0.20355769,0.43301052,0
60612000,60557200,197388,0.020784454,-0.20277572,0.43591198,0
60624000,60624000,197388,0.023167113,-0.1992352,0.43123603,0
60756000,60694909,197388,0.024494583,-0.19718027,0.4378657,0
60768000,60768000,197388,0.025638405,-0.19260982,0.44530612,0
60900000,60839272,197388,0.030858299,-0.19549544,0.43955493,0
60912000,60912000,197388,0.024765465,-0.19801211,0.4424082,0
61040000,60982545,197388,0.029030904,-0.19467348,0.44201145,0
61052000,61052000,197388,0.03014201,-0.19273432,0.4373226,0
61176000,61121200,197388,0.031318527,-0.19250505,0.44228145,0
61200000,61192000,197388,0.033221498,-0.19013558,0.4375852,0
61304000,61258666,197388,0.028763559,-0.1916031,0.4393886,0
61344000,61330666,197388,0.030431364,-0.19332175,0.43576074,0
61448000,61402666,197388,0.028542543,-0.19044998,0.43987182,0
61476000,61470000,197388,0.02926464,-0.19499758,0.43822232,0
61592000,61540800,197388,0.028499776,-0.19092348,0.438804,0
61608000,61608000,197388,0.029394712,-0.19274111,0.4396338,0
61740000,61679272,197388,0.025408553,-0.1946408,0.43796554,0
61752000,61752000,197388,0.025147924,-0.19064677,0.43448856,0
61884000,61822545,197388,0.023361567,-0.19737439,0.4370203,0
61896000,61896000,197388,0.024435729,-0.19630148,0.4356223,0
62024000,61966181,197388,0.025649842,-0.19718678,0.43827623,0
62040000,62040000,197388,0.023936186,-0.19702172,0.4329575,0
62172000,62111272,197388,0.021913158,-0.20144175,0.43663183,0
62184000,62184000,197388,0.01637311,-0.19957812,0.43819505,0
62312000,62254545,197388,0.01808538,-0.20075428,0.43626696,0
62328000,62328000,197388,0.01775423,-0.20000671,0.4415414,0
62456000,62398545,197388,0.016337205,-0.20322287,0.43763405,0
62472000,62472000,197388,0.017910587,-0.2025649,0.42971358,0
62604000,62542545,197388,0.014532149,-0.20608518,0.43497476,0
62616000,62616000,197388,0.0192678,-0.2063898,0.4290665,0
62748000,62687636,197388,0.014362101,-0.20618418,0.43560758,0
62760000,62760000,197388,0.008205459,-0.21071984,0.42462754,0
62892000,62830909,197388,0.013038024,-0.20780274,0.4315108,0
62904000,62904000,197388,0.01831929,-0.20666847,0.4404782,0
63032000,62975272,197388,0.010262941,-0.21024416,0.43328723,0
63048000,63048000,197388,0.01453067,-0.21307412,0.43495506,0
63176000,63118545,197388,0.00872273,-0.20940898,0.43188864,0
63192000,63192000,197388,0.012269225,-0.21047562,0.43030882,0
63320000,63262909,197388,0.006940868,-0.21188065,0.4308167,0
63336000,63336000,197388,0.008678336,-0.2148443,0.43049923,0
63468000,63408000,197388,0.008313485,-0.21635588,0.43253297,0
63480000,63480000,197388,0.005162134,-0.2100507,0.4270842,0
63612000,63550545,197388,0.008033382,-0.21350813,0.43021303,0
63624000,63624000,197388,0.0065678535,-0.2179221,0.43022722,0
63752000,63694909,197388,0.0067218244,-0.21659808,0.42839897,0
63768000,63768000,197388,0.0075652637,-0.21948071,0.42965344,0
63900000,63838909,197388,0.0040260055,-0.21754831,0.4289684,0
63908000,63908000,197388,0.005386957,-0.22004594,0.43031803,0
64028000,63977200,197388,0.005720866,-0.21562205,0.42849422,0
64056000,64048000,197388,0.0065844585,-0.21860187,0.43110314,0
64160000,64114666,197388,0.0040257745,-0.21780701,0.4272717,0
64200000,64186666,197388,0.004988783,-0.21989767,0.42929494,0
64308000,64259111,197388,0.0045574196,-0.21367541,0.4267778,0
64332000,64326000,197388,0.005232851,-0.2212507,0.42982876,0
64452000,64397200,197388,0.0045031724,-0.21836667,0.42992988,0
64472000,64466000,197388,0.0024560029,-0.21468638,0.42982233,0
64584000,64535555,197388,0.004290028,-0.21786316,0.42869362,0
64616000,64605333,197388,0.0012158833,-0.21624772,0.42645347,0
64712000,64672500,197388,0.004484399,-0.21910402,0.4275727,0
64764000,64745000,197388,0.0028306434,-0.21840987,0.4266296,0
64860000,64817500,197388,0.0028200648,-0.21822375,0.42879823,0
64904000,64889000,197388,0.0018083565,-0.21839522,0.42863107,0
65004000,64960500,197388,0.005033836,-0.21872377,0.42993474,0
65052000,65033000,197388,0.0063806395,-0.21553192,0.42755237,0
65136000,65100000,197388,0.006260018,-0.21753566,0.42974037,0
65196000,65169600,197388,0.0072899833,-0.21820179,0.42732936,0
65280000,65242285,197388,0.002475969,-0.21936299,0.42615804,0
65328000,65309000,197388,0.0031187877,-0.22074315,0.42909065,0
65424000,65381000,197388,0.003942311,-0.2184911,0.42710727,0
65472000,65452000,197388,0.0042409124,-0.2174011,0.432092,0
65556000,65520000,197388,0.0030500456,-0.21642129,0.42849928,0
65616000,65592000,197388,0.0009048193,-0.21735966,0.4292419,0
65700000,65664000,197388,0.002551198,-0.21690261,0.4283494,0
65760000,65735200,197388,0.008269241,-0.21434508,0.42739317,0
65832000,65802000,197388,0.0043861726,-0.21827883,0.42843303,0
65904000,65873333,197388,0.0057833083,-0.215388,0.4324721,0
65964000,65940000,197388,0.00767268,-0.2168498,0.4277133,0
66048000,66011428,197388,0.0028340179,-0.2159362,0.42870674,0
66104000,66083200,197388,0.0035145178,-0.21666804,0.43214175,0
66192000,66154857,197388,0.0038716607,-0.21594174,0.4286445,0
66252000,66227200,197388,0.0031629198,-0.21846457,0.4309143,0
66336000,66299428,197388,0.0010449565,-0.2160002,0.4304823,0
66396000,66371200,197388,0.0044856924,-0.21555595,0.4289158,0
66480000,66443428,197388,0.004509381,-0.21517949,0.43185386,0
66536000,66515200,197388,0.0034055945,-0.21553902,0.4331862,0
66624000,66586857,197388,0.0029970964,-0.21513763,0.4302364,0
66684000,66659200,197388,0.0034227984,-0.21577512,0.42770877,0
66768000,66730857,197388,0.0036840905,-0.2166288,0.42922807,0
66824000,66801600,197388,0.0036754091,-0.21923433,0.4271949,0
66896000,66868666,197388,0.004267213,-0.2168623,0.429614,0
66972000,66941333,197388,0.0054240962,-0.21587253,0.42807445,0
67044000,67012666,197388,0.004298472,-0.21655343,0.42788538,0
67116000,67085333,197388,0.0049594813,-0.21573226,0.4306742,0
67184000,67156000,197388,0.0027902732,-0.21614754,0.42814815,0
67248000,67223200,197388,0.0033056193,-0.21677096,0.4284691,0
67332000,67294857,197388,0.0069491277,-0.21272455,0.4283398,0
67392000,67366400,197388,0.007762035,-0.21958287,0.43168077,0
67464000,67433333,197388,0.0063801846,-0.21660164,0.42907625,0
67524000,67500000,197388,0.008043587,-0.21431635,0.42615804,0
67608000,67572000,197388,0.0036500546,-0.21563973,0.42977342,0
67664000,67643200,197388,0.0046385406,-0.2168277,0.4273478,0
67752000,67715428,197388,0.004957517,-0.21315043,0.42924514,0
67812000,67788000,197388,0.0061953436,-0.21520896,0.42712268,0
67892000,67857714,197388,0.0042162486,-0.21619715,0.42888156,0
67952000,67929600,197388,0.0044054072,-0.2162751,0.4297235,0
68024000,67996666,197388,0.0065119853,-0.21719515,0.42960906,0
68100000,68069333,197388,0.0036542693,-0.21808851,0.42934224,0
68160000,68136000,197388,0.0063608573,-0.21416524,0.42740592,0
68244000,68208000,197388,0.0050107115,-0.21311077,0.43031472,0
68304000,68279200,197388,0.0037820411,-0.21535046,0.4307692,0
68388000,68351428,197388,0.004189433,-0.21438846,0.42888203,0
68448000,68424000,197388,0.0023268356,-0.21376388,0.43025756,0
68528000,68494857,197388,0.0049603493,-0.21734458,0.4292901,0
68592000,68566400,197388,0.004999425,-0.21587391,0.4297112,0
68676000,68638857,197388,0.0052804253,-0.21502282,0.4289997,0
68724000,68706000,197388,0.0050786044,-0.21546282,0.43131626,0
68820000,68777000,197388,0.002332362,-0.21748315,0.42865783,0
68856000,68844000,197388,0.0058692666,-0.21695559,0.4306371,0
68964000,68914666,197388,0.005755184,-0.21759306,0.4272933,0
68988000,68982000,197388,0.0053771595,-0.21652462,0.4323135,0
69104000,69052800,197388,0.0055329623,-0.21647346,0.4295976,0
69120000,69120000,197388,0.0006732357,-0.21791683,0.4339568,0
69248000,69191636,197388,0.0038140689,-0.21757242,0.42948723,0
69264000,69264000,197388,0.007194567,-0.21937063,0.43054768,0
69392000,69334545,197388,0.0033486593,-0.21679267,0.42918676,0
69408000,69408000,197388,0.004574095,-0.21454725,0.43046245,0
69540000,69479272,197388,0.00429383,-0.2160839,0.43025216,0
69552000,69552000,197388,0.007389268,-0.21103436,0.4307065,0
69684000,69623636,197388,0.002210846,-0.21850727,0.42930818,0
69696000,69696000,197388,0.007640032,-0.21568295,0.43327177,0
69828000,69767272,197388,0.0065891794,-0.21745801,0.42987838,0
69840000,69840000,197388,0.007461943,-0.21771932,0.4330007,0
69968000,69910909,197388,0.0057366607,-0.21981423,0.42996976,0
69984000,69984000,197388,0.00037546727,-0.21143796,0.4250657,0
70112000,70054181,197388,0.0046326416,-0.21724337,0.42781013,0
70128000,70128000,197388,0.0021598525,-0.21902591,0.43105975,0
70256000,70198545,197388,0.0048241722,-0.21669853,0.43016195,0
70272000,70272000,197388,0.0033011066,-0.2205585,0.42457357,0
70404000,70343272,197388,0.005351605,-0.22036584,0.43078384,0
70416000,70416000,197388,0.0075257863,-0.21772318,0.43209344,0
70544000,70486545,197388,0.0044149696,-0.21917437,0.4310934,0
70560000,70560000,197388,0.0071565732,-0.22168481,0.4311412,0
70688000,70630909,197388,0.009351873,-0.21851781,0.42860475,0
70704000,70704000,197388,0.012437327,-0.21867906,0.4267758,0
70832000,70774909,197388,0.009314325,-0.21733573,0.42698902,0
70848000,70848000,197388,0.012664643,-0.21510576,0.42908898,0
70976000,70918545,197388,0.007833983,-0.21856946,0.42905998,0
70992000,70992000,197388,0.0065995804,-0.21188696,0.43091655,0
71120000,71062181,197388,0.006757451,-0.22033517,0.4274188,0
71136000,71136000,197388,0.009767615,-0.21567795,0.42626536,0
71264000,71206181,197388,0.0067255534,-0.22027859,0.42746237,0
71280000,71280000,197388,0.009893216,-0.22170062,0.42415667,0
71408000,71350545,197388,0.005390959,-0.21845588,0.42821956,0
71424000,71424000,197388,0.0032846772,-0.2182492,0.42987853,0
71552000,71494545,197388,0.0037156343,-0.2197313,0.4279432,0
71568000,71568000,197388,0.0022150304,-0.21364582,0.43175077,0
71700000,71638909,197388,0.0024680945,-0.21743216,0.42671126,0
71712000,71712000,197388,0.0021501563,-0.21684285,0.42788726,0
71840000,71782545,197388,0.0016827291,-0.21988182,0.4278342,0
71856000,71856000,197388,0.004932801,-0.21278234,0.4290772,0
71984000,71926545,197388,-0.00048532977,-0.21783929,0.42836937,0
71996000,71996000,197388,-0.0034086371,-0.22169986,0.42750487,0
72120000,72064800,197388,0.002341796,-0.21849523,0.4270887,0
72144000,72136000,197388,0.00057719613,-0.21522295,0.4289453,0
72252000,72203111,197388,0.00039566666,-0.21883006,0.42738354,0
72276000,72270000,197388,-0.005133544,-0.2195355,0.4329568,0
72396000,72341600,197388,-0.0015299087,-0.21673341,0.42761564,0
72420000,72414000,197388,0.0010206971,-0.2149534,0.42597514,0
72536000,72484400,197388,-0.0005454128,-0.2177466,0.42985782,0
