timestamp,timestamp_sample,control[0],control[1],control[2],control[3],control[4],control[5],control[6],control[7],control[8],control[9],control[10],control[11],reversible_flags
3428000,3428000,0.0,0.0,0.0,0.0,nan,nan,nan,nan,nan,nan,nan,nan,0
3432000,3432000,0.0,0.0,8.6049334e-11,0.0,nan,nan,nan,nan,nan,nan,nan,nan,0
3524000,3524000,0.0,0.0,0.0,0.0,nan,nan,nan,nan,nan,nan,nan,nan,0
3628000,3628000,0.0,0.0,0.0,2.910383e-11,nan,nan,nan,nan,nan,nan,nan,nan,0
3728000,3728000,0.002000003,1.8626451e-09,0.001999998,0.0,nan,nan,nan,nan,nan,nan,nan,nan,0
3828000,3828000,0.0020000013,0.0,0.0020000013,0.0,nan,nan,nan,nan,nan,nan,nan,nan,0
3928000,3928000,0.0020000003,0.0,0.0020000003,0.0,nan,nan,nan,nan,nan,nan,nan,nan,0
4028000,4028000,0.0020000003,0.0,0.0020000003,0.0,nan,nan,nan,nan,nan,nan,nan,nan,0
4124000,4124000,0.0020000022,0.0,0.0019999985,0.0,nan,nan,nan,nan,nan,nan,nan,nan,0
4228000,4228000,0.0020000022,0.0,0.0019999985,0.0,nan,nan,nan,nan,nan,nan,nan,nan,0
4328000,4328000,0.0020000003,0.0,0.0020000003,0.0,nan,nan,nan,nan,nan,nan,nan,nan,0
4428000,4428000,0.0019999985,0.0,0.0020000022,0.0,nan,nan,nan,nan,nan,nan,nan,nan,0
4528000,4528000,0.0019999975,1.8626451e-09,0.0019999994,0.0,nan,nan,nan,nan,nan,nan,nan,nan,0
4628000,4628000,0.0020000022,0.0,0.0019999985,0.0,nan,nan,nan,nan,nan,nan,nan,nan,0
4728000,4728000,0.002000003,0.0,0.0019999987,0.0,nan,nan,nan,nan,nan,nan,nan,nan,0
4828000,4828000,0.0020000003,0.0,0.0020000003,0.0,nan,nan,nan,nan,nan,nan,nan,nan,0
4928000,4928000,0.0019999992,1.8626451e-09,0.0019999996,0.0,nan,nan,nan,nan,nan,nan,nan,nan,0
5028000,5028000,0.0019999994,0.0,0.0020000013,0.0,nan,nan,nan,nan,nan,nan,nan,nan,0
5128000,5128000,0.0019999985,0.0,0.0020000022,0.0,nan,nan,nan,nan,nan,nan,nan,nan,0
5228000,5228000,0.0019999975,1.8626451e-09,0.0019999994,0.0,nan,nan,nan,nan,nan,nan,nan,nan,0
5328000,5328000,0.0019999982,1.8626451e-09,0.0019999968,0.0,nan,nan,nan,nan,nan,nan,nan,nan,0
5428000,5428000,0.0020000027,9.313226e-10,0.0019999987,0.0,nan,nan,nan,nan,nan,nan,nan,nan,0
5524000,5524000,0.002000002,1.8626451e-09,0.0019999968,0.0,nan,nan,nan,nan,nan,nan,nan,nan,0
5628000,5628000,0.0019999975,1.8626451e-09,0.0019999994,0.0,nan,nan,nan,nan,nan,nan,nan,nan,0
5728000,5728000,0.002000003,0.0,0.001999999,0.0,nan,nan,nan,nan,nan,nan,nan,nan,0
5824000,5824000,0.0019999994,0.0,0.0020000013,0.0,nan,nan,nan,nan,nan,nan,nan,nan,0
5928000,5928000,0.0019999994,0.0,0.0020000013,0.0,nan,nan,nan,nan,nan,nan,nan,nan,0
6028000,6028000,0.0019999973,3.7252903e-09,0.0019999978,0.0,nan,nan,nan,nan,nan,nan,nan,nan,0
6128000,6128000,0.0019999994,0.0,0.0019999994,0.0,nan,nan,nan,nan,nan,nan,nan,nan,0
6228000,6228000,0.001999997,0.0,0.0019999999,1.8626451e-09,nan,nan,nan,nan,nan,nan,nan,nan,0
6328000,6328000,0.0020000013,1.8626451e-09,0.0019999978,0.0,nan,nan,nan,nan,nan,nan,nan,nan,0
6428000,6428000,0.0020000013,0.0,0.0019999994,0.0,nan,nan,nan,nan,nan,nan,nan,nan,0
6528000,6528000,0.0020000013,0.0,0.0019999994,0.0,nan,nan,nan,nan,nan,nan,nan,nan,0
6628000,6628000,0.0019999992,1.8626451e-09,0.0019999996,0.0,nan,nan,nan,nan,nan,nan,nan,nan,0
6724000,6724000,0.0020000008,9.313226e-10,0.001999997,0.0,nan,nan,nan,nan,nan,nan,nan,nan,0
6828000,6828000,0.0020000013,0.0,0.0019999994,0.0,nan,nan,nan,nan,nan,nan,nan,nan,0
6928000,6928000,0.0019999994,1.8626451e-09,0.0019999996,0.0,nan,nan,nan,nan,nan,nan,nan,nan,0
7028000,7028000,0.0020000013,0.0,0.0019999994,0.0,nan,nan,nan,nan,nan,nan,nan,nan,0
7128000,7128000,0.0019999975,1.8626451e-09,0.0019999994,0.0,nan,nan,nan,nan,nan,nan,nan,nan,0
7228000,7228000,0.0019999994,0.0,0.0020000013,0.0,nan,nan,nan,nan,nan,nan,nan,nan,0
7324000,7324000,0.0019999994,0.0,0.0020000013,0.0,nan,nan,nan,nan,nan,nan,nan,nan,0
7424000,7424000,0.0019999994,0.0,0.0020000013,0.0,nan,nan,nan,nan,nan,nan,nan,nan,0
7524000,7524000,0.002000003,9.313226e-10,0.0019999968,0.0,nan,nan,nan,nan,nan,nan,nan,nan,0
7628000,7628000,0.0020000027,1.8626451e-09,0.001999998,0.0,nan,nan,nan,nan,nan,nan,nan,nan,0
7728000,7728000,0.0020000013,1.8626451e-09,0.0019999978,0.0,nan,nan,nan,nan,nan,nan,nan,nan,0
7828000,7828000,0.0019999985,0.0,0.0020000022,0.0,nan,nan,nan,nan,nan,nan,nan,nan,0
7928000,7928000,0.0020000013,0.0,0.0020000013,0.0,nan,nan,nan,nan,nan,nan,nan,nan,0
8028000,8028000,0.0019999992,1.8626451e-09,0.0019999996,0.0,nan,nan,nan,nan,nan,nan,nan,nan,0
8128000,8128000,0.0020000013,0.0,0.0019999994,0.0,nan,nan,nan,nan,nan,nan,nan,nan,0
8228000,8228000,0.0019999994,0.0,0.0020000013,0.0,nan,nan,nan,nan,nan,nan,nan,nan,0
8328000,8328000,0.0019999994,0.0,0.0020000013,0.0,nan,nan,nan,nan,nan,nan,nan,nan,0
8428000,8428000,0.0020000013,0.0,0.0019999994,0.0,nan,nan,nan,nan,nan,nan,nan,nan,0
8528000,8528000,0.0020000013,0.0,0.0019999994,0.0,nan,nan,nan,nan,nan,nan,nan,nan,0
8624000,8624000,0.0019999975,1.8626451e-09,0.0019999994,0.0,nan,nan,nan,nan,nan,nan,nan,nan,0
8724000,8724000,0.0020000022,0.0,0.0020000022,0.0,nan,nan,nan,nan,nan,nan,nan,nan,0
8824000,8824000,0.0020000036,1.8626451e-09,0.001999997,0.0,nan,nan,nan,nan,nan,nan,nan,nan,0
8924000,8924000,0.0019999987,0.0,0.002,1.8626451e-09,nan,nan,nan,nan,nan,nan,nan,nan,0
9028000,9028000,0.0020000017,1.8626451e-09,0.001999997,0.0,nan,nan,nan,nan,nan,nan,nan,nan,0
9128000,9128000,0.0020000013,0.0,0.0020000013,0.0,nan,nan,nan,nan,nan,nan,nan,nan,0
9228000,9228000,0.0019999994,0.0,0.0019999994,0.0,nan,nan,nan,nan,nan,nan,nan,nan,0
9328000,9328000,0.0020000031,0.0,0.0019999994,0.0,nan,nan,nan,nan,nan,nan,nan,nan,0
9428000,9428000,0.0020000027,0.0,0.0020000027,0.0,nan,nan,nan,nan,nan,nan,nan,nan,0
9528000,9528000,0.0019999994,3.7252903e-09,0.0019999994,0.0,nan,nan,nan,nan,nan,nan,nan,nan,0
9628000,9628000,0.0019999992,1.8626451e-09,0.0019999996,0.0,nan,nan,nan,nan,nan,nan,nan,nan,0
9728000,9728000,0.0019999994,0.0,0.0020000013,0.0,nan,nan,nan,nan,nan,nan,nan,nan,0
9828000,9828000,0.001999999,1.8626451e-09,0.0019999996,0.0,nan,nan,nan,nan,nan,nan,nan,nan,0
9928000,9928000,0.0019999999,0.0,0.0019999999,0.0,nan,nan,nan,nan,nan,nan,nan,nan,0
10024000,10024000,0.0019999975,9.313226e-10,0.0020000003,0.0,nan,nan,nan,nan,nan,nan,nan,nan,0
10128000,10128000,0.0019999985,0.0,0.0019999985,0.0,nan,nan,nan,nan,nan,nan,nan,nan,0
10228000,10228000,0.0019999994,0.0,0.0020000013,0.0,nan,nan,nan,nan,nan,nan,nan,nan,0
10328000,10328000,0.0020000013,0.0,0.0020000013,0.0,nan,nan,nan,nan,nan,nan,nan,nan,0
10428000,10428000,0.0019999994,0.0,0.0020000013,0.0,nan,nan,nan,nan,nan,nan,nan,nan,0
10524000,10524000,0.0019999999,0.0,0.0019999999,0.0,nan,nan,nan,nan,nan,nan,nan,nan,0
10628000,10628000,0.0020000013,0.0,0.0019999994,0.0,nan,nan,nan,nan,nan,nan,nan,nan,0
10724000,10724000,0.0020000013,0.0,0.0020000013,0.0,nan,nan,nan,nan,nan,nan,nan,nan,0
10828000,10828000,0.0020000017,0.0,0.0019999999,0.0,nan,nan,nan,nan,nan,nan,nan,nan,0
10928000,10928000,0.0019999994,0.0,0.0020000013,0.0,nan,nan,nan,nan,nan,nan,nan,nan,0
11028000,11028000,0.0020000013,0.0,0.0020000013,0.0,nan,nan,nan,nan,nan,nan,nan,nan,0
11128000,11128000,0.0019999994,0.0,0.0020000013,0.0,nan,nan,nan,nan,nan,nan,nan,nan,0
11228000,11228000,0.0020000027,1.8626451e-09,0.001999998,0.0,nan,nan,nan,nan,nan,nan,nan,nan,0
11328000,11328000,0.0019999999,2.7939677e-09,0.001999998,0.0,nan,nan,nan,nan,nan,nan,nan,nan,0
11428000,11428000,0.002,1.8626451e-09,0.0019999987,0.0,nan,nan,nan,nan,nan,nan,nan,nan,0
11528000,11528000,0.0019999994,0.0,0.0020000013,0.0,nan,nan,nan,nan,nan,nan,nan,nan,0
11628000,11628000,0.0019999996,0.0,0.0019999992,1.8626451e-09,nan,nan,nan,nan,nan,nan,nan,nan,0
11728000,11728000,0.002000001,1.8626451e-09,0.0019999978,0.0,nan,nan,nan,nan,nan,nan,nan,nan,0
11828000,11828000,0.002,0.0,0.0019999996,0.0,nan,nan,nan,nan,nan,nan,nan,nan,0
11928000,11928000,0.0019999992,1.8626451e-09,0.0019999996,0.0,nan,nan,nan,nan,nan,nan,nan,nan,0
12028000,12028000,0.0019999985,0.0,0.0020000022,0.0,nan,nan,nan,nan,nan,nan,nan,nan,0
12124000,12124000,0.0019999994,1.8626451e-09,0.0019999994,0.0,nan,nan,nan,nan,nan,nan,nan,nan,0
12224000,12224000,0.0019999994,0.0,0.0020000013,0.0,nan,nan,nan,nan,nan,nan,nan,nan,0
12328000,12328000,0.0019999994,1.8626451e-09,0.0020000013,0.0,nan,nan,nan,nan,nan,nan,nan,nan,0
12428000,12428000,0.0019999999,0.0,0.0020000017,0.0,nan,nan,nan,nan,nan,nan,nan,nan,0
12528000,12528000,0.0019999994,0.0,0.0020000013,0.0,nan,nan,nan,nan,nan,nan,nan,nan,0
12628000,12628000,0.0019999999,0.0,0.0020000015,0.0,nan,nan,nan,nan,nan,nan,nan,nan,0
12724000,12724000,0.0019999994,0.0,0.0020000013,0.0,nan,nan,nan,nan,nan,nan,nan,nan,0
12828000,12828000,0.0019999994,0.0,0.0020000013,0.0,nan,nan,nan,nan,nan,nan,nan,nan,0
12928000,12928000,0.0020000008,9.313226e-10,0.001999999,0.0,nan,nan,nan,nan,nan,nan,nan,nan,0
13028000,13028000,0.0019999994,1.8626451e-09,0.0020000013,0.0,nan,nan,nan,nan,nan,nan,nan,nan,0
13128000,13128000,0.0020000013,1.8626451e-09,0.0019999975,0.0,nan,nan,nan,nan,nan,nan,nan,nan,0
13224000,13224000,0.0019999994,0.0,0.0019999994,0.0,nan,nan,nan,nan,nan,nan,nan,nan,0
13324000,13324000,0.0020000013,0.0,0.0019999994,0.0,nan,nan,nan,nan,nan,nan,nan,nan,0
13424000,13424000,0.0020000013,0.0,0.0019999994,0.0,nan,nan,nan,nan,nan,nan,nan,nan,0
13528000,13528000,0.0019999994,0.0,0.0019999994,0.0,nan,nan,nan,nan,nan,nan,nan,nan,0
13628000,13628000,0.002000002,0.0,0.0019999996,0.0,nan,nan,nan,nan,nan,nan,nan,nan,0
13724000,13724000,0.0019999987,0.0,0.0020000003,3.7252903e-09,nan,nan,nan,nan,nan,nan,nan,nan,0
13828000,13828000,0.0019999996,0.0,0.002000002,0.0,nan,nan,nan,nan,nan,nan,nan,nan,0
13928000,13928000,0.002000003,9.313226e-10,0.001999997,0.0,nan,nan,nan,nan,nan,nan,nan,nan,0
14028000,14028000,0.0020000013,0.0,0.0019999994,0.0,nan,nan,nan,nan,nan,nan,nan,nan,0
14128000,14128000,0.0019999999,0.0,0.0020000017,0.0,nan,nan,nan,nan,nan,nan,nan,nan,0
14228000,14228000,0.0019999978,0.0,0.0019999973,3.7252903e-09,nan,nan,nan,nan,nan,nan,nan,nan,0
14328000,14328000,0.0020000008,1.8626451e-09,0.0019999961,0.0,nan,nan,nan,nan,nan,nan,nan,nan,0
14428000,14428000,0.002000002,9.313226e-10,0.0019999978,0.0,nan,nan,nan,nan,nan,nan,nan,nan,0
14524000,14524000,0.0020000013,0.0,0.0019999994,0.0,nan,nan,nan,nan,nan,nan,nan,nan,0
14624000,14624000,0.0019999992,1.8626451e-09,0.0019999996,0.0,nan,nan,nan,nan,nan,nan,nan,nan,0
14728000,14728000,0.0019999985,0.0,0.0020000003,0.0,nan,nan,nan,nan,nan,nan,nan,nan,0
14828000,14828000,0.0020000015,0.0,0.002,0.0,nan,nan,nan,nan,nan,nan,nan,nan,0
14928000,14928000,0.0020000013,0.0,0.0019999994,0.0,nan,nan,nan,nan,nan,nan,nan,nan,0
15028000,15028000,0.0019999994,0.0,0.0019999994,0.0,nan,nan,nan,nan,nan,nan,nan,nan,0
15128000,15128000,0.0019999994,3.7252903e-09,0.0019999996,0.0,nan,nan,nan,nan,nan,nan,nan,nan,0
15224000,15224000,0.0019999961,0.0,0.0020000008,1.8626451e-09,nan,nan,nan,nan,nan,nan,nan,nan,0
15324000,15324000,0.0019999992,1.8626451e-09,0.0019999996,0.0,nan,nan,nan,nan,nan,nan,nan,nan,0
15428000,15428000,0.0020000013,0.0,0.0020000013,0.0,nan,nan,nan,nan,nan,nan,nan,nan,0
15528000,15528000,0.0020000003,0.0,0.0019999985,0.0,nan,nan,nan,nan,nan,nan,nan,nan,0
15628000,15628000,0.0020000013,0.0,0.0019999994,0.0,nan,nan,nan,nan,nan,nan,nan,nan,0
15728000,15728000,0.0019999994,0.0,0.0020000013,0.0,nan,nan,nan,nan,nan,nan,nan,nan,0
15828000,15828000,0.002000003,1.8626451e-09,0.001999998,0.0,nan,nan,nan,nan,nan,nan,nan,nan,0
15924000,15924000,0.0019999999,0.0,0.0020000017,0.0,nan,nan,nan,nan,nan,nan,nan,nan,0
16024000,16024000,0.0020000013,0.0,0.0019999994,0.0,nan,nan,nan,nan,nan,nan,nan,nan,0
16128000,16128000,0.002,0.0,0.0020000015,0.0,nan,nan,nan,nan,nan,nan,nan,nan,0
16228000,16228000,0.0019999994,1.8626451e-09,0.0020000013,0.0,nan,nan,nan,nan,nan,nan,nan,nan,0
16328000,16328000,0.0019999985,0.0,0.0020000003,0.0,nan,nan,nan,nan,nan,nan,nan,nan,0
16428000,16428000,0.002,1.8626451e-09,0.0019999968,0.0,nan,nan,nan,nan,nan,nan,nan,nan,0
16528000,16528000,0.0019999987,0.0,0.0019999982,1.8626451e-09,nan,nan,nan,nan,nan,nan,nan,nan,0
16628000,16628000,0.0019999994,0.0,0.0020000013,0.0,nan,nan,nan,nan,nan,nan,nan,nan,0
16728000,16728000,0.0020000003,0.0,0.0020000003,0.0,nan,nan,nan,nan,nan,nan,nan,nan,0
16828000,16828000,0.0020000008,1.8626451e-09,0.0019999961,0.0,nan,nan,nan,nan,nan,nan,nan,nan,0
16928000,16928000,0.0019999994,0.0,0.0020000013,0.0,nan,nan,nan,nan,nan,nan,nan,nan,0
17028000,17028000,0.0019999992,1.8626451e-09,0.0019999978,0.0,nan,nan,nan,nan,nan,nan,nan,nan,0
17128000,17128000,0.0019999994,0.0,0.0020000013,0.0,nan,nan,nan,nan,nan,nan,nan,nan,0
17224000,17224000,0.0019999994,0.0,0.0019999994,0.0,nan,nan,nan,nan,nan,nan,nan,nan,0
17328000,17328000,0.0019999992,1.8626451e-09,0.0019999996,0.0,nan,nan,nan,nan,nan,nan,nan,nan,0
17428000,17428000,0.0019999985,9.313226e-10,0.0019999994,0.0,nan,nan,nan,nan,nan,nan,nan,nan,0
17528000,17528000,0.0020000027,1.8626451e-09,0.001999998,0.0,nan,nan,nan,nan,nan,nan,nan,nan,0
17628000,17628000,0.0020000013,0.0,0.0019999994,0.0,nan,nan,nan,nan,nan,nan,nan,nan,0
17728000,17728000,0.0019999985,0.0,0.0020000022,0.0,nan,nan,nan,nan,nan,nan,nan,nan,0
17828000,17828000,0.0019999994,0.0,0.0019999994,0.0,nan,nan,nan,nan,nan,nan,nan,nan,0
17924000,17924000,0.0019999994,0.0,0.0020000013,0.0,nan,nan,nan,nan,nan,nan,nan,nan,0
18024000,18024000,0.0020000008,1.8626451e-09,0.0019999961,0.0,nan,nan,nan,nan,nan,nan,nan,nan,0
18128000,18128000,0.0019999975,1.8626451e-09,0.0019999994,0.0,nan,nan,nan,nan,nan,nan,nan,nan,0
18228000,18228000,0.0019999985,0.0,0.0020000003,1.8626451e-09,nan,nan,nan,nan,nan,nan,nan,nan,0
18328000,18328000,0.0019999994,0.0,0.0019999994,0.0,nan,nan,nan,nan,nan,nan,nan,nan,0
18424000,18424000,0.0019999985,9.313226e-10,0.0019999994,0.0,nan,nan,nan,nan,nan,nan,nan,nan,0
18528000,18528000,0.0019999994,0.0,0.0020000013,0.0,nan,nan,nan,nan,nan,nan,nan,nan,0
18628000,18628000,0.0020000013,0.0,0.0019999994,0.0,nan,nan,nan,nan,nan,nan,nan,nan,0
18728000,18728000,0.0020000022,0.0,0.0019999985,0.0,nan,nan,nan,nan,nan,nan,nan,nan,0
18828000,18828000,0.0019999994,0.0,0.0020000013,0.0,nan,nan,nan,nan,nan,nan,nan,nan,0
18924000,18924000,0.0020000022,0.0,0.0019999985,0.0,nan,nan,nan,nan,nan,nan,nan,nan,0
19028000,19028000,0.0020000003,0.0,0.0019999985,0.0,nan,nan,nan,nan,nan,nan,nan,nan,0
19124000,19124000,0.0019999994,0.0,0.0019999994,0.0,nan,nan,nan,nan,nan,nan,nan,nan,0
19228000,19228000,0.0019999985,0.0,0.0019999985,0.0,nan,nan,nan,nan,nan,nan,nan,nan,0
19328000,19328000,0.0019999994,0.0,0.0020000013,0.0,nan,nan,nan,nan,nan,nan,nan,nan,0
19428000,19428000,0.0019999985,0.0,0.0020000022,0.0,nan,nan,nan,nan,nan,nan,nan,nan,0
19524000,19524000,0.0019999994,0.0,0.0020000013,0.0,nan,nan,nan,nan,nan,nan,nan,nan,0
19628000,19628000,0.026177539,0.021764597,0.04454654,0.003437591,nan,nan,nan,nan,nan,nan,nan,nan,0
19728000,19728000,0.04064323,0.037051022,0.059260316,0.016136188,nan,nan,nan,nan,nan,nan,nan,nan,0
19828000,19828000,0.057926252,0.054180276,0.076721884,0.03476221,nan,nan,nan,nan,nan,nan,nan,nan,0
19928000,19928000,0.07552896,0.07310791,0.09550559,0.052343234,nan,nan,nan,nan,nan,nan,nan,nan,0
20028000,20028000,0.10711827,0.08751273,0.122019134,0.07432012,nan,nan,nan,nan,nan,nan,nan,nan,0
20124000,20124000,0.1547527,0.10441973,0.15512615,0.10219349,nan,nan,nan,nan,nan,nan,nan,nan,0
20224000,20224000,0.20035979,0.12606274,0.19047888,0.13561794,nan,nan,nan,nan,nan,nan,nan,nan,0
20328000,20328000,0.26194292,0.14537038,0.23489606,0.16697794,nan,nan,nan,nan,nan,nan,nan,nan,0
20428000,20428000,0.31927353,0.17041233,0.28124905,0.20356123,nan,nan,nan,nan,nan,nan,nan,nan,0
20528000,20528000,0.3768757,0.19329716,0.32563245,0.23836501,nan,nan,nan,nan,nan,nan,nan,nan,0
20628000,20628000,0.44514364,0.2175466,0.37595487,0.27801257,nan,nan,nan,nan,nan,nan,nan,nan,0
20728000,20728000,0.51289815,0.23998,0.42688292,0.3157762,nan,nan,nan,nan,nan,nan,nan,nan,0
20824000,20824000,0.58557755,0.2682536,0.48304558,0.3586734,nan,nan,nan,nan,nan,nan,nan,nan,0
20928000,20928000,0.62543833,0.27231303,0.5092716,0.37522838,nan,nan,nan,nan,nan,nan,nan,nan,0
21028000,21028000,0.67360675,0.27263018,0.5387379,0.39147925,nan,nan,nan,nan,nan,nan,nan,nan,0
21128000,21128000,0.7267487,0.26919267,0.5672216,0.40771908,nan,nan,nan,nan,nan,nan,nan,nan,0
21224000,21224000,0.77235025,0.27143002,0.59675044,0.42406598,nan,nan,nan,nan,nan,nan,nan,nan,0
21328000,21328000,0.81307966,0.27518183,0.62296665,0.44046807,nan,nan,nan,nan,nan,nan,nan,nan,0
21424000,21424000,0.8595056,0.2755316,0.65207624,0.45950076,nan,nan,nan,nan,nan,nan,nan,nan,0
21528000,21528000,0.9108584,0.27557224,0.67980045,0.4785911,nan,nan,nan,nan,nan,nan,nan,nan,0
21628000,21628000,0.9168136,0.2949158,0.6765608,0.5171157,nan,nan,nan,nan,nan,nan,nan,nan,0
21728000,21728000,0.8863219,0.32205352,0.6832534,0.55351484,nan,nan,nan,nan,nan,nan,nan,nan,0
21828000,21828000,0.84966147,0.3551287,0.69692326,0.5924999,nan,nan,nan,nan,nan,nan,nan,nan,0
21928000,21928000,0.8058632,0.40338317,0.71671474,0.6295277,nan,nan,nan,nan,nan,nan,nan,nan,0
22028000,22028000,0.73464584,0.47664863,0.7199781,0.67247194,nan,nan,nan,nan,nan,nan,nan,nan,0
22124000,22124000,0.657287,0.5643563,0.7282585,0.71623564,nan,nan,nan,nan,nan,nan,nan,nan,0
22224000,22224000,0.59285617,0.6823192,0.7209133,0.74792415,nan,nan,nan,nan,nan,nan,nan,nan,0
22328000,22328000,0.64507306,0.7503799,0.73346674,0.7547756,nan,nan,nan,nan,nan,nan,nan,nan,0
22428000,22428000,0.7232653,0.74843585,0.74934787,0.7468968,nan,nan,nan,nan,nan,nan,nan,nan,0
22524000,22524000,0.77577037,0.73480296,0.7657305,0.73282355,nan,nan,nan,nan,nan,nan,nan,nan,0
22628000,22628000,0.8051185,0.75209653,0.78314805,0.7496955,nan,nan,nan,nan,nan,nan,nan,nan,0
22724000,22724000,0.78979486,0.7412066,0.77073103,0.7444263,nan,nan,nan,nan,nan,nan,nan,nan,0
22824000,22824000,0.7602995,0.7472618,0.7540055,0.7465587,nan,nan,nan,nan,nan,nan,nan,nan,0
22924000,22924000,0.7479292,0.74755085,0.74560964,0.7446102,nan,nan,nan,nan,nan,nan,nan,nan,0
23028000,23028000,0.7484059,0.73323905,0.7438805,0.7345571,nan,nan,nan,nan,nan,nan,nan,nan,0
23124000,23124000,0.7539321,0.7274713,0.7463613,0.7336956,nan,nan,nan,nan,nan,nan,nan,nan,0
23228000,23228000,0.74238634,0.72646207,0.7395313,0.72675997,nan,nan,nan,nan,nan,nan,nan,nan,0
23328000,23328000,0.7391911,0.73010767,0.73775536,0.7296021,nan,nan,nan,nan,nan,nan,nan,nan,0
23428000,23428000,0.7361227,0.7215984,0.7333228,0.7251424,nan,nan,nan,nan,nan,nan,nan,nan,0
23528000,23528000,0.7370348,0.7236576,0.73497385,0.7272478,nan,nan,nan,nan,nan,nan,nan,nan,0
23628000,23628000,0.7308103,0.71861845,0.7285163,0.7220653,nan,nan,nan,nan,nan,nan,nan,nan,0
23728000,23728000,0.7284994,0.7221888,0.7293309,0.7238408,nan,nan,nan,nan,nan,nan,nan,nan,0
23828000,23828000,0.7243191,0.71847624,0.72410464,0.7187621,nan,nan,nan,nan,nan,nan,nan,nan,0
23928000,23928000,0.7212531,0.71730614,0.72343254,0.7164131,nan,nan,nan,nan,nan,nan,nan,nan,0
24028000,24028000,0.70879996,0.6985322,0.70609325,0.70063263,nan,nan,nan,nan,nan,nan,nan,nan,0
24128000,24128000,0.69737273,0.692241,0.6976475,0.6921801,nan,nan,nan,nan,nan,nan,nan,nan,0
24224000,24224000,0.6810517,0.6837093,0.685148,0.6812159,nan,nan,nan,nan,nan,nan,nan,nan,0
24328000,24328000,0.6750453,0.68150175,0.67980367,0.67768764,nan,nan,nan,nan,nan,nan,nan,nan,0
24424000,24424000,0.6865739,0.6734452,0.68352175,0.6773971,nan,nan,nan,nan,nan,nan,nan,nan,0
24528000,24528000,0.6886561,0.6772288,0.6873065,0.6807873,nan,nan,nan,nan,nan,nan,nan,nan,0
24628000,24628000,0.6768139,0.6849343,0.68281186,0.68048084,nan,nan,nan,nan,nan,nan,nan,nan,0
24728000,24728000,0.6753709,0.68914455,0.6834675,0.6823094,nan,nan,nan,nan,nan,nan,nan,nan,0
24828000,24828000,0.6851144,0.67276716,0.68218774,0.6771129,nan,nan,nan,nan,nan,nan,nan,nan,0
24928000,24928000,0.68440944,0.6734672,0.68335253,0.6770237,nan,nan,nan,nan,nan,nan,nan,nan,0
25028000,25028000,0.67017657,0.6797086,0.6775167,0.6758092,nan,nan,nan,nan,nan,nan,nan,nan,0
25128000,25128000,0.6643209,0.6859252,0.6753047,0.6745489,nan,nan,nan,nan,nan,nan,nan,nan,0
25224000,25224000,0.68034524,0.6659058,0.6714995,0.6692431,nan,nan,nan,nan,nan,nan,nan,nan,0
25324000,25324000,0.67192125,0.6557307,0.6691386,0.65984756,nan,nan,nan,nan,nan,nan,nan,nan,0
25424000,25424000,0.63944775,0.654118,0.649889,0.64432335,nan,nan,nan,nan,nan,nan,nan,nan,0
25524000,25524000,0.62074447,0.6473749,0.6322454,0.6364618,nan,nan,nan,nan,nan,nan,nan,nan,0
25628000,25628000,0.6805528,0.64562213,0.6660811,0.6589994,nan,nan,nan,nan,nan,nan,nan,nan,0
25728000,25728000,0.7066136,0.67864376,0.70008594,0.6856182,nan,nan,nan,nan,nan,nan,nan,nan,0
25828000,25828000,0.70348173,0.72131616,0.71649384,0.7119607,nan,nan,nan,nan,nan,nan,nan,nan,0
25928000,25928000,0.70672566,0.743198,0.72355807,0.7290039,nan,nan,nan,nan,nan,nan,nan,nan,0
26028000,26028000,0.7573687,0.7169011,0.7406089,0.7347163,nan,nan,nan,nan,nan,nan,nan,nan,0
26124000,26124000,0.758744,0.72633654,0.751396,0.7366506,nan,nan,nan,nan,nan,nan,nan,nan,0
26228000,26228000,0.7195876,0.7435465,0.73617893,0.7341286,nan,nan,nan,nan,nan,nan,nan,nan,0
26328000,26328000,0.70182115,0.73994607,0.72435653,0.7269906,nan,nan,nan,nan,nan,nan,nan,nan,0
26428000,26428000,0.736846,0.7109468,0.7267297,0.72486436,nan,nan,nan,nan,nan,nan,nan,nan,0
26524000,26524000,0.7506716,0.72519743,0.74359405,0.7336719,nan,nan,nan,nan,nan,nan,nan,nan,0
26624000,26624000,0.727586,0.7361314,0.73711234,0.7308004,nan,nan,nan,nan,nan,nan,nan,nan,0
26728000,26728000,0.7130493,0.7290227,0.7230967,0.72056466,nan,nan,nan,nan,nan,nan,nan,nan,0
26828000,26828000,0.73077494,0.71353555,0.7245327,0.72278124,nan,nan,nan,nan,nan,nan,nan,nan,0
26928000,26928000,0.7451358,0.73101807,0.74078465,0.7351339,nan,nan,nan,nan,nan,nan,nan,nan,0
27028000,27028000,0.734011,0.72946894,0.73670447,0.726021,nan,nan,nan,nan,nan,nan,nan,nan,0
27128000,27128000,0.7227367,0.7173842,0.72572327,0.7168386,nan,nan,nan,nan,nan,nan,nan,nan,0
27228000,27228000,0.7234091,0.7171501,0.72482926,0.71948755,nan,nan,nan,nan,nan,nan,nan,nan,0
27328000,27328000,0.74389744,0.7316774,0.7431107,0.7353776,nan,nan,nan,nan,nan,nan,nan,nan,0
27428000,27428000,0.7434536,0.72294116,0.7377209,0.72680515,nan,nan,nan,nan,nan,nan,nan,nan,0
27528000,27528000,0.73311496,0.70942676,0.72793454,0.71490186,nan,nan,nan,nan,nan,nan,nan,nan,0
27628000,27628000,0.7233377,0.7225488,0.727189,0.7173962,nan,nan,nan,nan,nan,nan,nan,nan,0
27728000,27728000,0.74455523,0.7345011,0.74384123,0.7372021,nan,nan,nan,nan,nan,nan,nan,nan,0
27824000,27824000,0.7489481,0.7199338,0.74086314,0.7286471,nan,nan,nan,nan,nan,nan,nan,nan,0
27928000,27928000,0.7398845,0.70917004,0.7298735,0.71989906,nan,nan,nan,nan,nan,nan,nan,nan,0
28028000,28028000,0.72113913,0.7286424,0.72772586,0.71955466,nan,nan,nan,nan,nan,nan,nan,nan,0
28124000,28124000,0.7420626,0.7405149,0.74146026,0.7403058,nan,nan,nan,nan,nan,nan,nan,nan,0
28228000,28228000,0.7496785,0.7212903,0.74095744,0.7291534,nan,nan,nan,nan,nan,nan,nan,nan,0
28328000,28328000,0.74446434,0.710647,0.734763,0.720295,nan,nan,nan,nan,nan,nan,nan,nan,0
28428000,28428000,0.72171885,0.7359193,0.7292166,0.7244619,nan,nan,nan,nan,nan,nan,nan,nan,0
28528000,28528000,0.7441342,0.74392694,0.7448487,0.74356514,nan,nan,nan,nan,nan,nan,nan,nan,0
28628000,28628000,0.75297886,0.7241165,0.7437426,0.73312724,nan,nan,nan,nan,nan,nan,nan,nan,0
28728000,28728000,0.7504739,0.71316475,0.73992443,0.7241281,nan,nan,nan,nan,nan,nan,nan,nan,0
28828000,28828000,0.725957,0.7403324,0.73591554,0.72998524,nan,nan,nan,nan,nan,nan,nan,nan,0
28928000,28928000,0.7456231,0.7482183,0.7485225,0.7441766,nan,nan,nan,nan,nan,nan,nan,nan,0
29028000,29028000,0.7583005,0.7271951,0.746311,0.7373056,nan,nan,nan,nan,nan,nan,nan,nan,0
29128000,29128000,0.7550458,0.7170914,0.7430346,0.73063475,nan,nan,nan,nan,nan,nan,nan,nan,0
29228000,29228000,0.7261811,0.74662083,0.7382915,0.73400974,nan,nan,nan,nan,nan,nan,nan,nan,0
29324000,29324000,0.73868066,0.75089633,0.7456909,0.74320006,nan,nan,nan,nan,nan,nan,nan,nan,0
29424000,29424000,0.7530071,0.72879744,0.7458219,0.7380711,nan,nan,nan,nan,nan,nan,nan,nan,0
29528000,29528000,0.7559111,0.71688473,0.74445593,0.7298732,nan,nan,nan,nan,nan,nan,nan,nan,0
29624000,29624000,0.7269013,0.7464215,0.74104947,0.73539984,nan,nan,nan,nan,nan,nan,nan,nan,0
29728000,29728000,0.7384916,0.7476153,0.744063,0.7424706,nan,nan,nan,nan,nan,nan,nan,nan,0
29828000,29828000,0.75340796,0.7280654,0.7448486,0.7365637,nan,nan,nan,nan,nan,nan,nan,nan,0
29924000,29924000,0.75668955,0.7181687,0.74386936,0.73363376,nan,nan,nan,nan,nan,nan,nan,nan,0
30028000,30028000,0.7131907,0.75459796,0.73511565,0.7332477,nan,nan,nan,nan,nan,nan,nan,nan,0
30124000,30124000,0.7067456,0.7384859,0.71990997,0.72503054,nan,nan,nan,nan,nan,nan,nan,nan,0
30224000,30224000,0.72981304,0.69966024,0.7188294,0.7092291,nan,nan,nan,nan,nan,nan,nan,nan,0
30328000,30328000,0.7310922,0.6868566,0.71859276,0.70272756,nan,nan,nan,nan,nan,nan,nan,nan,0
30428000,30428000,0.7026902,0.7139907,0.7141109,0.7030748,nan,nan,nan,nan,nan,nan,nan,nan,0
30528000,30528000,0.700224,0.7147673,0.70602304,0.7079888,nan,nan,nan,nan,nan,nan,nan,nan,0
30628000,30628000,0.7138804,0.6987192,0.70871556,0.70518905,nan,nan,nan,nan,nan,nan,nan,nan,0
30724000,30724000,0.7221292,0.69067377,0.7128882,0.7035489,nan,nan,nan,nan,nan,nan,nan,nan,0
30828000,30828000,0.7019736,0.7134857,0.71154594,0.7051948,nan,nan,nan,nan,nan,nan,nan,nan,0
30928000,30928000,0.7010471,0.71156067,0.70744914,0.70516175,nan,nan,nan,nan,nan,nan,nan,nan,0
31028000,31028000,0.71357745,0.6979903,0.7079549,0.7059936,nan,nan,nan,nan,nan,nan,nan,nan,0
31128000,31128000,0.71914977,0.69505763,0.7134893,0.7034698,nan,nan,nan,nan,nan,nan,nan,nan,0
31228000,31228000,0.7066143,0.7102343,0.71196413,0.70541525,nan,nan,nan,nan,nan,nan,nan,nan,0
31328000,31328000,0.69910294,0.7122132,0.70622337,0.7060379,nan,nan,nan,nan,nan,nan,nan,nan,0
31428000,31428000,0.71008235,0.7020967,0.70746213,0.705073,nan,nan,nan,nan,nan,nan,nan,nan,0
31528000,31528000,0.7182993,0.6980027,0.71440095,0.7030573,nan,nan,nan,nan,nan,nan,nan,nan,0
31628000,31628000,0.70227885,0.71121615,0.70998317,0.7062535,nan,nan,nan,nan,nan,nan,nan,nan,0
31724000,31724000,0.69882697,0.7072337,0.7039475,0.70249397,nan,nan,nan,nan,nan,nan,nan,nan,0
31828000,31828000,0.7071056,0.6983681,0.7062239,0.7019657,nan,nan,nan,nan,nan,nan,nan,nan,0
31928000,31928000,0.7136869,0.6995261,0.7120069,0.7039494,nan,nan,nan,nan,nan,nan,nan,nan,0
32028000,32028000,0.7008231,0.7101159,0.7087179,0.7034627,nan,nan,nan,nan,nan,nan,nan,nan,0
32128000,32128000,0.69707865,0.7036407,0.70245284,0.6996039,nan,nan,nan,nan,nan,nan,nan,nan,0
32228000,32228000,0.7045624,0.6974901,0.705074,0.69974726,nan,nan,nan,nan,nan,nan,nan,nan,0
32324000,32324000,0.7125864,0.70092446,0.70940614,0.7027895,nan,nan,nan,nan,nan,nan,nan,nan,0
32428000,32428000,0.70214456,0.7090613,0.70856935,0.70182925,nan,nan,nan,nan,nan,nan,nan,nan,0
32528000,32528000,0.6969112,0.70360374,0.7020263,0.6976065,nan,nan,nan,nan,nan,nan,nan,nan,0
32628000,32628000,0.7040427,0.69889796,0.70544875,0.699461,nan,nan,nan,nan,nan,nan,nan,nan,0
32728000,32728000,0.7113544,0.69966054,0.7115223,0.7029504,nan,nan,nan,nan,nan,nan,nan,nan,0
32828000,32828000,0.70365113,0.70752585,0.70902395,0.70179313,nan,nan,nan,nan,nan,nan,nan,nan,0
32924000,32924000,0.697423,0.7010187,0.70145124,0.69694227,nan,nan,nan,nan,nan,nan,nan,nan,0
33024000,33024000,0.7056112,0.6975939,0.70361555,0.69899356,nan,nan,nan,nan,nan,nan,nan,nan,0
33128000,33128000,0.7108468,0.70088565,0.70898265,0.7031134,nan,nan,nan,nan,nan,nan,nan,nan,0
33228000,33228000,0.7031719,0.70553255,0.70868844,0.7014283,nan,nan,nan,nan,nan,nan,nan,nan,0
33328000,33328000,0.6959985,0.6987522,0.6999399,0.6960229,nan,nan,nan,nan,nan,nan,nan,nan,0
33424000,33424000,0.70312524,0.69701153,0.7027896,0.69533217,nan,nan,nan,nan,nan,nan,nan,nan,0
33524000,33524000,0.70987004,0.7000372,0.7081099,0.70193106,nan,nan,nan,nan,nan,nan,nan,nan,0
33628000,33628000,0.70501435,0.70451784,0.7092729,0.70089775,nan,nan,nan,nan,nan,nan,nan,nan,0
33724000,33724000,0.6979222,0.7000528,0.7007973,0.6968145,nan,nan,nan,nan,nan,nan,nan,nan,0
33824000,33824000,0.7030302,0.6990105,0.7035527,0.69934726,nan,nan,nan,nan,nan,nan,nan,nan,0
33924000,33924000,0.71065056,0.7035361,0.7097233,0.7030921,nan,nan,nan,nan,nan,nan,nan,nan,0
34028000,34028000,0.7062939,0.70435697,0.7090173,0.70187557,nan,nan,nan,nan,nan,nan,nan,nan,0
34128000,34128000,0.6966747,0.69643956,0.700604,0.6950257,nan,nan,nan,nan,nan,nan,nan,nan,0
34228000,34228000,0.7037992,0.69554293,0.7022916,0.6954945,nan,nan,nan,nan,nan,nan,nan,nan,0
34328000,34328000,0.70877826,0.69926983,0.70833635,0.70033485,nan,nan,nan,nan,nan,nan,nan,nan,0
34428000,34428000,0.70544213,0.70307535,0.70691544,0.7023197,nan,nan,nan,nan,nan,nan,nan,nan,0
34528000,34528000,0.699285,0.69786435,0.701149,0.69539094,nan,nan,nan,nan,nan,nan,nan,nan,0
34628000,34628000,0.7041093,0.6992298,0.7026829,0.69776547,nan,nan,nan,nan,nan,nan,nan,nan,0
34724000,34724000,0.71010953,0.70146906,0.7096627,0.702869,nan,nan,nan,nan,nan,nan,nan,nan,0
34828000,34828000,0.70714724,0.7050183,0.7091594,0.7012733,nan,nan,nan,nan,nan,nan,nan,nan,0
34924000,34924000,0.69952893,0.6996807,0.70146525,0.697845,nan,nan,nan,nan,nan,nan,nan,nan,0
35028000,35028000,0.7051424,0.6982942,0.7045537,0.6994969,nan,nan,nan,nan,nan,nan,nan,nan,0
35128000,35128000,0.7108369,0.70274645,0.71016055,0.70464337,nan,nan,nan,nan,nan,nan,nan,nan,0
35228000,35228000,0.7072755,0.70683295,0.71043265,0.7039208,nan,nan,nan,nan,nan,nan,nan,nan,0
35328000,35328000,0.7034401,0.698747,0.70552135,0.698827,nan,nan,nan,nan,nan,nan,nan,nan,0
35428000,35428000,0.70738643,0.70076203,0.7056694,0.7010544,nan,nan,nan,nan,nan,nan,nan,nan,0
35528000,35528000,0.71272415,0.7034805,0.71188384,0.7056358,nan,nan,nan,nan,nan,nan,nan,nan,0
35628000,35628000,0.709773,0.7057747,0.7126691,0.7036473,nan,nan,nan,nan,nan,nan,nan,nan,0
35728000,35728000,0.7047118,0.700521,0.7061484,0.69910276,nan,nan,nan,nan,nan,nan,nan,nan,0
35828000,35828000,0.7075958,0.70186055,0.706585,0.70281225,nan,nan,nan,nan,nan,nan,nan,nan,0
35924000,35924000,0.71302646,0.704656,0.71227735,0.7051668,nan,nan,nan,nan,nan,nan,nan,nan,0
36024000,36024000,0.7129369,0.70557183,0.7119442,0.7053904,nan,nan,nan,nan,nan,nan,nan,nan,0
36128000,36128000,0.7041166,0.6995717,0.7058245,0.69987416,nan,nan,nan,nan,nan,nan,nan,nan,0
36228000,36228000,0.70775527,0.70117766,0.70645976,0.70114064,nan,nan,nan,nan,nan,nan,nan,nan,0
36324000,36324000,0.7116486,0.705279,0.7107517,0.70578843,nan,nan,nan,nan,nan,nan,nan,nan,0
36424000,36424000,0.71194756,0.7058959,0.7118099,0.7047194,nan,nan,nan,nan,nan,nan,nan,nan,0
36524000,36524000,0.7064137,0.7002503,0.7075114,0.7012471,nan,nan,nan,nan,nan,nan,nan,nan,0
36628000,36628000,0.7082657,0.70366246,0.7101215,0.7015902,nan,nan,nan,nan,nan,nan,nan,nan,0
36728000,36728000,0.712865,0.7065245,0.71206397,0.70661384,nan,nan,nan,nan,nan,nan,nan,nan,0
36828000,36828000,0.71205574,0.7068698,0.71254265,0.70729864,nan,nan,nan,nan,nan,nan,nan,nan,0
36924000,36924000,0.7083582,0.7019716,0.7085675,0.7031094,nan,nan,nan,nan,nan,nan,nan,nan,0
37024000,37024000,0.71021897,0.7033279,0.7110699,0.70413864,nan,nan,nan,nan,nan,nan,nan,nan,0
37128000,37128000,0.7127297,0.7094875,0.713493,0.7079392,nan,nan,nan,nan,nan,nan,nan,nan,0
37228000,37228000,0.71415204,0.70804185,0.7133431,0.70758957,nan,nan,nan,nan,nan,nan,nan,nan,0
37328000,37328000,0.7102661,0.7041578,0.70956427,0.7034821,nan,nan,nan,nan,nan,nan,nan,nan,0
37428000,37428000,0.7097926,0.7069985,0.7111895,0.7048653,nan,nan,nan,nan,nan,nan,nan,nan,0
37524000,37524000,0.7136062,0.7082771,0.7146294,0.70703083,nan,nan,nan,nan,nan,nan,nan,nan,0
37628000,37628000,0.7154968,0.7058227,0.7143167,0.7064792,nan,nan,nan,nan,nan,nan,nan,nan,0
37724000,37724000,0.70979697,0.7035373,0.70982444,0.70293045,nan,nan,nan,nan,nan,nan,nan,nan,0
37824000,37824000,0.7094605,0.7066431,0.71022743,0.70390326,nan,nan,nan,nan,nan,nan,nan,nan,0
37928000,37928000,0.7115604,0.7096417,0.7126017,0.70821404,nan,nan,nan,nan,nan,nan,nan,nan,0
38028000,38028000,0.71473944,0.7054819,0.71423376,0.70535696,nan,nan,nan,nan,nan,nan,nan,nan,0
38128000,38128000,0.70974004,0.7022193,0.7097207,0.7024119,nan,nan,nan,nan,nan,nan,nan,nan,0
38228000,38228000,0.71077543,0.70482206,0.71033573,0.7052035,nan,nan,nan,nan,nan,nan,nan,nan,0
38328000,38328000,0.71334803,0.708501,0.7133806,0.7078302,nan,nan,nan,nan,nan,nan,nan,nan,0
38428000,38428000,0.713378,0.70632225,0.71438485,0.7067755,nan,nan,nan,nan,nan,nan,nan,nan,0
38528000,38528000,0.71115685,0.7026344,0.7107672,0.70327663,nan,nan,nan,nan,nan,nan,nan,nan,0
38628000,38628000,0.71008,0.70662093,0.71019405,0.70605844,nan,nan,nan,nan,nan,nan,nan,nan,0
38728000,38728000,0.7120521,0.7097432,0.71275985,0.7077519,nan,nan,nan,nan,nan,nan,nan,nan,0
38828000,38828000,0.71552694,0.7062778,0.71432996,0.7074742,nan,nan,nan,nan,nan,nan,nan,nan,0
38928000,38928000,0.7125467,0.7041943,0.7124781,0.7046806,nan,nan,nan,nan,nan,nan,nan,nan,0
39024000,39024000,0.7117903,0.7068692,0.71308476,0.7077342,nan,nan,nan,nan,nan,nan,nan,nan,0
39128000,39128000,0.71433157,0.70871127,0.7152031,0.70908344,nan,nan,nan,nan,nan,nan,nan,nan,0
39228000,39228000,0.71467274,0.7068681,0.7133268,0.7080951,nan,nan,nan,nan,nan,nan,nan,nan,0
39328000,39328000,0.71002954,0.702096,0.7095648,0.7030563,nan,nan,nan,nan,nan,nan,nan,nan,0
39424000,39424000,0.7097809,0.7032813,0.710591,0.7030077,nan,nan,nan,nan,nan,nan,nan,nan,0
39528000,39528000,0.7103399,0.7081126,0.71085995,0.7065118,nan,nan,nan,nan,nan,nan,nan,nan,0
39628000,39628000,0.7144822,0.70354426,0.71288216,0.7064425,nan,nan,nan,nan,nan,nan,nan,nan,0
39728000,39728000,0.71231586,0.7014334,0.7122999,0.7013985,nan,nan,nan,nan,nan,nan,nan,nan,0
39828000,39828000,0.7111517,0.705759,0.7126214,0.70415425,nan,nan,nan,nan,nan,nan,nan,nan,0
39928000,39928000,0.7114317,0.70978254,0.7115564,0.70803374,nan,nan,nan,nan,nan,nan,nan,nan,0
40028000,40028000,0.7134368,0.7067451,0.71284837,0.7079753,nan,nan,nan,nan,nan,nan,nan,nan,0
40128000,40128000,0.71196944,0.7026669,0.711128,0.70535594,nan,nan,nan,nan,nan,nan,nan,nan,0
40228000,40228000,0.70999205,0.7061905,0.711981,0.7056818,nan,nan,nan,nan,nan,nan,nan,nan,0
40328000,40328000,0.71225744,0.7078906,0.71313936,0.70735455,nan,nan,nan,nan,nan,nan,nan,nan,0
40424000,40424000,0.7128603,0.7070851,0.71322924,0.7073279,nan,nan,nan,nan,nan,nan,nan,nan,0
40528000,40528000,0.7130528,0.70294476,0.71077955,0.7044175,nan,nan,nan,nan,nan,nan,nan,nan,0
40628000,40628000,0.71108085,0.7062951,0.7122581,0.7056018,nan,nan,nan,nan,nan,nan,nan,nan,0
40728000,40728000,0.71153325,0.70939463,0.71310776,0.70804423,nan,nan,nan,nan,nan,nan,nan,nan,0
40828000,40828000,0.71569127,0.7059313,0.7139256,0.70705837,nan,nan,nan,nan,nan,nan,nan,nan,0
40928000,40928000,0.71113354,0.70390135,0.7106732,0.70575523,nan,nan,nan,nan,nan,nan,nan,nan,0
41028000,41028000,0.7100062,0.7053093,0.71040416,0.706829,nan,nan,nan,nan,nan,nan,nan,nan,0
41128000,41128000,0.7113855,0.7076626,0.71289045,0.7062902,nan,nan,nan,nan,nan,nan,nan,nan,0
41224000,41224000,0.7138324,0.7051599,0.7127297,0.70621204,nan,nan,nan,nan,nan,nan,nan,nan,0
41328000,41328000,0.7114456,0.7030785,0.7093858,0.70385146,nan,nan,nan,nan,nan,nan,nan,nan,0
41424000,41424000,0.7093364,0.7052121,0.7107294,0.7053364,nan,nan,nan,nan,nan,nan,nan,nan,0
41528000,41528000,0.71115047,0.7075931,0.71138924,0.70635045,nan,nan,nan,nan,nan,nan,nan,nan,0
41628000,41628000,0.7123045,0.7063288,0.71257454,0.7053915,nan,nan,nan,nan,nan,nan,nan,nan,0
41724000,41724000,0.71255076,0.7021518,0.71073306,0.7046771,nan,nan,nan,nan,nan,nan,nan,nan,0
41824000,41824000,0.71099627,0.70487386,0.71166825,0.70431906,nan,nan,nan,nan,nan,nan,nan,nan,0
41928000,41928000,0.71119165,0.7070061,0.7134451,0.7056758,nan,nan,nan,nan,nan,nan,nan,nan,0
42028000,42028000,0.71307415,0.7045933,0.7126595,0.7055021,nan,nan,nan,nan,nan,nan,nan,nan,0
42128000,42128000,0.7119819,0.701322,0.7103385,0.7034288,nan,nan,nan,nan,nan,nan,nan,nan,0
42228000,42228000,0.7092867,0.70461863,0.7097076,0.7051832,nan,nan,nan,nan,nan,nan,nan,nan,0
42328000,42328000,0.7090572,0.7078198,0.7102825,0.7067614,nan,nan,nan,nan,nan,nan,nan,nan,0
42428000,42428000,0.7118537,0.704552,0.7114624,0.7056147,nan,nan,nan,nan,nan,nan,nan,nan,0
42524000,42524000,0.7098966,0.7023609,0.7087409,0.7037601,nan,nan,nan,nan,nan,nan,nan,nan,0
42628000,42628000,0.70990473,0.7032563,0.7095202,0.7040061,nan,nan,nan,nan,nan,nan,nan,nan,0
42728000,42728000,0.71022516,0.7064426,0.71142656,0.7042934,nan,nan,nan,nan,nan,nan,nan,nan,0
42824000,42824000,0.7122475,0.70447505,0.7115034,0.70533717,nan,nan,nan,nan,nan,nan,nan,nan,0
42924000,42924000,0.710811,0.7020837,0.710538,0.70210755,nan,nan,nan,nan,nan,nan,nan,nan,0
43024000,43024000,0.709462,0.7047207,0.70919335,0.70377576,nan,nan,nan,nan,nan,nan,nan,nan,0
43128000,43128000,0.7097303,0.70655674,0.7116364,0.70516443,nan,nan,nan,nan,nan,nan,nan,nan,0
43228000,43228000,0.71153873,0.7049288,0.7117358,0.70586663,nan,nan,nan,nan,nan,nan,nan,nan,0
43328000,43328000,0.7120644,0.70107704,0.7116599,0.70191985,nan,nan,nan,nan,nan,nan,nan,nan,0
43428000,43428000,0.7097463,0.70304465,0.7112197,0.7046367,nan,nan,nan,nan,nan,nan,nan,nan,0
43528000,43528000,0.70983446,0.70586663,0.7114492,0.70541453,nan,nan,nan,nan,nan,nan,nan,nan,0
43628000,43628000,0.7129706,0.7040422,0.70986706,0.7052718,nan,nan,nan,nan,nan,nan,nan,nan,0
43728000,43728000,0.70935655,0.7022435,0.7099868,0.70321745,nan,nan,nan,nan,nan,nan,nan,nan,0
43828000,43828000,0.7093624,0.70291966,0.7104834,0.7036761,nan,nan,nan,nan,nan,nan,nan,nan,0
43924000,43924000,0.71129763,0.7046831,0.70946926,0.7059506,nan,nan,nan,nan,nan,nan,nan,nan,0
44024000,44024000,0.71160686,0.70523554,0.71172476,0.70447785,nan,nan,nan,nan,nan,nan,nan,nan,0
44128000,44128000,0.7104338,0.70295954,0.70980203,0.7035993,nan,nan,nan,nan,nan,nan,nan,nan,0
44228000,44228000,0.7101922,0.704903,0.7101858,0.70470124,nan,nan,nan,nan,nan,nan,nan,nan,0
44328000,44328000,0.7109166,0.70679504,0.71250355,0.7049711,nan,nan,nan,nan,nan,nan,nan,nan,0
44428000,44428000,0.71294564,0.7029638,0.7123701,0.704631,nan,nan,nan,nan,nan,nan,nan,nan,0
44528000,44528000,0.71056217,0.7024899,0.7097134,0.70311576,nan,nan,nan,nan,nan,nan,nan,nan,0
44628000,44628000,0.7108523,0.7038235,0.71077216,0.7034855,nan,nan,nan,nan,nan,nan,nan,nan,0
44724000,44724000,0.7104151,0.70492476,0.7101464,0.7063802,nan,nan,nan,nan,nan,nan,nan,nan,0
44828000,44828000,0.7114077,0.70533866,0.7095956,0.7052639,nan,nan,nan,nan,nan,nan,nan,nan,0
44924000,44924000,0.7106269,0.70219785,0.7097587,0.7033426,nan,nan,nan,nan,nan,nan,nan,nan,0
45028000,45028000,0.71117353,0.70368797,0.70911956,0.7041723,nan,nan,nan,nan,nan,nan,nan,nan,0
45128000,45128000,0.7101672,0.7048114,0.71124655,0.7063363,nan,nan,nan,nan,nan,nan,nan,nan,0
45228000,45228000,0.7114602,0.70433384,0.71078444,0.7048198,nan,nan,nan,nan,nan,nan,nan,nan,0
45328000,45328000,0.70997256,0.70313305,0.70998585,0.7029958,nan,nan,nan,nan,nan,nan,nan,nan,0
45428000,45428000,0.7106035,0.70342886,0.7102127,0.70398986,nan,nan,nan,nan,nan,nan,nan,nan,0
45528000,45528000,0.7109188,0.70526356,0.7102785,0.7066073,nan,nan,nan,nan,nan,nan,nan,nan,0
45628000,45628000,0.7113211,0.70452255,0.711558,0.7045831,nan,nan,nan,nan,nan,nan,nan,nan,0
45724000,45724000,0.7100085,0.7035087,0.7094005,0.70317936,nan,nan,nan,nan,nan,nan,nan,nan,0
45824000,45824000,0.7105421,0.7036697,0.7099747,0.7034204,nan,nan,nan,nan,nan,nan,nan,nan,0
45928000,45928000,0.71013397,0.70640826,0.70925254,0.7054452,nan,nan,nan,nan,nan,nan,nan,nan,0
46028000,46028000,0.7123774,0.7037921,0.7118728,0.70376647,nan,nan,nan,nan,nan,nan,nan,nan,0
46128000,46128000,0.7101002,0.701982,0.7093801,0.70387083,nan,nan,nan,nan,nan,nan,nan,nan,0
46228000,46228000,0.7095661,0.70370716,0.70957357,0.70448303,nan,nan,nan,nan,nan,nan,nan,nan,0
46328000,46328000,0.7118131,0.70502704,0.71024084,0.70418066,nan,nan,nan,nan,nan,nan,nan,nan,0
46428000,46428000,0.71108425,0.70537364,0.71150875,0.7049744,nan,nan,nan,nan,nan,nan,nan,nan,0
46524000,46524000,0.71092933,0.7042453,0.71042365,0.7048825,nan,nan,nan,nan,nan,nan,nan,nan,0
46624000,46624000,0.71089333,0.705659,0.71164405,0.703179,nan,nan,nan,nan,nan,nan,nan,nan,0
46724000,46724000,0.7098638,0.70624864,0.7112728,0.7061648,nan,nan,nan,nan,nan,nan,nan,nan,0
46828000,46828000,0.7109476,0.7044339,0.7112934,0.70468974,nan,nan,nan,nan,nan,nan,nan,nan,0
46928000,46928000,0.7098603,0.7010175,0.7111915,0.70162493,nan,nan,nan,nan,nan,nan,nan,nan,0
47028000,47028000,0.7082348,0.7027211,0.7084594,0.70306873,nan,nan,nan,nan,nan,nan,nan,nan,0
47124000,47124000,0.70865154,0.7039012,0.7094094,0.70442575,nan,nan,nan,nan,nan,nan,nan,nan,0
47228000,47228000,0.7099704,0.7036431,0.70961446,0.70518506,nan,nan,nan,nan,nan,nan,nan,nan,0
47328000,47328000,0.7098559,0.7030329,0.708729,0.7036082,nan,nan,nan,nan,nan,nan,nan,nan,0
47428000,47428000,0.7110212,0.70324314,0.7099733,0.70378226,nan,nan,nan,nan,nan,nan,nan,nan,0
47528000,47528000,0.7102804,0.70578104,0.71042883,0.70558006,nan,nan,nan,nan,nan,nan,nan,nan,0
47628000,47628000,0.7112632,0.7056419,0.71115345,0.70433486,nan,nan,nan,nan,nan,nan,nan,nan,0
47728000,47728000,0.7107258,0.70299494,0.71045876,0.70317423,nan,nan,nan,nan,nan,nan,nan,nan,0
47828000,47828000,0.70949984,0.70542645,0.7097238,0.70579046,nan,nan,nan,nan,nan,nan,nan,nan,0
47928000,47928000,0.7107428,0.70592695,0.71084887,0.70572907,nan,nan,nan,nan,nan,nan,nan,nan,0
48028000,48028000,0.7095384,0.7054491,0.71045804,0.7050808,nan,nan,nan,nan,nan,nan,nan,nan,0
48128000,48128000,0.70974773,0.7024272,0.7089159,0.70387393,nan,nan,nan,nan,nan,nan,nan,nan,0
48228000,48228000,0.70822954,0.70408875,0.71001744,0.7023434,nan,nan,nan,nan,nan,nan,nan,nan,0
48328000,48328000,0.70975775,0.70449185,0.71100837,0.7038913,nan,nan,nan,nan,nan,nan,nan,nan,0
48428000,48428000,0.71061885,0.70623577,0.71011347,0.7039955,nan,nan,nan,nan,nan,nan,nan,nan,0
48528000,48528000,0.7096567,0.7034888,0.70934963,0.7044716,nan,nan,nan,nan,nan,nan,nan,nan,0
48628000,48628000,0.7105851,0.70433706,0.70987236,0.7056951,nan,nan,nan,nan,nan,nan,nan,nan,0
48724000,48724000,0.7114456,0.7049382,0.71126264,0.706388,nan,nan,nan,nan,nan,nan,nan,nan,0
48824000,48824000,0.71051645,0.705907,0.7119122,0.70573765,nan,nan,nan,nan,nan,nan,nan,nan,0
48928000,48928000,0.71085685,0.7054612,0.7101052,0.7049993,nan,nan,nan,nan,nan,nan,nan,nan,0
49028000,49028000,0.7110988,0.7055688,0.71097857,0.7043331,nan,nan,nan,nan,nan,nan,nan,nan,0
49128000,49128000,0.711544,0.7044435,0.71216536,0.7051146,nan,nan,nan,nan,nan,nan,nan,nan,0
49228000,49228000,0.7110746,0.70502114,0.71177614,0.7045368,nan,nan,nan,nan,nan,nan,nan,nan,0
49328000,49328000,0.71034664,0.70360714,0.71051943,0.70384634,nan,nan,nan,nan,nan,nan,nan,nan,0
49424000,49424000,0.70998156,0.7047815,0.7111126,0.7043167,nan,nan,nan,nan,nan,nan,nan,nan,0
49528000,49528000,0.7119918,0.70526826,0.71143144,0.7059042,nan,nan,nan,nan,nan,nan,nan,nan,0
49628000,49628000,0.71260285,0.704475,0.7115243,0.7046288,nan,nan,nan,nan,nan,nan,nan,nan,0
49728000,49728000,0.7110814,0.702492,0.70970243,0.7044987,nan,nan,nan,nan,nan,nan,nan,nan,0
49828000,49828000,0.71070766,0.7037088,0.7104589,0.7037963,nan,nan,nan,nan,nan,nan,nan,nan,0
49924000,49924000,0.7108162,0.7054456,0.710416,0.70569676,nan,nan,nan,nan,nan,nan,nan,nan,0
50028000,50028000,0.7234366,0.69899815,0.714683,0.7068788,nan,nan,nan,nan,nan,nan,nan,nan,0
50128000,50128000,0.7305073,0.71312726,0.72581935,0.7168409,nan,nan,nan,nan,nan,nan,nan,nan,0
50224000,50224000,0.7294911,0.7264168,0.7325461,0.7238666,nan,nan,nan,nan,nan,nan,nan,nan,0
50324000,50324000,0.72948205,0.73155284,0.73275054,0.72973347,nan,nan,nan,nan,nan,nan,nan,nan,0
50428000,50428000,0.72871906,0.73167175,0.7321175,0.7280151,nan,nan,nan,nan,nan,nan,nan,nan,0
50528000,50528000,0.72826403,0.7245929,0.7288114,0.7245056,nan,nan,nan,nan,nan,nan,nan,nan,0
50628000,50628000,0.7323481,0.7225335,0.73057264,0.72377694,nan,nan,nan,nan,nan,nan,nan,nan,0
50728000,50728000,0.7349822,0.72462916,0.7322716,0.7259489,nan,nan,nan,nan,nan,nan,nan,nan,0
50824000,50824000,0.72475386,0.73033357,0.7297043,0.72503024,nan,nan,nan,nan,nan,nan,nan,nan,0
50928000,50928000,0.7215085,0.7206742,0.7239983,0.7185393,nan,nan,nan,nan,nan,nan,nan,nan,0
51028000,51028000,0.727599,0.7163979,0.72666556,0.71850985,nan,nan,nan,nan,nan,nan,nan,nan,0
51128000,51128000,0.73220706,0.71815,0.73040384,0.72044295,nan,nan,nan,nan,nan,nan,nan,nan,0
51228000,51228000,0.71892226,0.72509617,0.72474104,0.72066605,nan,nan,nan,nan,nan,nan,nan,nan,0
51328000,51328000,0.7122727,0.7137869,0.7146663,0.71426505,nan,nan,nan,nan,nan,nan,nan,nan,0
51428000,51428000,0.7223496,0.70801646,0.7183488,0.7102873,nan,nan,nan,nan,nan,nan,nan,nan,0
51528000,51528000,0.72915465,0.7088341,0.7222351,0.7148694,nan,nan,nan,nan,nan,nan,nan,nan,0
51624000,51624000,0.7129389,0.7185452,0.71830773,0.7142092,nan,nan,nan,nan,nan,nan,nan,nan,0
51728000,51728000,0.70481294,0.7076625,0.7078592,0.70423406,nan,nan,nan,nan,nan,nan,nan,nan,0
51828000,51828000,0.71558857,0.69947827,0.7105458,0.703313,nan,nan,nan,nan,nan,nan,nan,nan,0
51924000,51924000,0.72203016,0.70132595,0.71667075,0.7067191,nan,nan,nan,nan,nan,nan,nan,nan,0
52028000,52028000,0.70790976,0.7101887,0.71315765,0.7047651,nan,nan,nan,nan,nan,nan,nan,nan,0
52128000,52128000,0.6966505,0.7009926,0.6995698,0.6970097,nan,nan,nan,nan,nan,nan,nan,nan,0
52228000,52228000,0.707673,0.69252366,0.70396566,0.6956638,nan,nan,nan,nan,nan,nan,nan,nan,0
52328000,52328000,0.71572244,0.69362354,0.7111491,0.69903135,nan,nan,nan,nan,nan,nan,nan,nan,0
52428000,52428000,0.70135295,0.70440537,0.7051853,0.69845575,nan,nan,nan,nan,nan,nan,nan,nan,0
52524000,52524000,0.6904742,0.6918691,0.6923614,0.68883985,nan,nan,nan,nan,nan,nan,nan,nan,0
52624000,52624000,0.69820464,0.6859913,0.6937832,0.6897866,nan,nan,nan,nan,nan,nan,nan,nan,0
52724000,52724000,0.7070705,0.6883083,0.7018525,0.6936179,nan,nan,nan,nan,nan,nan,nan,nan,0
52824000,52824000,0.696621,0.6963105,0.6983848,0.6931342,nan,nan,nan,nan,nan,nan,nan,nan,0
52924000,52924000,0.68461096,0.6880726,0.6882565,0.68512243,nan,nan,nan,nan,nan,nan,nan,nan,0
53028000,53028000,0.6927541,0.68287545,0.69004637,0.68509585,nan,nan,nan,nan,nan,nan,nan,nan,0
53128000,53128000,0.6996595,0.6853466,0.6958528,0.6893368,nan,nan,nan,nan,nan,nan,nan,nan,0
53228000,53228000,0.6912283,0.6907572,0.6944157,0.68715316,nan,nan,nan,nan,nan,nan,nan,nan,0
53328000,53328000,0.68127114,0.683343,0.68489414,0.6786452,nan,nan,nan,nan,nan,nan,nan,nan,0
53428000,53428000,0.6871418,0.68173385,0.68572474,0.68232954,nan,nan,nan,nan,nan,nan,nan,nan,0
53528000,53528000,0.6935907,0.68533003,0.6924828,0.68773,nan,nan,nan,nan,nan,nan,nan,nan,0
53628000,53628000,0.6927929,0.6886551,0.6945245,0.68603903,nan,nan,nan,nan,nan,nan,nan,nan,0
53724000,53724000,0.6858877,0.6833735,0.6877638,0.68124,nan,nan,nan,nan,nan,nan,nan,nan,0
53824000,53824000,0.68683195,0.68807995,0.68865705,0.6865374,nan,nan,nan,nan,nan,nan,nan,nan,0
53924000,53924000,0.6941728,0.69215786,0.69544274,0.69100726,nan,nan,nan,nan,nan,nan,nan,nan,0
54028000,54028000,0.69828236,0.6912778,0.6966727,0.69277364,nan,nan,nan,nan,nan,nan,nan,nan,0
54128000,54128000,0.6927815,0.69108397,0.6950919,0.68789667,nan,nan,nan,nan,nan,nan,nan,nan,0
54228000,54228000,0.6932282,0.69413537,0.6966656,0.6933201,nan,nan,nan,nan,nan,nan,nan,nan,0
54328000,54328000,0.69638455,0.70077574,0.69927007,0.696305,nan,nan,nan,nan,nan,nan,nan,nan,0
54428000,54428000,0.7042645,0.6952621,0.70368433,0.6969366,nan,nan,nan,nan,nan,nan,nan,nan,0
54528000,54528000,0.7029476,0.6957616,0.7035035,0.69643396,nan,nan,nan,nan,nan,nan,nan,nan,0
54628000,54628000,0.6991266,0.7044356,0.7032127,0.69937223,nan,nan,nan,nan,nan,nan,nan,nan,0
54728000,54728000,0.6983236,0.70938873,0.7037739,0.70441145,nan,nan,nan,nan,nan,nan,nan,nan,0
54828000,54828000,0.71312416,0.6998271,0.7102386,0.70255864,nan,nan,nan,nan,nan,nan,nan,nan,0
54924000,54924000,0.71359146,0.70359886,0.7133121,0.70492345,nan,nan,nan,nan,nan,nan,nan,nan,0
55028000,55028000,0.7060689,0.7140925,0.71147144,0.70866513,nan,nan,nan,nan,nan,nan,nan,nan,0
55128000,55128000,0.70317936,0.7171975,0.7113963,0.70921266,nan,nan,nan,nan,nan,nan,nan,nan,0
55228000,55228000,0.722988,0.7048235,0.7165421,0.7094598,nan,nan,nan,nan,nan,nan,nan,nan,0
55324000,55324000,0.7245982,0.7114536,0.72334695,0.71399474,nan,nan,nan,nan,nan,nan,nan,nan,0
55428000,55428000,0.7123818,0.7219207,0.7224169,0.7162729,nan,nan,nan,nan,nan,nan,nan,nan,0
55528000,55528000,0.7058396,0.7257504,0.7163031,0.7182437,nan,nan,nan,nan,nan,nan,nan,nan,0
55628000,55628000,0.7299858,0.70923054,0.7237287,0.71578383,nan,nan,nan,nan,nan,nan,nan,nan,0
55728000,55728000,0.736305,0.7181236,0.7327373,0.7223895,nan,nan,nan,nan,nan,nan,nan,nan,0
55828000,55828000,0.719339,0.7314816,0.72928435,0.72394776,nan,nan,nan,nan,nan,nan,nan,nan,0
55928000,55928000,0.71046937,0.73123693,0.72225666,0.72353137,nan,nan,nan,nan,nan,nan,nan,nan,0
56028000,56028000,0.73716843,0.7121941,0.72810423,0.7218181,nan,nan,nan,nan,nan,nan,nan,nan,0
56128000,56128000,0.74318546,0.7241561,0.74015313,0.72852236,nan,nan,nan,nan,nan,nan,nan,nan,0
56228000,56228000,0.7247885,0.73654693,0.73352325,0.72921383,nan,nan,nan,nan,nan,nan,nan,nan,0
56328000,56328000,0.7131076,0.7350171,0.72571915,0.72449017,nan,nan,nan,nan,nan,nan,nan,nan,0
56428000,56428000,0.7401795,0.7145655,0.7313344,0.72463834,nan,nan,nan,nan,nan,nan,nan,nan,0
56524000,56524000,0.7499752,0.72652274,0.7464659,0.73309463,nan,nan,nan,nan,nan,nan,nan,nan,0
56624000,56624000,0.73115087,0.7394779,0.73975784,0.7335195,nan,nan,nan,nan,nan,nan,nan,nan,0
56728000,56728000,0.71648824,0.73681635,0.727685,0.72905725,nan,nan,nan,nan,nan,nan,nan,nan,0
56824000,56824000,0.74237055,0.71642244,0.7334591,0.72802144,nan,nan,nan,nan,nan,nan,nan,nan,0
56928000,56928000,0.7529251,0.7305355,0.749725,0.7349369,nan,nan,nan,nan,nan,nan,nan,nan,0
57028000,57028000,0.7327687,0.7412097,0.7400305,0.73639786,nan,nan,nan,nan,nan,nan,nan,nan,0
57128000,57128000,0.7168833,0.7375087,0.727448,0.73012465,nan,nan,nan,nan,nan,nan,nan,nan,0
57228000,57228000,0.7435019,0.7157023,0.73417413,0.7266623,nan,nan,nan,nan,nan,nan,nan,nan,0
57328000,57328000,0.7546393,0.7302537,0.74858963,0.7374341,nan,nan,nan,nan,nan,nan,nan,nan,0
57424000,57424000,0.73486006,0.74042803,0.7426569,0.7337276,nan,nan,nan,nan,nan,nan,nan,nan,0
57524000,57524000,0.7184755,0.7345243,0.7272155,0.72773886,nan,nan,nan,nan,nan,nan,nan,nan,0
57628000,57628000,0.7405486,0.715976,0.731566,0.7247998,nan,nan,nan,nan,nan,nan,nan,nan,0
57728000,57728000,0.7521548,0.7289148,0.74642056,0.7361295,nan,nan,nan,nan,nan,nan,nan,nan,0
57824000,57824000,0.733981,0.7365128,0.7385442,0.7324643,nan,nan,nan,nan,nan,nan,nan,nan,0
57928000,57928000,0.7207648,0.7289284,0.72550374,0.72511476,nan,nan,nan,nan,nan,nan,nan,nan,0
58028000,58028000,0.73796326,0.71332157,0.729815,0.7210775,nan,nan,nan,nan,nan,nan,nan,nan,0
58128000,58128000,0.7466212,0.727532,0.74248147,0.73230225,nan,nan,nan,nan,nan,nan,nan,nan,0
58228000,58228000,0.73303396,0.7310012,0.73776734,0.729553,nan,nan,nan,nan,nan,nan,nan,nan,0
58328000,58328000,0.7247042,0.72626686,0.72853905,0.7225733,nan,nan,nan,nan,nan,nan,nan,nan,0
58424000,58424000,0.73244816,0.718581,0.72987866,0.7225071,nan,nan,nan,nan,nan,nan,nan,nan,0
58528000,58528000,0.747052,0.7299913,0.7429774,0.73490673,nan,nan,nan,nan,nan,nan,nan,nan,0
58624000,58624000,0.74130297,0.7319292,0.7399191,0.73241657,nan,nan,nan,nan,nan,nan,nan,nan,0
58728000,58728000,0.73378533,0.72647965,0.73297954,0.7264995,nan,nan,nan,nan,nan,nan,nan,nan,0
58828000,58828000,0.73726606,0.7255707,0.73445976,0.72732437,nan,nan,nan,nan,nan,nan,nan,nan,0
58928000,58928000,0.74667805,0.73316807,0.744905,0.7374426,nan,nan,nan,nan,nan,nan,nan,nan,0
59028000,59028000,0.74581087,0.7326842,0.7418056,0.7348225,nan,nan,nan,nan,nan,nan,nan,nan,0
59128000,59128000,0.74065393,0.7253938,0.7382383,0.72849596,nan,nan,nan,nan,nan,nan,nan,nan,0
59228000,59228000,0.73648494,0.7300296,0.7383635,0.7305079,nan,nan,nan,nan,nan,nan,nan,nan,0
59328000,59328000,0.7451244,0.7327194,0.7435914,0.73585635,nan,nan,nan,nan,nan,nan,nan,nan,0
59428000,59428000,0.7465241,0.7298828,0.7419215,0.73236525,nan,nan,nan,nan,nan,nan,nan,nan,0
59528000,59528000,0.74626553,0.72408867,0.74032736,0.728824,nan,nan,nan,nan,nan,nan,nan,nan,0
59628000,59628000,0.7341244,0.73358595,0.7358614,0.73115635,nan,nan,nan,nan,nan,nan,nan,nan,0
59728000,59728000,0.7378108,0.7342456,0.73722327,0.7328583,nan,nan,nan,nan,nan,nan,nan,nan,0
59828000,59828000,0.74609154,0.723236,0.7402546,0.7299573,nan,nan,nan,nan,nan,nan,nan,nan,0
59928000,59928000,0.7469004,0.72048056,0.73960227,0.72713196,nan,nan,nan,nan,nan,nan,nan,nan,0
60028000,60028000,0.7195419,0.73847425,0.7307771,0.72774047,nan,nan,nan,nan,nan,nan,nan,nan,0
60128000,60128000,0.7069921,0.7241269,0.7150458,0.7166339,nan,nan,nan,nan,nan,nan,nan,nan,0
60228000,60228000,0.7222557,0.6945086,0.71487063,0.7031729,nan,nan,nan,nan,nan,nan,nan,nan,0
60328000,60328000,0.7269349,0.6872952,0.7145503,0.69867605,nan,nan,nan,nan,nan,nan,nan,nan,0
60428000,60428000,0.70757174,0.70378107,0.7112668,0.69937634,nan,nan,nan,nan,nan,nan,nan,nan,0
60528000,60528000,0.70323086,0.7038501,0.7046417,0.7009657,nan,nan,nan,nan,nan,nan,nan,nan,0
60628000,60628000,0.71262985,0.6951813,0.7076682,0.700765,nan,nan,nan,nan,nan,nan,nan,nan,0
60728000,60728000,0.71904516,0.69125134,0.71259594,0.6988973,nan,nan,nan,nan,nan,nan,nan,nan,0
60828000,60828000,0.705376,0.7053319,0.7102927,0.70073694,nan,nan,nan,nan,nan,nan,nan,nan,0
60924000,60924000,0.70117694,0.7036797,0.7034088,0.701004,nan,nan,nan,nan,nan,nan,nan,nan,0
61028000,61028000,0.71239746,0.6924908,0.7075314,0.699634,nan,nan,nan,nan,nan,nan,nan,nan,0
61128000,61128000,0.71740794,0.69174486,0.7115515,0.700441,nan,nan,nan,nan,nan,nan,nan,nan,0
61228000,61228000,0.70550716,0.70704204,0.7083444,0.703349,nan,nan,nan,nan,nan,nan,nan,nan,0
61328000,61328000,0.70025694,0.703973,0.7041263,0.7016959,nan,nan,nan,nan,nan,nan,nan,nan,0
61428000,61428000,0.7102248,0.69611394,0.70558316,0.7011577,nan,nan,nan,nan,nan,nan,nan,nan,0
61528000,61528000,0.7155611,0.69586164,0.7121275,0.7005524,nan,nan,nan,nan,nan,nan,nan,nan,0
61628000,61628000,0.70384073,0.7081501,0.7087473,0.704419,nan,nan,nan,nan,nan,nan,nan,nan,0
61724000,61724000,0.70051134,0.70263404,0.70213956,0.70229053,nan,nan,nan,nan,nan,nan,nan,nan,0
61828000,61828000,0.709033,0.6974822,0.707169,0.70141214,nan,nan,nan,nan,nan,nan,nan,nan,0
61928000,61928000,0.7149177,0.6990605,0.7108856,0.70283943,nan,nan,nan,nan,nan,nan,nan,nan,0
62028000,62028000,0.7058758,0.7084661,0.7082255,0.7036941,nan,nan,nan,nan,nan,nan,nan,nan,0
62128000,62128000,0.69847316,0.7043638,0.70074,0.70183915,nan,nan,nan,nan,nan,nan,nan,nan,0
62228000,62228000,0.7063361,0.6985268,0.7060268,0.70072746,nan,nan,nan,nan,nan,nan,nan,nan,0
62324000,62324000,0.7125655,0.7010596,0.7098963,0.70315903,nan,nan,nan,nan,nan,nan,nan,nan,0
62424000,62424000,0.7047702,0.7070603,0.7077214,0.70554495,nan,nan,nan,nan,nan,nan,nan,nan,0
62528000,62528000,0.69771695,0.70297307,0.7034697,0.6994487,nan,nan,nan,nan,nan,nan,nan,nan,0
62628000,62628000,0.7056341,0.6999951,0.7032564,0.7012166,nan,nan,nan,nan,nan,nan,nan,nan,0
62728000,62728000,0.712376,0.70106065,0.71089077,0.7025583,nan,nan,nan,nan,nan,nan,nan,nan,0
62828000,62828000,0.7050269,0.707905,0.70800966,0.70454174,nan,nan,nan,nan,nan,nan,nan,nan,0
62928000,62928000,0.697691,0.7030325,0.70151734,0.6997792,nan,nan,nan,nan,nan,nan,nan,nan,0
63028000,63028000,0.70628583,0.6997568,0.70471734,0.70011425,nan,nan,nan,nan,nan,nan,nan,nan,0
63128000,63128000,0.71133864,0.7015864,0.7101742,0.7040785,nan,nan,nan,nan,nan,nan,nan,nan,0
63228000,63228000,0.70554453,0.7068253,0.70951533,0.70299804,nan,nan,nan,nan,nan,nan,nan,nan,0
63324000,63324000,0.6985499,0.7014502,0.7021623,0.69926083,nan,nan,nan,nan,nan,nan,nan,nan,0
63428000,63428000,0.70580006,0.6988387,0.7057359,0.699764,nan,nan,nan,nan,nan,nan,nan,nan,0
63524000,63524000,0.71287626,0.70162463,0.70955366,0.7035848,nan,nan,nan,nan,nan,nan,nan,nan,0
63624000,63624000,0.70597774,0.7060857,0.70808303,0.7047749,nan,nan,nan,nan,nan,nan,nan,nan,0
63728000,63728000,0.6983819,0.7006437,0.7011514,0.70013076,nan,nan,nan,nan,nan,nan,nan,nan,0
63824000,63824000,0.7049974,0.7002645,0.7053967,0.6998248,nan,nan,nan,nan,nan,nan,nan,nan,0
63928000,63928000,0.7116719,0.7017471,0.71031725,0.7036022,nan,nan,nan,nan,nan,nan,nan,nan,0
64028000,64028000,0.70607543,0.7072619,0.70867205,0.7043222,nan,nan,nan,nan,nan,nan,nan,nan,0
64128000,64128000,0.69977576,0.70072615,0.7022056,0.6984855,nan,nan,nan,nan,nan,nan,nan,nan,0
64228000,64228000,0.704775,0.69989675,0.7045112,0.7003988,nan,nan,nan,nan,nan,nan,nan,nan,0
64328000,64328000,0.71188504,0.7010437,0.71142864,0.701469,nan,nan,nan,nan,nan,nan,nan,nan,0
64428000,64428000,0.706635,0.7051699,0.7069434,0.70447123,nan,nan,nan,nan,nan,nan,nan,nan,0
64528000,64528000,0.7005005,0.69937384,0.70180655,0.697189,nan,nan,nan,nan,nan,nan,nan,nan,0
64628000,64628000,0.70421803,0.7003867,0.7048559,0.69889253,nan,nan,nan,nan,nan,nan,nan,nan,0
64728000,64728000,0.7093906,0.70335054,0.7100163,0.7041333,nan,nan,nan,nan,nan,nan,nan,nan,0
64824000,64824000,0.706338,0.7066616,0.70867133,0.70466095,nan,nan,nan,nan,nan,nan,nan,nan,0
64928000,64928000,0.70191246,0.69984084,0.70279515,0.69847226,nan,nan,nan,nan,nan,nan,nan,nan,0
65028000,65028000,0.70640904,0.6986189,0.7067771,0.6989779,nan,nan,nan,nan,nan,nan,nan,nan,0
65124000,65124000,0.7110666,0.70301014,0.71041095,0.7041635,nan,nan,nan,nan,nan,nan,nan,nan,0
65224000,65224000,0.70898974,0.7054903,0.7096122,0.7038735,nan,nan,nan,nan,nan,nan,nan,nan,0
65324000,65324000,0.7028753,0.69945794,0.7037939,0.6995739,nan,nan,nan,nan,nan,nan,nan,nan,0
65424000,65424000,0.7060028,0.70149374,0.7052503,0.7009789,nan,nan,nan,nan,nan,nan,nan,nan,0
65524000,65524000,0.7118333,0.70495516,0.70969856,0.70591855,nan,nan,nan,nan,nan,nan,nan,nan,0
65624000,65624000,0.71237713,0.7067596,0.71279466,0.7076122,nan,nan,nan,nan,nan,nan,nan,nan,0
65724000,65724000,0.7028976,0.70101494,0.70378745,0.70001376,nan,nan,nan,nan,nan,nan,nan,nan,0
65828000,65828000,0.70549303,0.7012816,0.70572203,0.7009246,nan,nan,nan,nan,nan,nan,nan,nan,0
65928000,65928000,0.71172214,0.7030048,0.71202785,0.70357084,nan,nan,nan,nan,nan,nan,nan,nan,0
66028000,66028000,0.7113567,0.7057269,0.71037775,0.70587903,nan,nan,nan,nan,nan,nan,nan,nan,0
66128000,66128000,0.6992619,0.69359916,0.70267,0.693942,nan,nan,nan,nan,nan,nan,nan,nan,0
66224000,66224000,0.6713301,0.66431105,0.6719172,0.66399074,nan,nan,nan,nan,nan,nan,nan,nan,0
66328000,66328000,0.6503634,0.6420796,0.650527,0.6422408,nan,nan,nan,nan,nan,nan,nan,nan,0
66428000,66428000,0.63504845,0.6325558,0.63270456,0.6313923,nan,nan,nan,nan,nan,nan,nan,nan,0
66524000,66524000,0.61199236,0.60709554,0.6120021,0.6071069,nan,nan,nan,nan,nan,nan,nan,nan,0
66628000,66628000,0.66525394,0.66298866,0.6672606,0.66103745,nan,nan,nan,nan,nan,nan,nan,nan,0
66724000,66724000,0.70671195,0.7002743,0.707366,0.69843507,nan,nan,nan,nan,nan,nan,nan,nan,0
66824000,66824000,0.7320951,0.728159,0.72966504,0.73016435,nan,nan,nan,nan,nan,nan,nan,nan,0
66928000,66928000,0.7483651,0.7413478,0.74744767,0.7420553,nan,nan,nan,nan,nan,nan,nan,nan,0
67028000,67028000,0.73907316,0.7305116,0.73899466,0.7307972,nan,nan,nan,nan,nan,nan,nan,nan,0
67128000,67128000,0.72874606,0.72080106,0.7272656,0.72135895,nan,nan,nan,nan,nan,nan,nan,nan,0
67228000,67228000,0.72346807,0.7182262,0.72282976,0.71904737,nan,nan,nan,nan,nan,nan,nan,nan,0
67328000,67328000,0.717518,0.71083397,0.7167244,0.7111277,nan,nan,nan,nan,nan,nan,nan,nan,0
67428000,67428000,0.7192699,0.71405715,0.71954453,0.7135106,nan,nan,nan,nan,nan,nan,nan,nan,0
67528000,67528000,0.7208233,0.7151521,0.72184455,0.7136794,nan,nan,nan,nan,nan,nan,nan,nan,0
67628000,67628000,0.7229883,0.7154119,0.7216764,0.7156985,nan,nan,nan,nan,nan,nan,nan,nan,0
67728000,67728000,0.7164068,0.7106846,0.7170277,0.7100705,nan,nan,nan,nan,nan,nan,nan,nan,0
67828000,67828000,0.7192578,0.71419644,0.72005254,0.71255183,nan,nan,nan,nan,nan,nan,nan,nan,0
67924000,67924000,0.7203067,0.71524006,0.7215313,0.71441245,nan,nan,nan,nan,nan,nan,nan,nan,0
68028000,68028000,0.7238478,0.71561944,0.7216317,0.7164521,nan,nan,nan,nan,nan,nan,nan,nan,0
68128000,68128000,0.7168391,0.709368,0.71676475,0.7115585,nan,nan,nan,nan,nan,nan,nan,nan,0
