timestamp,timestamp_sample,xyz[0],xyz[1],xyz[2]
3428000,3428000,0.00033708796,0.0005385029,-8.707112e-05
3432000,3432000,0.0006339769,0.0009728113,-0.00015685285
3448000,3448000,2.1572545e-05,0.0004609497,8.65893e-05
3468000,3468000,-0.0009084581,1.9655738e-05,0.00038898268
3488000,3488000,-0.0004392471,0.0010822864,-0.00011325004
3508000,3508000,0.0010344523,0.00015492772,-0.00016430579
3524000,3524000,-2.961095e-05,0.001263672,-0.00017677384
3544000,3544000,-1.7027764e-05,0.001459499,-7.6315715e-05
3568000,3568000,0.0010897326,0.0018679927,0.00024542955
3588000,3588000,-0.00044910738,0.00012823343,0.000181595
3608000,3608000,0.00057194463,2.870796e-05,0.00040667458
3628000,3628000,-0.0001071959,-0.0006213038,-0.00031272022
3648000,3648000,8.9145295e-05,0.00084492646,-0.00029583252
3668000,3668000,0.019499293,0.023855487,0.00027551773
3688000,3688000,0.019711675,0.023047745,0.0002897897
3708000,3708000,0.020296529,0.024105221,-0.00046234313
3728000,3728000,0.018858733,0.022366397,0.0003744176
3748000,3748000,0.019681964,0.022416975,-0.00012629149
3764000,3764000,0.020103974,0.022868231,0.000116870615
3784000,3784000,0.01967941,0.023254506,0.00046411296
3804000,3804000,0.019740615,0.022477005,0.00018197657
3828000,3828000,0.019362275,0.023391327,0.00013199744
3848000,3848000,0.019236494,0.023061326,-6.571856e-05
3868000,3868000,0.019994311,0.02307909,0.0007259569
3888000,3888000,0.02022119,0.023401253,0.00041648603
3908000,3908000,0.019527962,0.024104951,-0.00015199592
3928000,3928000,0.019637164,0.022517558,0.00023234989
3948000,3948000,0.020341994,0.023455929,0.00048415616
3964000,3964000,0.019728463,0.022979548,0.00016894485
3984000,3984000,0.02007773,0.02500746,2.299901e-06
4004000,4004000,0.01944456,0.024977712,0.00084275176
4028000,4028000,0.020208465,0.025017709,4.904888e-05
4044000,4044000,0.02002947,0.02364817,-0.00022628382
4068000,4068000,0.019243704,0.025322936,0.0001412874
4088000,4088000,0.01998125,0.023966284,0.000110282235
4104000,4104000,0.019217312,0.02481651,0.00030635978
4124000,4124000,0.018988881,0.024565576,-5.105459e-05
4148000,4148000,0.020318296,0.024860179,0.0006507602
4168000,4168000,0.019964553,0.023524765,0.00017191081
4184000,4184000,0.019843915,0.024648422,0.00047795055
4208000,4208000,0.01981812,0.023842642,0.00011330833
4228000,4228000,0.019231139,0.025137603,0.00059052225
4248000,4248000,0.020478776,0.025164787,0.00068867096
4264000,4264000,0.019621044,0.024396244,0.0009138744
4284000,4284000,0.02000629,0.023952596,0.00068845006
4308000,4308000,0.020800762,0.023827346,0.0007656023
4328000,4328000,0.019008826,0.02417987,-1.6468578e-06
4348000,4348000,0.01985783,0.024889546,0.00020444077
4368000,4368000,0.018724665,0.023706142,0.00010937937
4388000,4388000,0.020521598,0.02373049,0.0003224037
4408000,4408000,0.020455435,0.023706157,7.419701e-05
4428000,4428000,0.019489257,0.023744287,0.0003052939
4448000,4448000,0.020277908,0.02256169,0.00048251153
4468000,4468000,0.019098405,0.023449546,0.00040346477
4488000,4488000,0.019152395,0.022952622,0.00080014265
4508000,4508000,0.01922263,0.023621073,0.00018977028
4528000,4528000,0.01895403,0.023195185,0.00048084065
4548000,4548000,0.020486195,0.02280136,0.0007446382
4568000,4568000,0.019761315,0.021982295,0.000455085
4588000,4588000,0.01982829,0.022272684,0.0007345584
4608000,4608000,0.019454435,0.022843204,2.4902636e-06
4628000,4628000,0.01874421,0.022486698,0.00030878154
4648000,4648000,0.020507583,0.023006745,0.0005458751
4668000,4668000,0.019247778,0.02232925,0.0007135194
4688000,4688000,0.019435715,0.021925833,0.00018723767
4708000,4708000,0.019508535,0.021134038,0.0007061659
4728000,4728000,0.020033378,0.022500038,6.347373e-05
4748000,4748000,0.019841798,0.021150718,9.680751e-05
4768000,4768000,0.019919671,0.021218428,0.00031867684
4788000,4788000,0.019704072,0.021711608,0.0004126314
4808000,4808000,0.019604577,0.021850646,0.00040244355
4828000,4828000,0.019034939,0.022327075,-0.0003373683
4848000,4848000,0.02014151,0.02098385,0.0005574169
4864000,4864000,0.019942552,0.021201521,0.00043092133
4888000,4888000,0.01958173,0.021244876,0.00069831545
4904000,4904000,0.019761994,0.020585565,0.00046160002
4928000,4928000,0.019740399,0.020166613,0.00010841512
4948000,4948000,0.01915568,0.0198283,0.0005876551
4968000,4968000,0.019062579,0.021882279,0.0011832135
4988000,4988000,0.018059546,0.020370036,0.0010025119
5008000,5008000,0.019535378,0.021938557,0.0013802372
5028000,5028000,0.019739382,0.020332688,0.00088727765
5048000,5048000,0.019155344,0.021290936,0.0012498035
5068000,5068000,0.018105231,0.020390205,0.0011809252
5088000,5088000,0.019822288,0.020963669,0.00033443244
5108000,5108000,0.01808322,0.021244349,0.0006046581
5128000,5128000,0.018733287,0.02083854,0.00068117
5148000,5148000,0.01813698,0.020892613,0.0008974083
5168000,5168000,0.018700564,0.020692538,-0.00019661813
5188000,5188000,0.018583039,0.019958746,0.00034227688
5208000,5208000,0.01887688,0.021813797,0.0013300484
5228000,5228000,0.017364716,0.020902202,0.00086291897
5248000,5248000,0.01824275,0.020082567,0.0004860075
5268000,5268000,0.01868219,0.020587416,0.00090996485
5288000,5288000,0.017890291,0.02114605,0.0005521501
5308000,5308000,0.017578268,0.019804897,0.00065944163
5328000,5328000,0.018921757,0.021206807,0.0005266369
5348000,5348000,0.01873465,0.021215059,0.0010136025
5368000,5368000,0.018154847,0.020582467,0.0004149763
5388000,5388000,0.018467013,0.02078117,0.00050641334
5408000,5408000,0.01804173,0.02047971,0.00094130635
5428000,5428000,0.01815688,0.020044997,0.00078799337
5448000,5448000,0.01830843,0.019546978,4.85464e-05
5468000,5468000,0.01704129,0.021198511,0.00047592956
5488000,5488000,0.01851015,0.019839782,0.0010138947
5508000,5508000,0.016827304,0.020540291,0.0009372484
5524000,5524000,0.017557288,0.020971445,0.00031813068
5544000,5544000,0.01871395,0.022282708,-0.00022418644
5564000,5564000,0.016946143,0.020067723,0.00057736755
5588000,5588000,0.018035905,0.020968076,0.000951273
5608000,5608000,0.016917733,0.020115077,0.00026782925
5628000,5628000,0.016866865,0.020282658,0.00064972526
5648000,5648000,0.018187704,0.020241108,0.0002679851
5668000,5668000,0.017925417,0.020931372,0.00069983496
5688000,5688000,0.01800177,0.020228656,0.00068738544
5708000,5708000,0.018397622,0.020279516,0.00025545416
5728000,5728000,0.017581232,0.02080063,0.0007961599
5748000,5748000,0.01703079,0.020891236,0.00055349857
5768000,5768000,0.01767577,0.019586783,0.0007992698
5788000,5788000,0.018108282,0.020491488,0.00086394924
5808000,5808000,0.017155748,0.0206954,0.0010319854
5824000,5824000,0.018054409,0.02007376,0.00055449654
5844000,5844000,0.01744722,0.02089736,0.0005545611
5868000,5868000,0.017892778,0.019773994,0.00013943245
5884000,5884000,0.017476533,0.019540304,0.000565132
5904000,5904000,0.017862117,0.020927897,0.00085560663
5928000,5928000,0.0170986,0.020136427,0.0004875684
5948000,5948000,0.017908132,0.01964321,0.00025244927
5968000,5968000,0.018186467,0.020581868,0.00048123338
5988000,5988000,0.018588297,0.020338109,0.0002615186
6008000,6008000,0.018283002,0.01980702,0.0004975536
6028000,6028000,0.017288331,0.021751143,0.00061356195
6048000,6048000,0.01814421,0.020728633,0.00042049363
6068000,6068000,0.017564962,0.019850349,-4.9080165e-05
6088000,6088000,0.018033678,0.01915187,0.00024803285
6108000,6108000,0.018149769,0.020340411,-1.4964794e-05
6128000,6128000,0.017123101,0.02029262,0.00044039017
6148000,6148000,0.018551324,0.020341154,0.00016716581
6168000,6168000,0.017097434,0.020367892,-9.6774755e-05
6188000,6188000,0.017491672,0.020238997,0.0003558366
6208000,6208000,0.017349118,0.020370398,9.421371e-05
6228000,6228000,0.017996354,0.021287914,-1.6527483e-05
6248000,6248000,0.017244162,0.020504165,-0.00015741038
6268000,6268000,0.017860264,0.02077711,0.0004446282
6288000,6288000,0.017592583,0.020972613,0.00069447886
6308000,6308000,0.018359505,0.021116693,0.0003968711
6328000,6328000,0.017738763,0.02132003,0.00014579699
6348000,6348000,0.017105795,0.020006023,0.0008683392
6368000,6368000,0.018013066,0.019574204,0.00023994796
6388000,6388000,0.017366458,0.020618243,0.0013808896
6408000,6408000,0.017875155,0.020678755,-0.0004180367
6428000,6428000,0.016744079,0.019704908,0.0006958404
6448000,6448000,0.017226947,0.02067106,0.00021365796
6468000,6468000,0.016904587,0.019620799,-0.00057334936
6484000,6484000,0.018177535,0.019801982,0.00057553395
6504000,6504000,0.018447159,0.020854563,3.6792644e-05
6528000,6528000,0.017265432,0.019463254,0.0005012286
6548000,6548000,0.01787867,0.019363532,0.00011357686
6568000,6568000,0.01790011,0.02006186,-0.00012982686
6588000,6588000,0.017912814,0.021549286,0.000757068
6608000,6608000,0.017373867,0.019265406,0.0005785854
6628000,6628000,0.017358806,0.019828668,0.0007221997
6648000,6648000,0.017453019,0.01937009,0.00029175586
6668000,6668000,0.017309507,0.020519156,0.00052899536
6684000,6684000,0.0175291,0.020652335,0.0007444965
6708000,6708000,0.01663238,0.020986957,0.0004965559
6724000,6724000,0.01772702,0.019746339,0.0005218377
6744000,6744000,0.016950171,0.020288577,5.4004046e-05
6764000,6764000,0.017636426,0.020671465,0.0010675862
6788000,6788000,0.018063903,0.018960318,0.00041942272
6804000,6804000,0.017167816,0.020342398,0.0008008275
6828000,6828000,0.01789544,0.019881507,-0.00010480485
6848000,6848000,0.016161226,0.021010986,0.00041501076
6868000,6868000,0.018168882,0.01914941,0.000141963
6888000,6888000,0.017272772,0.019825768,0.00059703825
6908000,6908000,0.017375994,0.020006869,0.0006014772
6928000,6928000,0.017168708,0.01950714,0.00038584947
6948000,6948000,0.017778007,0.019916806,0.0006837305
6968000,6968000,0.016485447,0.02007045,-0.000319388
6988000,6988000,0.016896777,0.02019483,-9.5089024e-05
7008000,7008000,0.017285166,0.019360133,0.00077866646
7028000,7028000,0.016820814,0.020551922,0.00021731264
7044000,7044000,0.017024735,0.019773807,0.0002022155
7068000,7068000,0.016201165,0.020637264,1.0075094e-05
7088000,7088000,0.018089889,0.020467617,0.00022760638
7108000,7108000,0.01625065,0.021858657,0.00034257383
7128000,7128000,0.016883438,0.01956752,0.0004901139
7148000,7148000,0.017066829,0.020636294,0.00045020683
7168000,7168000,0.0172252,0.019296056,-1.9017898e-05
7188000,7188000,0.016988575,0.020911383,0.00075492763
7204000,7204000,0.01607925,0.0204812,0.00031102684
7228000,7228000,0.016901292,0.019368226,0.00035679358
7248000,7248000,0.017848853,0.020929463,6.529583e-05
7268000,7268000,0.017691514,0.020728588,0.00068559055
7284000,7284000,0.016967045,0.021076096,0.00038916164
7304000,7304000,0.01670387,0.020773096,0.000541764
7324000,7324000,0.01616155,0.0206347,0.00031363676
7344000,7344000,0.017149037,0.020598369,0.0007427842
7368000,7368000,0.01806261,0.01953742,-3.647475e-05
7388000,7388000,0.016492037,0.021083493,0.0005696206
7408000,7408000,0.017928232,0.020602416,0.0002111539
7424000,7424000,0.016845847,0.02079764,0.0006048151
7444000,7444000,0.01578255,0.020847216,0.00039912536
7468000,7468000,0.016496358,0.020240884,0.00030611354
7488000,7488000,0.01642681,0.019390177,0.00014414119
7508000,7508000,0.017039714,0.019887708,-0.000107022
7524000,7524000,0.017709214,0.021421963,0.00014440854
7544000,7544000,0.018474694,0.020452358,0.00031073784
7564000,7564000,0.01705398,0.021349765,-7.403967e-05
7588000,7588000,0.017098118,0.019671421,0.00030900995
7608000,7608000,0.018205548,0.021362532,0.00016864172
7628000,7628000,0.017169764,0.019710433,0.00031968812
7644000,7644000,0.017746197,0.021996025,0.00021266544
7668000,7668000,0.017216418,0.020158093,0.00024072132
7688000,7688000,0.018170232,0.021542897,0.0003488336
7708000,7708000,0.017466523,0.020435816,0.0005859642
7728000,7728000,0.01727116,0.020374851,0.0006787239
7748000,7748000,0.017010164,0.020873763,0.00067042664
7768000,7768000,0.017448852,0.021599181,0.0004341261
7788000,7788000,0.017484417,0.020368783,0.0010662331
7808000,7808000,0.017883709,0.02160584,0.0006483148
7828000,7828000,0.017407477,0.020688318,0.00050090067
7848000,7848000,0.016663156,0.019724948,0.00020656521
7868000,7868000,0.017053168,0.020367049,0.00048249206
7888000,7888000,0.017932178,0.021235723,0.00026994626
7908000,7908000,0.017361972,0.021081086,9.3454146e-05
7928000,7928000,0.017578902,0.019762628,0.00043160288
7948000,7948000,0.017311009,0.020275919,-3.5727968e-05
7968000,7968000,0.018156301,0.02069046,0.00018460289
7988000,7988000,0.01678368,0.019693209,0.00040449176
8008000,8008000,0.017299388,0.02023795,0.0007896034
8028000,8028000,0.016912604,0.019754142,0.00031352552
8048000,8048000,0.017947596,0.019918626,0.0007416073
8068000,8068000,0.01830975,0.019576347,0.00038336805
8088000,8088000,0.01753883,0.020446867,0.0011381595
8108000,8108000,0.017370548,0.021185154,0.0011735668
8128000,8128000,0.01776549,0.020471392,0.0004345289
8148000,8148000,0.017308483,0.02067072,4.802385e-05
8168000,8168000,0.018322458,0.02088381,0.00010926287
8188000,8188000,0.01775047,0.020847132,0.00032983036
8208000,8208000,0.01776645,0.02018862,0.0008634585
8228000,8228000,0.017645974,0.019793978,0.000664281
8244000,8244000,0.017378058,0.02044845,0.00050064875
8268000,8268000,0.01794964,0.019590002,0.00077766005
8288000,8288000,0.017445475,0.020187357,0.0005785049
8308000,8308000,0.017609166,0.019677926,0.0006947612
8328000,8328000,0.01838638,0.02031494,0.00030283057
8348000,8348000,0.017071685,0.020679386,0.0005486877
8368000,8368000,0.017811896,0.020397237,0.000803838
8388000,8388000,0.018019862,0.019851703,0.00023869905
8408000,8408000,0.016915716,0.021028262,0.00062613445
8428000,8428000,0.017512377,0.02004186,0.00016130584
8448000,8448000,0.017550385,0.020227725,0.0010433029
8468000,8468000,0.017686011,0.020001005,0.00071807386
8488000,8488000,0.018144898,0.020271938,0.00026917548
8508000,8508000,0.017959995,0.019251918,0.00019869977
8528000,8528000,0.017754832,0.020532964,0.0003682203
8544000,8544000,0.017233724,0.019807067,0.0005661522
8564000,8564000,0.016911939,0.020056227,0.0006822405
8584000,8584000,0.016636461,0.019692337,0.00064751034
8604000,8604000,0.017847758,0.020356031,0.00073620566
8624000,8624000,0.018438982,0.019043509,0.0005640403
8644000,8644000,0.016631123,0.020217303,6.0217015e-05
8664000,8664000,0.017756933,0.019919112,0.0005931424
8688000,8688000,0.017633924,0.020512057,0.0006537043
8708000,8708000,0.017575078,0.020141907,6.650456e-05
8724000,8724000,0.01821083,0.020953618,0.00043834615
8744000,8744000,0.016828654,0.01932926,0.00029530967
8768000,8768000,0.01729121,0.020172266,0.00049319456
8784000,8784000,0.017546201,0.019708456,0.00034877396
8804000,8804000,0.017287038,0.019582,0.0005029939
8824000,8824000,0.01707637,0.020738667,0.0003721666
8844000,8844000,0.017700516,0.020673336,0.00063229754
8864000,8864000,0.017081272,0.021020189,0.0007548164
8884000,8884000,0.016762951,0.020142265,6.463204e-05
8904000,8904000,0.01700627,0.019566284,0.0007735795
8924000,8924000,0.017078936,0.020106014,-6.1371735e-05
8948000,8948000,0.017504286,0.019489275,0.000658219
8964000,8964000,0.016989823,0.019832231,0.0004623993
8988000,8988000,0.017699484,0.019948289,0.00081264676
9004000,9004000,0.016532145,0.020798191,0.0004983078
9028000,9028000,0.01797911,0.01887524,0.0009097219
9048000,9048000,0.016672183,0.020529905,0.00049026276
9068000,9068000,0.018097617,0.020344267,0.00037734816
9088000,9088000,0.016540213,0.019502591,0.00044424026
9108000,9108000,0.01877871,0.01974328,0.00040655173
9128000,9128000,0.016757213,0.019483836,0.000653834
9148000,9148000,0.017325178,0.019428283,0.00020488165
9168000,9168000,0.016808921,0.020815305,0.00021521494
9188000,9188000,0.017553417,0.019311355,0.0003659418
9204000,9204000,0.017714366,0.018815007,0.00042166826
9228000,9228000,0.016872354,0.020767285,0.00017962781
9248000,9248000,0.017127013,0.018817302,0.0004596625
9268000,9268000,0.016809262,0.020190224,0.00032569483
9288000,9288000,0.017436936,0.019613238,5.524808e-05
9308000,9308000,0.017302256,0.019719254,-0.00014628861
9328000,9328000,0.017289758,0.021266866,0.0006731441
9348000,9348000,0.016937159,0.020232046,0.00090101606
9368000,9368000,0.016864585,0.020570911,0.0008703216
9388000,9388000,0.017208466,0.019275501,0.00044684668
9408000,9408000,0.017187012,0.020358749,0.00051190786
9428000,9428000,0.016275864,0.021297736,0.0004986345
9448000,9448000,0.016625503,0.019323388,-0.00048790473
9468000,9468000,0.01727857,0.021191858,0.00050175673
9488000,9488000,0.01683537,0.019123565,8.007649e-05
9508000,9508000,0.017049745,0.019722458,-0.00048738482
9528000,9528000,0.016637912,0.020380871,0.00070647994
9548000,9548000,0.01727815,0.020189825,0.00027376632
9568000,9568000,0.018321296,0.019867148,-0.00010460576
9588000,9588000,0.017090099,0.018183835,8.330983e-06
9608000,9608000,0.016637368,0.019643707,-0.00027434944
9628000,9628000,0.017220296,0.020187177,0.00025604208
9648000,9648000,0.01724892,0.020122062,0.00032839473
9668000,9668000,0.017612422,0.019727837,0.0004256703
9688000,9688000,0.017329067,0.019453816,0.00035543105
9704000,9704000,0.017969048,0.020331481,0.00022315297
9728000,9728000,0.017215027,0.018704243,0.0005198524
9748000,9748000,0.016712567,0.01986951,0.0006823228
9768000,9768000,0.01664589,0.01908769,0.0002538098
9788000,9788000,0.017082058,0.019934123,0.00023564848
9808000,9808000,0.017160809,0.020274308,0.00010449449
9828000,9828000,0.01811937,0.018794326,0.00073138496
9848000,9848000,0.016912334,0.020116251,0.0004735589
9868000,9868000,0.017402213,0.018054722,0.00011560903
9884000,9884000,0.017329386,0.020250127,0.000860025
9904000,9904000,0.016796902,0.019237371,0.00031580657
9928000,9928000,0.01671614,0.019868765,-0.000110251596
9948000,9948000,0.017475726,0.01957213,0.00078276516
9968000,9968000,0.016895987,0.018753242,0.0009171827
9988000,9988000,0.016282868,0.019484067,0.000324127
10008000,10008000,0.017425064,0.018665072,0.0005652869
10024000,10024000,0.016702885,0.02027139,0.0008272061
10048000,10048000,0.01697001,0.019189285,0.00020795141
10068000,10068000,0.017506313,0.020142013,9.7655364e-05
10088000,10088000,0.01578155,0.019778557,0.00058262696
10108000,10108000,0.017196197,0.020195277,0.00042881593
10128000,10128000,0.01531912,0.019858124,0.0003673072
10148000,10148000,0.017857602,0.019375306,5.1949126e-05
10168000,10168000,0.015921475,0.017885128,0.00039226032
10188000,10188000,0.016765114,0.019831317,0.00018421018
10208000,10208000,0.017636113,0.019473068,0.00012566823
10228000,10228000,0.017063294,0.018838083,0.00069784495
10248000,10248000,0.017614972,0.020373918,0.00040961948
10268000,10268000,0.01675115,0.020318037,0.0007188861
10288000,10288000,0.016328875,0.01962961,0.00023073042
10308000,10308000,0.016543107,0.019493144,0.0006393432
10328000,10328000,0.017354466,0.019288538,0.0005542774
10348000,10348000,0.017873514,0.020633768,0.0003105541
10368000,10368000,0.01680076,0.018160382,8.489236e-05
10388000,10388000,0.0164554,0.018967887,0.00021803995
10408000,10408000,0.01713939,0.01984091,0.00025955416
10428000,10428000,0.016548533,0.01941717,0.000578959
10448000,10448000,0.016901286,0.019936493,0.0003006161
10468000,10468000,0.01568105,0.020603666,0.00065157353
10484000,10484000,0.018276189,0.018603045,9.349343e-05
10504000,10504000,0.017009411,0.01924284,0.0007307264
10524000,10524000,0.01728024,0.018819539,0.00051030854
10548000,10548000,0.016360302,0.01962485,0.00021297015
10568000,10568000,0.018780943,0.019375412,0.00016471534
10588000,10588000,0.017237263,0.020153446,0.00012094469
10608000,10608000,0.016489051,0.019277059,0.0005593077
10628000,10628000,0.017041687,0.019271562,0.00015645409
10648000,10648000,0.016941635,0.02091204,-0.00052067015
10668000,10668000,0.016674887,0.019123923,0.00043276904
10688000,10688000,0.017331697,0.018032894,-4.0008945e-05
10708000,10708000,0.01779558,0.020550499,0.00020534296
10724000,10724000,0.015923081,0.019298783,0.00073211157
10744000,10744000,0.016856365,0.019138386,0.0004825165
10764000,10764000,0.017423293,0.020102575,0.00040668735
10788000,10788000,0.016761318,0.020470789,0.00055777095
10808000,10808000,0.015948316,0.019231524,0.00016507675
10828000,10828000,0.016669853,0.020253569,0.0004869357
10848000,10848000,0.016169174,0.018621048,0.000434668
10864000,10864000,0.01804581,0.020490693,0.0004110818
10888000,10888000,0.016338024,0.019508848,0.0004282842
10908000,10908000,0.016210722,0.019700522,0.0009055895
10928000,10928000,0.017239818,0.018922402,0.00019068946
10948000,10948000,0.016760442,0.019732855,1.8869818e-05
10968000,10968000,0.016867,0.017977873,-6.5128785e-05
10988000,10988000,0.017168006,0.020084647,-0.00012586305
11008000,11008000,0.016381893,0.019069992,-0.00018430725
11028000,11028000,0.01655168,0.018618215,0.00020425471
11048000,11048000,0.016210493,0.020513155,0.00051203754
11068000,11068000,0.016641438,0.020037603,0.00037273773
11088000,11088000,0.01576451,0.018887024,0.0008769715
11108000,11108000,0.016877253,0.019632824,0.0003282579
11128000,11128000,0.017027155,0.020207591,2.4297135e-05
11148000,11148000,0.01653556,0.018877953,0.00022608908
11168000,11168000,0.016444925,0.019797372,0.00043477814
11188000,11188000,0.017428802,0.020401336,0.0006691956
11208000,11208000,0.016816303,0.018000808,-0.00013836047
11228000,11228000,0.016932102,0.019981535,0.00019133252
11248000,11248000,0.017402926,0.01944427,0.00032149942
11268000,11268000,0.016694333,0.019954266,-0.00018192733
11288000,11288000,0.016735997,0.0194032,8.075745e-05
11304000,11304000,0.016872862,0.019321349,0.0003256755
11328000,11328000,0.0155893415,0.019105423,0.00037299874
11348000,11348000,0.016562682,0.018727774,0.00013567763
11364000,11364000,0.016559169,0.019206662,0.00019697985
11388000,11388000,0.01719639,0.018751793,0.0007114409
11408000,11408000,0.016085489,0.019310238,0.00032859153
11428000,11428000,0.016948014,0.019304896,0.00025760217
11448000,11448000,0.016244005,0.020101344,0.00012480591
11468000,11468000,0.016669158,0.018250806,-0.00021108116
11488000,11488000,0.015563692,0.020551763,0.000106663094
11508000,11508000,0.01708364,0.018788552,-0.0003791018
11528000,11528000,0.017087482,0.019074656,0.00013616412
11548000,11548000,0.01634533,0.020751858,0.00011538219
11568000,11568000,0.01755196,0.018465979,0.0006171213
11588000,11588000,0.016136495,0.020517271,-0.00016284535
11604000,11604000,0.017053451,0.019310636,0.0005066903
11628000,11628000,0.017066466,0.019268269,-6.3070096e-05
11648000,11648000,0.016709639,0.018734884,-0.00017611613
11668000,11668000,0.016369808,0.018631924,0.00045316434
11688000,11688000,0.016743597,0.01880722,0.000118873075
11708000,11708000,0.016540056,0.020200627,0.00032449514
11728000,11728000,0.017201278,0.018334495,0.00023841635
11748000,11748000,0.016651621,0.018304903,0.00026447957
11768000,11768000,0.01631055,0.019996693,0.00026788685
11788000,11788000,0.016528428,0.01967681,-3.0525447e-05
11808000,11808000,0.01592928,0.017907502,0.00030285268
11828000,11828000,0.017695751,0.0205191,0.00024034237
11848000,11848000,0.016543388,0.018879754,2.8773113e-05
11868000,11868000,0.016928824,0.019280436,0.00049191475
11888000,11888000,0.0168121,0.018874068,0.0004919832
11908000,11908000,0.016975438,0.019943466,0.0001340231
11928000,11928000,0.017070586,0.019003015,0.0005291935
11948000,11948000,0.017424956,0.01955336,0.00033869623
11968000,11968000,0.01616288,0.017082464,0.00051234785
11988000,11988000,0.017514309,0.019623687,0.0004939846
12008000,12008000,0.016541408,0.01968497,4.5414054e-05
12028000,12028000,0.01667828,0.019866114,0.00026417332
12048000,12048000,0.016153203,0.018675145,0.00038062053
12068000,12068000,0.016576096,0.018607683,0.00035202078
12084000,12084000,0.016495466,0.019337183,0.0005351469
12108000,12108000,0.017010521,0.020265006,0.00019667696
12124000,12124000,0.016484194,0.019115815,8.6087166e-05
12144000,12144000,0.015586214,0.018956428,0.00042556712
12164000,12164000,0.01650788,0.019014718,0.00084269943
12188000,12188000,0.016553372,0.017558634,0.0002634129
12204000,12204000,0.016706362,0.01884326,0.0003248596
12224000,12224000,0.016412234,0.018830223,0.0006513153
12244000,12244000,0.01599903,0.019124659,-0.00072658615
12268000,12268000,0.0165837,0.01965619,6.6192406e-05
12288000,12288000,0.01661917,0.018414611,-0.00026630983
12304000,12304000,0.016075866,0.018194368,0.00020107988
12328000,12328000,0.01643173,0.019613603,0.0003718856
12348000,12348000,0.015897566,0.018305719,-4.656636e-06
12368000,12368000,0.016443586,0.019133978,-0.00010379986
12388000,12388000,0.016399084,0.019478694,0.00053071574
12408000,12408000,0.016329112,0.019396758,0.00022546628
12428000,12428000,0.016207505,0.01898636,0.00036348886
12448000,12448000,0.016172782,0.019140692,-0.00018853795
12468000,12468000,0.016653646,0.019404052,0.00030292236
12488000,12488000,0.01670459,0.019535309,0.00015425052
12508000,12508000,0.017131524,0.020443682,0.00022090408
12528000,12528000,0.016186941,0.01745043,-8.6857086e-05
12548000,12548000,0.016347103,0.019631255,-0.000114331095
12568000,12568000,0.016373366,0.018314676,-0.00043023936
12588000,12588000,0.015661048,0.019639775,0.0001625137
12608000,12608000,0.016303787,0.019458687,0.00032021114
12628000,12628000,0.016457655,0.018960305,0.0003188843
12648000,12648000,0.016433934,0.018935094,0.00019206727
12668000,12668000,0.016986733,0.018398931,-0.00045599678
12688000,12688000,0.017186757,0.0190335,8.378994e-05
12708000,12708000,0.01731306,0.017930781,6.434686e-05
12724000,12724000,0.0152352,0.0194078,-0.0005175816
12744000,12744000,0.01612939,0.019287381,0.0006009328
12764000,12764000,0.01639243,0.018563706,-0.00011344792
12784000,12784000,0.01654447,0.019425083,0.00021608964
12808000,12808000,0.016328309,0.01933299,0.00076241244
12828000,12828000,0.017267508,0.019607408,0.0001236671
12848000,12848000,0.016339486,0.019407835,0.00040558196
12868000,12868000,0.016899526,0.018872228,0.00032102055
12888000,12888000,0.017897997,0.018591337,0.00035363107
12908000,12908000,0.016625095,0.019794788,-0.0001220471
12928000,12928000,0.017364226,0.018639684,0.00030220317
12948000,12948000,0.015538303,0.01831922,-1.0795717e-05
12968000,12968000,0.016825665,0.020673228,0.00025094041
12988000,12988000,0.017462205,0.018472819,-6.73741e-05
13004000,13004000,0.01591083,0.019664606,-0.00076281157
13028000,13028000,0.016919876,0.019435866,0.00065996376
13044000,13044000,0.016212113,0.018626897,7.575468e-05
13064000,13064000,0.01661562,0.019951152,-0.00010334903
13088000,13088000,0.01626431,0.019217802,0.00016879982
13108000,13108000,0.016835496,0.018601203,-0.00018963181
13128000,13128000,0.016493892,0.020501312,0.00037098897
13144000,13144000,0.016454611,0.018524086,0.0007124521
13164000,13164000,0.017421601,0.019056492,0.00024566866
13188000,13188000,0.016454335,0.017664252,0.00022881628
13204000,13204000,0.016318623,0.019282496,9.14201e-05
13224000,13224000,0.017740527,0.018417224,0.000163606
13244000,13244000,0.015828943,0.01745109,0.00020000698
13268000,13268000,0.01685257,0.018143484,-0.00018292647
13288000,13288000,0.016256412,0.020344293,0.00029595566
13308000,13308000,0.01621665,0.019554578,-0.00046517217
13328000,13328000,0.016557287,0.020270213,2.3972441e-05
13348000,13348000,0.016015867,0.018379984,-0.00011070594
13364000,13364000,0.01634023,0.01861292,0.00028250847
13384000,13384000,0.015579225,0.019397665,-8.6463886e-05
13404000,13404000,0.0167424,0.019260049,8.518819e-06
13424000,13424000,0.01570662,0.018953972,0.00014748525
13448000,13448000,0.016428614,0.018046312,-7.629255e-06
13468000,13468000,0.016811874,0.019607127,0.00037627755
13488000,13488000,0.01722956,0.018607302,0.0005003941
13508000,13508000,0.016315276,0.019499097,0.00018153411
13528000,13528000,0.016557751,0.019271908,0.0010635161
13548000,13548000,0.015925735,0.019415746,0.00020877687
13568000,13568000,0.01665203,0.01879846,0.0001014004
13588000,13588000,0.017394092,0.018500749,0.00067028805
13604000,13604000,0.01604557,0.019656116,7.510622e-05
13628000,13628000,0.015883492,0.019468388,0.0002510054
13644000,13644000,0.017012428,0.018247783,0.0003503088
13668000,13668000,0.01620999,0.019718088,-9.890803e-05
13688000,13688000,0.015650952,0.018864501,8.783031e-05
13708000,13708000,0.015774403,0.019568799,-3.450039e-05
13728000,13728000,0.016800635,0.019204471,6.117447e-05
13748000,13748000,0.01675228,0.017917925,3.167584e-05
13768000,13768000,0.016084578,0.01945893,-0.00044091194
13788000,13788000,0.015482453,0.018806346,0.00034968086
13808000,13808000,0.01589633,0.019222945,-0.0001880033
13828000,13828000,0.01645165,0.019305337,-5.880882e-05
13848000,13848000,0.01562452,0.017476026,0.0008174904
13868000,13868000,0.015927937,0.019057145,-3.535926e-05
13888000,13888000,0.01579037,0.018630793,0.00057971594
13908000,13908000,0.017038409,0.018617073,0.0001312921
13928000,13928000,0.016286794,0.018904965,0.00013174485
13948000,13948000,0.01717216,0.019453779,0.00021670367
13968000,13968000,0.016119527,0.018869076,0.0007176385
13988000,13988000,0.017332578,0.019096483,0.00025388485
14008000,14008000,0.015931316,0.018298134,-0.00016682206
14028000,14028000,0.016246986,0.018974027,0.0004094264
14048000,14048000,0.015851961,0.01838502,0.00039332194
14068000,14068000,0.01678715,0.018163236,0.00015953412
14088000,14088000,0.017363625,0.019527663,-9.2668946e-05
14108000,14108000,0.017524369,0.018530926,8.0437985e-06
14128000,14128000,0.015434821,0.017969983,0.0005073365
14148000,14148000,0.01648443,0.0188643,-0.00036862266
14168000,14168000,0.016879413,0.018121354,4.5655448e-05
14188000,14188000,0.017939286,0.018232888,0.00010488605
14208000,14208000,0.014953814,0.019186867,0.00013937456
14228000,14228000,0.01621599,0.018339237,-0.00010165698
14248000,14248000,0.017825333,0.0188506,0.00037314973
14264000,14264000,0.015507789,0.01766866,-0.00028342154
14284000,14284000,0.017371273,0.019004082,0.000103766004
14304000,14304000,0.015226337,0.01918174,6.733631e-05
14328000,14328000,0.017004145,0.018194927,3.734197e-05
14348000,14348000,0.015256415,0.01850647,0.0002534475
14368000,14368000,0.01663058,0.018122917,0.00017969291
14388000,14388000,0.015500326,0.019642897,0.00064599316
14408000,14408000,0.016503336,0.018952906,6.365589e-05
14428000,14428000,0.017593587,0.019373143,0.00045491723
14448000,14448000,0.01512954,0.018031446,0.00068813306
14468000,14468000,0.017472053,0.018951697,0.00037080116
14488000,14488000,0.015855655,0.01835342,0.00036193448
14504000,14504000,0.016909441,0.01878859,0.0006382699
14524000,14524000,0.017058227,0.017840058,0.00030343604
14544000,14544000,0.016611924,0.01911234,0.00034550639
14568000,14568000,0.015971081,0.01715639,0.00021312118
14588000,14588000,0.016405778,0.01860739,0.00032404138
14608000,14608000,0.01638301,0.0193261,0.00026948922
14624000,14624000,0.016912263,0.017886112,0.0004535443
14644000,14644000,0.016329352,0.018430244,0.0006459242
14664000,14664000,0.016191889,0.016528178,7.292593e-05
14684000,14684000,0.016537588,0.018966565,0.0005554104
14708000,14708000,0.016087048,0.017124388,0.0004861305
14728000,14728000,0.015547249,0.019087931,0.00011641898
14744000,14744000,0.01697951,0.017322455,0.00022289925
14768000,14768000,0.015816763,0.018370742,0.00049205584
14788000,14788000,0.015357752,0.018315,0.00017432243
14808000,14808000,0.015918752,0.018520478,0.0006361593
14828000,14828000,0.015994983,0.018527418,-0.00012198785
14848000,14848000,0.016029019,0.018651826,0.00021587375
14868000,14868000,0.01639996,0.017460648,-2.2365095e-05
14888000,14888000,0.016360514,0.017208599,-0.00022835769
14908000,14908000,0.016799456,0.018902186,0.00047102207
14928000,14928000,0.016809076,0.017430658,0.00021260655
14948000,14948000,0.015937096,0.018964287,3.37117e-05
14968000,14968000,0.015972381,0.01768392,0.0006089073
14988000,14988000,0.017443527,0.018732406,0.00014464633
15008000,15008000,0.015680501,0.01891507,-0.00013600946
15028000,15028000,0.015432208,0.017868657,0.00026921678
15048000,15048000,0.014912807,0.01851613,0.00013004366
15068000,15068000,0.01681658,0.019326944,0.0005926703
15088000,15088000,0.016766269,0.017555721,0.00042695086
15108000,15108000,0.015574341,0.018153332,-5.418187e-05
15128000,15128000,0.016393406,0.01859727,0.00024665357
15148000,15148000,0.015947636,0.019562734,0.00017882246
15168000,15168000,0.017592307,0.019242182,0.0009972936
15184000,15184000,0.0148318885,0.018294772,0.0002245844
15208000,15208000,0.015700765,0.018953262,4.788232e-05
15228000,15228000,0.015727952,0.018911606,-0.00043916245
15248000,15248000,0.015623579,0.018471828,0.00048729093
15268000,15268000,0.016047098,0.017188914,0.00030721608
15288000,15288000,0.016052257,0.017770203,0.00031159606
15304000,15304000,0.016594721,0.018549278,-0.00017775483
15328000,15328000,0.016804405,0.01865344,0.0005525766
15348000,15348000,0.01589076,0.018105656,0.0003838647
15368000,15368000,0.015695618,0.018357247,0.00043496798
15388000,15388000,0.01588867,0.01766533,0.0011015129
15408000,15408000,0.015977444,0.01895407,0.0005432966
15428000,15428000,0.015707852,0.018934043,0.00037231142
15444000,15444000,0.01612653,0.017292028,0.00026969067
15464000,15464000,0.016681481,0.0185747,0.00028636723
15488000,15488000,0.015836189,0.018182585,0.00039119032
15508000,15508000,0.01586162,0.01834342,0.00014162036
15528000,15528000,0.01618886,0.018047668,0.00016814939
15548000,15548000,0.015844984,0.017417524,-1.9203524e-06
15568000,15568000,0.017160932,0.01802465,0.0005472677
15584000,15584000,0.015386101,0.017880678,6.8499845e-05
15608000,15608000,0.015786715,0.018004598,0.0001495729
15628000,15628000,0.016338866,0.01786381,0.0002740946
15648000,15648000,0.016378485,0.01784039,-8.0709775e-05
15668000,15668000,0.015101044,0.017233295,0.00080245454
15688000,15688000,0.015881142,0.017546995,-6.0541613e-05
15708000,15708000,0.016363008,0.017756227,9.208498e-05
15728000,15728000,0.015182462,0.017924035,-6.825395e-05
15748000,15748000,0.016775984,0.017038748,0.0008646158
15768000,15768000,0.016743504,0.018092098,0.00031772998
15788000,15788000,0.015817441,0.01845749,0.00014969513
15808000,15808000,0.015611514,0.017971251,-0.00028685798
15828000,15828000,0.016015995,0.017053545,0.00044413665
15848000,15848000,0.015966233,0.016510233,-6.5944965e-05
15868000,15868000,0.016598536,0.018459797,0.00020850422
15888000,15888000,0.015052703,0.017435353,0.00022390357
15904000,15904000,0.016370265,0.017199676,-0.00051606615
15924000,15924000,0.016388055,0.017294394,0.00047569905
15944000,15944000,0.015920399,0.017321488,0.00035192058
15964000,15964000,0.014908041,0.01776314,0.00065368926
15988000,15988000,0.015472138,0.017673243,0.00047018696
16008000,16008000,0.015590824,0.017569872,0.0004658762
16024000,16024000,0.01620376,0.017021976,-5.8339036e-05
16048000,16048000,0.015902612,0.017421292,0.0005313425
16064000,16064000,0.017105926,0.01636215,0.00012165032
16084000,16084000,0.016061688,0.017504562,0.0002171709
16108000,16108000,0.016419403,0.016059026,-5.0311096e-06
16128000,16128000,0.015898595,0.017179841,0.0001703422
16148000,16148000,0.015910916,0.016744802,0.00027129913
16168000,16168000,0.015302485,0.016206926,0.00059194356
16188000,16188000,0.0161273,0.016598038,0.00060589163
16208000,16208000,0.01618066,0.016531756,-2.2401115e-05
16228000,16228000,0.016295932,0.016690135,0.00033725862
16248000,16248000,0.015938211,0.01636079,6.4622865e-05
16268000,16268000,0.01650861,0.018368322,0.0006656748
16288000,16288000,0.015880078,0.017228015,0.00015919344
16308000,16308000,0.015386191,0.017293273,0.00038108134
16328000,16328000,0.014802091,0.017493347,0.0004281736
16348000,16348000,0.01732558,0.016131217,-9.869262e-05
16368000,16368000,0.016273249,0.01780062,6.328036e-05
16388000,16388000,0.01677396,0.01785163,0.0007463744
16408000,16408000,0.016217744,0.015604854,0.00061418075
16428000,16428000,0.015449207,0.017611673,0.0006335825
16448000,16448000,0.016195603,0.017739471,0.00028252436
16468000,16468000,0.015335837,0.01704008,0.00025945573
16488000,16488000,0.01764434,0.016981587,-0.00018342608
16508000,16508000,0.015949756,0.016411165,0.00034465812
16528000,16528000,0.016209034,0.017668014,-0.00022654758
16548000,16548000,0.016101591,0.016952313,0.00056939496
16568000,16568000,0.016023833,0.016661689,-0.00014570542
16584000,16584000,0.015280677,0.017402088,0.000598409
16604000,16604000,0.016124543,0.016941298,0.00025820962
16628000,16628000,0.016006535,0.018220633,0.0001963795
16648000,16648000,0.01612097,0.016820397,0.00049287215
16668000,16668000,0.015797375,0.017704822,8.309866e-06
16688000,16688000,0.01585088,0.017246908,0.00094967586
16708000,16708000,0.016725495,0.017334023,0.0002093414
16728000,16728000,0.015407978,0.018209638,0.0001495995
16748000,16748000,0.015854802,0.017998978,0.00037655095
16768000,16768000,0.016345676,0.017210957,0.00014833845
16788000,16788000,0.017116638,0.016944595,0.00047263922
16808000,16808000,0.01554032,0.017151382,0.00019119939
16828000,16828000,0.016805012,0.018084278,7.225885e-05
16844000,16844000,0.015830163,0.017835828,0.00021797337
16868000,16868000,0.015070682,0.016059022,0.00017688009
16888000,16888000,0.01628572,0.01697811,0.00069235836
16908000,16908000,0.015764229,0.017303593,0.00016272905
16928000,16928000,0.016345482,0.016516153,0.00062930724
16948000,16948000,0.016018478,0.01657633,0.00014103999
16968000,16968000,0.015796803,0.016164104,-0.0001456167
16988000,16988000,0.015493382,0.016616728,6.996244e-05
17008000,17008000,0.016783763,0.017075868,2.9130466e-05
17028000,17028000,0.017509533,0.017758051,0.00048648348
17044000,17044000,0.015062336,0.016709272,0.0002759729
17064000,17064000,0.015583019,0.016503908,-0.00017917155
17084000,17084000,0.0161222,0.017512806,0.00019314853
17108000,17108000,0.015973309,0.016170517,0.00022373223
17128000,17128000,0.016126864,0.018617254,0.00021133172
17148000,17148000,0.016344054,0.016787916,0.0003911513
17168000,17168000,0.016424634,0.01675173,0.0007199081
17184000,17184000,0.0161998,0.016245188,0.00012254975
17204000,17204000,0.016497994,0.015168155,-8.55968e-05
17224000,17224000,0.015878491,0.017738976,0.00059767376
17244000,17244000,0.016717738,0.016936129,-0.00012557665
17264000,17264000,0.016351266,0.016739897,0.0002986135
17288000,17288000,0.01592051,0.017842293,6.325082e-05
17308000,17308000,0.015500987,0.016379848,0.00015826653
17328000,17328000,0.01679462,0.017187238,0.00038387455
17348000,17348000,0.016005214,0.016907277,0.00039456776
17368000,17368000,0.015738608,0.017746886,0.0003560249
17388000,17388000,0.016366025,0.017830875,-0.0001328092
17408000,17408000,0.016457343,0.01611738,0.00033551044
17428000,17428000,0.015472482,0.016958088,0.00022023478
17448000,17448000,0.01608097,0.01666396,0.00078159955
17468000,17468000,0.016850006,0.016978662,4.4167635e-05
17488000,17488000,0.015625358,0.017725205,2.7561828e-05
17508000,17508000,0.016473532,0.01653402,0.00038098966
17528000,17528000,0.0167697,0.016876604,5.648282e-05
17548000,17548000,0.015441726,0.016287776,0.00077396043
17568000,17568000,0.016382383,0.016314238,1.856523e-05
17588000,17588000,0.016517939,0.015950114,0.0005190222
17608000,17608000,0.015578191,0.017174065,0.00048873655
17628000,17628000,0.01585633,0.016090866,0.00077893777
17648000,17648000,0.015835399,0.01704637,0.00019429428
17668000,17668000,0.015540681,0.01730228,0.0001983639
17688000,17688000,0.015513623,0.017886424,0.00015560164
17708000,17708000,0.015947113,0.016987504,0.0006350218
17728000,17728000,0.015329865,0.016675327,0.00053760846
17748000,17748000,0.01479536,0.017577766,0.0011520565
17768000,17768000,0.015109567,0.016443614,9.918765e-05
17788000,17788000,0.015008466,0.016772516,0.0005040608
17808000,17808000,0.015626779,0.017417481,2.6239431e-06
17828000,17828000,0.016077317,0.0160022,0.00054540165
17848000,17848000,0.015668474,0.015984254,-0.00020691856
17868000,17868000,0.016212853,0.017269772,0.00026697325
17888000,17888000,0.014803013,0.016069993,0.00032822532
17908000,17908000,0.016214712,0.016346868,0.0005631501
17924000,17924000,0.016147492,0.016327646,-7.459312e-07
17948000,17948000,0.015576756,0.01628543,2.8745387e-06
17968000,17968000,0.015929576,0.016284294,0.0002565268
17988000,17988000,0.01437774,0.015752975,-0.000710923
18008000,18008000,0.015352446,0.016871773,0.00038358764
18024000,18024000,0.016389007,0.015519942,0.00016067542
18044000,18044000,0.015720336,0.01695188,0.0002576991
18068000,18068000,0.016048651,0.016251542,0.00054608175
18088000,18088000,0.015097024,0.016045129,0.0003865566
18108000,18108000,0.016289074,0.01622619,-3.2116368e-05
18128000,18128000,0.01603105,0.017219711,0.0005684354
18148000,18148000,0.015410498,0.016912462,6.191159e-05
18164000,18164000,0.015795445,0.016269412,0.00049239415
18184000,18184000,0.016080126,0.016831705,0.00012824977
18208000,18208000,0.015892383,0.016031051,0.00021205939
18228000,18228000,0.014599246,0.016143728,-6.797944e-05
18244000,18244000,0.01595716,0.017192937,0.00029093647
18268000,18268000,0.015434158,0.01783942,0.0006912346
18288000,18288000,0.016018558,0.017426176,0.0004099508
18308000,18308000,0.015402733,0.015634876,0.00029065384
18328000,18328000,0.016689735,0.01757022,-0.00026242557
18348000,18348000,0.0141223585,0.01636659,0.0007083798
18368000,18368000,0.016129436,0.016383296,0.00011825016
18388000,18388000,0.015513827,0.016737847,-9.284553e-06
18404000,18404000,0.0151668675,0.016275587,0.00016755557
18424000,18424000,0.014606746,0.016887356,0.00019186578
18444000,18444000,0.015016943,0.016140712,0.00052289054
18468000,18468000,0.015032457,0.015429475,0.00037667807
18488000,18488000,0.015640125,0.016920157,0.00037656783
18508000,18508000,0.015943829,0.015401259,0.00043860215
18528000,18528000,0.01492367,0.016261257,-9.07119e-05
18548000,18548000,0.016682025,0.016299352,0.0002858518
18568000,18568000,0.016621673,0.01770154,-0.00036301182
18588000,18588000,0.015183503,0.016442658,0.00082124455
18608000,18608000,0.016230872,0.015604666,1.425395e-05
18628000,18628000,0.015663033,0.016044242,-0.00020738869
18648000,18648000,0.015186098,0.017556392,8.64455e-05
18668000,18668000,0.016520396,0.0160855,0.00010971434
18688000,18688000,0.0149131175,0.015674314,0.00014288374
18708000,18708000,0.015545125,0.016224155,0.0001299616
18728000,18728000,0.015430779,0.016579388,0.00069806253
18748000,18748000,0.0156038385,0.017094607,9.618546e-05
18764000,18764000,0.0146417795,0.015731772,0.00031183774
18788000,18788000,0.01598649,0.015819848,0.0002680892
18808000,18808000,0.015402444,0.016682027,-6.62896e-05
18828000,18828000,0.01525343,0.016051155,-6.65896e-05
18848000,18848000,0.016072383,0.015550918,0.00047213753
18868000,18868000,0.015616119,0.016433552,0.00012385934
18888000,18888000,0.016520062,0.015576034,0.0006028773
18908000,18908000,0.015756387,0.016078014,-1.933336e-05
18924000,18924000,0.01500139,0.015434593,0.00054418086
18948000,18948000,0.016163569,0.01622055,9.6383585e-05
18968000,18968000,0.016368125,0.017587822,0.00014828851
18988000,18988000,0.01615459,0.015509653,0.00048264884
19004000,19004000,0.016054388,0.01717913,0.00029426994
19028000,19028000,0.015507439,0.015434861,0.00011641805
19044000,19044000,0.01540982,0.015720498,0.00013348254
19068000,19068000,0.015878282,0.016270684,0.0007204043
19084000,19084000,0.014912335,0.0154849915,0.0009945411
19108000,19108000,0.015943915,0.016469395,0.00011495128
19124000,19124000,0.016242221,0.014958769,0.0005239655
19144000,19144000,0.016158434,0.015914982,6.726716e-05
19164000,19164000,0.015991258,0.0174982,0.00039738952
19188000,19188000,0.016304197,0.016069515,6.0240007e-05
19208000,19208000,0.016150873,0.01518586,0.00032689708
19228000,19228000,0.015502284,0.017416501,-0.00012930707
19248000,19248000,0.016332531,0.015413016,0.00018348389
19268000,19268000,0.015651017,0.016145157,0.0002554763
19284000,19284000,0.017078107,0.01674755,3.8030477e-05
19304000,19304000,0.015367483,0.015428397,0.0005584971
19328000,19328000,0.015290561,0.015752103,0.0009987674
19348000,19348000,0.015754506,0.015893111,0.00034782928
19364000,19364000,0.0154505735,0.016698059,0.00060460094
19384000,19384000,0.016025465,0.016745044,0.00043363645
19408000,19408000,0.015979737,0.015439381,0.000718601
19428000,19428000,0.01454239,0.015958609,0.00054889865
19448000,19448000,0.015333127,0.015855579,0.0003574068
19468000,19468000,0.014882076,0.015212949,0.0006168998
19488000,19488000,0.014661406,0.016509267,0.000852439
19508000,19508000,0.015737228,0.015495093,0.00039073787
19524000,19524000,0.015488748,0.016378447,-0.00013938057
19544000,19544000,0.01862656,0.01595502,0.0009281995
19564000,19564000,0.020861229,0.01633875,-4.5557008e-05
19588000,19588000,0.018609561,0.017088166,6.075405e-05
19608000,19608000,0.019552754,0.01664403,0.00013893687
19628000,19628000,0.018521806,0.01609442,-1.18940725e-05
19648000,19648000,0.019395405,0.017343113,-0.00023018909
19668000,19668000,0.019017747,0.016404975,0.0009255533
19688000,19688000,0.020195968,0.016486326,0.0002903362
19708000,19708000,0.019703165,0.016089298,0.00019821808
19728000,19728000,0.019795993,0.016516719,0.0006508079
19748000,19748000,0.020136314,0.01648186,0.00023852359
19768000,19768000,0.020716222,0.017103191,0.00013055134
19788000,19788000,0.020327782,0.01691035,0.00012189792
19808000,19808000,0.020597165,0.016005345,0.00028946847
19828000,19828000,0.019243142,0.01615939,0.0001762956
19844000,19844000,0.020843342,0.016040975,0.00048665874
19868000,19868000,0.020489836,0.016382497,0.00029435198
19888000,19888000,0.02047155,0.01720303,0.000399608
19908000,19908000,0.020440122,0.015765905,7.0602146e-05
19928000,19928000,0.020507617,0.016116166,0.00022320355
19948000,19948000,0.020349242,0.017073117,-0.00029238366
19968000,19968000,0.020797845,0.016469615,0.00019896305
19988000,19988000,0.02119836,0.015327865,0.0002697967
20008000,20008000,0.020074598,0.016602892,0.00010855393
20028000,20028000,0.014292245,0.023795752,-0.00048383954
20048000,20048000,0.009161421,0.027762989,0.0006217565
20068000,20068000,0.0059150737,0.029052952,0.00041045807
20084000,20084000,0.003830108,0.030891702,0.00031534475
20104000,20104000,0.0027357533,0.033570714,-0.00025413037
20124000,20124000,0.0011876597,0.036509916,0.00052477093
20144000,20144000,-0.0015487415,0.03858663,0.000544303
20164000,20164000,-0.0041639693,0.041704632,0.00060557877
20184000,20184000,-0.0056022154,0.041675802,0.0011728035
20204000,20204000,-0.009705149,0.04513166,0.00094562175
20224000,20224000,-0.00983048,0.045664247,9.225432e-05
20248000,20248000,-0.014251622,0.0508949,0.0008368622
20268000,20268000,-0.01594077,0.053813502,0.0009233047
20288000,20288000,-0.01855137,0.056700666,0.00040319772
20308000,20308000,-0.021478267,0.06063233,0.0009914776
20328000,20328000,-0.02491884,0.0652273,0.0015406045
20348000,20348000,-0.02737877,0.06945982,0.0008528369
20368000,20368000,-0.028748816,0.07017799,0.001352137
20388000,20388000,-0.035033226,0.07524634,0.0016721574
20408000,20408000,-0.034086004,0.078823894,0.0011365047
20428000,20428000,-0.03624542,0.08009716,0.0013809341
20448000,20448000,-0.037978567,0.08275809,0.0012229558
20468000,20468000,-0.040689614,0.08658425,0.0019200823
20488000,20488000,-0.042911224,0.08798578,0.0018584247
20508000,20508000,-0.04549593,0.0930265,0.0014155512
20528000,20528000,-0.04901863,0.095758505,0.0017490957
20548000,20548000,-0.052569617,0.099452004,0.0021855535
20568000,20568000,-0.053978615,0.104036406,0.0017299479
20588000,20588000,-0.0586993,0.10814877,0.0024976972
20608000,20608000,-0.060783617,0.11055989,0.0022261147
20628000,20628000,-0.06601673,0.11509552,0.002470603
20644000,20644000,-0.06684057,0.118355006,0.0026438376
20664000,20664000,-0.07171442,0.123846315,0.0024856315
20688000,20688000,-0.07557248,0.1280396,0.002576312
20708000,20708000,-0.079213485,0.1333401,0.0028803395
20728000,20728000,-0.082345285,0.13577332,0.0028944039
20748000,20748000,-0.08707745,0.14407134,0.003150114
20768000,20768000,-0.0895209,0.14531909,0.0027412048
20788000,20788000,-0.096137755,0.15202862,0.0037569604
20808000,20808000,-0.0976869,0.15458806,0.0037562586
20824000,20824000,-0.098187566,0.15616317,0.0034306103
20848000,20848000,-0.10106324,0.15982695,0.003628475
20868000,20868000,-0.10186116,0.16214687,0.003440933
20888000,20888000,-0.10616902,0.16521263,0.00369141
20908000,20908000,-0.10808959,0.16855958,0.004334258
20928000,20928000,-0.11145093,0.1722401,0.0037532856
20948000,20948000,-0.11439732,0.17698033,0.0043028845
20968000,20968000,-0.11813015,0.17930159,0.0039387024
20988000,20988000,-0.122532085,0.18448523,0.0047763707
21008000,21008000,-0.12587713,0.18860132,0.004414509
21028000,21028000,-0.12911594,0.19383043,0.004537378
21048000,21048000,-0.13388048,0.1990544,0.005684699
21068000,21068000,-0.1385712,0.20267607,0.0050195525
21088000,21088000,-0.14104016,0.20836137,0.0049125752
21108000,21108000,-0.14740929,0.21390322,0.005097283
21128000,21128000,-0.15182452,0.21816316,0.0059481505
21148000,21148000,-0.15591009,0.22350383,0.0060007335
21168000,21168000,-0.16129704,0.22764836,0.004936278
21184000,21184000,-0.16635074,0.2347537,0.0060144374
21204000,21204000,-0.16827103,0.23699965,0.006649074
21224000,21224000,-0.16718803,0.23815522,0.0065042065
21248000,21248000,-0.17095716,0.24092644,0.0061995154
21268000,21268000,-0.17251235,0.24326469,0.0060302834
21288000,21288000,-0.17518772,0.24703173,0.0064586354
21308000,21308000,-0.17650224,0.2510238,0.006839254
21328000,21328000,-0.1810213,0.2546986,0.007031871
21348000,21348000,-0.1842875,0.25766176,0.0062023383
21368000,21368000,-0.18852659,0.26017028,0.0068075294
21388000,21388000,-0.19309962,0.26518264,0.006765021
21404000,21404000,-0.19425681,0.27014866,0.007164311
21424000,21424000,-0.19909701,0.27455172,0.0066447807
21444000,21444000,-0.20223321,0.27923983,0.007563303
21464000,21464000,-0.2069984,0.28397885,0.0076360554
21484000,21484000,-0.21127488,0.2879884,0.007573748
21504000,21504000,-0.21560736,0.29291746,0.007930089
21528000,21528000,-0.22094221,0.29574582,0.007941702
21548000,21548000,-0.22607332,0.2980042,0.008157804
21564000,21564000,-0.23074822,0.29716086,0.008314384
21584000,21584000,-0.23364115,0.2945429,0.00772346
21604000,21604000,-0.23814932,0.2867053,0.0078901565
21628000,21628000,-0.23459236,0.27624643,0.005113224
21644000,21644000,-0.23162562,0.27056,0.0033667744
21668000,21668000,-0.22827706,0.2626448,0.0005912046
21688000,21688000,-0.22409408,0.2579326,-0.0019521273
21708000,21708000,-0.22125493,0.25068185,-0.004840179
21728000,21728000,-0.2173846,0.24536853,-0.008041897
21748000,21748000,-0.21413548,0.2393118,-0.011246717
21764000,21764000,-0.20859317,0.23439689,-0.013041014
21788000,21788000,-0.20212209,0.22732909,-0.016888464
21808000,21808000,-0.19525948,0.22096281,-0.020784853
21828000,21828000,-0.19119407,0.21176293,-0.023971222
21848000,21848000,-0.18431723,0.20559496,-0.026887137
21868000,21868000,-0.17503974,0.19757603,-0.029819721
21888000,21888000,-0.1676533,0.18960343,-0.03261705
21908000,21908000,-0.16126497,0.17972322,-0.035253953
21928000,21928000,-0.14992411,0.17312346,-0.038802333
21948000,21948000,-0.14289483,0.16063385,-0.040582433
21968000,21968000,-0.13051327,0.15325662,-0.043797523
21988000,21988000,-0.12508492,0.14089683,-0.045766927
22008000,22008000,-0.10905001,0.12739876,-0.048934687
22028000,22028000,-0.094071984,0.10801176,-0.05130994
22044000,22044000,-0.081618644,0.09810159,-0.05350464
22064000,22064000,-0.06820389,0.08097849,-0.056548107
22084000,22084000,-0.053080585,0.06663449,-0.058775507
22104000,22104000,-0.04194673,0.051888857,-0.060958087
22124000,22124000,-0.025879052,0.037106656,-0.06311961
22148000,22148000,-0.013775629,0.019735506,-0.063028045
22168000,22168000,0.0026799152,0.0069666514,-0.06336442
22188000,22188000,0.016075714,-0.012648707,-0.06120483
22208000,22208000,0.034005895,-0.024776103,-0.058385927
22224000,22224000,0.04451053,-0.04117978,-0.05485227
22244000,22244000,0.06407459,-0.05460419,-0.04971651
22268000,22268000,0.06671554,-0.06609012,-0.04216707
22288000,22288000,0.061642896,-0.057128295,-0.037312765
22308000,22308000,0.054699384,-0.056820124,-0.03137356
22328000,22328000,0.048615925,-0.044765428,-0.026281346
22348000,22348000,0.041605093,-0.039008915,-0.021844216
22368000,22368000,0.03368566,-0.028638098,-0.018009836
22388000,22388000,0.023980927,-0.02036393,-0.013718665
22408000,22408000,0.019706056,-0.010732368,-0.009857883
22428000,22428000,0.015586239,-0.008032545,-0.0069516273
22448000,22448000,0.012660076,5.7890546e-05,-0.003930477
22468000,22468000,0.0044284053,0.005430858,-0.0009262329
22484000,22484000,0.003899281,0.012936169,-0.00022280402
22504000,22504000,-0.0065412023,0.020036446,0.0016229525
22524000,22524000,-0.004874209,0.02611852,0.0034043128
22544000,22544000,-0.010793581,0.028259046,0.0045415703
22564000,22564000,-0.011612741,0.032912433,0.004348674
22588000,22588000,-0.011695974,0.032666698,0.0054105716
22608000,22608000,-0.01638142,0.036433533,0.0065018116
22628000,22628000,-0.011511082,0.030573374,0.006902921
22648000,22648000,-0.015362576,0.03428004,0.0057316693
22668000,22668000,-0.012858805,0.028981842,0.005325921
22684000,22684000,-0.015694188,0.032393932,0.00530611
22704000,22704000,-0.010342831,0.024441287,0.004408162
22724000,22724000,-0.012308686,0.026478672,0.0044876235
22744000,22744000,-0.01210691,0.0203796,0.0038157841
22764000,22764000,-0.008695828,0.018652713,0.0033381502
22784000,22784000,-0.008072006,0.015101504,0.0034580296
22804000,22804000,-0.0032185372,0.010393941,0.001966368
22824000,22824000,-0.0032909748,0.007242323,0.0019818437
22844000,22844000,0.0018640447,0.0004810458,0.0014523785
22864000,22864000,0.00011998786,0.0025285622,0.002557265
22884000,22884000,0.0027343757,-0.0009643446,0.0015963465
22908000,22908000,-0.00044297136,0.0021068994,0.0019229595
22924000,22924000,-3.9489067e-05,0.00048714713,0.0014898847
22948000,22948000,4.6818957e-05,0.0054821195,0.0010229452
22968000,22968000,-0.001777194,0.004423149,0.0013699424
22984000,22984000,-0.0017999441,0.0060870233,0.0012510391
23008000,23008000,-0.0033516027,0.009010762,0.0010088878
23028000,23028000,-0.0031641643,0.008658608,0.00090843625
23044000,23044000,-0.003725788,0.009982072,0.00091757625
23068000,23068000,-0.0035204685,0.011295844,0.00041036913
23084000,23084000,-0.0055267964,0.011989441,3.478024e-05
23104000,23104000,-0.0045210607,0.012862008,0.00038606068
23124000,23124000,-0.0070521953,0.013833312,0.00038136914
23144000,23144000,-0.0035583873,0.013529704,-0.00018595811
23164000,23164000,-0.0045735687,0.013388842,-0.00020395918
23188000,23188000,-0.004166374,0.011995673,5.484931e-05
23208000,23208000,-0.0026265713,0.0121243335,0.00042420067
23228000,23228000,-0.0017626781,0.0101453895,0.00072428444
23244000,23244000,-0.00047085877,0.006753427,-8.915877e-05
23268000,23268000,0.0004811415,0.005758278,0.0002926397
23288000,23288000,0.00077198754,0.0062748436,0.00022429647
23308000,23308000,0.00045501423,0.0047466895,0.00040647667
23328000,23328000,-0.0005997026,0.006094099,0.00054982817
23344000,23344000,-0.0019593742,0.006558775,2.5577843e-05
23364000,23364000,-0.0016712763,0.00753365,0.00026518898
23384000,23384000,-0.0017393955,0.0054443222,-0.00044585578
23408000,23408000,-0.0005858268,0.006519204,0.0009881291
23428000,23428000,-0.0031515504,0.00802733,-0.00021073828
23448000,23448000,-0.0021997741,0.006492302,-0.0006841845
23468000,23468000,-0.0020394812,0.009162214,-0.0004552938
23488000,23488000,-0.002585121,0.006647893,0.00012788502
23508000,23508000,-0.0025445619,0.007351379,-0.00071860757
23528000,23528000,-0.0027492866,0.0074611134,-0.00043312693
23548000,23548000,-0.0017529206,0.008100582,7.407833e-05
23568000,23568000,-0.0030629975,0.007832509,-0.00021155737
23588000,23588000,-0.0005820767,0.008070615,-0.000102609396
23608000,23608000,-0.0007095381,0.007528699,-0.00010679243
23628000,23628000,-0.002819895,0.006591242,-0.00032653194
23648000,23648000,-0.0009998048,0.0066231755,-5.711289e-05
23668000,23668000,-0.0027109226,0.0057909526,-0.00030874088
23688000,23688000,-0.0017833278,0.004830471,-0.0005504
23708000,23708000,0.00042518263,0.0059345476,-0.00020926772
23728000,23728000,-0.0002474633,0.0041721896,-0.0007034156
23748000,23748000,0.0010800672,0.0044330163,-0.0003005853
23764000,23764000,-0.00056467083,0.0037090657,0.00014517782
23788000,23788000,0.00019081455,0.0033272707,-0.0006507931
23808000,23808000,-0.00012414134,0.003432985,-0.00016613072
23828000,23828000,-0.0002477327,0.0039546615,-2.0218082e-05
23848000,23848000,-0.00018974609,0.0038184833,-0.00056078983
23864000,23864000,0.0003082691,0.0018431506,-0.00041295448
23884000,23884000,0.00070100883,0.0029520292,0.0007094145
23904000,23904000,0.0019747068,0.0028291035,-0.00050545135
23928000,23928000,0.0016368739,0.003877212,-0.00036435807
23948000,23948000,0.002306862,0.0024740228,0.00059124175
23968000,23968000,0.0012113658,0.0029248968,-0.00012580957
23988000,23988000,0.0014219864,0.0029339518,-0.00048112962
24008000,24008000,-0.0003028633,0.003842995,6.0416292e-05
24028000,24028000,-0.0024666395,0.005560823,0.0001717424
24044000,24044000,-0.003510667,0.006382265,-0.0008491217
24068000,24068000,-0.004514912,0.0062239696,-0.0003279606
24088000,24088000,-0.0028027704,0.005944686,-0.000710391
24108000,24108000,-0.0012972029,0.0050260075,-0.00036045443
24128000,24128000,0.00018369267,0.0037473685,-6.0576247e-05
24148000,24148000,0.0009986497,0.0027575856,-9.612134e-05
24168000,24168000,0.0027330061,0.0020694311,-0.0004390946
24184000,24184000,0.0021133341,0.00080334826,-0.00021214853
24204000,24204000,0.0033697227,0.0013870785,-5.434081e-05
24224000,24224000,0.003433143,0.00045059284,-0.000454003
24244000,24244000,0.0036440608,0.00083985133,-3.527524e-05
24268000,24268000,0.0052458527,0.00056329207,0.0004299474
24284000,24284000,0.0043029874,-0.00024159293,-0.00032886
24308000,24308000,0.005097893,-0.0014236653,-6.377464e-06
24328000,24328000,0.004389489,-0.0015345727,-0.00026741647
24348000,24348000,0.0050723962,-0.0013213736,-2.7513597e-06
24368000,24368000,0.006275705,-0.0002034672,-0.0008271325
24388000,24388000,0.0032884253,-0.0021261603,-0.00035608537
24404000,24404000,0.000972621,0.00032232777,-0.0002558767
24424000,24424000,-0.0034743398,0.006807101,-0.0002548315
24444000,24444000,-0.0054645697,0.008402098,0.0001601174
24468000,24468000,-0.006604452,0.008823123,-0.0002921815
24488000,24488000,-0.0048940703,0.008228349,-0.00068024313
24508000,24508000,-0.0035332236,0.0077132494,-0.00026041153
24528000,24528000,-0.0023287134,0.0063450513,-0.00062566577
24548000,24548000,0.0002313254,0.0036281256,0.00033471943
24568000,24568000,0.0007299861,0.0028319103,-0.0007815466
24588000,24588000,0.002081394,0.0020435844,-0.0003185307
24608000,24608000,0.004511839,9.371067e-05,-0.00025741546
24628000,24628000,0.005377992,-0.0020468745,-0.00043745968
24648000,24648000,0.0063123293,-0.0012429195,0.00019577309
24668000,24668000,0.006351871,-0.0021606102,-0.00042786985
24688000,24688000,0.007680727,-0.0042072255,-0.00022307364
24708000,24708000,0.0072231456,-0.004327809,-0.0006408929
24728000,24728000,0.0076200245,-0.004460287,-0.0003572991
24748000,24748000,0.006515234,-0.004188028,6.99861e-05
24768000,24768000,0.0063749924,-0.0039236783,0.000118515454
24788000,24788000,0.005988733,-0.0028339126,0.00012100511
24808000,24808000,0.0024860702,0.00027489278,-0.0006031424
24828000,24828000,-0.0035749301,0.0061596306,-0.00040193857
24848000,24848000,-0.005692435,0.010905399,-0.00026060292
24868000,24868000,-0.008209931,0.011959007,-0.0007951999
24888000,24888000,-0.0061795046,0.010455806,-0.0002750128
24908000,24908000,-0.0054219943,0.008596579,-0.00032553216
24928000,24928000,-0.0021604782,0.006106224,-0.00070798723
24948000,24948000,-3.9622188e-05,0.0048142266,-0.0007599492
24968000,24968000,0.0014612806,0.0024494324,-0.0004967132
24988000,24988000,0.0029990189,0.0006500988,-0.0010643483
25008000,25008000,0.0056062806,-0.0005808906,-7.733004e-06
25028000,25028000,0.005902921,-0.0027663843,-0.00097454234
25048000,25048000,0.007479882,-0.0046572266,-2.089818e-05
25068000,25068000,0.008003212,-0.0064740307,-0.00027958746
25088000,25088000,0.009765744,-0.0060056555,-0.00010426296
25108000,25108000,0.010737673,-0.0058107506,-0.000587357
25128000,25128000,0.011257916,-0.007371051,0.00011114753
25148000,25148000,0.01004589,-0.00600332,0.0007842516
25168000,25168000,0.008932442,-0.0056659607,0.0008425282
25188000,25188000,0.007912565,-0.006181866,0.0011831161
