timestamp,timestamp_sample,yaw_composite,yaw_variance,yaw[0],yaw[1],yaw[2],yaw[3],yaw[4],innov_vn[0],innov_vn[1],innov_vn[2],innov_vn[3],innov_vn[4],innov_ve[0],innov_ve[1],innov_ve[2],innov_ve[3],innov_ve[4],weight[0],weight[1],weight[2],weight[3],weight[4],yaw_composite_valid
20396000,20316000,2.6779451,3.5801747,-2.5132742,-1.2566371,0.0,1.2566371,2.5132742,0.0,0.0,0.0,0.0,0.0,0.0,0.0,0.0,0.0,0.0,0.2,0.2,0.2,0.2,0.2,0
20404000,20324000,2.4980917,3.5532885,-2.5132952,-1.2566581,-2.0922747e-05,1.2566161,2.5132532,0.0,0.0,0.0,0.0,0.0,0.0,0.0,0.0,0.0,0.0,0.2,0.2,0.2,0.2,0.2,0
20412000,20332000,2.3561945,3.5777228,-2.513307,-1.25667,-3.283272e-05,1.2566042,2.5132413,0.0,0.0,0.0,0.0,0.0,0.0,0.0,0.0,0.0,0.0,0.2,0.2,0.2,0.2,0.2,0
20420000,20340000,-3.0172377,3.8069975,-2.513315,-1.2566777,-4.0600542e-05,1.2565964,2.5132337,0.0,0.0,0.0,0.0,0.0,0.0,0.0,0.0,0.0,0.0,0.2,0.2,0.2,0.2,0.2,0
20428000,20348000,-3.041924,3.8324947,-2.5133083,-1.2566712,-3.3993452e-05,1.2566031,2.5132403,0.0,0.0,0.0,0.0,0.0,0.0,0.0,0.0,0.0,0.0,0.2,0.2,0.2,0.2,0.2,0
20436000,20356000,-2.6779451,3.5801659,-2.5133097,-1.2566726,-3.5563415e-05,1.2566016,2.5132387,0.0,0.0,0.0,0.0,0.0,0.0,0.0,0.0,0.0,0.0,0.2,0.2,0.2,0.2,0.2,0
20444000,20364000,2.3561945,3.5777218,-2.5133185,-1.2566814,-4.429124e-05,1.2565928,2.5132298,0.0,0.0,0.0,0.0,0.0,0.0,0.0,0.0,0.0,0.0,0.2,0.2,0.2,0.2,0.2,0
20452000,20372000,-2.2455373,3.6247735,-2.5133271,-1.2566901,-5.3042077e-05,1.256584,2.5132213,0.0,0.0,0.0,0.0,0.0,0.0,0.0,0.0,0.0,0.0,0.2,0.2,0.2,0.2,0.2,0
20460000,20380000,-3.0172377,3.8069787,-2.5133367,-1.2566996,-6.24034e-05,1.2565746,2.513212,0.0,0.0,0.0,0.0,0.0,0.0,0.0,0.0,0.0,0.0,0.2,0.2,0.2,0.2,0.2,0
20468000,20388000,-2.782822,3.6256773,-2.5133524,-1.2567152,-7.806927e-05,1.256559,2.5131962,0.0,0.0,0.0,0.0,0.0,0.0,0.0,0.0,0.0,0.0,0.2,0.2,0.2,0.2,0.2,0
20476000,20396000,-2.0899425,3.7323399,-2.5133522,-1.2567152,-7.8051875e-05,1.256559,2.5131962,0.0,0.0,0.0,0.0,0.0,0.0,0.0,0.0,0.0,0.0,0.2,0.2,0.2,0.2,0.2,0
20484000,20404000,3.1415927,3.9477522,-2.513351,-1.256714,-7.685051e-05,1.2565603,2.5131974,0.0,0.0,0.0,0.0,0.0,0.0,0.0,0.0,0.0,0.0,0.2,0.2,0.2,0.2,0.2,0
20492000,20412000,-2.896614,3.6999602,-2.5133452,-1.2567081,-7.108721e-05,1.256566,2.5132031,0.0,0.0,0.0,0.0,0.0,0.0,0.0,0.0,0.0,0.0,0.2,0.2,0.2,0.2,0.2,0
20500000,20420000,-3.070285,3.8632393,-2.513353,-1.256716,-7.886932e-05,1.2565583,2.5131955,0.0,0.0,0.0,0.0,0.0,0.0,0.0,0.0,0.0,0.0,0.2,0.2,0.2,0.2,0.2,0
20508000,20428000,-2.8501358,3.6664886,-2.5133538,-1.2567167,-7.955679e-05,1.2565576,2.5131948,0.0,0.0,0.0,0.0,0.0,0.0,0.0,0.0,0.0,0.0,0.2,0.2,0.2,0.2,0.2,0
20516000,20436000,-2.2142975,3.6425037,-2.5133564,-1.2567195,-8.233007e-05,1.2565548,2.513192,0.0,0.0,0.0,0.0,0.0,0.0,0.0,0.0,0.0,0.0,0.2,0.2,0.2,0.2,0.2,0
20524000,20444000,-2.896614,3.6999612,-2.5133476,-1.2567106,-7.3527364e-05,1.2565637,2.5132008,0.0,0.0,0.0,0.0,0.0,0.0,0.0,0.0,0.0,0.0,0.2,0.2,0.2,0.2,0.2,0
20532000,20452000,-2.819842,3.6470077,-2.5133464,-1.2567095,-7.2316e-05,1.2565649,2.513202,0.0,0.0,0.0,0.0,0.0,0.0,0.0,0.0,0.0,0.0,0.2,0.2,0.2,0.2,0.2,0
20540000,20460000,-2.9441972,3.7386906,-2.5133588,-1.2567217,-8.4580235e-05,1.2565526,2.5131898,0.0,0.0,0.0,0.0,0.0,0.0,0.0,0.0,0.0,0.0,0.2,0.2,0.2,0.2,0.2,0
20548000,20468000,-3.0172377,3.8069456,-2.5133767,-1.2567396,-0.00010241287,1.2565347,2.513172,0.0,0.0,0.0,0.0,0.0,0.0,0.0,0.0,0.0,0.0,0.2,0.2,0.2,0.2,0.2,0
20556000,20476000,3.1415927,3.947711,-2.5133884,-1.2567512,-0.00011406205,1.256523,2.5131602,0.0,0.0,0.0,0.0,0.0,0.0,0.0,0.0,0.0,0.0,0.2,0.2,0.2,0.2,0.2,0
20564000,20484000,2.7610862,3.614546,-2.5134034,-1.2567662,-0.0001290747,1.2565081,2.5131452,0.0,0.0,0.0,0.0,0.0,0.0,0.0,0.0,0.0,0.0,0.2,0.2,0.2,0.2,0.2,0
20572000,20492000,-3.041924,3.8323908,-2.5134172,-1.2567801,-0.00014294073,1.2564942,2.5131314,0.0,0.0,0.0,0.0,0.0,0.0,0.0,0.0,0.0,0.0,0.2,0.2,0.2,0.2,0.2,0
20580000,20500000,-2.976444,3.7674787,-2.5134032,-1.2567661,-0.00012893343,1.2565081,2.5131454,0.0,0.0,0.0,0.0,0.0,0.0,0.0,0.0,0.0,0.0,0.2,0.2,0.2,0.2,0.2,0
20588000,20508000,-2.5702553,3.5563054,-2.5133977,-1.2567608,-0.00012357866,1.2565136,2.513151,0.0,0.0,0.0,0.0,0.0,0.0,0.0,0.0,0.0,0.0,0.2,0.2,0.2,0.2,0.2,0
20596000,20516000,-2.4668517,3.5552416,-2.5134168,-1.2567798,-0.00014256689,1.2564945,2.5131319,0.0,0.0,0.0,0.0,0.0,0.0,0.0,0.0,0.0,0.0,0.2,0.2,0.2,0.2,0.2,0
20604000,20524000,-2.8387077,3.658883,-2.5134249,-1.2567878,-0.00015054447,1.2564867,2.513124,0.0,0.0,0.0,0.0,0.0,0.0,0.0,0.0,0.0,0.0,0.2,0.2,0.2,0.2,0.2,0
20612000,20532000,-2.819842,3.6469626,-2.5134306,-1.2567935,-0.00015624649,1.2564809,2.5131183,0.0,0.0,0.0,0.0,0.0,0.0,0.0,0.0,0.0,0.0,0.2,0.2,0.2,0.2,0.2,0
20620000,20540000,-2.8501358,3.666446,-2.5134299,-1.2567928,-0.00015562493,1.2564815,2.5131187,0.0,0.0,0.0,0.0,0.0,0.0,0.0,0.0,0.0,0.0,0.2,0.2,0.2,0.2,0.2,0
20628000,20548000,-2.7610862,3.6144018,-2.5134459,-1.2568089,-0.00017168427,1.2564654,2.5131028,0.0,0.0,0.0,0.0,0.0,0.0,0.0,0.0,0.0,0.0,0.2,0.2,0.2,0.2,0.2,0
20636000,20556000,-2.8387077,3.6588666,-2.5134532,-1.2568161,-0.00017893748,1.2564583,2.5130956,0.0,0.0,0.0,0.0,0.0,0.0,0.0,0.0,0.0,0.0,0.2,0.2,0.2,0.2,0.2,0
20644000,20564000,-2.9562447,3.749142,-2.5134525,-1.2568154,-0.00017819252,1.256459,2.5130963,0.0,0.0,0.0,0.0,0.0,0.0,0.0,0.0,0.0,0.0,0.2,0.2,0.2,0.2,0.2,0
20652000,20572000,-2.7468016,3.6075287,-2.5134542,-1.2568172,-0.00018005965,1.2564571,2.5130944,0.0,0.0,0.0,0.0,0.0,0.0,0.0,0.0,0.0,0.0,0.2,0.2,0.2,0.2,0.2,0
20660000,20580000,-2.7468016,3.607521,-2.5134711,-1.2568341,-0.00019691091,1.2564403,2.5130775,0.0,0.0,0.0,0.0,0.0,0.0,0.0,0.0,0.0,0.0,0.2,0.2,0.2,0.2,0.2,0
20668000,20588000,-3.0860941,3.8809545,-2.5134902,-1.2568531,-0.0002158338,1.2564213,2.5130587,0.0,0.0,0.0,0.0,0.0,0.0,0.0,0.0,0.0,0.0,0.2,0.2,0.2,0.2,0.2,0
20676000,20596000,-2.4227626,3.561312,-2.5134954,-1.2568585,-0.0002212864,1.2564158,2.5130532,0.0,0.0,0.0,0.0,0.0,0.0,0.0,0.0,0.0,0.0,0.2,0.2,0.2,0.2,0.2,0
20684000,20604000,-2.7367008,3.6028962,-2.5135055,-1.2568684,-0.00023116339,1.256406,2.5130434,0.0,0.0,0.0,0.0,0.0,0.0,0.0,0.0,0.0,0.0,0.2,0.2,0.2,0.2,0.2,0
20692000,20612000,3.041924,3.8327951,-2.5135045,-1.2568674,-0.00023017367,1.256407,2.513044,0.0,0.0,0.0,0.0,0.0,0.0,0.0,0.0,0.0,0.0,0.2,0.2,0.2,0.2,0.2,0
20700000,20620000,-2.896614,3.699857,-2.513501,-1.256864,-0.00022670129,1.2564105,2.5130477,0.0,0.0,0.0,0.0,0.0,0.0,0.0,0.0,0.0,0.0,0.2,0.2,0.2,0.2,0.2,0
20708000,20628000,-2.896614,3.699851,-2.5135098,-1.2568727,-0.00023534904,1.2564018,2.513039,0.0,0.0,0.0,0.0,0.0,0.0,0.0,0.0,0.0,0.0,0.2,0.2,0.2,0.2,0.2,0
20716000,20636000,-2.9441972,3.7385643,-2.513522,-1.2568848,-0.0002475639,1.2563896,2.513027,0.0,0.0,0.0,0.0,0.0,0.0,0.0,0.0,0.0,0.0,0.2,0.2,0.2,0.2,0.2,0
20724000,20644000,-2.7367008,3.6028867,-2.5135343,-1.2568974,-0.00026014852,1.256377,2.5130143,0.0,0.0,0.0,0.0,0.0,0.0,0.0,0.0,0.0,0.0,0.2,0.2,0.2,0.2,0.2,0
20732000,20652000,-2.976444,3.767376,-2.5135274,-1.2568903,-0.00025304596,1.2563841,2.5130215,0.0,0.0,0.0,0.0,0.0,0.0,0.0,0.0,0.0,0.0,0.2,0.2,0.2,0.2,0.2,0
20740000,20660000,-2.8706458,3.6806278,-2.513514,-1.256877,-0.00023971994,1.2563975,2.5130348,0.0,0.0,0.0,0.0,0.0,0.0,0.0,0.0,0.0,0.0,0.2,0.2,0.2,0.2,0.2,0
20748000,20668000,-2.9229238,3.720689,-2.513529,-1.2568921,-0.00025483908,1.2563825,2.5130196,0.0,0.0,0.0,0.0,0.0,0.0,0.0,0.0,0.0,0.0,0.2,0.2,0.2,0.2,0.2,0
20756000,20676000,-2.896614,3.6998472,-2.5135195,-1.2568827,-0.00024532512,1.2563919,2.513029,0.0,0.0,0.0,0.0,0.0,0.0,0.0,0.0,0.0,0.0,0.2,0.2,0.2,0.2,0.2,0
20764000,20684000,-2.976444,3.767394,-2.5135102,-1.2568733,-0.00023601072,1.2564013,2.5130384,0.0,0.0,0.0,0.0,0.0,0.0,0.0,0.0,0.0,0.0,0.2,0.2,0.2,0.2,0.2,0
20772000,20692000,-2.8049178,3.6380057,-2.5135093,-1.2568724,-0.00023504441,1.2564021,2.5130396,0.0,0.0,0.0,0.0,0.0,0.0,0.0,0.0,0.0,0.0,0.2,0.2,0.2,0.2,0.2,0
20780000,20700000,-2.918116,3.7167933,-2.5135107,-1.2568736,-0.00023630593,1.256401,2.5130382,0.0,0.0,0.0,0.0,0.0,0.0,0.0,0.0,0.0,0.0,0.2,0.2,0.2,0.2,0.2,0
20788000,20708000,-2.8706458,3.6806302,-2.5135152,-1.2568784,-0.00024102809,1.2563963,2.5130334,0.0,0.0,0.0,0.0,0.0,0.0,0.0,0.0,0.0,0.0,0.2,0.2,0.2,0.2,0.2,0
20796000,20716000,-0.5932151,3.7991965,-2.508634,-1.2536759,-0.0031347126,1.2514137,2.5128562,-0.11278407,0.22643986,0.23891197,-0.092603825,-0.3099639,-0.28200418,-0.1848975,0.16773118,0.28856108,0.010609281,0.19892766,0.20245457,0.20258497,0.19913635,0.19689652,0
20804000,20724000,-0.59320515,3.7991903,-2.5086298,-1.2536714,-0.0031303403,1.251418,2.5128605,-0.11278407,0.22643986,0.23891197,-0.092603825,-0.3099639,-0.28200418,-0.1848975,0.16773118,0.28856108,0.010609281,0.19892766,0.20245457,0.20258497,0.19913635,0.19689652,0
20812000,20732000,-0.59322363,3.7991953,-2.5086443,-1.2536861,-0.003144966,1.2514033,2.512846,-0.11278407,0.22643986,0.23891197,-0.092603825,-0.3099639,-0.28200418,-0.1848975,0.16773118,0.28856108,0.010609281,0.19892766,0.20245457,0.20258497,0.19913635,0.19689652,0
20820000,20740000,-0.59324056,3.7991977,-2.50866,-1.2537019,-0.0031607843,1.2513876,2.5128303,-0.11278407,0.22643986,0.23891197,-0.092603825,-0.3099639,-0.28200418,-0.1848975,0.16773118,0.28856108,0.010609281,0.19892766,0.20245457,0.20258497,0.19913635,0.19689652,0
20828000,20748000,-0.5932444,3.7991977,-2.5086644,-1.2537061,-0.0031650136,1.2513833,2.512826,-0.11278407,0.22643986,0.23891197,-0.092603825,-0.3099639,-0.28200418,-0.1848975,0.16773118,0.28856108,0.010609281,0.19892766,0.20245457,0.20258497,0.19913635,0.19689652,0
20836000,20756000,-0.5932472,3.7991972,-2.5086682,-1.2537099,-0.0031687748,1.2513796,2.5128222,-0.11278407,0.22643986,0.23891197,-0.092603825,-0.3099639,-0.28200418,-0.1848975,0.16773118,0.28856108,0.010609281,0.19892766,0.20245457,0.20258497,0.19913635,0.19689652,0
20844000,20764000,-0.5932276,3.7991939,-2.508652,-1.2536937,-0.003152592,1.2513957,2.5128384,-0.11278407,0.22643986,0.23891197,-0.092603825,-0.3099639,-0.28200418,-0.1848975,0.16773118,0.28856108,0.010609281,0.19892766,0.20245457,0.20258497,0.19913635,0.19689652,0
20852000,20772000,-0.59322244,3.7991943,-2.508647,-1.2536886,-0.0031475485,1.2514008,2.5128434,-0.11278407,0.22643986,0.23891197,-0.092603825,-0.3099639,-0.28200418,-0.1848975,0.16773118,0.28856108,0.010609281,0.19892766,0.20245457,0.20258497,0.19913635,0.19689652,0
20860000,20780000,-0.593235,3.7992,-2.5086548,-1.2536967,-0.0031555563,1.2513928,2.5128355,-0.11278407,0.22643986,0.23891197,-0.092603825,-0.3099639,-0.28200418,-0.1848975,0.16773118,0.28856108,0.010609281,0.19892766,0.20245457,0.20258497,0.19913635,0.19689652,0
20868000,20788000,-0.59324414,3.7991958,-2.5086682,-1.2537099,-0.0031688865,1.2513795,2.512822,-0.11278407,0.22643986,0.23891197,-0.092603825,-0.3099639,-0.28200418,-0.1848975,0.16773118,0.28856108,0.010609281,0.19892766,0.20245457,0.20258497,0.19913635,0.19689652,0
20876000,20796000,-0.5932581,3.7991986,-2.5086803,-1.2537222,-0.0031810838,1.2513673,2.5128098,-0.11278407,0.22643986,0.23891197,-0.092603825,-0.3099639,-0.28200418,-0.1848975,0.16773118,0.28856108,0.010609281,0.19892766,0.20245457,0.20258497,0.19913635,0.19689652,0
20884000,20804000,-0.5932822,3.7992015,-2.5087023,-1.2537441,-0.0032029925,1.2513454,2.5127878,-0.11278407,0.22643986,0.23891197,-0.092603825,-0.3099639,-0.28200418,-0.1848975,0.16773118,0.28856108,0.010609281,0.19892766,0.20245457,0.20258497,0.19913635,0.19689652,0
20892000,20812000,-0.5932796,3.7991998,-2.5087018,-1.2537436,-0.0032024968,1.2513459,2.5127883,-0.11278407,0.22643986,0.23891197,-0.092603825,-0.3099639,-0.28200418,-0.1848975,0.16773118,0.28856108,0.010609281,0.19892766,0.20245457,0.20258497,0.19913635,0.19689652,0
20900000,20820000,-0.5932733,3.7991974,-2.5086985,-1.2537401,-0.0031989976,1.2513493,2.5127919,-0.11278407,0.22643986,0.23891197,-0.092603825,-0.3099639,-0.28200418,-0.1848975,0.16773118,0.28856108,0.010609281,0.19892766,0.20245457,0.20258497,0.19913635,0.19689652,0
20908000,20828000,-0.59328955,3.7992003,-2.5087125,-1.2537544,-0.0032132769,1.2513351,2.5127776,-0.11278407,0.22643986,0.23891197,-0.092603825,-0.3099639,-0.28200418,-0.1848975,0.16773118,0.28856108,0.010609281,0.19892766,0.20245457,0.20258497,0.19913635,0.19689652,0
20916000,20836000,-0.59329414,3.7992048,-2.508714,-1.2537557,-0.0032146736,1.2513337,2.5127764,-0.11278407,0.22643986,0.23891197,-0.092603825,-0.3099639,-0.28200418,-0.1848975,0.16773118,0.28856108,0.010609281,0.19892766,0.20245457,0.20258497,0.19913635,0.19689652,0
20924000,20844000,-0.5932975,3.7992,-2.5087218,-1.2537636,-0.0032225226,1.2513258,2.5127685,-0.11278407,0.22643986,0.23891197,-0.092603825,-0.3099639,-0.28200418,-0.1848975,0.16773118,0.28856108,0.010609281,0.19892766,0.20245457,0.20258497,0.19913635,0.19689652,0
20932000,20852000,-0.5932977,3.7992024,-2.5087209,-1.2537625,-0.0032214308,1.251327,2.5127695,-0.11278407,0.22643986,0.23891197,-0.092603825,-0.3099639,-0.28200418,-0.1848975,0.16773118,0.28856108,0.010609281,0.19892766,0.20245457,0.20258497,0.19913635,0.19689652,0
20940000,20860000,-0.5932909,3.7992084,-2.5087092,-1.2537509,-0.0032098785,1.2513385,2.5127811,-0.11278407,0.22643986,0.23891197,-0.092603825,-0.3099639,-0.28200418,-0.1848975,0.16773118,0.28856108,0.010609281,0.19892766,0.20245457,0.20258497,0.19913635,0.19689652,0
20948000,20868000,-0.5932864,3.7992067,-2.5087068,-1.2537485,-0.0032074843,1.2513409,2.5127835,-0.11278407,0.22643986,0.23891197,-0.092603825,-0.3099639,-0.28200418,-0.1848975,0.16773118,0.28856108,0.010609281,0.19892766,0.20245457,0.20258497,0.19913635,0.19689652,0
20956000,20876000,-0.5932989,3.7992058,-2.5087206,-1.2537622,-0.003221252,1.2513272,2.5127697,-0.11278407,0.22643986,0.23891197,-0.092603825,-0.3099639,-0.28200418,-0.1848975,0.16773118,0.28856108,0.010609281,0.19892766,0.20245457,0.20258497,0.19913635,0.19689652,0
20964000,20884000,-0.5933139,3.7992063,-2.5087357,-1.2537773,-0.0032362535,1.2513121,2.5127547,-0.11278407,0.22643986,0.23891197,-0.092603825,-0.3099639,-0.28200418,-0.1848975,0.16773118,0.28856108,0.010609281,0.19892766,0.20245457,0.20258497,0.19913635,0.19689652,0
20972000,20892000,-0.5933077,3.7992027,-2.5087328,-1.2537745,-0.0032335299,1.2513149,2.5127573,-0.11278407,0.22643986,0.23891197,-0.092603825,-0.3099639,-0.28200418,-0.1848975,0.16773118,0.28856108,0.010609281,0.19892766,0.20245457,0.20258497,0.19913635,0.19689652,0
20980000,20900000,-0.5933188,3.799206,-2.5087419,-1.2537835,-0.0032424547,1.2513059,2.5127485,-0.11278407,0.22643986,0.23891197,-0.092603825,-0.3099639,-0.28200418,-0.1848975,0.16773118,0.28856108,0.010609281,0.19892766,0.20245457,0.20258497,0.19913635,0.19689652,0
20988000,20908000,-0.5933416,3.7992065,-2.508765,-1.2538066,-0.0032655708,1.2512829,2.5127254,-0.11278407,0.22643986,0.23891197,-0.092603825,-0.3099639,-0.28200418,-0.1848975,0.16773118,0.28856108,0.010609281,0.19892766,0.20245457,0.20258497,0.19913635,0.19689652,0
20996000,20916000,-0.59335726,3.7992072,-2.5087805,-1.2538221,-0.0032810392,1.2512674,2.5127099,-0.11278407,0.22643986,0.23891197,-0.092603825,-0.3099639,-0.28200418,-0.1848975,0.16773118,0.28856108,0.010609281,0.19892766,0.20245457,0.20258497,0.19913635,0.19689652,0
21004000,20924000,-0.59336644,3.7992077,-2.5087898,-1.2538314,-0.0032904283,1.251258,2.5127006,-0.11278407,0.22643986,0.23891197,-0.092603825,-0.3099639,-0.28200418,-0.1848975,0.16773118,0.28856108,0.010609281,0.19892766,0.20245457,0.20258497,0.19913635,0.19689652,0
21012000,20932000,-0.59336483,3.7992153,-2.5087821,-1.253824,-0.0032829272,1.2512655,2.5127082,-0.11278407,0.22643986,0.23891197,-0.092603825,-0.3099639,-0.28200418,-0.1848975,0.16773118,0.28856108,0.010609281,0.19892766,0.20245457,0.20258497,0.19913635,0.19689652,0
21020000,20940000,-0.59335965,3.7992127,-2.5087795,-1.2538213,-0.0032802178,1.2512681,2.5127108,-0.11278407,0.22643986,0.23891197,-0.092603825,-0.3099639,-0.28200418,-0.1848975,0.16773118,0.28856108,0.010609281,0.19892766,0.20245457,0.20258497,0.19913635,0.19689652,0
21028000,20948000,-0.5933738,3.7992141,-2.508793,-1.2538347,-0.0032937932,1.2512546,2.5126972,-0.11278407,0.22643986,0.23891197,-0.092603825,-0.3099639,-0.28200418,-0.1848975,0.16773118,0.28856108,0.010609281,0.19892766,0.20245457,0.20258497,0.19913635,0.19689652,0
21036000,20956000,-0.5933838,3.799211,-2.5088062,-1.2538478,-0.003306929,1.2512414,2.512684,-0.11278407,0.22643986,0.23891197,-0.092603825,-0.3099639,-0.28200418,-0.1848975,0.16773118,0.28856108,0.010609281,0.19892766,0.20245457,0.20258497,0.19913635,0.19689652,0
21044000,20964000,-0.59339964,3.7992187,-2.5088162,-1.2538579,-0.0033168674,1.2512314,2.5126743,-0.11278407,0.22643986,0.23891197,-0.092603825,-0.3099639,-0.28200418,-0.1848975,0.16773118,0.28856108,0.010609281,0.19892766,0.20245457,0.20258497,0.19913635,0.19689652,0
21052000,20972000,-0.5933849,3.7992165,-2.5088038,-1.2538456,-0.0033045923,1.2512438,2.5126865,-0.11278407,0.22643986,0.23891197,-0.092603825,-0.3099639,-0.28200418,-0.1848975,0.16773118,0.28856108,0.010609281,0.19892766,0.20245457,0.20258497,0.19913635,0.19689652,0
21060000,20980000,-0.5933919,3.7992153,-2.5088127,-1.2538543,-0.0033132816,1.2512351,2.5126777,-0.11278407,0.22643986,0.23891197,-0.092603825,-0.3099639,-0.28200418,-0.1848975,0.16773118,0.28856108,0.010609281,0.19892766,0.20245457,0.20258497,0.19913635,0.19689652,0
21068000,20988000,-0.5934112,3.7992156,-2.508832,-1.2538737,-0.003332713,1.2512157,2.5126584,-0.11278407,0.22643986,0.23891197,-0.092603825,-0.3099639,-0.28200418,-0.1848975,0.16773118,0.28856108,0.010609281,0.19892766,0.20245457,0.20258497,0.19913635,0.19689652,0
21076000,20996000,-0.5934156,3.799213,-2.5088394,-1.253881,-0.003340066,1.2512083,2.512651,-0.11278407,0.22643986,0.23891197,-0.092603825,-0.3099639,-0.28200418,-0.1848975,0.16773118,0.28856108,0.010609281,0.19892766,0.20245457,0.20258497,0.19913635,0.19689652,0
21084000,21004000,-0.59342134,3.7992167,-2.5088422,-1.2538838,-0.003342879,1.2512056,2.512648,-0.11278407,0.22643986,0.23891197,-0.092603825,-0.3099639,-0.28200418,-0.1848975,0.16773118,0.28856108,0.010609281,0.19892766,0.20245457,0.20258497,0.19913635,0.19689652,0
21092000,21012000,-0.5934237,3.7992146,-2.5088468,-1.2538885,-0.0033475144,1.2512009,2.5126436,-0.11278407,0.22643986,0.23891197,-0.092603825,-0.3099639,-0.28200418,-0.1848975,0.16773118,0.28856108,0.010609281,0.19892766,0.20245457,0.20258497,0.19913635,0.19689652,0
21100000,21020000,-0.59343374,3.79922,-2.5088532,-1.2538947,-0.0033537582,1.2511947,2.5126374,-0.11278407,0.22643986,0.23891197,-0.092603825,-0.3099639,-0.28200418,-0.1848975,0.16773118,0.28856108,0.010609281,0.19892766,0.20245457,0.20258497,0.19913635,0.19689652,0
21108000,21028000,-0.5934313,3.7992187,-2.5088522,-1.2538939,-0.003352933,1.2511954,2.512638,-0.11278407,0.22643986,0.23891197,-0.092603825,-0.3099639,-0.28200418,-0.1848975,0.16773118,0.28856108,0.010609281,0.19892766,0.20245457,0.20258497,0.19913635,0.19689652,0
21116000,21036000,-0.59346396,3.799223,-2.5088813,-1.253923,-0.003382088,1.2511663,2.512609,-0.11278407,0.22643986,0.23891197,-0.092603825,-0.3099639,-0.28200418,-0.1848975,0.16773118,0.28856108,0.010609281,0.19892766,0.20245457,0.20258497,0.19913635,0.19689652,0
21124000,21044000,-0.5934994,3.7992194,-2.5089211,-1.2539626,-0.003421685,1.2511268,2.5125694,-0.11278407,0.22643986,0.23891197,-0.092603825,-0.3099639,-0.28200418,-0.1848975,0.16773118,0.28856108,0.010609281,0.19892766,0.20245457,0.20258497,0.19913635,0.19689652,0
21132000,21052000,-0.59352076,3.799224,-2.5089388,-1.2539804,-0.0034394239,1.2511089,2.5125518,-0.11278407,0.22643986,0.23891197,-0.092603825,-0.3099639,-0.28200418,-0.1848975,0.16773118,0.28856108,0.010609281,0.19892766,0.20245457,0.20258497,0.19913635,0.19689652,0
21140000,21060000,-0.59352505,3.7992215,-2.5089452,-1.2539868,-0.0034458905,1.2511024,2.512545,-0.11278407,0.22643986,0.23891197,-0.092603825,-0.3099639,-0.28200418,-0.1848975,0.16773118,0.28856108,0.010609281,0.19892766,0.20245457,0.20258497,0.19913635,0.19689652,0
21148000,21068000,-0.5935356,3.7992277,-2.5089512,-1.253993,-0.003452024,1.2510962,2.5125391,-0.11278407,0.22643986,0.23891197,-0.092603825,-0.3099639,-0.28200418,-0.1848975,0.16773118,0.28856108,0.010609281,0.19892766,0.20245457,0.20258497,0.19913635,0.19689652,0
21156000,21076000,-0.59352744,3.7992258,-2.5089452,-1.253987,-0.0034459934,1.2511023,2.512545,-0.11278407,0.22643986,0.23891197,-0.092603825,-0.3099639,-0.28200418,-0.1848975,0.16773118,0.28856108,0.010609281,0.19892766,0.20245457,0.20258497,0.19913635,0.19689652,0
21164000,21084000,-0.59352577,3.7992241,-2.508946,-1.2539876,-0.003446562,1.2511017,2.5125446,-0.11278407,0.22643986,0.23891197,-0.092603825,-0.3099639,-0.28200418,-0.1848975,0.16773118,0.28856108,0.010609281,0.19892766,0.20245457,0.20258497,0.19913635,0.19689652,0
21172000,21092000,-0.59350836,3.7992215,-2.5089312,-1.2539728,-0.0034318578,1.2511165,2.5125592,-0.11278407,0.22643986,0.23891197,-0.092603825,-0.3099639,-0.28200418,-0.1848975,0.16773118,0.28856108,0.010609281,0.19892766,0.20245457,0.20258497,0.19913635,0.19689652,0
21180000,21100000,-0.593498,3.7992225,-2.5089204,-1.253962,-0.0034210868,1.2511272,2.51257,-0.11278407,0.22643986,0.23891197,-0.092603825,-0.3099639,-0.28200418,-0.1848975,0.16773118,0.28856108,0.010609281,0.19892766,0.20245457,0.20258497,0.19913635,0.19689652,0
21188000,21108000,-0.5934944,3.7992268,-2.5089135,-1.2539552,-0.0034143098,1.251134,2.5125768,-0.11278407,0.22643986,0.23891197,-0.092603825,-0.3099639,-0.28200418,-0.1848975,0.16773118,0.28856108,0.010609281,0.19892766,0.20245457,0.20258497,0.19913635,0.19689652,0
21196000,21116000,-0.5899507,3.678514,-2.5065224,-1.252371,-0.0048188753,1.2486676,2.5124593,-0.14049639,0.30395192,0.32384083,-0.10797459,-0.3975607,-0.36906618,-0.24374582,0.21619481,0.3794561,0.01712003,0.19806047,0.20436406,0.20462234,0.19846953,0.19448358,0
21204000,21124000,-0.5899629,3.6785152,-2.5065343,-1.252383,-0.00483086,1.2486556,2.5124474,-0.14049639,0.30395192,0.32384083,-0.10797459,-0.3975607,-0.36906618,-0.24374582,0.21619481,0.3794561,0.01712003,0.19806047,0.20436406,0.20462234,0.19846953,0.19448358,0
21212000,21132000,-0.58998036,3.6785173,-2.5065506,-1.2523992,-0.0048471633,1.2486393,2.5124311,-0.14049639,0.30395192,0.32384083,-0.10797459,-0.3975607,-0.36906618,-0.24374582,0.21619481,0.3794561,0.01712003,0.19806047,0.20436406,0.20462234,0.19846953,0.19448358,0
21220000,21140000,-0.5899974,3.678519,-2.5065665,-1.2524152,-0.004863068,1.2486234,2.5124152,-0.14049639,0.30395192,0.32384083,-0.10797459,-0.3975607,-0.36906618,-0.24374582,0.21619481,0.3794561,0.01712003,0.19806047,0.20436406,0.20462234,0.19846953,0.19448358,0
21228000,21148000,-0.59001,3.6785183,-2.5065804,-1.252429,-0.004876926,1.2486095,2.5124013,-0.14049639,0.30395192,0.32384083,-0.10797459,-0.3975607,-0.36906618,-0.24374582,0.21619481,0.3794561,0.01712003,0.19806047,0.20436406,0.20462234,0.19846953,0.19448358,0
21236000,21156000,-0.59000695,3.6785197,-2.5065768,-1.2524254,-0.004873304,1.2486132,2.512405,-0.14049639,0.30395192,0.32384083,-0.10797459,-0.3975607,-0.36906618,-0.24374582,0.21619481,0.3794561,0.01712003,0.19806047,0.20436406,0.20462234,0.19846953,0.19448358,0
21244000,21164000,-0.5899849,3.6785212,-2.5065536,-1.2524024,-0.004850307,1.2486362,2.512428,-0.14049639,0.30395192,0.32384083,-0.10797459,-0.3975607,-0.36906618,-0.24374582,0.21619481,0.3794561,0.01712003,0.19806047,0.20436406,0.20462234,0.19846953,0.19448358,0
21252000,21172000,-0.5899588,3.6785212,-2.5065284,-1.252377,-0.0048250086,1.2486615,2.5124533,-0.14049639,0.30395192,0.32384083,-0.10797459,-0.3975607,-0.36906618,-0.24374582,0.21619481,0.3794561,0.01712003,0.19806047,0.20436406,0.20462234,0.19846953,0.19448358,0
21260000,21180000,-0.5899495,3.678522,-2.506519,-1.2523676,-0.004815576,1.2486709,2.5124626,-0.14049639,0.30395192,0.32384083,-0.10797459,-0.3975607,-0.36906618,-0.24374582,0.21619481,0.3794561,0.01712003,0.19806047,0.20436406,0.20462234,0.19846953,0.19448358,0
21268000,21188000,-0.5899501,3.6785216,-2.5065203,-1.2523688,-0.0048167994,1.2486697,2.5124614,-0.14049639,0.30395192,0.32384083,-0.10797459,-0.3975607,-0.36906618,-0.24374582,0.21619481,0.3794561,0.01712003,0.19806047,0.20436406,0.20462234,0.19846953,0.19448358,0
21276000,21196000,-0.58996975,3.6785247,-2.5065377,-1.2523863,-0.0048342296,1.2486523,2.512444,-0.14049639,0.30395192,0.32384083,-0.10797459,-0.3975607,-0.36906618,-0.24374582,0.21619481,0.3794561,0.01712003,0.19806047,0.20436406,0.20462234,0.19846953,0.19448358,0
21284000,21204000,-0.5899863,3.6785235,-2.5065563,-1.2524048,-0.0048527275,1.2486339,2.5124254,-0.14049639,0.30395192,0.32384083,-0.10797459,-0.3975607,-0.36906618,-0.24374582,0.21619481,0.3794561,0.01712003,0.19806047,0.20436406,0.20462234,0.19846953,0.19448358,0
21292000,21212000,-0.5899863,3.678524,-2.506556,-1.2524047,-0.0048526684,1.2486339,2.5124257,-0.14049639,0.30395192,0.32384083,-0.10797459,-0.3975607,-0.36906618,-0.24374582,0.21619481,0.3794561,0.01712003,0.19806047,0.20436406,0.20462234,0.19846953,0.19448358,0
21300000,21220000,-0.589996,3.678522,-2.5065675,-1.2524161,-0.004864133,1.2486224,2.512414,-0.14049639,0.30395192,0.32384083,-0.10797459,-0.3975607,-0.36906618,-0.24374582,0.21619481,0.3794561,0.01712003,0.19806047,0.20436406,0.20462234,0.19846953,0.19448358,0
21308000,21228000,-0.59000546,3.678525,-2.5065756,-1.2524241,-0.0048721214,1.2486144,2.512406,-0.14049639,0.30395192,0.32384083,-0.10797459,-0.3975607,-0.36906618,-0.24374582,0.21619481,0.3794561,0.01712003,0.19806047,0.20436406,0.20462234,0.19846953,0.19448358,0
21316000,21236000,-0.58998144,3.678526,-2.5065513,-1.2523999,-0.0048478455,1.2486387,2.5124304,-0.14049639,0.30395192,0.32384083,-0.10797459,-0.3975607,-0.36906618,-0.24374582,0.21619481,0.3794561,0.01712003,0.19806047,0.20436406,0.20462234,0.19846953,0.19448358,0
21324000,21244000,-0.58998084,3.6785276,-2.5065498,-1.2523985,-0.0048463596,1.2486402,2.5124319,-0.14049639,0.30395192,0.32384083,-0.10797459,-0.3975607,-0.36906618,-0.24374582,0.21619481,0.3794561,0.01712003,0.19806047,0.20436406,0.20462234,0.19846953,0.19448358,0
21332000,21252000,-0.58997804,3.6785288,-2.5065465,-1.2523952,-0.0048430846,1.2486435,2.5124352,-0.14049639,0.30395192,0.32384083,-0.10797459,-0.3975607,-0.36906618,-0.24374582,0.21619481,0.3794561,0.01712003,0.19806047,0.20436406,0.20462234,0.19846953,0.19448358,0
21340000,21260000,-0.5899607,3.6785278,-2.5065308,-1.2523793,-0.0048273085,1.2486593,2.512451,-0.14049639,0.30395192,0.32384083,-0.10797459,-0.3975607,-0.36906618,-0.24374582,0.21619481,0.3794561,0.01712003,0.19806047,0.20436406,0.20462234,0.19846953,0.19448358,0
21348000,21268000,-0.5899613,3.6785285,-2.506531,-1.2523797,-0.004827624,1.2486589,2.5124507,-0.14049639,0.30395192,0.32384083,-0.10797459,-0.3975607,-0.36906618,-0.24374582,0.21619481,0.3794561,0.01712003,0.19806047,0.20436406,0.20462234,0.19846953,0.19448358,0
21356000,21276000,-0.5899755,3.678531,-2.506544,-1.2523926,-0.004840614,1.2486459,2.5124378,-0.14049639,0.30395192,0.32384083,-0.10797459,-0.3975607,-0.36906618,-0.24374582,0.21619481,0.3794561,0.01712003,0.19806047,0.20436406,0.20462234,0.19846953,0.19448358,0
21364000,21284000,-0.5893224,3.6785228,-2.5058985,-1.2517468,-0.004194609,1.2492918,2.5130832,-0.14049639,0.30395192,0.32384083,-0.10797459,-0.3975607,-0.36906618,-0.24374582,0.21619481,0.3794561,0.01712003,0.19806047,0.20436406,0.20462234,0.19846953,0.19448358,0
21372000,21292000,-0.5893307,3.6785269,-2.5059042,-1.2517525,-0.0042002234,1.2492862,2.5130777,-0.14049639,0.30395192,0.32384083,-0.10797459,-0.3975607,-0.36906618,-0.24374582,0.21619481,0.3794561,0.01712003,0.19806047,0.20436406,0.20462234,0.19846953,0.19448358,0
21380000,21300000,-0.5893496,3.6785264,-2.5059237,-1.2517722,-0.0042199153,1.2492665,2.513058,-0.14049639,0.30395192,0.32384083,-0.10797459,-0.3975607,-0.36906618,-0.24374582,0.21619481,0.3794561,0.01712003,0.19806047,0.20436406,0.20462234,0.19846953,0.19448358,0
21388000,21308000,-0.58937365,3.6785266,-2.5059483,-1.2517967,-0.0042444444,1.249242,2.5130334,-0.14049639,0.30395192,0.32384083,-0.10797459,-0.3975607,-0.36906618,-0.24374582,0.21619481,0.3794561,0.01712003,0.19806047,0.20436406,0.20462234,0.19846953,0.19448358,0
21396000,21316000,-0.58937865,3.6785278,-2.5059526,-1.2518008,-0.004248573,1.2492378,2.5130293,-0.14049639,0.30395192,0.32384083,-0.10797459,-0.3975607,-0.36906618,-0.24374582,0.21619481,0.3794561,0.01712003,0.19806047,0.20436406,0.20462234,0.19846953,0.19448358,0
21404000,21324000,-0.5893869,3.6785274,-2.505962,-1.2518103,-0.0042581162,1.2492282,2.5130198,-0.14049639,0.30395192,0.32384083,-0.10797459,-0.3975607,-0.36906618,-0.24374582,0.21619481,0.3794561,0.01712003,0.19806047,0.20436406,0.20462234,0.19846953,0.19448358,0
21412000,21332000,-0.58941627,3.6785278,-2.5059915,-1.2518399,-0.0042875716,1.2491988,2.5129902,-0.14049639,0.30395192,0.32384083,-0.10797459,-0.3975607,-0.36906618,-0.24374582,0.21619481,0.3794561,0.01712003,0.19806047,0.20436406,0.20462234,0.19846953,0.19448358,0
21420000,21340000,-0.58942246,3.6785278,-2.5059981,-1.2518464,-0.0042942087,1.2491922,2.5129836,-0.14049639,0.30395192,0.32384083,-0.10797459,-0.3975607,-0.36906618,-0.24374582,0.21619481,0.3794561,0.01712003,0.19806047,0.20436406,0.20462234,0.19846953,0.19448358,0
21428000,21348000,-0.5894172,3.6785297,-2.505992,-1.2518402,-0.0042879866,1.2491984,2.51299,-0.14049639,0.30395192,0.32384083,-0.10797459,-0.3975607,-0.36906618,-0.24374582,0.21619481,0.3794561,0.01712003,0.19806047,0.20436406,0.20462234,0.19846953,0.19448358,0
21436000,21356000,-0.5894237,3.6785336,-2.505996,-1.2518444,-0.0042920867,1.2491944,2.512986,-0.14049639,0.30395192,0.32384083,-0.10797459,-0.3975607,-0.36906618,-0.24374582,0.21619481,0.3794561,0.01712003,0.19806047,0.20436406,0.20462234,0.19846953,0.19448358,0
21444000,21364000,-0.5894341,3.678531,-2.506009,-1.2518573,-0.0043050223,1.2491814,2.5129728,-0.14049639,0.30395192,0.32384083,-0.10797459,-0.3975607,-0.36906618,-0.24374582,0.21619481,0.3794561,0.01712003,0.19806047,0.20436406,0.20462234,0.19846953,0.19448358,0
21452000,21372000,-0.589444,3.6785307,-2.5060194,-1.2518678,-0.0043154135,1.249171,2.5129623,-0.14049639,0.30395192,0.32384083,-0.10797459,-0.3975607,-0.36906618,-0.24374582,0.21619481,0.3794561,0.01712003,0.19806047,0.20436406,0.20462234,0.19846953,0.19448358,0
21460000,21380000,-0.58945143,3.678535,-2.5060241,-1.2518724,-0.004320123,1.2491663,2.5129578,-0.14049639,0.30395192,0.32384083,-0.10797459,-0.3975607,-0.36906618,-0.24374582,0.21619481,0.3794561,0.01712003,0.19806047,0.20436406,0.20462234,0.19846953,0.19448358,0
21468000,21388000,-0.5894546,3.678533,-2.5060294,-1.2518775,-0.0043252897,1.2491611,2.5129526,-0.14049639,0.30395192,0.32384083,-0.10797459,-0.3975607,-0.36906618,-0.24374582,0.21619481,0.3794561,0.01712003,0.19806047,0.20436406,0.20462234,0.19846953,0.19448358,0
21476000,21396000,-0.58945495,3.6785324,-2.506031,-1.2518792,-0.004327015,1.2491595,2.512951,-0.14049639,0.30395192,0.32384083,-0.10797459,-0.3975607,-0.36906618,-0.24374582,0.21619481,0.3794561,0.01712003,0.19806047,0.20436406,0.20462234,0.19846953,0.19448358,0
21484000,21404000,-0.5894701,3.6785345,-2.506045,-1.2518934,-0.0043410794,1.2491454,2.5129368,-0.14049639,0.30395192,0.32384083,-0.10797459,-0.3975607,-0.36906618,-0.24374582,0.21619481,0.3794561,0.01712003,0.19806047,0.20436406,0.20462234,0.19846953,0.19448358,0
21492000,21412000,-0.58948755,3.678533,-2.506064,-1.2519121,-0.00435978,1.2491267,2.512918,-0.14049639,0.30395192,0.32384083,-0.10797459,-0.3975607,-0.36906618,-0.24374582,0.21619481,0.3794561,0.01712003,0.19806047,0.20436406,0.20462234,0.19846953,0.19448358,0
21500000,21420000,-0.5894824,3.6785362,-2.506057,-1.2519052,-0.004352953,1.2491335,2.512925,-0.14049639,0.30395192,0.32384083,-0.10797459,-0.3975607,-0.36906618,-0.24374582,0.21619481,0.3794561,0.01712003,0.19806047,0.20436406,0.20462234,0.19846953,0.19448358,0
21508000,21428000,-0.5894723,3.6785336,-2.5060499,-1.2518979,-0.0043456806,1.2491407,2.512932,-0.14049639,0.30395192,0.32384083,-0.10797459,-0.3975607,-0.36906618,-0.24374582,0.21619481,0.3794561,0.01712003,0.19806047,0.20436406,0.20462234,0.19846953,0.19448358,0
21516000,21436000,-0.5894744,3.6785352,-2.5060506,-1.2518988,-0.0043465244,1.2491399,2.5129313,-0.14049639,0.30395192,0.32384083,-0.10797459,-0.3975607,-0.36906618,-0.24374582,0.21619481,0.3794561,0.01712003,0.19806047,0.20436406,0.20462234,0.19846953,0.19448358,0
21524000,21444000,-0.58949184,3.6785362,-2.5060678,-1.2519159,-0.00436371,1.2491227,2.5129142,-0.14049639,0.30395192,0.32384083,-0.10797459,-0.3975607,-0.36906618,-0.24374582,0.21619481,0.3794561,0.01712003,0.19806047,0.20436406,0.20462234,0.19846953,0.19448358,0
21532000,21452000,-0.58949065,3.678535,-2.506068,-1.2519162,-0.004363974,1.2491224,2.5129137,-0.14049639,0.30395192,0.32384083,-0.10797459,-0.3975607,-0.36906618,-0.24374582,0.21619481,0.3794561,0.01712003,0.19806047,0.20436406,0.20462234,0.19846953,0.19448358,0
21540000,21460000,-0.58949065,3.6785388,-2.5060654,-1.2519135,-0.004361335,1.2491251,2.5129166,-0.14049639,0.30395192,0.32384083,-0.10797459,-0.3975607,-0.36906618,-0.24374582,0.21619481,0.3794561,0.01712003,0.19806047,0.20436406,0.20462234,0.19846953,0.19448358,0
21548000,21468000,-0.58951366,3.6785367,-2.5060909,-1.251939,-0.004386779,1.2490997,2.512891,-0.14049639,0.30395192,0.32384083,-0.10797459,-0.3975607,-0.36906618,-0.24374582,0.21619481,0.3794561,0.01712003,0.19806047,0.20436406,0.20462234,0.19846953,0.19448358,0
21556000,21476000,-0.58953553,3.6785383,-2.506112,-1.2519603,-0.0044080266,1.2490784,2.5128698,-0.14049639,0.30395192,0.32384083,-0.10797459,-0.3975607,-0.36906618,-0.24374582,0.21619481,0.3794561,0.01712003,0.19806047,0.20436406,0.20462234,0.19846953,0.19448358,0
21564000,21484000,-0.58953893,3.6785371,-2.5061166,-1.2519648,-0.004412552,1.2490739,2.5128653,-0.14049639,0.30395192,0.32384083,-0.10797459,-0.3975607,-0.36906618,-0.24374582,0.21619481,0.3794561,0.01712003,0.19806047,0.20436406,0.20462234,0.19846953,0.19448358,0
21572000,21492000,-0.5895488,3.6785412,-2.506124,-1.2519722,-0.004419849,1.2490666,2.512858,-0.14049639,0.30395192,0.32384083,-0.10797459,-0.3975607,-0.36906618,-0.24374582,0.21619481,0.3794561,0.01712003,0.19806047,0.20436406,0.20462234,0.19846953,0.19448358,0
21580000,21500000,-0.58954847,3.6785393,-2.506126,-1.251974,-0.004421739,1.2490647,2.512856,-0.14049639,0.30395192,0.32384083,-0.10797459,-0.3975607,-0.36906618,-0.24374582,0.21619481,0.3794561,0.01712003,0.19806047,0.20436406,0.20462234,0.19846953,0.19448358,0
21588000,21508000,-0.58957434,3.6785398,-2.5061517,-1.2519997,-0.0044474714,1.2490389,2.5128303,-0.14049639,0.30395192,0.32384083,-0.10797459,-0.3975607,-0.36906618,-0.24374582,0.21619481,0.3794561,0.01712003,0.19806047,0.20436406,0.20462234,0.19846953,0.19448358,0
21596000,21516000,-0.67288566,3.6690192,-2.510582,-1.2550304,-0.0019413568,1.2536166,2.5131147,-0.14834875,0.33556277,0.36875188,-0.093911454,-0.41774532,-0.39650106,-0.27129018,0.22516987,0.41374698,0.028639186,0.19971977,0.20096457,0.20087464,0.19957452,0.19886653,0
21604000,21524000,-0.67288053,3.6690154,-2.5105731,-1.2550216,-0.0019325103,1.2536254,2.5131235,-0.14834875,0.33556277,0.36875188,-0.093911454,-0.41774532,-0.39650106,-0.27129018,0.22516987,0.41374698,0.028639186,0.19971977,0.20096457,0.20087464,0.19957452,0.19886653,0
21612000,21532000,-0.6728985,3.669012,-2.5105877,-1.2550361,-0.0019470882,1.2536108,2.513109,-0.14834875,0.33556277,0.36875188,-0.093911454,-0.41774532,-0.39650106,-0.27129018,0.22516987,0.41374698,0.028639186,0.19971977,0.20096457,0.20087464,0.19957452,0.19886653,0
21620000,21540000,-0.67290354,3.669019,-2.5105977,-1.2550462,-0.0019571087,1.2536008,2.513099,-0.14834875,0.33556277,0.36875188,-0.093911454,-0.41774532,-0.39650106,-0.27129018,0.22516987,0.41374698,0.028639186,0.19971977,0.20096457,0.20087464,0.19957452,0.19886653,0
21628000,21548000,-0.6729118,3.6690183,-2.5106053,-1.2550536,-0.00196457,1.2535933,2.5130916,-0.14834875,0.33556277,0.36875188,-0.093911454,-0.41774532,-0.39650106,-0.27129018,0.22516987,0.41374698,0.028639186,0.19971977,0.20096457,0.20087464,0.19957452,0.19886653,0
21636000,21556000,-0.6729191,3.669022,-2.5106149,-1.2550633,-0.0019743235,1.2535836,2.5130818,-0.14834875,0.33556277,0.36875188,-0.093911454,-0.41774532,-0.39650106,-0.27129018,0.22516987,0.41374698,0.028639186,0.19971977,0.20096457,0.20087464,0.19957452,0.19886653,0
21644000,21564000,-0.67293704,3.6690166,-2.510628,-1.2550763,-0.0019872622,1.2535706,2.513069,-0.14834875,0.33556277,0.36875188,-0.093911454,-0.41774532,-0.39650106,-0.27129018,0.22516987,0.41374698,0.028639186,0.19971977,0.20096457,0.20087464,0.19957452,0.19886653,0
21652000,21572000,-0.6729362,3.669022,-2.510631,-1.2550794,-0.0019903937,1.2535675,2.5130656,-0.14834875,0.33556277,0.36875188,-0.093911454,-0.41774532,-0.39650106,-0.27129018,0.22516987,0.41374698,0.028639186,0.19971977,0.20096457,0.20087464,0.19957452,0.19886653,0
21660000,21580000,-0.67293113,3.6690373,-2.5106387,-1.2550871,-0.0019981714,1.2535596,2.5130577,-0.14834875,0.33556277,0.36875188,-0.093911454,-0.41774532,-0.39650106,-0.27129018,0.22516987,0.41374698,0.028639186,0.19971977,0.20096457,0.20087464,0.19957452,0.19886653,0
21668000,21588000,-0.6729215,3.6690376,-2.5106285,-1.2550766,-0.001987758,1.25357,2.5130682,-0.14834875,0.33556277,0.36875188,-0.093911454,-0.41774532,-0.39650106,-0.27129018,0.22516987,0.41374698,0.028639186,0.19971977,0.20096457,0.20087464,0.19957452,0.19886653,0
21676000,21596000,-0.6729119,3.6690464,-2.5106263,-1.2550745,-0.0019856177,1.253572,2.5130703,-0.14834875,0.33556277,0.36875188,-0.093911454,-0.41774532,-0.39650106,-0.27129018,0.22516987,0.41374698,0.028639186,0.19971977,0.20096457,0.20087464,0.19957452,0.19886653,0
21684000,21604000,-0.67291886,3.669052,-2.510637,-1.2550855,-0.0019966045,1.2535609,2.5130591,-0.14834875,0.33556277,0.36875188,-0.093911454,-0.41774532,-0.39650106,-0.27129018,0.22516987,0.41374698,0.028639186,0.19971977,0.20096457,0.20087464,0.19957452,0.19886653,0
21692000,21612000,-0.67290926,3.6690655,-2.5106385,-1.2550868,-0.001998057,1.2535594,2.5130577,-0.14834875,0.33556277,0.36875188,-0.093911454,-0.41774532,-0.39650106,-0.27129018,0.22516987,0.41374698,0.028639186,0.19971977,0.20096457,0.20087464,0.19957452,0.19886653,0
21700000,21620000,-0.6728654,3.6690845,-2.5106108,-1.2550589,-0.0019703822,1.2535868,2.5130851,-0.14834875,0.33556277,0.36875188,-0.093911454,-0.41774532,-0.39650106,-0.27129018,0.22516987,0.41374698,0.028639186,0.19971977,0.20096457,0.20087464,0.19957452,0.19886653,0
21708000,21628000,-0.6727704,3.6691146,-2.5105412,-1.2549891,-0.0019007905,1.2536561,2.5131545,-0.14834875,0.33556277,0.36875188,-0.093911454,-0.41774532,-0.39650106,-0.27129018,0.22516987,0.41374698,0.028639186,0.19971977,0.20096457,0.20087464,0.19957452,0.19886653,0
21716000,21636000,-0.6726615,3.6691453,-2.510458,-1.2549057,-0.0018175739,1.2537391,2.5132375,-0.14834875,0.33556277,0.36875188,-0.093911454,-0.41774532,-0.39650106,-0.27129018,0.22516987,0.41374698,0.028639186,0.19971977,0.20096457,0.20087464,0.19957452,0.19886653,0
21724000,21644000,-0.6725029,3.6691844,-2.5103326,-1.25478,-0.0016922181,1.253864,2.5133624,-0.14834875,0.33556277,0.36875188,-0.093911454,-0.41774532,-0.39650106,-0.27129018,0.22516987,0.41374698,0.028639186,0.19971977,0.20096457,0.20087464,0.19957452,0.19886653,0
21732000,21652000,-0.6723341,3.6692197,-2.5101936,-1.2546408,-0.0015531275,1.2540028,2.5135012,-0.14834875,0.33556277,0.36875188,-0.093911454,-0.41774532,-0.39650106,-0.27129018,0.22516987,0.41374698,0.028639186,0.19971977,0.20096457,0.20087464,0.19957452,0.19886653,0
21740000,21660000,-0.6721476,3.669255,-2.5100362,-1.2544832,-0.0013957329,1.2541598,2.513658,-0.14834875,0.33556277,0.36875188,-0.093911454,-0.41774532,-0.39650106,-0.27129018,0.22516987,0.41374698,0.028639186,0.19971977,0.20096457,0.20087464,0.19957452,0.19886653,0
21748000,21668000,-0.6718733,3.6693282,-2.5098243,-1.2542708,-0.0011835194,1.2543716,2.5138695,-0.14834875,0.33556277,0.36875188,-0.093911454,-0.41774532,-0.39650106,-0.27129018,0.22516987,0.41374698,0.028639186,0.19971977,0.20096457,0.20087464,0.19957452,0.19886653,0
21756000,21676000,-0.67155087,3.6693735,-2.50954,-1.2539861,-0.00089906016,1.2546555,2.5141535,-0.14834875,0.33556277,0.36875188,-0.093911454,-0.41774532,-0.39650106,-0.27129018,0.22516987,0.41374698,0.028639186,0.19971977,0.20096457,0.20087464,0.19957452,0.19886653,0
21764000,21684000,-0.67122495,3.6694317,-2.5092633,-1.253709,-0.00062191323,1.2549322,2.5144298,-0.14834875,0.33556277,0.36875188,-0.093911454,-0.41774532,-0.39650106,-0.27129018,0.22516987,0.41374698,0.028639186,0.19971977,0.20096457,0.20087464,0.19957452,0.19886653,0
21772000,21692000,-0.6708327,3.6695063,-2.5089345,-1.2533796,-0.00029272653,1.2552607,2.514758,-0.14834875,0.33556277,0.36875188,-0.093911454,-0.41774532,-0.39650106,-0.27129018,0.22516987,0.41374698,0.028639186,0.19971977,0.20096457,0.20087464,0.19957452,0.19886653,0
21780000,21700000,-0.6704035,3.669587,-2.5085735,-1.253018,6.88191e-05,1.2556217,2.5151186,-0.14834875,0.33556277,0.36875188,-0.093911454,-0.41774532,-0.39650106,-0.27129018,0.22516987,0.41374698,0.028639186,0.19971977,0.20096457,0.20087464,0.19957452,0.19886653,0
21788000,21708000,-0.6699558,3.6696515,-2.5081804,-1.2526243,0.0004625381,1.2560147,2.5155115,-0.14834875,0.33556277,0.36875188,-0.093911454,-0.41774532,-0.39650106,-0.27129018,0.22516987,0.41374698,0.028639186,0.19971977,0.20096457,0.20087464,0.19957452,0.19886653,0
21796000,21716000,-0.6694292,3.6697505,-2.507738,-1.2521813,0.0009054229,1.2564569,2.515953,-0.14834875,0.33556277,0.36875188,-0.093911454,-0.41774532,-0.39650106,-0.27129018,0.22516987,0.41374698,0.028639186,0.19971977,0.20096457,0.20087464,0.19957452,0.19886653,0
21804000,21724000,-0.6688806,3.6698294,-2.5072565,-1.251699,0.0013878542,1.2569385,2.5164344,-0.14834875,0.33556277,0.36875188,-0.093911454,-0.41774532,-0.39650106,-0.27129018,0.22516987,0.41374698,0.028639186,0.19971977,0.20096457,0.20087464,0.19957452,0.19886653,0
21812000,21732000,-0.6682932,3.6699276,-2.5067525,-1.2511941,0.0018927315,1.2574425,2.516938,-0.14834875,0.33556277,0.36875188,-0.093911454,-0.41774532,-0.39650106,-0.27129018,0.22516987,0.41374698,0.028639186,0.19971977,0.20096457,0.20087464,0.19957452,0.19886653,0
21820000,21740000,-0.667665,3.670037,-2.506217,-1.2506578,0.0024291652,1.2579782,2.517473,-0.14834875,0.33556277,0.36875188,-0.093911454,-0.41774532,-0.39650106,-0.27129018,0.22516987,0.41374698,0.028639186,0.19971977,0.20096457,0.20087464,0.19957452,0.19886653,0
21828000,21748000,-0.66696477,3.6701493,-2.505612,-1.2500517,0.0030353372,1.2585835,2.5180776,-0.14834875,0.33556277,0.36875188,-0.093911454,-0.41774532,-0.39650106,-0.27129018,0.22516987,0.41374698,0.028639186,0.19971977,0.20096457,0.20087464,0.19957452,0.19886653,0
21836000,21756000,-0.6662235,3.6702528,-2.5049586,-1.2493973,0.0036899697,1.2592373,2.5187306,-0.14834875,0.33556277,0.36875188,-0.093911454,-0.41774532,-0.39650106,-0.27129018,0.22516987,0.41374698,0.028639186,0.19971977,0.20096457,0.20087464,0.19957452,0.19886653,0
21844000,21764000,-0.66546184,3.6703746,-2.5043,-1.2487378,0.0043497747,1.2598962,2.5193887,-0.14834875,0.33556277,0.36875188,-0.093911454,-0.41774532,-0.39650106,-0.27129018,0.22516987,0.41374698,0.028639186,0.19971977,0.20096457,0.20087464,0.19957452,0.19886653,0
21852000,21772000,-0.66466236,3.6704946,-2.503602,-1.2480388,0.005049172,1.2605946,2.5200863,-0.14834875,0.33556277,0.36875188,-0.093911454,-0.41774532,-0.39650106,-0.27129018,0.22516987,0.41374698,0.028639186,0.19971977,0.20096457,0.20087464,0.19957452,0.19886653,0
21860000,21780000,-0.66383296,3.6706142,-2.5028741,-1.2473097,0.0057786526,1.2613232,2.520814,-0.14834875,0.33556277,0.36875188,-0.093911454,-0.41774532,-0.39650106,-0.27129018,0.22516987,0.41374698,0.028639186,0.19971977,0.20096457,0.20087464,0.19957452,0.19886653,0
21868000,21788000,-0.66293573,3.6707532,-2.5020952,-1.2465295,0.0065592495,1.2621028,2.5215926,-0.14834875,0.33556277,0.36875188,-0.093911454,-0.41774532,-0.39650106,-0.27129018,0.22516987,0.41374698,0.028639186,0.19971977,0.20096457,0.20087464,0.19957452,0.19886653,0
21876000,21796000,-0.6619893,3.670889,-2.5012636,-1.2456965,0.007392747,1.2629354,2.522424,-0.14834875,0.33556277,0.36875188,-0.093911454,-0.41774532,-0.39650106,-0.27129018,0.22516987,0.41374698,0.028639186,0.19971977,0.20096457,0.20087464,0.19957452,0.19886653,0
21884000,21804000,-0.661005,3.671026,-2.5003953,-1.244827,0.008262798,1.2638044,2.5232918,-0.14834875,0.33556277,0.36875188,-0.093911454,-0.41774532,-0.39650106,-0.27129018,0.22516987,0.41374698,0.028639186,0.19971977,0.20096457,0.20087464,0.19957452,0.19886653,0
21892000,21812000,-0.6599693,3.6711655,-2.499478,-1.2439084,0.00918213,1.2647227,2.524209,-0.14834875,0.33556277,0.36875188,-0.093911454,-0.41774532,-0.39650106,-0.27129018,0.22516987,0.41374698,0.028639186,0.19971977,0.20096457,0.20087464,0.19957452,0.19886653,0
21900000,21820000,-0.65890276,3.671321,-2.4985428,-1.2429715,0.010119647,1.2656592,2.525144,-0.14834875,0.33556277,0.36875188,-0.093911454,-0.41774532,-0.39650106,-0.27129018,0.22516987,0.41374698,0.028639186,0.19971977,0.20096457,0.20087464,0.19957452,0.19886653,0
21908000,21828000,-0.65778875,3.671461,-2.4975474,-1.2419747,0.011117253,1.2666558,2.5261393,-0.14834875,0.33556277,0.36875188,-0.093911454,-0.41774532,-0.39650106,-0.27129018,0.22516987,0.41374698,0.028639186,0.19971977,0.20096457,0.20087464,0.19957452,0.19886653,0
21916000,21836000,-0.65663093,3.6716275,-2.4965308,-1.2409564,0.012136356,1.2676737,2.5271559,-0.14834875,0.33556277,0.36875188,-0.093911454,-0.41774532,-0.39650106,-0.27129018,0.22516987,0.41374698,0.028639186,0.19971977,0.20096457,0.20087464,0.19957452,0.19886653,0
21924000,21844000,-0.65545654,3.6717844,-2.4954891,-1.239913,0.0131806685,1.268717,2.5281975,-0.14834875,0.33556277,0.36875188,-0.093911454,-0.41774532,-0.39650106,-0.27129018,0.22516987,0.41374698,0.028639186,0.19971977,0.20096457,0.20087464,0.19957452,0.19886653,0
21932000,21852000,-0.654229,3.671955,-2.4944057,-1.2388281,0.014266602,1.2698019,2.5292807,-0.14834875,0.33556277,0.36875188,-0.093911454,-0.41774532,-0.39650106,-0.27129018,0.22516987,0.41374698,0.028639186,0.19971977,0.20096457,0.20087464,0.19957452,0.19886653,0
21940000,21860000,-0.65297186,3.6721253,-2.493293,-1.2377136,0.015382084,1.2709162,2.5303934,-0.14834875,0.33556277,0.36875188,-0.093911454,-0.41774532,-0.39650106,-0.27129018,0.22516987,0.41374698,0.028639186,0.19971977,0.20096457,0.20087464,0.19957452,0.19886653,0
21948000,21868000,-0.65168095,3.6722932,-2.4921436,-1.2365625,0.01653431,1.2720673,2.5315428,-0.14834875,0.33556277,0.36875188,-0.093911454,-0.41774532,-0.39650106,-0.27129018,0.22516987,0.41374698,0.028639186,0.19971977,0.20096457,0.20087464,0.19957452,0.19886653,0
21956000,21876000,-0.65035754,3.672483,-2.4909806,-1.2353976,0.017700419,1.2732321,2.5327058,-0.14834875,0.33556277,0.36875188,-0.093911454,-0.41774532,-0.39650106,-0.27129018,0.22516987,0.41374698,0.028639186,0.19971977,0.20096457,0.20087464,0.19957452,0.19886653,0
21964000,21884000,-0.6490215,3.672667,-2.4898002,-1.2342153,0.01888402,1.2744145,2.5338862,-0.14834875,0.33556277,0.36875188,-0.093911454,-0.41774532,-0.39650106,-0.27129018,0.22516987,0.41374698,0.028639186,0.19971977,0.20096457,0.20087464,0.19957452,0.19886653,0
21972000,21892000,-0.64766467,3.6728346,-2.4885848,-1.2329979,0.020102734,1.2756321,2.535102,-0.14834875,0.33556277,0.36875188,-0.093911454,-0.41774532,-0.39650106,-0.27129018,0.22516987,0.41374698,0.028639186,0.19971977,0.20096457,0.20087464,0.19957452,0.19886653,0
21980000,21900000,-0.64627105,3.6730418,-2.487366,-1.231777,0.02132506,1.2768533,2.5363207,-0.14834875,0.33556277,0.36875188,-0.093911454,-0.41774532,-0.39650106,-0.27129018,0.22516987,0.41374698,0.028639186,0.19971977,0.20096457,0.20087464,0.19957452,0.19886653,0
21988000,21908000,-0.64483994,3.6732352,-2.4860985,-1.2305074,0.022596125,1.2781231,2.5375884,-0.14834875,0.33556277,0.36875188,-0.093911454,-0.41774532,-0.39650106,-0.27129018,0.22516987,0.41374698,0.028639186,0.19971977,0.20096457,0.20087464,0.19957452,0.19886653,0
21996000,21916000,-2.0887923,2.951953,-2.4714646,-1.2579272,-0.0073491745,1.2886261,2.5758743,-0.10793466,0.2741999,0.27110907,-0.11295466,-0.34849915,-0.23748219,-0.10908159,0.29335165,0.41586736,0.087361164,0.2439658,0.22918263,0.17508732,0.15741293,0.19435132,0
22004000,21924000,-2.0874665,2.951954,-2.4701376,-1.2565944,-0.006017275,1.2899573,2.577203,-0.10793466,0.2741999,0.27110907,-0.11295466,-0.34849915,-0.23748219,-0.10908159,0.29335165,0.41586736,0.087361164,0.2439658,0.22918263,0.17508732,0.15741293,0.19435132,0
22012000,21932000,-2.0861099,2.951954,-2.468778,-1.2552322,-0.0046535702,1.2913198,2.5785632,-0.10793466,0.2741999,0.27110907,-0.11295466,-0.34849915,-0.23748219,-0.10908159,0.29335165,0.41586736,0.087361164,0.2439658,0.22918263,0.17508732,0.15741293,0.19435132,0
22020000,21940000,-2.0847526,2.9519536,-2.4674175,-1.253869,-0.0032889068,1.2926832,2.5799243,-0.10793466,0.2741999,0.27110907,-0.11295466,-0.34849915,-0.23748219,-0.10908159,0.29335165,0.41586736,0.087361164,0.2439658,0.22918263,0.17508732,0.15741293,0.19435132,0
22028000,21948000,-2.0833871,2.951953,-2.4660487,-1.2524978,-0.0019160059,1.294055,2.5812936,-0.10793466,0.2741999,0.27110907,-0.11295466,-0.34849915,-0.23748219,-0.10908159,0.29335165,0.41586736,0.087361164,0.2439658,0.22918263,0.17508732,0.15741293,0.19435132,0
22036000,21956000,-2.0820389,2.9519527,-2.4646976,-1.2511437,-0.0005603641,1.2954092,2.5826454,-0.10793466,0.2741999,0.27110907,-0.11295466,-0.34849915,-0.23748219,-0.10908159,0.29335165,0.41586736,0.087361164,0.2439658,0.22918263,0.17508732,0.15741293,0.19435132,0
22044000,21964000,-2.0806336,2.9519517,-2.4632885,-1.2497318,0.00085336063,1.2968217,2.5840554,-0.10793466,0.2741999,0.27110907,-0.11295466,-0.34849915,-0.23748219,-0.10908159,0.29335165,0.41586736,0.087361164,0.2439658,0.22918263,0.17508732,0.15741293,0.19435132,0
22052000,21972000,-2.079228,2.9519513,-2.4618793,-1.2483194,0.0022675544,1.2982346,2.5854654,-0.10793466,0.2741999,0.27110907,-0.11295466,-0.34849915,-0.23748219,-0.10908159,0.29335165,0.41586736,0.087361164,0.2439658,0.22918263,0.17508732,0.15741293,0.19435132,0
22060000,21980000,-2.0778255,2.9519503,-2.460473,-1.2469101,0.0036786648,1.2996445,2.5868726,-0.10793466,0.2741999,0.27110907,-0.11295466,-0.34849915,-0.23748219,-0.10908159,0.29335165,0.41586736,0.087361164,0.2439658,0.22918263,0.17508732,0.15741293,0.19435132,0
22068000,21988000,-2.0763907,2.9519496,-2.4590344,-1.2454686,0.005122047,1.3010864,2.588312,-0.10793466,0.2741999,0.27110907,-0.11295466,-0.34849915,-0.23748219,-0.10908159,0.29335165,0.41586736,0.087361164,0.2439658,0.22918263,0.17508732,0.15741293,0.19435132,0
22076000,21996000,-2.0749378,2.9519491,-2.4575775,-1.2440085,0.0065841177,1.3025471,2.5897696,-0.10793466,0.2741999,0.27110907,-0.11295466,-0.34849915,-0.23748219,-0.10908159,0.29335165,0.41586736,0.087361164,0.2439658,0.22918263,0.17508732,0.15741293,0.19435132,0
22084000,22004000,-2.0734746,2.9519477,-2.45611,-1.2425377,0.008057019,1.3040186,2.5912383,-0.10793466,0.2741999,0.27110907,-0.11295466,-0.34849915,-0.23748219,-0.10908159,0.29335165,0.41586736,0.087361164,0.2439658,0.22918263,0.17508732,0.15741293,0.19435132,0
22092000,22012000,-2.0720186,2.9519467,-2.4546497,-1.2410743,0.009522561,1.3054827,2.5926993,-0.10793466,0.2741999,0.27110907,-0.11295466,-0.34849915,-0.23748219,-0.10908159,0.29335165,0.41586736,0.087361164,0.2439658,0.22918263,0.17508732,0.15741293,0.19435132,0
22100000,22020000,-2.070541,2.9519455,-2.4531677,-1.2395889,0.011010173,1.3069689,2.5941825,-0.10793466,0.2741999,0.27110907,-0.11295466,-0.34849915,-0.23748219,-0.10908159,0.29335165,0.41586736,0.087361164,0.2439658,0.22918263,0.17508732,0.15741293,0.19435132,0
22108000,22028000,-2.0690722,2.9519448,-2.4516947,-1.2381126,0.012488643,1.3084458,2.5956562,-0.10793466,0.2741999,0.27110907,-0.11295466,-0.34849915,-0.23748219,-0.10908159,0.29335165,0.41586736,0.087361164,0.2439658,0.22918263,0.17508732,0.15741293,0.19435132,0
22116000,22036000,-2.067618,2.951943,-2.4502354,-1.2366496,0.013953924,1.3099096,2.5971167,-0.10793466,0.2741999,0.27110907,-0.11295466,-0.34849915,-0.23748219,-0.10908159,0.29335165,0.41586736,0.087361164,0.2439658,0.22918263,0.17508732,0.15741293,0.19435132,0
22124000,22044000,-2.066132,2.9519415,-2.4487448,-1.2351555,0.015450459,1.3114047,2.5986085,-0.10793466,0.2741999,0.27110907,-0.11295466,-0.34849915,-0.23748219,-0.10908159,0.29335165,0.41586736,0.087361164,0.2439658,0.22918263,0.17508732,0.15741293,0.19435132,0
22132000,22052000,-2.0646448,2.95194,-2.4472523,-1.2336595,0.01694885,1.3129016,2.600102,-0.10793466,0.2741999,0.27110907,-0.11295466,-0.34849915,-0.23748219,-0.10908159,0.29335165,0.41586736,0.087361164,0.2439658,0.22918263,0.17508732,0.15741293,0.19435132,0
22140000,22060000,-2.0631428,2.9519386,-2.4457455,-1.2321489,0.018461924,1.3144132,2.6016104,-0.10793466,0.2741999,0.27110907,-0.11295466,-0.34849915,-0.23748219,-0.10908159,0.29335165,0.41586736,0.087361164,0.2439658,0.22918263,0.17508732,0.15741293,0.19435132,0
22148000,22068000,-2.0616584,2.9519367,-2.4442556,-1.2306554,0.01995795,1.3159077,2.6031013,-0.10793466,0.2741999,0.27110907,-0.11295466,-0.34849915,-0.23748219,-0.10908159,0.29335165,0.41586736,0.087361164,0.2439658,0.22918263,0.17508732,0.15741293,0.19435132,0
22156000,22076000,-2.0601668,2.9519348,-2.4427586,-1.2291546,0.021461386,1.3174096,2.6045997,-0.10793466,0.2741999,0.27110907,-0.11295466,-0.34849915,-0.23748219,-0.10908159,0.29335165,0.41586736,0.087361164,0.2439658,0.22918263,0.17508732,0.15741293,0.19435132,0
22164000,22084000,-2.0586672,2.9519324,-2.441254,-1.2276461,0.022972403,1.3189191,2.6061056,-0.10793466,0.2741999,0.27110907,-0.11295466,-0.34849915,-0.23748219,-0.10908159,0.29335165,0.41586736,0.087361164,0.2439658,0.22918263,0.17508732,0.15741293,0.19435132,0
22172000,22092000,-2.057202,2.951931,-2.439783,-1.2261715,0.024449704,1.3203949,2.6075778,-0.10793466,0.2741999,0.27110907,-0.11295466,-0.34849915,-0.23748219,-0.10908159,0.29335165,0.41586736,0.087361164,0.2439658,0.22918263,0.17508732,0.15741293,0.19435132,0
22180000,22100000,-2.0557365,2.951929,-2.438312,-1.224697,0.025926948,1.3218706,2.60905,-0.10793466,0.2741999,0.27110907,-0.11295466,-0.34849915,-0.23748219,-0.10908159,0.29335165,0.41586736,0.087361164,0.2439658,0.22918263,0.17508732,0.15741293,0.19435132,0
22188000,22108000,-2.0542603,2.9519267,-2.4368303,-1.2232113,0.027415259,1.3233575,2.6105332,-0.10793466,0.2741999,0.27110907,-0.11295466,-0.34849915,-0.23748219,-0.10908159,0.29335165,0.41586736,0.087361164,0.2439658,0.22918263,0.17508732,0.15741293,0.19435132,0
22196000,22116000,-2.0527682,2.9519243,-2.4353323,-1.2217095,0.028919907,1.3248606,2.612033,-0.10793466,0.2741999,0.27110907,-0.11295466,-0.34849915,-0.23748219,-0.10908159,0.29335165,0.41586736,0.087361164,0.2439658,0.22918263,0.17508732,0.15741293,0.19435132,0
22204000,22124000,-2.051291,2.9519222,-2.4338496,-1.2202232,0.03040901,1.3263483,2.6135168,-0.10793466,0.2741999,0.27110907,-0.11295466,-0.34849915,-0.23748219,-0.10908159,0.29335165,0.41586736,0.087361164,0.2439658,0.22918263,0.17508732,0.15741293,0.19435132,0
22212000,22132000,-2.049834,2.9519193,-2.4323864,-1.2187561,0.031878937,1.3278167,2.6149817,-0.10793466,0.2741999,0.27110907,-0.11295466,-0.34849915,-0.23748219,-0.10908159,0.29335165,0.41586736,0.087361164,0.2439658,0.22918263,0.17508732,0.15741293,0.19435132,0
22220000,22140000,-2.0483975,2.9519174,-2.4309442,-1.2173102,0.03332758,1.3292639,2.616425,-0.10793466,0.2741999,0.27110907,-0.11295466,-0.34849915,-0.23748219,-0.10908159,0.29335165,0.41586736,0.087361164,0.2439658,0.22918263,0.17508732,0.15741293,0.19435132,0
22228000,22148000,-2.0470371,2.951915,-2.4295778,-1.2159401,0.034700435,1.3306353,2.617793,-0.10793466,0.2741999,0.27110907,-0.11295466,-0.34849915,-0.23748219,-0.10908159,0.29335165,0.41586736,0.087361164,0.2439658,0.22918263,0.17508732,0.15741293,0.19435132,0
22236000,22156000,-2.045714,2.9519126,-2.428249,-1.2146075,0.03603582,1.3319694,2.6191235,-0.10793466,0.2741999,0.27110907,-0.11295466,-0.34849915,-0.23748219,-0.10908159,0.29335165,0.41586736,0.087361164,0.2439658,0.22918263,0.17508732,0.15741293,0.19435132,0
22244000,22164000,-2.0444036,2.9519098,-2.4269326,-1.2132876,0.037358444,1.3332908,2.6204414,-0.10793466,0.2741999,0.27110907,-0.11295466,-0.34849915,-0.23748219,-0.10908159,0.29335165,0.41586736,0.087361164,0.2439658,0.22918263,0.17508732,0.15741293,0.19435132,0
22252000,22172000,-2.0431519,2.9519072,-2.4256752,-1.2120268,0.03862201,1.3345532,2.6217005,-0.10793466,0.2741999,0.27110907,-0.11295466,-0.34849915,-0.23748219,-0.10908159,0.29335165,0.41586736,0.087361164,0.2439658,0.22918263,0.17508732,0.15741293,0.19435132,0
22260000,22180000,-2.04197,2.9519038,-2.4244876,-1.2108362,0.039815348,1.3357455,2.6228895,-0.10793466,0.2741999,0.27110907,-0.11295466,-0.34849915,-0.23748219,-0.10908159,0.29335165,0.41586736,0.087361164,0.2439658,0.22918263,0.17508732,0.15741293,0.19435132,0
22268000,22188000,-2.0408435,2.9519017,-2.4233556,-1.2097011,0.04095309,1.3368822,2.624023,-0.10793466,0.2741999,0.27110907,-0.11295466,-0.34849915,-0.23748219,-0.10908159,0.29335165,0.41586736,0.087361164,0.2439658,0.22918263,0.17508732,0.15741293,0.19435132,0
22276000,22196000,-2.0397725,2.9518983,-2.422279,-1.2086213,0.042035334,1.3379636,2.6251013,-0.10793466,0.2741999,0.27110907,-0.11295466,-0.34849915,-0.23748219,-0.10908159,0.29335165,0.41586736,0.087361164,0.2439658,0.22918263,0.17508732,0.15741293,0.19435132,0
22284000,22204000,-2.0387635,2.9518957,-2.421265,-1.2076048,0.043054417,1.3389819,2.6261168,-0.10793466,0.2741999,0.27110907,-0.11295466,-0.34849915,-0.23748219,-0.10908159,0.29335165,0.41586736,0.087361164,0.2439658,0.22918263,0.17508732,0.15741293,0.19435132,0
22292000,22212000,-2.037839,2.9518926,-2.4203348,-1.2066722,0.043989412,1.3399162,2.6270485,-0.10793466,0.2741999,0.27110907,-0.11295466,-0.34849915,-0.23748219,-0.10908159,0.29335165,0.41586736,0.087361164,0.2439658,0.22918263,0.17508732,0.15741293,0.19435132,0
22300000,22220000,-2.0370035,2.95189,-2.4194942,-1.2058291,0.044834804,1.340761,2.6278908,-0.10793466,0.2741999,0.27110907,-0.11295466,-0.34849915,-0.23748219,-0.10908159,0.29335165,0.41586736,0.087361164,0.2439658,0.22918263,0.17508732,0.15741293,0.19435132,0
22308000,22228000,-2.0362766,2.9518867,-2.4187624,-1.2050953,0.04557076,1.3414965,2.628624,-0.10793466,0.2741999,0.27110907,-0.11295466,-0.34849915,-0.23748219,-0.10908159,0.29335165,0.41586736,0.087361164,0.2439658,0.22918263,0.17508732,0.15741293,0.19435132,0
22316000,22236000,-2.0356116,2.9518845,-2.4180932,-1.2044244,0.046243668,1.3421689,2.6292944,-0.10793466,0.2741999,0.27110907,-0.11295466,-0.34849915,-0.23748219,-0.10908159,0.29335165,0.41586736,0.087361164,0.2439658,0.22918263,0.17508732,0.15741293,0.19435132,0
22324000,22244000,-2.035028,2.951882,-2.4175057,-1.2038352,0.046834566,1.3427596,2.6298833,-0.10793466,0.2741999,0.27110907,-0.11295466,-0.34849915,-0.23748219,-0.10908159,0.29335165,0.41586736,0.087361164,0.2439658,0.22918263,0.17508732,0.15741293,0.19435132,0
22332000,22252000,-2.0345464,2.9518797,-2.4170208,-1.2033494,0.047322065,1.3432469,2.6303692,-0.10793466,0.2741999,0.27110907,-0.11295466,-0.34849915,-0.23748219,-0.10908159,0.29335165,0.41586736,0.087361164,0.2439658,0.22918263,0.17508732,0.15741293,0.19435132,0
22340000,22260000,-2.0341406,2.951878,-2.416612,-1.2029394,0.047733247,1.3436581,2.6307793,-0.10793466,0.2741999,0.27110907,-0.11295466,-0.34849915,-0.23748219,-0.10908159,0.29335165,0.41586736,0.087361164,0.2439658,0.22918263,0.17508732,0.15741293,0.19435132,0
22348000,22268000,-2.03377,2.9518764,-2.4162388,-1.2025656,0.048108064,1.344033,2.6311533,-0.10793466,0.2741999,0.27110907,-0.11295466,-0.34849915,-0.23748219,-0.10908159,0.29335165,0.41586736,0.087361164,0.2439658,0.22918263,0.17508732,0.15741293,0.19435132,0
