timestamp,roll,pitch,yaw,thrust_body[0],thrust_body[1],thrust_body[2],reset_integral
4540000,0.1300145,0.15042682,0.0006483793,0.0,0.0,-0.001,0
4544000,0.13002853,0.15025902,0.00067800283,0.0,0.0,-0.001,0
4560000,0.12997079,0.14967959,0.000656724,0.0,0.0,-0.001,0
4580000,0.13020937,0.14883678,0.00074350834,0.0,0.0,-0.001,0
4600000,0.13048942,0.14818048,0.000680089,0.0,0.0,-0.001,0
4620000,0.13059284,0.14792824,0.00069636106,0.0,0.0,-0.001,0
4644000,0.13066311,0.14766759,0.0008365512,0.0,0.0,-0.001,0
4664000,0.13071427,0.14694223,0.0007418394,0.0,0.0,-0.001,0
4684000,0.13076656,0.1461015,0.00076144934,0.0,0.0,-0.001,0
4700000,0.1306751,0.14534044,0.00078356266,0.0,0.0,-0.001,0
4724000,0.13066314,0.14439817,0.0007418394,0.0,0.0,-0.001,0
4744000,0.13060799,0.1437122,0.00066423416,0.0,0.0,-0.001,0
4764000,0.13064684,0.14323206,0.00070387125,0.0,0.0,-0.001,0
4780000,0.13067971,0.14278868,0.0006366968,0.0,0.0,-0.001,0
4804000,0.13072792,0.14226158,0.00072181225,0.0,0.0,-0.001,0
4824000,0.13076629,0.14191774,0.0006158352,0.0,0.0,-0.001,0
4844000,0.13071664,0.1420592,0.0007326603,0.0,0.0,-0.001,0
4864000,0.13092406,0.1418482,0.00067842007,0.0,0.0,-0.001,0
4884000,0.13064669,0.14130667,0.0008352995,0.0,0.0,-0.001,0
4904000,0.1303395,0.14076093,0.0006734133,0.0,0.0,-0.001,0
4920000,0.13014302,0.14054725,0.0006454587,0.0,0.0,-0.001,0
4940000,0.12980199,0.13995631,0.0010843873,0.0,0.0,-0.001,0
4960000,0.12940247,0.13941911,0.0008995533,0.0,0.0,-0.001,0
4980000,0.1290598,0.1392002,0.001128614,0.0,0.0,-0.001,0
5000000,0.12828836,0.13898249,0.0008369684,0.0,0.0,-0.001,0
5020000,0.12786523,0.13897151,0.0010760427,0.0,0.0,-0.001,0
5044000,0.12738127,0.13853234,0.0010017753,0.0,0.0,-0.001,0
5060000,0.12718782,0.13847849,0.0009237528,0.0,0.0,-0.001,0
5084000,0.12654032,0.1383769,0.0004426837,0.0,0.0,-0.001,0
5104000,0.1259718,0.13838442,0.0004885793,0.0,0.0,-0.001,0
5124000,0.12512422,0.13847083,0.00033670664,0.0,0.0,-0.001,0
5144000,0.12480021,0.1382093,0.0004184842,0.0,0.0,-0.001,0
5164000,0.12410084,0.13820103,0.00015312433,0.0,0.0,-0.001,0
5184000,0.123747356,0.13814628,0.00040137768,0.0,0.0,-0.001,0
5204000,0.12323236,0.1379431,0.00036424398,0.0,0.0,-0.001,0
5224000,0.12277491,0.1377697,0.0004698038,0.0,0.0,-0.001,0
5244000,0.122395515,0.13754243,0.00035840273,0.0,0.0,-0.001,0
5260000,0.1221617,0.13741106,0.00042808056,0.0,0.0,-0.001,0
5280000,0.121901035,0.13742669,0.0005148649,0.0,0.0,-0.001,0
5304000,0.12142798,0.13754913,0.0005816221,0.0,0.0,-0.001,0
5324000,0.12115112,0.13745007,0.0006354451,0.0,0.0,-0.001,0
5340000,0.120862916,0.13739213,0.000662148,0.0,0.0,-0.001,0
5364000,0.12065475,0.13747028,0.0006008148,0.0,0.0,-0.001,0
5384000,0.12029483,0.13772695,0.0005732775,0.0,0.0,-0.001,0
5404000,0.120109014,0.13780876,0.0006533861,0.0,0.0,-0.001,0
5420000,0.11984533,0.13793036,0.00063711405,0.0,0.0,-0.001,0
5444000,0.11979553,0.13800737,0.00058579445,0.0,0.0,-0.001,0
5464000,0.11946809,0.13795993,0.00059872866,0.0,0.0,-0.001,0
5484000,0.119193904,0.13805696,0.0007543564,0.0,0.0,-0.001,0
5504000,0.11893092,0.13795976,0.00073724985,0.0,0.0,-0.001,0
5524000,0.118545115,0.13789314,0.00085407495,0.0,0.0,-0.001,0
5544000,0.1183397,0.13777022,0.0006650686,0.0,0.0,-0.001,0
5564000,0.1182731,0.13789189,0.000864923,0.0,0.0,-0.001,0
5580000,0.11794948,0.13786852,0.0009880066,0.0,0.0,-0.001,0
5604000,0.11775316,0.1378732,0.0008432269,0.0,0.0,-0.001,0
5624000,0.117541514,0.13774072,0.00069761276,0.0,0.0,-0.001,0
5644000,0.11739831,0.13766856,0.000816524,0.0,0.0,-0.001,0
5664000,0.11749373,0.13767348,0.000680089,0.0,0.0,-0.001,0
5684000,0.117496,0.13759324,0.00081944466,0.0,0.0,-0.001,0
5700000,0.11750054,0.13739261,0.00079232454,0.0,0.0,-0.001,0
5724000,0.117637835,0.13709873,0.0007685423,0.0,0.0,-0.001,0
5740000,0.11758655,0.13698253,0.0007017851,0.0,0.0,-0.001,0
5764000,0.11758522,0.13671833,0.00071555376,0.0,0.0,-0.001,0
5784000,0.11780338,0.13676678,0.00061666965,0.0,0.0,-0.001,0
5800000,0.11789318,0.1367411,0.00033128262,0.0,0.0,-0.001,0
5820000,0.11808272,0.13670322,0.00014019012,0.0,0.0,-0.001,0
5840000,0.11825973,0.13655859,0.00032252073,0.0,0.0,-0.001,0
5860000,0.11837645,0.1364788,9.596348e-05,0.0,0.0,-0.001,0
5880000,0.11855955,0.13619113,0.00029289722,0.0,0.0,-0.001,0
5904000,0.1185976,0.1358018,0.00033712387,0.0,0.0,-0.001,0
5924000,0.11889396,0.1359299,0.00016021729,0.0,0.0,-0.001,0
5940000,0.11904296,0.13591953,8.136034e-05,0.0,0.0,-0.001,0
5964000,0.11924607,0.135765,0.00013142824,0.0,0.0,-0.001,0
5984000,0.119432375,0.13584849,0.0003504753,0.0,0.0,-0.001,0
6004000,0.11975931,0.13561393,0.00028580427,0.0,0.0,-0.001,0
6024000,0.11978621,0.13578902,0.00046730042,0.0,0.0,-0.001,0
6044000,0.119590014,0.1360013,0.0004272461,0.0,0.0,-0.001,0
6060000,0.11955094,0.1361721,0.0005156994,0.0,0.0,-0.001,0
6080000,0.11947971,0.1361429,0.00048482418,0.0,0.0,-0.001,0
6104000,0.11936354,0.13580386,0.0004940033,0.0,0.0,-0.001,0
6124000,0.1193977,0.135615,0.00048190355,0.0,0.0,-0.001,0
6140000,0.11952196,0.1355614,0.00050109625,0.0,0.0,-0.001,0
6164000,0.1199969,0.13554762,0.000495255,0.0,0.0,-0.001,0
6184000,0.1199969,0.13540411,0.0005440712,0.0,0.0,-0.001,0
6200000,0.11996943,0.13547215,0.00053572655,0.0,0.0,-0.001,0
6220000,0.119954936,0.13547552,0.0005469918,0.0,0.0,-0.001,0
6244000,0.11985381,0.13538069,0.0005620122,0.0,0.0,-0.001,0
6264000,0.11981558,0.13529319,0.0005866289,0.0,0.0,-0.001,0
6280000,0.11993467,0.13532901,0.00061291456,0.0,0.0,-0.001,0
6300000,0.11974791,0.13529995,0.00066256523,0.0,0.0,-0.001,0
6324000,0.1196453,0.13518001,0.00064253807,0.0,0.0,-0.001,0
6340000,0.119858846,0.13504039,0.00066673756,0.0,0.0,-0.001,0
6364000,0.119802326,0.13502863,0.0006070733,0.0,0.0,-0.001,0
6384000,0.119567566,0.13493067,0.00073224306,0.0,0.0,-0.001,0
6404000,0.11941054,0.13515437,0.00074517727,0.0,0.0,-0.001,0
6420000,0.11931111,0.13514307,0.0007939935,0.0,0.0,-0.001,0
6444000,0.118970945,0.13494849,0.0007814765,0.0,0.0,-0.001,0
6464000,0.11883228,0.13535844,0.0006033182,0.0,0.0,-0.001,0
6484000,0.118573956,0.13523492,0.0007664561,0.0,0.0,-0.001,0
6504000,0.11859366,0.13531551,0.0006054044,0.0,0.0,-0.001,0
6524000,0.118549086,0.1355278,0.0007831454,0.0,0.0,-0.001,0
6544000,0.1183988,0.1354285,0.0006187558,0.0,0.0,-0.001,0
6564000,0.11822425,0.13538568,0.0006429553,0.0,0.0,-0.001,0
6580000,0.11810805,0.13522354,0.0007238984,0.0,0.0,-0.001,0
6604000,0.11799431,0.13560794,0.00065630674,0.0,0.0,-0.001,0
6624000,0.11779755,0.1354881,0.00059205294,0.0,0.0,-0.001,0
6644000,0.11771121,0.13537315,0.0006133318,0.0,0.0,-0.001,0
6664000,0.11766869,0.13508753,0.0005378127,0.0,0.0,-0.001,0
6684000,0.117595464,0.13509762,0.0005837083,0.0,0.0,-0.001,0
6700000,0.11751011,0.13506605,0.00055909157,0.0,0.0,-0.001,0
6724000,0.11719756,0.13507447,0.00054991245,0.0,0.0,-0.001,0
6740000,0.11716096,0.13498814,0.0005336404,0.0,0.0,-0.001,0
6760000,0.1166495,0.13504615,0.0005570054,0.0,0.0,-0.001,0
6780000,0.11642031,0.13512057,0.0005469918,0.0,0.0,-0.001,0
6804000,0.11637455,0.135066,0.0003796816,0.0,0.0,-0.001,0
6820000,0.11611149,0.13537173,0.0002732873,0.0,0.0,-0.001,0
6844000,0.11600929,0.13553612,0.00035256147,0.0,0.0,-0.001,0
6864000,0.11561808,0.13559145,0.00041556358,0.0,0.0,-0.001,0
6884000,0.1156158,0.13565394,0.00038218498,0.0,0.0,-0.001,0
6904000,0.11554021,0.13580966,0.000459373,0.0,0.0,-0.001,0
6924000,0.11515057,0.13571347,0.0004543662,0.0,0.0,-0.001,0
6940000,0.11494872,0.13571475,0.00048691034,0.0,0.0,-0.001,0
6964000,0.114898466,0.1357905,6.67572e-06,0.0,0.0,-0.001,0
6984000,0.11481266,0.1358528,0.00028580427,0.0,0.0,-0.001,0
7000000,0.11467987,0.13603875,0.00035005808,0.0,0.0,-0.001,0
7024000,0.11462905,0.13610634,0.00032502413,0.0,0.0,-0.001,0
7040000,0.114417866,0.1361814,0.00035631657,0.0,0.0,-0.001,0
7060000,0.11435349,0.1361274,0.00019651651,0.0,0.0,-0.001,0
7084000,0.11408052,0.13637309,0.0002824664,0.0,0.0,-0.001,0
7100000,0.11431478,0.1363905,0.00015896559,0.0,0.0,-0.001,0
7124000,0.1141571,0.13684672,0.00028038025,0.0,0.0,-0.001,0
7140000,0.11411564,0.13686635,0.00024574995,0.0,0.0,-0.001,0
7164000,0.114134334,0.13703713,0.00039845705,0.0,0.0,-0.001,0
7180000,0.11415336,0.13690275,0.00048023462,0.0,0.0,-0.001,0
7204000,0.11408362,0.13701394,0.0005052686,0.0,0.0,-0.001,0
7220000,0.11394475,0.137255,0.00049191713,0.0,0.0,-0.001,0
7244000,0.114071496,0.13727336,0.0005236268,0.0,0.0,-0.001,0
7260000,0.11421853,0.13728233,0.0005415678,0.0,0.0,-0.001,0
7284000,0.11455977,0.13744672,0.00054991245,0.0,0.0,-0.001,0
7300000,0.11442735,0.13735458,0.0006354451,0.0,0.0,-0.001,0
7324000,0.11425993,0.13698806,0.00059372187,0.0,0.0,-0.001,0
7344000,0.11405976,0.13713089,0.00057703257,0.0,0.0,-0.001,0
7364000,0.11417124,0.1372865,0.000554502,0.0,0.0,-0.001,0
7380000,0.11442146,0.13696168,0.00063085556,0.0,0.0,-0.001,0
7400000,0.114434,0.1369802,0.00060874224,0.0,0.0,-0.001,0
7420000,0.114813715,0.1369945,0.00067925453,0.0,0.0,-0.001,0
7444000,0.11456758,0.13713184,0.00069761276,0.0,0.0,-0.001,0
7460000,0.114431456,0.1373036,0.000674665,0.0,0.0,-0.001,0
7484000,0.11428021,0.13720645,0.00066924095,0.0,0.0,-0.001,0
7500000,0.114184156,0.13701302,0.00060498714,0.0,0.0,-0.001,0
7520000,0.1140462,0.13678941,0.0005336404,0.0,0.0,-0.001,0
7540000,0.11413541,0.13709673,0.00052154064,0.0,0.0,-0.001,0
7564000,0.11428291,0.13719752,0.00049108267,0.0,0.0,-0.001,0
7584000,0.114707895,0.13744205,0.0005348921,0.0,0.0,-0.001,0
7604000,0.114960164,0.13747872,0.000500679,0.0,0.0,-0.001,0
7624000,0.11523487,0.13777427,0.00051277876,0.0,0.0,-0.001,0
7644000,0.115359545,0.13783568,0.00041097403,0.0,0.0,-0.001,0
7660000,0.11533983,0.13811468,0.00044685602,0.0,0.0,-0.001,0
7684000,0.11572613,0.13820285,0.00044727325,0.0,0.0,-0.001,0
7704000,0.11615033,0.13817538,0.00049483776,0.0,0.0,-0.001,0
7724000,0.11629019,0.13794239,0.00048190355,0.0,0.0,-0.001,0
7740000,0.116234966,0.13787057,0.00047397614,0.0,0.0,-0.001,0
7764000,0.11623223,0.137811,0.00043559074,0.0,0.0,-0.001,0
7780000,0.116188034,0.13780114,0.00056660175,0.0,0.0,-0.001,0
7804000,0.11637948,0.13779552,0.0006016493,0.0,0.0,-0.001,0
7820000,0.11673399,0.13776349,0.0005874634,0.0,0.0,-0.001,0
7840000,0.11692236,0.1375934,0.0005837083,0.0,0.0,-0.001,0
7860000,0.11704688,0.13730673,0.0007097125,0.0,0.0,-0.001,0
7880000,0.11722045,0.13705154,0.0006175041,0.0,0.0,-0.001,0
7900000,0.11742846,0.13722181,0.00061041117,0.0,0.0,-0.001,0
7924000,0.11752923,0.13717169,0.0007197261,0.0,0.0,-0.001,0
7940000,0.11757412,0.13708323,0.0010656118,0.0,0.0,-0.001,0
7964000,0.11759721,0.13711669,0.0010009408,0.0,0.0,-0.001,0
7980000,0.11755401,0.13718635,0.001044333,0.0,0.0,-0.001,0
8004000,0.11730839,0.13693853,0.0010117888,0.0,0.0,-0.001,0
8024000,0.11743243,0.1366576,0.00071930885,0.0,0.0,-0.001,0
8044000,0.117415406,0.13662806,0.0008920431,0.0,0.0,-0.001,0
8064000,0.11733465,0.13664877,0.00068593025,0.0,0.0,-0.001,0
8084000,0.11757482,0.13651139,0.00081318617,0.0,0.0,-0.001,0
8104000,0.11754415,0.13652968,0.0006663203,0.0,0.0,-0.001,0
8124000,0.11748939,0.13664058,0.0006984472,0.0,0.0,-0.001,0
8140000,0.11746886,0.13659735,0.0006684065,0.0,0.0,-0.001,0
8164000,0.11754714,0.1365704,0.00059372187,0.0,0.0,-0.001,0
8180000,0.117635004,0.13644686,0.00060623884,0.0,0.0,-0.001,0
8204000,0.11774369,0.13644603,0.00062167645,0.0,0.0,-0.001,0
8224000,0.117797725,0.13618715,0.00061041117,0.0,0.0,-0.001,0
8244000,0.11778895,0.13617371,0.00068217516,0.0,0.0,-0.001,0
8260000,0.117756814,0.13602455,0.0006571412,0.0,0.0,-0.001,0
8284000,0.117833756,0.13587785,0.00070387125,0.0,0.0,-0.001,0
8300000,0.11777115,0.13580188,0.00070637465,0.0,0.0,-0.001,0
8324000,0.11778626,0.13549605,0.00063961744,0.0,0.0,-0.001,0
8344000,0.117944986,0.1354863,0.0005732775,0.0,0.0,-0.001,0
8364000,0.11767691,0.13569935,0.00054240227,0.0,0.0,-0.001,0
8384000,0.11762297,0.13557793,0.0005081892,0.0,0.0,-0.001,0
8404000,0.117618345,0.13528576,0.0004965067,0.0,0.0,-0.001,0
8424000,0.1176313,0.13514543,0.00045770407,0.0,0.0,-0.001,0
8444000,0.117785126,0.13499373,0.0004956722,0.0,0.0,-0.001,0
8464000,0.11762925,0.134913,0.00050109625,0.0,0.0,-0.001,0
8484000,0.11779493,0.13506274,0.00042140484,0.0,0.0,-0.001,0
8504000,0.11785198,0.13501668,0.00031292439,0.0,0.0,-0.001,0
8524000,0.1175554,0.1347551,0.00012975931,0.0,0.0,-0.001,0
8540000,0.11722428,0.1345528,0.00017690659,0.0,0.0,-0.001,0
8560000,0.11706657,0.13448925,0.00036090612,0.0,0.0,-0.001,0
8580000,0.11688496,0.13450447,0.00016355515,0.0,0.0,-0.001,0
8600000,0.11664481,0.13452937,0.0003838539,0.0,0.0,-0.001,0
8620000,0.11666102,0.1347053,0.00027036667,0.0,0.0,-0.001,0
8640000,0.11667104,0.13455448,0.0004977584,0.0,0.0,-0.001,0
8664000,0.11657645,0.13444051,0.0005540848,0.0,0.0,-0.001,0
8684000,0.1166222,0.1344421,0.00059872866,0.0,0.0,-0.001,0
8700000,0.116486974,0.13431275,0.0006508827,0.0,0.0,-0.001,0
8724000,0.11655956,0.13427365,0.0006479621,0.0,0.0,-0.001,0
8740000,0.11641334,0.13419989,0.0006412864,0.0,0.0,-0.001,0
8764000,0.116202205,0.13405074,0.0006558895,0.0,0.0,-0.001,0
8784000,0.11606027,0.1340455,0.0005469918,0.0,0.0,-0.001,0
8804000,0.11586256,0.13406657,0.00060749054,0.0,0.0,-0.001,0
8820000,0.11577413,0.13414612,0.00059497356,0.0,0.0,-0.001,0
8844000,0.11590825,0.13444747,0.0005645156,0.0,0.0,-0.001,0
8860000,0.11574396,0.13462034,0.00056034327,0.0,0.0,-0.001,0
8884000,0.11566496,0.1346452,0.00049066544,0.0,0.0,-0.001,0
8900000,0.11570432,0.13456681,0.0005645156,0.0,0.0,-0.001,0
8924000,0.11572135,0.13437192,0.00048607588,0.0,0.0,-0.001,0
8940000,0.11573065,0.13447385,0.0005031824,0.0,0.0,-0.001,0
8964000,0.1156521,0.13432996,0.000536561,0.0,0.0,-0.001,0
8984000,0.115675375,0.13420199,0.0005415678,0.0,0.0,-0.001,0
9004000,0.11571169,0.13404725,0.0005453229,0.0,0.0,-0.001,0
9020000,0.115606844,0.13429026,0.0005695224,0.0,0.0,-0.001,0
9044000,0.11555638,0.13415405,0.0005398989,0.0,0.0,-0.001,0
9060000,0.11545912,0.13389198,0.0005148649,0.0,0.0,-0.001,0
9084000,0.11544527,0.13397005,0.000531137,0.0,0.0,-0.001,0
9100000,0.11505311,0.13398336,0.0004977584,0.0,0.0,-0.001,0
9124000,0.11530954,0.1339862,0.0005386472,0.0,0.0,-0.001,0
9144000,0.115292735,0.133944,0.00047814846,0.0,0.0,-0.001,0
9164000,0.11516883,0.133802,0.00044351816,0.0,0.0,-0.001,0
9180000,0.11495085,0.13390578,0.00045019388,0.0,0.0,-0.001,0
9204000,0.115067795,0.13357215,0.00032794476,0.0,0.0,-0.001,0
9220000,0.11523478,0.1333744,0.00032377243,0.0,0.0,-0.001,0
9240000,0.11515074,0.13337345,0.00043016672,0.0,0.0,-0.001,0
9264000,0.11520129,0.13321806,0.00041514635,0.0,0.0,-0.001,0
9284000,0.115151435,0.13303058,0.00030833483,0.0,0.0,-0.001,0
9300000,0.11513377,0.13292785,0.00034964085,0.0,0.0,-0.001,0
9324000,0.11507903,0.13260053,0.00045019388,0.0,0.0,-0.001,0
9340000,0.115268596,0.13280961,0.00037008524,0.0,0.0,-0.001,0
9364000,0.11531697,0.13324444,0.0004376769,0.0,0.0,-0.001,0
9380000,0.115213044,0.13338655,0.00043141842,0.0,0.0,-0.001,0
9404000,0.115187876,0.13320963,0.00047147274,0.0,0.0,-0.001,0
9424000,0.11511605,0.1331119,0.0005106926,0.0,0.0,-0.001,0
9444000,0.11501633,0.13316153,0.00039428473,0.0,0.0,-0.001,0
9464000,0.11477662,0.1332263,0.0004956722,0.0,0.0,-0.001,0
9484000,0.114485346,0.13332132,0.0004518628,0.0,0.0,-0.001,0
9504000,0.11438226,0.13343665,0.00039929152,0.0,0.0,-0.001,0
9524000,0.11444631,0.13319796,0.00039762259,0.0,0.0,-0.001,0
9544000,0.11443529,0.13332425,0.00044977665,0.0,0.0,-0.001,0
9564000,0.114441805,0.13351652,0.000351727,0.0,0.0,-0.001,0
9584000,0.11449842,0.13372101,0.00043809414,0.0,0.0,-0.001,0
9604000,0.11446027,0.13344444,0.00038009882,0.0,0.0,-0.001,0
9624000,0.11434306,0.13296485,0.00047272444,0.0,0.0,-0.001,0
9644000,0.114325725,0.13271709,0.00038927794,0.0,0.0,-0.001,0
9664000,0.114257015,0.13285246,0.00046813488,0.0,0.0,-0.001,0
9684000,0.11411739,0.13274005,0.00043350458,0.0,0.0,-0.001,0
9704000,0.11402786,0.13260715,0.0004518628,0.0,0.0,-0.001,0
9720000,0.11399496,0.132623,0.00047397614,0.0,0.0,-0.001,0
9744000,0.11376248,0.13226877,0.00048440695,0.0,0.0,-0.001,0
9760000,0.11363868,0.13241404,0.00047647953,0.0,0.0,-0.001,0
9784000,0.11350397,0.13245285,0.0004518628,0.0,0.0,-0.001,0
9804000,0.113272905,0.1325368,0.00036424398,0.0,0.0,-0.001,0
9820000,0.11317031,0.13236868,0.00046730042,0.0,0.0,-0.001,0
9844000,0.113469936,0.13200757,0.0004543662,0.0,0.0,-0.001,0
9864000,0.11354201,0.13191758,0.0004606247,0.0,0.0,-0.001,0
9884000,0.11378545,0.13160051,0.0005194545,0.0,0.0,-0.001,0
9904000,0.1137408,0.1313787,0.00048565865,0.0,0.0,-0.001,0
9924000,0.11376268,0.13116741,0.00058329105,0.0,0.0,-0.001,0
9940000,0.113667354,0.13114826,0.0007022023,0.0,0.0,-0.001,0
9964000,0.11351242,0.13130072,0.00068843365,0.0,0.0,-0.001,0
9984000,0.11351563,0.1314191,0.0005674362,0.0,0.0,-0.001,0
10004000,0.11357573,0.13144478,0.00064337254,0.0,0.0,-0.001,0
10020000,0.1134946,0.13134576,0.00065004826,0.0,0.0,-0.001,0
10044000,0.11354706,0.13144591,0.0005916357,0.0,0.0,-0.001,0
10060000,0.11334334,0.13129655,0.00060623884,0.0,0.0,-0.001,0
10084000,0.11327143,0.13116743,0.0006942749,0.0,0.0,-0.001,0
10104000,0.11302681,0.13085064,0.00057035685,0.0,0.0,-0.001,0
10124000,0.112815276,0.13110325,0.00067049265,0.0,0.0,-0.001,0
10144000,0.11259455,0.13115934,0.0005261302,0.0,0.0,-0.001,0
10164000,0.11252124,0.13144846,0.00059205294,0.0,0.0,-0.001,0
10184000,0.11240495,0.13125457,0.0005236268,0.0,0.0,-0.001,0
10204000,0.11227802,0.13130055,0.0005348921,0.0,0.0,-0.001,0
10224000,0.112411335,0.13150895,0.0004990101,0.0,0.0,-0.001,0
10244000,0.11226779,0.13148208,0.00045520067,0.0,0.0,-0.001,0
10264000,0.11234495,0.13158076,0.0005052686,0.0,0.0,-0.001,0
10284000,0.11236216,0.13167067,0.00045394897,0.0,0.0,-0.001,0
10304000,0.11236575,0.13179515,0.000477314,0.0,0.0,-0.001,0
10324000,0.11235276,0.13168658,0.00048065186,0.0,0.0,-0.001,0
10344000,0.11241111,0.13166623,0.0004685521,0.0,0.0,-0.001,0
10364000,0.11261767,0.13188581,0.00042057037,0.0,0.0,-0.001,0
10384000,0.11272836,0.13173056,0.0004685521,0.0,0.0,-0.001,0
10404000,0.11266919,0.13147111,0.00048190355,0.0,0.0,-0.001,0
10420000,0.112709716,0.13154405,0.00048315525,0.0,0.0,-0.001,0
10444000,0.11275551,0.13158175,0.00047188997,0.0,0.0,-0.001,0
10460000,0.11275904,0.13149746,0.0005248785,0.0,0.0,-0.001,0
10484000,0.11243488,0.1313994,0.00048482418,0.0,0.0,-0.001,0
10500000,0.11256813,0.13107993,0.0005182028,0.0,0.0,-0.001,0
10524000,0.11246446,0.13078299,0.0004810691,0.0,0.0,-0.001,0
10544000,0.11257024,0.13073964,0.0004698038,0.0,0.0,-0.001,0
10560000,0.112418085,0.13086492,0.00046104193,0.0,0.0,-0.001,0
10580000,0.11276185,0.1309313,0.00046104193,0.0,0.0,-0.001,0
10604000,0.112804465,0.13093804,0.0005169511,0.0,0.0,-0.001,0
10624000,0.11273359,0.13086624,0.00047439337,0.0,0.0,-0.001,0
10644000,0.11265769,0.13057621,0.00043851137,0.0,0.0,-0.001,0
10664000,0.112416126,0.13072021,0.00048691034,0.0,0.0,-0.001,0
10684000,0.112121895,0.13074201,0.0004698038,0.0,0.0,-0.001,0
10700000,0.11218694,0.13049331,0.0004977584,0.0,0.0,-0.001,0
10720000,0.11231632,0.13074106,0.0005111098,0.0,0.0,-0.001,0
10744000,0.11239131,0.13057208,0.00052696466,0.0,0.0,-0.001,0
10764000,0.11239517,0.1306399,0.00053572655,0.0,0.0,-0.001,0
10784000,0.112232424,0.1307704,0.00048732758,0.0,0.0,-0.001,0
10804000,0.11203125,0.13093583,0.0004222393,0.0,0.0,-0.001,0
10824000,0.1118534,0.13108537,0.00048732758,0.0,0.0,-0.001,0
10844000,0.11182262,0.1311564,0.00054323673,0.0,0.0,-0.001,0
10864000,0.11186197,0.13107572,0.00047689676,0.0,0.0,-0.001,0
10884000,0.11212076,0.13107322,0.0004351735,0.0,0.0,-0.001,0
10904000,0.11199975,0.13071415,0.0004940033,0.0,0.0,-0.001,0
10924000,0.111639194,0.13045342,0.0004581213,0.0,0.0,-0.001,0
10944000,0.11144685,0.13029253,0.0004351735,0.0,0.0,-0.001,0
10964000,0.111245714,0.1301104,0.0003592372,0.0,0.0,-0.001,0
10980000,0.11123896,0.12983854,0.00042057037,0.0,0.0,-0.001,0
11004000,0.111228995,0.12975997,0.00043141842,0.0,0.0,-0.001,0
11024000,0.11103592,0.12979007,0.0004631281,0.0,0.0,-0.001,0
11044000,0.11080581,0.12989007,0.00046563148,0.0,0.0,-0.001,0
11060000,0.11065837,0.12995999,0.00045979023,0.0,0.0,-0.001,0
11084000,0.11065882,0.13008334,0.00046646595,0.0,0.0,-0.001,0
11104000,0.11059466,0.13013825,0.0004618764,0.0,0.0,-0.001,0
11124000,0.11072579,0.13004607,0.00039428473,0.0,0.0,-0.001,0
11140000,0.110856526,0.13014652,0.00048315525,0.0,0.0,-0.001,0
11164000,0.11083259,0.130188,0.00046563148,0.0,0.0,-0.001,0
11184000,0.11063396,0.13047981,0.00048357248,0.0,0.0,-0.001,0
11204000,0.11052897,0.13060658,0.00042057037,0.0,0.0,-0.001,0
11220000,0.1105125,0.13003936,0.00050902367,0.0,0.0,-0.001,0
11244000,0.11055929,0.12983687,0.0005232096,0.0,0.0,-0.001,0
11264000,0.11093552,0.12969331,0.000477314,0.0,0.0,-0.001,0
11284000,0.11114435,0.12964877,0.00048148632,0.0,0.0,-0.001,0
11300000,0.11129877,0.12973025,0.0004977584,0.0,0.0,-0.001,0
11320000,0.11130342,0.12966757,0.0004914999,0.0,0.0,-0.001,0
11340000,0.1111389,0.12958595,0.00049316883,0.0,0.0,-0.001,0
11360000,0.11118622,0.12947778,0.00043684244,0.0,0.0,-0.001,0
11380000,0.11120325,0.12900332,0.0003913641,0.0,0.0,-0.001,0
11404000,0.11131918,0.12875795,0.00039762259,0.0,0.0,-0.001,0
11420000,0.11122751,0.12869969,0.0004401803,0.0,0.0,-0.001,0
11444000,0.1112215,0.12860616,0.00038677454,0.0,0.0,-0.001,0
11464000,0.111340314,0.12839855,0.00041598082,0.0,0.0,-0.001,0
11484000,0.1112421,0.12816775,0.00039595366,0.0,0.0,-0.001,0
11504000,0.11106702,0.12800168,0.00038844347,0.0,0.0,-0.001,0
11520000,0.11107627,0.12793449,0.0004339218,0.0,0.0,-0.001,0
11540000,0.11111461,0.1278188,0.0003851056,0.0,0.0,-0.001,0
11560000,0.11088848,0.1279539,0.0004568696,0.0,0.0,-0.001,0
11580000,0.110863425,0.12792267,0.00037509203,0.0,0.0,-0.001,0
11600000,0.110839866,0.12819636,0.00047898293,0.0,0.0,-0.001,0
11620000,0.11087632,0.12825066,0.00042182207,0.0,0.0,-0.001,0
11644000,0.11096433,0.12837367,0.00043475628,0.0,0.0,-0.001,0
11660000,0.111140296,0.12845133,0.00035256147,0.0,0.0,-0.001,0
11684000,0.111279525,0.128308,0.000351727,0.0,0.0,-0.001,0
11704000,0.11123467,0.12842241,0.00041931868,0.0,0.0,-0.001,0
11724000,0.11138577,0.12873246,0.00038343668,0.0,0.0,-0.001,0
11744000,0.11148919,0.12874098,0.00043267012,0.0,0.0,-0.001,0
11764000,0.111400045,0.12858689,0.0003709197,0.0,0.0,-0.001,0
11784000,0.11127626,0.12876904,0.0004389286,0.0,0.0,-0.001,0
11804000,0.11129815,0.12886661,0.00040513277,0.0,0.0,-0.001,0
11824000,0.1110932,0.12858817,0.00044935942,0.0,0.0,-0.001,0
11844000,0.11095086,0.12855944,0.00042307377,0.0,0.0,-0.001,0
11860000,0.11087744,0.12853825,0.000423491,0.0,0.0,-0.001,0
11880000,0.11101614,0.12836541,0.00047314167,0.0,0.0,-0.001,0
11900000,0.11121182,0.12820248,0.00037634373,0.0,0.0,-0.001,0
11920000,0.111310184,0.12820417,0.0004710555,0.0,0.0,-0.001,0
11940000,0.11140503,0.12804846,0.0005031824,0.0,0.0,-0.001,0
11964000,0.11132953,0.1280902,0.0005373955,0.0,0.0,-0.001,0
11980000,0.11112106,0.12759963,0.00054198503,0.0,0.0,-0.001,0
12004000,0.11125092,0.12730812,0.0004927516,0.0,0.0,-0.001,0
12020000,0.11139329,0.12720223,0.00050234795,0.0,0.0,-0.001,0
12044000,0.11153958,0.1273954,0.0005340576,0.0,0.0,-0.001,0
12060000,0.1114911,0.12730835,0.0005570054,0.0,0.0,-0.001,0
12080000,0.111476146,0.12708387,0.00049734116,0.0,0.0,-0.001,0
12100000,0.111532204,0.12706146,0.0005065203,0.0,0.0,-0.001,0
12124000,0.11166134,0.12728436,0.00048398972,0.0,0.0,-0.001,0
12140000,0.11153924,0.12722255,0.00047773123,0.0,0.0,-0.001,0
12164000,0.11131823,0.12715523,0.00056910515,0.0,0.0,-0.001,0
12180000,0.11133459,0.12722094,0.00047689676,0.0,0.0,-0.001,0
12204000,0.11135824,0.12673716,0.0005156994,0.0,0.0,-0.001,0
12220000,0.111245036,0.12669235,0.00052154064,0.0,0.0,-0.001,0
12244000,0.11107104,0.1267188,0.00039678812,0.0,0.0,-0.001,0
12260000,0.11099716,0.12655705,0.000477314,0.0,0.0,-0.001,0
12280000,0.110918455,0.12663172,0.00044727325,0.0,0.0,-0.001,0
12304000,0.110813245,0.12653996,0.00048190355,0.0,0.0,-0.001,0
12324000,0.1108615,0.1264118,0.0004685521,0.0,0.0,-0.001,0
12344000,0.11079132,0.12667608,0.00045645237,0.0,0.0,-0.001,0
12364000,0.11056672,0.12676784,0.00047522783,0.0,0.0,-0.001,0
12384000,0.11056357,0.12675534,0.00050485134,0.0,0.0,-0.001,0
12404000,0.110659495,0.12694216,0.0004885793,0.0,0.0,-0.001,0
12424000,0.11048837,0.1271612,0.00050234795,0.0,0.0,-0.001,0
12444000,0.11037838,0.12718262,0.0004698038,0.0,0.0,-0.001,0
12460000,0.11041261,0.12725446,0.0004981756,0.0,0.0,-0.001,0
12484000,0.11046425,0.12758158,0.0004864931,0.0,0.0,-0.001,0
12500000,0.11046117,0.12753135,0.00052654743,0.0,0.0,-0.001,0
12524000,0.11031537,0.1275662,0.00045394897,0.0,0.0,-0.001,0
12544000,0.110422656,0.12769757,0.00046646595,0.0,0.0,-0.001,0
12564000,0.11042177,0.1278166,0.00043559074,0.0,0.0,-0.001,0
12580000,0.110407315,0.12773368,0.00042933226,0.0,0.0,-0.001,0
12600000,0.11024609,0.12780535,0.000477314,0.0,0.0,-0.001,0
12624000,0.11018613,0.12763709,0.0004852414,0.0,0.0,-0.001,0
12640000,0.110214606,0.12784246,0.0004852414,0.0,0.0,-0.001,0
12660000,0.11012696,0.12811042,0.00049358606,0.0,0.0,-0.001,0
12680000,0.110261165,0.1282587,0.00050359964,0.0,0.0,-0.001,0
12700000,0.11042225,0.12824056,0.0005081892,0.0,0.0,-0.001,0
12720000,0.110735446,0.12784086,0.0004568696,0.0,0.0,-0.001,0
12740000,0.110742,0.12774006,0.00055867434,0.0,0.0,-0.001,0
12760000,0.11087845,0.12762654,0.00047272444,0.0,0.0,-0.001,0
12780000,0.11095861,0.12769367,0.00052446127,0.0,0.0,-0.001,0
12804000,0.110809796,0.12770961,0.00057286024,0.0,0.0,-0.001,0
12820000,0.110743314,0.12739965,0.0005290508,0.0,0.0,-0.001,0
12840000,0.110804535,0.12728009,0.00052279234,0.0,0.0,-0.001,0
12860000,0.11087907,0.12717584,0.00048440695,0.0,0.0,-0.001,0
12884000,0.111121096,0.12702829,0.00052279234,0.0,0.0,-0.001,0
12904000,0.11126832,0.12728569,0.00046354532,0.0,0.0,-0.001,0
12924000,0.11122983,0.12725529,0.00049066544,0.0,0.0,-0.001,0
12944000,0.11161204,0.12702344,0.0004748106,0.0,0.0,-0.001,0
12964000,0.111529626,0.12694164,0.00053697824,0.0,0.0,-0.001,0
12984000,0.11159826,0.12690029,0.0004518628,0.0,0.0,-0.001,0
13004000,0.11146057,0.12698041,0.00040262938,0.0,0.0,-0.001,0
13024000,0.11131197,0.12670824,0.0005027652,0.0,0.0,-0.001,0
13044000,0.11118296,0.12669156,0.00048941374,0.0,0.0,-0.001,0
13060000,0.11114315,0.12683861,0.00044602156,0.0,0.0,-0.001,0
13080000,0.11114906,0.12687226,0.00049734116,0.0,0.0,-0.001,0
13104000,0.11098558,0.12698607,0.0005069375,0.0,0.0,-0.001,0
13124000,0.11075814,0.12656635,0.0005595088,0.0,0.0,-0.001,0
13144000,0.11059689,0.12652904,0.00052696466,0.0,0.0,-0.001,0
13160000,0.11050463,0.12653899,0.00049859285,0.0,0.0,-0.001,0
13180000,0.110559165,0.12668756,0.000549078,0.0,0.0,-0.001,0
13204000,0.11052242,0.12646224,0.0004810691,0.0,0.0,-0.001,0
13220000,0.1105984,0.12655416,0.00044184923,0.0,0.0,-0.001,0
13244000,0.11079887,0.1265015,0.00046646595,0.0,0.0,-0.001,0
13264000,0.11091921,0.12633191,0.0004389286,0.0,0.0,-0.001,0
13284000,0.11099059,0.12628752,0.0004643798,0.0,0.0,-0.001,0
13304000,0.11069109,0.12620845,0.00041639805,0.0,0.0,-0.001,0
13324000,0.110590085,0.12626588,0.00041013956,0.0,0.0,-0.001,0
13340000,0.11060093,0.12666868,0.00043851137,0.0,0.0,-0.001,0
13364000,0.11048196,0.12641537,0.00054490566,0.0,0.0,-0.001,0
13380000,0.110440135,0.1263014,0.00053071976,0.0,0.0,-0.001,0
13400000,0.11047587,0.12620881,0.0004902482,0.0,0.0,-0.001,0
13420000,0.11060585,0.12616323,0.00056785345,0.0,0.0,-0.001,0
13444000,0.11063247,0.12602036,0.0005207062,0.0,0.0,-0.001,0
13464000,0.110758394,0.12590957,0.000513196,0.0,0.0,-0.001,0
13484000,0.11074136,0.12612008,0.00050985813,0.0,0.0,-0.001,0
13500000,0.11068993,0.12600718,0.00048065186,0.0,0.0,-0.001,0
13524000,0.11071246,0.12596928,0.0005219579,0.0,0.0,-0.001,0
13544000,0.11094019,0.12597983,0.0004389286,0.0,0.0,-0.001,0
13564000,0.110876806,0.12601805,0.00041264296,0.0,0.0,-0.001,0
13580000,0.11094544,0.12568742,0.00028705597,0.0,0.0,-0.001,0
13604000,0.11083579,0.12550992,0.00039803982,0.0,0.0,-0.001,0
13624000,0.11070791,0.12570108,0.00044685602,0.0,0.0,-0.001,0
13644000,0.11048084,0.12565935,0.0005373955,0.0,0.0,-0.001,0
13664000,0.11031668,0.12545756,0.00047063828,0.0,0.0,-0.001,0
13684000,0.11013687,0.12563784,0.000531137,0.0,0.0,-0.001,0
13704000,0.10974258,0.1256283,0.00048565865,0.0,0.0,-0.001,0
13724000,0.109480895,0.12583065,0.0005111098,0.0,0.0,-0.001,0
13744000,0.10936494,0.12596431,0.000495255,0.0,0.0,-0.001,0
13764000,0.109114274,0.12600315,0.00046563148,0.0,0.0,-0.001,0
13784000,0.108797714,0.12589397,0.00053071976,0.0,0.0,-0.001,0
13804000,0.10855744,0.12583378,0.0005686879,0.0,0.0,-0.001,0
13824000,0.10821472,0.12576467,0.00049734116,0.0,0.0,-0.001,0
13844000,0.10813533,0.12594448,0.0006054044,0.0,0.0,-0.001,0
13864000,0.107959665,0.12591943,0.00047439337,0.0,0.0,-0.001,0
13884000,0.10787684,0.12587707,0.0005657673,0.0,0.0,-0.001,0
13904000,0.107821204,0.12600498,0.00047647953,0.0,0.0,-0.001,0
13924000,0.107766636,0.12597905,0.0005002618,0.0,0.0,-0.001,0
13944000,0.10776502,0.12584887,0.0004852414,0.0,0.0,-0.001,0
13964000,0.107890844,0.12591058,0.0005991459,0.0,0.0,-0.001,0
13984000,0.10800924,0.12584159,0.00048315525,0.0,0.0,-0.001,0
14004000,0.108312294,0.12568872,0.0005236268,0.0,0.0,-0.001,0
14020000,0.10847363,0.12570466,0.0005386472,0.0,0.0,-0.001,0
14044000,0.10860467,0.12574017,0.0005328059,0.0,0.0,-0.001,0
14064000,0.10858908,0.12573844,0.0004723072,0.0,0.0,-0.001,0
14084000,0.10897414,0.12555613,0.000608325,0.0,0.0,-0.001,0
14104000,0.10933809,0.12557274,0.0005056858,0.0,0.0,-0.001,0
14124000,0.109606534,0.12563562,0.00062167645,0.0,0.0,-0.001,0
14144000,0.109464295,0.12562275,0.0004927516,0.0,0.0,-0.001,0
14164000,0.109633684,0.12557526,0.0005791187,0.0,0.0,-0.001,0
14184000,0.1096079,0.12539656,0.00049316883,0.0,0.0,-0.001,0
14204000,0.10960773,0.12536088,0.0005323887,0.0,0.0,-0.001,0
14220000,0.1094689,0.125343,0.0005557537,0.0,0.0,-0.001,0
14240000,0.10948919,0.12529427,0.00051152706,0.0,0.0,-0.001,0
14264000,0.10966345,0.12507041,0.0004748106,0.0,0.0,-0.001,0
14280000,0.10964639,0.124980584,0.00048732758,0.0,0.0,-0.001,0
14300000,0.10965863,0.12484525,0.0005261302,0.0,0.0,-0.001,0
14320000,0.10939796,0.124984846,0.00051277876,0.0,0.0,-0.001,0
14340000,0.10954831,0.12489157,0.0005248785,0.0,0.0,-0.001,0
14360000,0.10933579,0.124854974,0.00043809414,0.0,0.0,-0.001,0
14384000,0.10927701,0.12486505,0.000477314,0.0,0.0,-0.001,0
14404000,0.10893146,0.124808334,0.00043725967,0.0,0.0,-0.001,0
14420000,0.10889039,0.12473081,0.00044685602,0.0,0.0,-0.001,0
14440000,0.1092094,0.1246984,0.0004940033,0.0,0.0,-0.001,0
14460000,0.10911871,0.12432963,0.00038844347,0.0,0.0,-0.001,0
14480000,0.109249264,0.12410071,0.00044977665,0.0,0.0,-0.001,0
14500000,0.10897311,0.12378412,0.00048315525,0.0,0.0,-0.001,0
14520000,0.10909858,0.123711206,0.00049066544,0.0,0.0,-0.001,0
14544000,0.10922374,0.1235581,0.0005094409,0.0,0.0,-0.001,0
14564000,0.10900312,0.12360549,0.00052529573,0.0,0.0,-0.001,0
14580000,0.10884406,0.12338585,0.00054740906,0.0,0.0,-0.001,0
14604000,0.108798385,0.12329011,0.00050860643,0.0,0.0,-0.001,0
14624000,0.10881601,0.12351273,0.00048732758,0.0,0.0,-0.001,0
14644000,0.10896639,0.12339884,0.0005315542,0.0,0.0,-0.001,0
14660000,0.10873308,0.12328996,0.00055742264,0.0,0.0,-0.001,0
14684000,0.10893638,0.123061776,0.0005661845,0.0,0.0,-0.001,0
14700000,0.10877277,0.12328213,0.00048398972,0.0,0.0,-0.001,0
14720000,0.10871651,0.12301027,0.00048607588,0.0,0.0,-0.001,0
14740000,0.108643755,0.12272148,0.00050860643,0.0,0.0,-0.001,0
14760000,0.108686484,0.122511104,0.0004877448,0.0,0.0,-0.001,0
14780000,0.10874916,0.12238467,0.0004889965,0.0,0.0,-0.001,0
14804000,0.10852015,0.12234046,0.0005878806,0.0,0.0,-0.001,0
14820000,0.10851307,0.12246683,0.00055491924,0.0,0.0,-0.001,0
14844000,0.108501025,0.12265467,0.00052571297,0.0,0.0,-0.001,0
14864000,0.108347625,0.12289301,0.00046896935,0.0,0.0,-0.001,0
14884000,0.10835812,0.122953236,0.0004914999,0.0,0.0,-0.001,0
14900000,0.10827246,0.1227783,0.0005027652,0.0,0.0,-0.001,0
14924000,0.10795088,0.12289799,0.0005027652,0.0,0.0,-0.001,0
14944000,0.108072296,0.12287047,0.00041222572,0.0,0.0,-0.001,0
14964000,0.10812396,0.12261024,0.00043600798,0.0,0.0,-0.001,0
14984000,0.10812592,0.12278866,0.00042891502,0.0,0.0,-0.001,0
15004000,0.10838396,0.12288864,0.00036215782,0.0,0.0,-0.001,0
15024000,0.10829021,0.12299872,0.0004364252,0.0,0.0,-0.001,0
15044000,0.1080418,0.123020686,0.00043267012,0.0,0.0,-0.001,0
15064000,0.10789961,0.123172775,0.00045019388,0.0,0.0,-0.001,0
15084000,0.10803353,0.123549625,0.00046938658,0.0,0.0,-0.001,0
15104000,0.10814697,0.123569615,0.00043934584,0.0,0.0,-0.001,0
15124000,0.107868895,0.123480976,0.0004969239,0.0,0.0,-0.001,0
15144000,0.10780022,0.12345169,0.0004643798,0.0,0.0,-0.001,0
15164000,0.1077918,0.123389006,0.0005403161,0.0,0.0,-0.001,0
15180000,0.10804574,0.123547204,0.00046771765,0.0,0.0,-0.001,0
15204000,0.10799992,0.12337935,0.0004543662,0.0,0.0,-0.001,0
15224000,0.108080864,0.12338524,0.00045269728,0.0,0.0,-0.001,0
15244000,0.10821866,0.1231411,0.0005645156,0.0,0.0,-0.001,0
15264000,0.10813145,0.123184845,0.0004927516,0.0,0.0,-0.001,0
15280000,0.10824119,0.1228779,0.00044184923,0.0,0.0,-0.001,0
15300000,0.10836145,0.122553736,0.0004823208,0.0,0.0,-0.001,0
15320000,0.10832909,0.12231567,0.00046896935,0.0,0.0,-0.001,0
15340000,0.10841217,0.12220718,0.0004631281,0.0,0.0,-0.001,0
15364000,0.108174406,0.12186043,0.00047522783,0.0,0.0,-0.001,0
15380000,0.10798682,0.121696,0.00052571297,0.0,0.0,-0.001,0
15404000,0.10795057,0.12145497,0.00046145916,0.0,0.0,-0.001,0
15420000,0.10800653,0.12159465,0.0004643798,0.0,0.0,-0.001,0
15440000,0.107808106,0.12167147,0.000441432,0.0,0.0,-0.001,0
15460000,0.10773973,0.12146358,0.0004643798,0.0,0.0,-0.001,0
15480000,0.107891604,0.12139404,0.00043225288,0.0,0.0,-0.001,0
15500000,0.10794979,0.12124312,0.00050777197,0.0,0.0,-0.001,0
15524000,0.107685484,0.12108335,0.00045853853,0.0,0.0,-0.001,0
15540000,0.10746841,0.121155925,0.00043350458,0.0,0.0,-0.001,0
15564000,0.10734395,0.1210703,0.00043976307,0.0,0.0,-0.001,0
15580000,0.10743674,0.121012576,0.00040471554,0.0,0.0,-0.001,0
15600000,0.10732595,0.12068263,0.0004389286,0.0,0.0,-0.001,0
15620000,0.107045874,0.12038374,0.00039762259,0.0,0.0,-0.001,0
15644000,0.10693198,0.11996805,0.0004272461,0.0,0.0,-0.001,0
15664000,0.10691276,0.1195388,0.00050860643,0.0,0.0,-0.001,0
15684000,0.10670891,0.119141795,0.00046020746,0.0,0.0,-0.001,0
15704000,0.10657166,0.119025126,0.00045144558,0.0,0.0,-0.001,0
15724000,0.10643852,0.11877368,0.00051862,0.0,0.0,-0.001,0
15744000,0.106224105,0.118510365,0.00050985813,0.0,0.0,-0.001,0
15764000,0.10628519,0.118304946,0.0005044341,0.0,0.0,-0.001,0
15780000,0.106329784,0.11812824,0.0005044341,0.0,0.0,-0.001,0
15804000,0.1061138,0.118337706,0.00055992603,0.0,0.0,-0.001,0
15820000,0.1061748,0.11818511,0.00055909157,0.0,0.0,-0.001,0
15844000,0.106274426,0.11796333,0.0005891323,0.0,0.0,-0.001,0
15860000,0.10627163,0.11761168,0.0005482435,0.0,0.0,-0.001,0
15884000,0.10623282,0.11754113,0.0005624294,0.0,0.0,-0.001,0
15900000,0.10605658,0.11749712,0.0004823208,0.0,0.0,-0.001,0
15920000,0.10603934,0.11748133,0.0004852414,0.0,0.0,-0.001,0
15940000,0.106074244,0.1173898,0.00050109625,0.0,0.0,-0.001,0
15964000,0.105856135,0.11719734,0.0005336404,0.0,0.0,-0.001,0
15980000,0.105805755,0.117223576,0.0005111098,0.0,0.0,-0.001,0
16000000,0.10574981,0.11722014,0.00044351816,0.0,0.0,-0.001,0
16020000,0.10567281,0.11710833,0.00040137768,0.0,0.0,-0.001,0
16040000,0.10576017,0.11683031,0.00044727325,0.0,0.0,-0.001,0
16060000,0.10580459,0.11668336,0.00041389465,0.0,0.0,-0.001,0
16080000,0.1060109,0.116525345,0.00041347742,0.0,0.0,-0.001,0
16104000,0.10610878,0.11640771,0.00041389465,0.0,0.0,-0.001,0
16120000,0.10612778,0.11627836,0.00041514635,0.0,0.0,-0.001,0
16140000,0.106112845,0.11622251,0.00047564507,0.0,0.0,-0.001,0
16164000,0.106110096,0.11596967,0.0004631281,0.0,0.0,-0.001,0
16180000,0.1061884,0.11575312,0.0005173683,0.0,0.0,-0.001,0
16204000,0.1061334,0.11549722,0.00041890144,0.0,0.0,-0.001,0
16220000,0.10607688,0.11536207,0.00038969517,0.0,0.0,-0.001,0
16244000,0.10608358,0.114993006,0.00045353174,0.0,0.0,-0.001,0
16260000,0.106208056,0.11484913,0.00047272444,0.0,0.0,-0.001,0
16284000,0.10660304,0.11467368,0.00042808056,0.0,0.0,-0.001,0
16300000,0.106580995,0.11484604,0.00046479702,0.0,0.0,-0.001,0
16324000,0.10632535,0.11479907,0.0005065203,0.0,0.0,-0.001,0
16344000,0.10623355,0.11494097,0.0004042983,0.0,0.0,-0.001,0
16364000,0.10663786,0.11463615,0.00043350458,0.0,0.0,-0.001,0
16380000,0.10658379,0.114780866,0.0004748106,0.0,0.0,-0.001,0
16404000,0.10672483,0.114692606,0.00049066544,0.0,0.0,-0.001,0
16424000,0.10678541,0.11472864,0.0004351735,0.0,0.0,-0.001,0
16444000,0.10676286,0.11477825,0.00045478344,0.0,0.0,-0.001,0
16460000,0.10694962,0.11486257,0.00047773123,0.0,0.0,-0.001,0
16484000,0.10669651,0.114774376,0.0004030466,0.0,0.0,-0.001,0
16500000,0.10681822,0.11475141,0.000441432,0.0,0.0,-0.001,0
16524000,0.10661837,0.11433607,0.0004209876,0.0,0.0,-0.001,0
16544000,0.10659415,0.11437823,0.00044310093,0.0,0.0,-0.001,0
16560000,0.106437065,0.11428489,0.00040888786,0.0,0.0,-0.001,0
16584000,0.10621885,0.1141781,0.0004351735,0.0,0.0,-0.001,0
16600000,0.10629533,0.114207014,0.00041556358,0.0,0.0,-0.001,0
16620000,0.10653144,0.1141613,0.00040638447,0.0,0.0,-0.001,0
16644000,0.10664741,0.11411313,0.0004581213,0.0,0.0,-0.001,0
16664000,0.10675403,0.1136591,0.00039762259,0.0,0.0,-0.001,0
16684000,0.10659988,0.11367432,0.00046229362,0.0,0.0,-0.001,0
16700000,0.106453374,0.11379832,0.0003951192,0.0,0.0,-0.001,0
16720000,0.10657257,0.11381781,0.00039094687,0.0,0.0,-0.001,0
16740000,0.106502354,0.11384669,0.00042933226,0.0,0.0,-0.001,0
16764000,0.10637448,0.11413565,0.00039720535,0.0,0.0,-0.001,0
16784000,0.10620694,0.11402675,0.00041556358,0.0,0.0,-0.001,0
16804000,0.10623787,0.11397791,0.00040513277,0.0,0.0,-0.001,0
16824000,0.10637434,0.1139273,0.0004017949,0.0,0.0,-0.001,0
16844000,0.10649738,0.114035316,0.0004118085,0.0,0.0,-0.001,0
16864000,0.10661166,0.11408936,0.00040388107,0.0,0.0,-0.001,0
16880000,0.10655593,0.11385002,0.00044810772,0.0,0.0,-0.001,0
16904000,0.10662079,0.11355635,0.00038427114,0.0,0.0,-0.001,0
16920000,0.10658555,0.11374925,0.00040513277,0.0,0.0,-0.001,0
16940000,0.106669,0.11368502,0.00033921003,0.0,0.0,-0.001,0
16964000,0.10681161,0.11338708,0.00031208992,0.0,0.0,-0.001,0
16980000,0.106851906,0.11336877,0.00036799908,0.0,0.0,-0.001,0
17000000,0.10682113,0.113397,0.0003938675,0.0,0.0,-0.001,0
17020000,0.10685154,0.1132188,0.0003901124,0.0,0.0,-0.001,0
17040000,0.10722316,0.11330051,0.00039428473,0.0,0.0,-0.001,0
17060000,0.10710041,0.113256186,0.00035256147,0.0,0.0,-0.001,0
17084000,0.10730615,0.11332137,0.00035631657,0.0,0.0,-0.001,0
17104000,0.10732479,0.11318481,0.00039219856,0.0,0.0,-0.001,0
17124000,0.107354715,0.11292988,0.00034588575,0.0,0.0,-0.001,0
17144000,0.107513666,0.113143526,0.0004042983,0.0,0.0,-0.001,0
17164000,0.10747087,0.11300601,0.00045102835,0.0,0.0,-0.001,0
17180000,0.107541494,0.112911955,0.00037175417,0.0,0.0,-0.001,0
17200000,0.1075328,0.112926774,0.0003913641,0.0,0.0,-0.001,0
17220000,0.10746252,0.112813234,0.00037175417,0.0,0.0,-0.001,0
17240000,0.1074306,0.11283312,0.0003617406,0.0,0.0,-0.001,0
17264000,0.10740464,0.112702206,0.00039303303,0.0,0.0,-0.001,0
17284000,0.10733474,0.1125225,0.00034755468,0.0,0.0,-0.001,0
17304000,0.10730727,0.11245793,0.0003771782,0.0,0.0,-0.001,0
17324000,0.107145526,0.11245231,0.0003734231,0.0,0.0,-0.001,0
17340000,0.10707953,0.11223512,0.0003734231,0.0,0.0,-0.001,0
17364000,0.106813066,0.11225275,0.00037425756,0.0,0.0,-0.001,0
17384000,0.10692579,0.11250289,0.00033962727,0.0,0.0,-0.001,0
17404000,0.106790245,0.1125026,0.0003671646,0.0,0.0,-0.001,0
17424000,0.106876336,0.11271685,0.00036424398,0.0,0.0,-0.001,0
17444000,0.10687603,0.11256542,0.00045269728,0.0,0.0,-0.001,0
17464000,0.10700081,0.11231417,0.00037509203,0.0,0.0,-0.001,0
17484000,0.1072346,0.11210272,0.00035715103,0.0,0.0,-0.001,0
17504000,0.10722378,0.11197205,0.00039052963,0.0,0.0,-0.001,0
17524000,0.10743689,0.112235464,0.0003617406,0.0,0.0,-0.001,0
17544000,0.10760159,0.11213301,0.00043183565,0.0,0.0,-0.001,0
17564000,0.10742077,0.11211373,0.00035339594,0.0,0.0,-0.001,0
17584000,0.10733964,0.11216792,0.000387609,0.0,0.0,-0.001,0
17604000,0.10740489,0.11214502,0.00041013956,0.0,0.0,-0.001,0
17620000,0.10710062,0.11202642,0.00038719177,0.0,0.0,-0.001,0
17644000,0.10674192,0.11192973,0.00040763617,0.0,0.0,-0.001,0
17664000,0.106439844,0.11198923,0.00040137768,0.0,0.0,-0.001,0
17680000,0.10637167,0.111944735,0.00039178133,0.0,0.0,-0.001,0
17700000,0.10600119,0.11191651,0.0004606247,0.0,0.0,-0.001,0
17720000,0.10590577,0.11199551,0.00040721893,0.0,0.0,-0.001,0
17744000,0.10571635,0.112196416,0.00045228004,0.0,0.0,-0.001,0
17764000,0.10557671,0.11220562,0.00041556358,0.0,0.0,-0.001,0
17780000,0.1056013,0.112036094,0.00042933226,0.0,0.0,-0.001,0
17804000,0.10536075,0.11174941,0.0004476905,0.0,0.0,-0.001,0
17824000,0.10526344,0.11176672,0.0004197359,0.0,0.0,-0.001,0
17840000,0.105255194,0.1117284,0.00040388107,0.0,0.0,-0.001,0
17860000,0.10519239,0.111615986,0.00045478344,0.0,0.0,-0.001,0
17884000,0.10514883,0.111598834,0.00043809414,0.0,0.0,-0.001,0
17904000,0.105062395,0.111647844,0.00041681528,0.0,0.0,-0.001,0
17920000,0.10518044,0.11131272,0.00037676096,0.0,0.0,-0.001,0
17940000,0.10521007,0.11123442,0.00036549568,0.0,0.0,-0.001,0
17964000,0.105117545,0.11094778,0.00044059753,0.0,0.0,-0.001,0
17980000,0.10518088,0.11090417,0.0003796816,0.0,0.0,-0.001,0
18000000,0.10494066,0.110725164,0.00036758184,0.0,0.0,-0.001,0
18020000,0.10466093,0.110705405,0.0003721714,0.0,0.0,-0.001,0
18040000,0.104553886,0.110623196,0.00038301945,0.0,0.0,-0.001,0
18064000,0.10427778,0.11041565,0.0004259944,0.0,0.0,-0.001,0
18084000,0.10440451,0.11026472,0.00045603514,0.0,0.0,-0.001,0
18104000,0.10427848,0.10991748,0.0003926158,0.0,0.0,-0.001,0
18124000,0.10422523,0.109756924,0.00052654743,0.0,0.0,-0.001,0
18140000,0.104414046,0.10987474,0.00039595366,0.0,0.0,-0.001,0
18164000,0.10445445,0.109888606,0.00044935942,0.0,0.0,-0.001,0
18180000,0.10454903,0.110021144,0.00041222572,0.0,0.0,-0.001,0
18204000,0.10464809,0.11029886,0.00044560432,0.0,0.0,-0.001,0
18220000,0.104797795,0.1101903,0.0004297495,0.0,0.0,-0.001,0
18244000,0.10462438,0.11015673,0.000441432,0.0,0.0,-0.001,0
18260000,0.104486845,0.1101242,0.0004339218,0.0,0.0,-0.001,0
18284000,0.10446175,0.11014809,0.00041222572,0.0,0.0,-0.001,0
18300000,0.10441612,0.11011231,0.0004426837,0.0,0.0,-0.001,0
18320000,0.10440688,0.109897465,0.00037801266,0.0,0.0,-0.001,0
18340000,0.104853354,0.10981716,0.00039094687,0.0,0.0,-0.001,0
18364000,0.10463563,0.10978706,0.00041222572,0.0,0.0,-0.001,0
18384000,0.10469263,0.10961973,0.00037175417,0.0,0.0,-0.001,0
18404000,0.10458213,0.1094754,0.00039219856,0.0,0.0,-0.001,0
18420000,0.10433771,0.10953339,0.0003963709,0.0,0.0,-0.001,0
18440000,0.104115255,0.109335236,0.00040638447,0.0,0.0,-0.001,0
18460000,0.10395682,0.10932861,0.00040221214,0.0,0.0,-0.001,0
18484000,0.10367477,0.109092936,0.00044435263,0.0,0.0,-0.001,0
18500000,0.103679016,0.10915326,0.0004426837,0.0,0.0,-0.001,0
18524000,0.10372641,0.1091915,0.00038927794,0.0,0.0,-0.001,0
18544000,0.103457384,0.1093989,0.0003963709,0.0,0.0,-0.001,0
18564000,0.10332791,0.10943264,0.00038927794,0.0,0.0,-0.001,0
18584000,0.10350016,0.10954672,0.0004222393,0.0,0.0,-0.001,0
18604000,0.103481784,0.1093666,0.00040721893,0.0,0.0,-0.001,0
18624000,0.103587225,0.109263,0.00037425756,0.0,0.0,-0.001,0
18644000,0.10385865,0.10931002,0.00040596724,0.0,0.0,-0.001,0
18660000,0.10386963,0.109338105,0.00043851137,0.0,0.0,-0.001,0
18680000,0.10402216,0.10928216,0.000423491,0.0,0.0,-0.001,0
18704000,0.10401582,0.108958915,0.00039720535,0.0,0.0,-0.001,0
18724000,0.10415132,0.10884832,0.0004556179,0.0,0.0,-0.001,0
18740000,0.10430287,0.10879083,0.00038343668,0.0,0.0,-0.001,0
18760000,0.10425936,0.10879852,0.0003963709,0.0,0.0,-0.001,0
18780000,0.10418934,0.108694606,0.00044894218,0.0,0.0,-0.001,0
18804000,0.10430994,0.108483225,0.00046563148,0.0,0.0,-0.001,0
18820000,0.104409605,0.10853129,0.0004543662,0.0,0.0,-0.001,0
18844000,0.10450525,0.10838288,0.00048190355,0.0,0.0,-0.001,0
18860000,0.104566984,0.108066306,0.00044602156,0.0,0.0,-0.001,0
18884000,0.10469584,0.10779342,0.000459373,0.0,0.0,-0.001,0
18900000,0.10468292,0.10773074,0.00047314167,0.0,0.0,-0.001,0
18920000,0.10478441,0.10776851,0.00044184923,0.0,0.0,-0.001,0
18940000,0.10475742,0.10758144,0.00042390823,0.0,0.0,-0.001,0
18964000,0.10486817,0.10768568,0.0004518628,0.0,0.0,-0.001,0
18980000,0.10482784,0.10777467,0.0004965067,0.0,0.0,-0.001,0
19000000,0.104845196,0.107480824,0.0004068017,0.0,0.0,-0.001,0
19024000,0.10470034,0.10768885,0.0003926158,0.0,0.0,-0.001,0
19040000,0.10462107,0.10765819,0.0003684163,0.0,0.0,-0.001,0
19064000,0.10488673,0.1073658,0.00038927794,0.0,0.0,-0.001,0
19084000,0.104946785,0.10725096,0.0004401803,0.0,0.0,-0.001,0
19104000,0.10470235,0.107149996,0.0003567338,0.0,0.0,-0.001,0
19120000,0.10476647,0.107183546,0.00037509203,0.0,0.0,-0.001,0
19140000,0.10475231,0.10717797,0.00032126904,0.0,0.0,-0.001,0
19164000,0.10469421,0.10726534,0.00036507845,0.0,0.0,-0.001,0
19180000,0.10464387,0.107358515,0.00032168627,0.0,0.0,-0.001,0
19204000,0.10475364,0.10726427,0.0003838539,0.0,0.0,-0.001,0
19224000,0.10467216,0.10730844,0.00036132336,0.0,0.0,-0.001,0
19244000,0.10451199,0.107292704,0.00037133694,0.0,0.0,-0.001,0
19260000,0.104357794,0.107184306,0.00040763617,0.0,0.0,-0.001,0
19284000,0.10426537,0.107076526,0.0003709197,0.0,0.0,-0.001,0
19300000,0.104328796,0.10699497,0.0004197359,0.0,0.0,-0.001,0
19320000,0.10433253,0.10674047,0.00040972233,0.0,0.0,-0.001,0
19340000,0.10429812,0.106432,0.00040262938,0.0,0.0,-0.001,0
19360000,0.10430357,0.10625617,0.00040596724,0.0,0.0,-0.001,0
19384000,0.104322374,0.10626125,0.00039970875,0.0,0.0,-0.001,0
19400000,0.10415148,0.106018804,0.00040221214,0.0,0.0,-0.001,0
19420000,0.10414993,0.1058111,0.00048357248,0.0,0.0,-0.001,0
19444000,0.104107805,0.10582683,0.00043809414,0.0,0.0,-0.001,0
19464000,0.1043833,0.1057622,0.00040096045,0.0,0.0,-0.001,0
19484000,0.104286365,0.105619974,0.00044852495,0.0,0.0,-0.001,0
19504000,0.10417525,0.105649985,0.0003951192,0.0,0.0,-0.001,0
19524000,0.1041615,0.10582867,0.00036925077,0.0,0.0,-0.001,0
19544000,0.12948532,0.11304357,0.00034546852,0.0,0.0,-0.013324938,0
19564000,0.12991764,0.11345564,0.00030750036,0.0,0.0,-0.015446677,0
19584000,0.13025373,0.11211376,0.0002912283,0.0,0.0,-0.018606912,0
19604000,0.12872723,0.11127535,0.00030374527,0.0,0.0,-0.020726094,0
19624000,0.12824656,0.11168874,0.0002837181,0.0,0.0,-0.02398157,0
19644000,0.12690932,0.11190471,0.00030124187,0.0,0.0,-0.02622911,0
19664000,0.12881964,0.11059016,0.0003350377,0.0,0.0,-0.029726675,0
19684000,0.12926903,0.10932017,0.00033211708,0.0,0.0,-0.03206788,0
19704000,0.13099702,0.11096377,0.00029790401,0.0,0.0,-0.035759,0
19724000,0.13229382,0.10969412,0.00032293797,0.0,0.0,-0.038272694,0
19744000,0.13190053,0.111992955,0.0002899766,0.0,0.0,-0.042142026,0
19764000,0.1317714,0.11171106,0.00031751394,0.0,0.0,-0.04475768,0
19784000,0.13239375,0.109851606,0.0002540946,0.0,0.0,-0.048781335,0
19804000,0.1319737,0.10951553,0.00024741888,0.0,0.0,-0.051646203,0
19820000,0.13299611,0.107779704,0.00031876564,0.0,0.0,-0.054473452,0
19844000,0.13336423,0.10787457,0.00028455257,0.0,0.0,-0.058878828,0
19864000,0.13397236,0.10960141,0.00027412176,0.0,0.0,-0.063291445,0
19884000,0.13403888,0.11004317,0.00026994944,0.0,0.0,-0.06632676,0
19900000,0.13579617,0.11088607,0.00027620792,0.0,0.0,-0.06937535,0
19924000,0.1358618,0.10932488,0.0002490878,0.0,0.0,-0.07412143,0
19944000,0.1359949,0.110002935,0.00024741888,0.0,0.0,-0.07891952,0
19960000,0.1372547,0.11066238,0.0002732873,0.0,0.0,-0.082183056,0
19984000,0.13942647,0.11178043,0.00028330088,0.0,0.0,-0.087081105,0
20004000,0.1379216,0.11169012,0.00026619434,0.0,0.0,-0.090426095,0
20024000,0.09208855,0.15266785,0.0005661845,0.0,0.0,-0.09774257,0
20044000,0.06867932,0.1740024,0.00083321333,0.0,0.0,-0.10277977,0
20064000,0.04129968,0.19876294,0.0011181831,0.0,0.0,-0.110585764,0
20080000,0.02721547,0.21252556,0.0013109446,0.0,0.0,-0.115807906,0
20100000,0.014324898,0.22524936,0.0014210939,0.0,0.0,-0.12117863,0
20120000,-0.002071347,0.24408056,0.0017310977,0.0,0.0,-0.12912303,0
20140000,-0.013703224,0.25559914,0.0019280314,0.0,0.0,-0.13462152,0
20160000,-0.029803347,0.2726837,0.0021708608,0.0,0.0,-0.14296086,0
20180000,-0.041349903,0.28249568,0.0024212003,0.0,0.0,-0.14863765,0
20200000,-0.058120012,0.29742357,0.0026406646,0.0,0.0,-0.15731974,0
20220000,-0.06807222,0.30684388,0.0027478933,0.0,0.0,-0.16312985,0
20240000,-0.08525012,0.3225472,0.0031083822,0.0,0.0,-0.1719388,0
20260000,-0.097428136,0.33403787,0.0034037828,0.0,0.0,-0.17789224,0
20284000,-0.11319459,0.35042822,0.0036386847,0.0,0.0,-0.18695176,0
20300000,-0.12549423,0.3609779,0.003952861,0.0,0.0,-0.1930673,0
20324000,-0.14351448,0.37908864,0.00440681,0.0,0.0,-0.20229684,0
20340000,-0.15487906,0.39127955,0.004656315,0.0,0.0,-0.20855118,0
20364000,-0.17381148,0.406907,0.005144477,0.0,0.0,-0.21815875,0
20384000,-0.19206217,0.4261011,0.0056443214,0.0,0.0,-0.22779611,0
20404000,-0.19881648,0.43152905,0.0057953596,0.0,0.0,-0.23415217,0
20424000,-0.2045677,0.43447584,0.005919695,0.0,0.0,-0.24362405,0
20444000,-0.20978943,0.43662265,0.0060390234,0.0,0.0,-0.250084,0
20460000,-0.21793999,0.4417547,0.0062989593,0.0,0.0,-0.2566379,0
20484000,-0.23042035,0.45323512,0.0066744685,0.0,0.0,-0.2665967,0
20504000,-0.24271199,0.46575728,0.0069719553,0.0,0.0,-0.2766806,0
20524000,-0.25252414,0.47401226,0.0073115826,0.0,0.0,-0.2835426,0
20544000,-0.26943073,0.48524445,0.0077455044,0.0,0.0,-0.29380614,0
20560000,-0.2806604,0.49669108,0.008098483,0.0,0.0,-0.3006878,0
20580000,-0.29106784,0.5070101,0.008501112,0.0,0.0,-0.30767626,0
20600000,-0.30770528,0.52231604,0.009011805,0.0,0.0,-0.3183436,0
20620000,-0.318489,0.532662,0.009378135,0.0,0.0,-0.32556123,0
20644000,-0.33409134,0.5495681,0.010008991,0.0,0.0,-0.33637774,0
20664000,-0.35212195,0.5662572,0.010620236,0.0,0.0,-0.3474783,0
20680000,-0.36450157,0.5771642,0.011017859,0.0,0.0,-0.3549771,0
20700000,-0.37682372,0.5884677,0.011500597,0.0,0.0,-0.36248547,0
20720000,-0.39755732,0.60748184,0.012262464,0.0,0.0,-0.37388435,0
20740000,-0.4104991,0.6198632,0.012823641,0.0,0.0,-0.38155505,0
20760000,-0.4287641,0.6388098,0.013553798,0.0,0.0,-0.39319718,0
20784000,-0.450323,0.6573583,0.014462531,0.0,0.0,-0.40511668,0
20804000,-0.4523717,0.657677,0.01457727,0.0,0.0,-0.4127805,0
20820000,-0.44562703,0.6527366,0.014288962,0.0,0.0,-0.42015624,0
20844000,-0.44510955,0.65037626,0.014309406,0.0,0.0,-0.4284932,0
20860000,-0.44701007,0.6519246,0.014349878,0.0,0.0,-0.43196428,0
20880000,-0.45491296,0.65688425,0.014754593,0.0,0.0,-0.43688896,0
20904000,-0.4635885,0.6640503,0.015144289,0.0,0.0,-0.4416383,0
20924000,-0.46991485,0.6689187,0.0154367685,0.0,0.0,-0.44556287,0
20944000,-0.48163664,0.68007946,0.015985012,0.0,0.0,-0.4504462,0
20960000,-0.48993227,0.68847805,0.016397238,0.0,0.0,-0.45446327,0
20984000,-0.50438887,0.6988419,0.017006814,0.0,0.0,-0.459618,0
21000000,-0.51357937,0.7073056,0.017434478,0.0,0.0,-0.46373388,0
21024000,-0.5295978,0.72345215,0.018226802,0.0,0.0,-0.46911356,0
21040000,-0.5395136,0.7340586,0.018800497,0.0,0.0,-0.47328544,0
21064000,-0.55562544,0.747294,0.019484341,0.0,0.0,-0.47879636,0
21084000,-0.5669651,0.7584469,0.020026743,0.0,0.0,-0.4829338,0
21104000,-0.5842372,0.7735478,0.020906687,0.0,0.0,-0.4884902,0
21124000,-0.5969832,0.7855965,0.021576762,0.0,0.0,-0.49272054,0
21140000,-0.60909045,0.7985163,0.022286892,0.0,0.0,-0.49672943,0
21164000,-0.62751806,0.817025,0.023211896,0.0,0.0,-0.5028394,0
21180000,-0.6406307,0.828601,0.023941636,0.0,0.0,-0.5067007,0
21204000,-0.6460988,0.8311614,0.024297118,0.0,0.0,-0.5123424,0
21220000,-0.6342925,0.81766695,0.02361995,0.0,0.0,-0.5152399,0
21240000,-0.6230788,0.8078553,0.02306211,0.0,0.0,-0.5202928,0
21260000,-0.62115204,0.8042414,0.02294904,0.0,0.0,-0.52344894,0
21284000,-0.62117505,0.8039222,0.02314806,0.0,0.0,-0.5288408,0
21304000,-0.6231377,0.80810463,0.023345828,0.0,0.0,-0.5335288,0
21320000,-0.62763065,0.81067955,0.023555696,0.0,0.0,-0.5379241,0
21340000,-0.6321202,0.8120972,0.023805618,0.0,0.0,-0.54131,0
21364000,-0.6403579,0.81852186,0.024269998,0.0,0.0,-0.5470728,0
21380000,-0.64650184,0.8243756,0.024614632,0.0,0.0,-0.5505073,0
21400000,-0.65662205,0.8327073,0.025163293,0.0,0.0,-0.55647224,0
21420000,-0.6637789,0.83923405,0.025548398,0.0,0.0,-0.5600112,0
21440000,-0.6749901,0.8488296,0.026215136,0.0,0.0,-0.5661209,0
21460000,-0.68305016,0.8576342,0.026708305,0.0,0.0,-0.5697068,0
21480000,-0.69561726,0.86852026,0.02743262,0.0,0.0,-0.57616055,0
21500000,-0.7052929,0.87794936,0.02803886,0.0,0.0,-0.57977223,0
21520000,-0.7204438,0.890612,0.02886039,0.0,0.0,-0.5862056,0
21540000,-0.7290032,0.8968533,0.029378176,0.0,0.0,-0.58937603,0
21564000,-0.74580723,0.9032197,0.030098319,0.0,0.0,-0.5947394,0
21580000,-0.75487304,0.90275,0.030327797,0.0,0.0,-0.5971189,0
21600000,-0.75651675,0.87930846,0.029604733,0.0,0.0,-0.6009835,0
21620000,-0.74178684,0.837126,0.027782261,0.0,0.0,-0.6016104,0
21640000,-0.72555304,0.79078346,0.025948107,0.0,0.0,-0.60373485,0
21660000,-0.7140802,0.7523736,0.024499476,0.0,0.0,-0.6043749,0
21680000,-0.7040232,0.7090459,0.02330035,0.0,0.0,-0.6070105,0
21700000,-0.68938637,0.6719936,0.02174282,0.0,0.0,-0.60804325,0
21720000,-0.6758124,0.6301553,0.021021843,0.0,0.0,-0.611286,0
21740000,-0.65740305,0.59239405,0.01931703,0.0,0.0,-0.6125931,0
21760000,-0.63952386,0.552708,0.018959045,0.0,0.0,-0.6161732,0
21780000,-0.61691874,0.512747,0.01693046,0.0,0.0,-0.617574,0
21804000,-0.585531,0.4637375,0.015311599,0.0,0.0,-0.6214086,0
21824000,-0.5593857,0.42064503,0.015238166,0.0,0.0,-0.6235534,0
21840000,-0.5352195,0.38919926,0.014327347,0.0,0.0,-0.6270151,0
21860000,-0.5011054,0.3487039,0.011458039,0.0,0.0,-0.6287155,0
21880000,-0.46665996,0.3053401,0.011575699,0.0,0.0,-0.632799,0
21904000,-0.42242754,0.2528887,0.009664357,0.0,0.0,-0.63530195,0
21924000,-0.37909248,0.20745987,0.0059313774,0.0,0.0,-0.63887227,0
21944000,-0.33731616,0.16051799,0.005846262,0.0,0.0,-0.6414722,0
21964000,-0.28976166,0.113338344,0.0016818643,0.0,0.0,-0.64517903,0
21984000,-0.24296162,0.06256145,0.0012124777,0.0,0.0,-0.64797646,0
22004000,-0.17592143,-0.007614795,-0.0046020746,0.0,0.0,-0.6510012,0
22024000,-0.08844359,-0.10203032,-0.0076470375,0.0,0.0,-0.6509362,0
22040000,-0.025933357,-0.1670136,-0.011326611,0.0,0.0,-0.6545702,0
22064000,0.062750325,-0.2605018,-0.016951323,0.0,0.0,-0.6556414,0
22080000,0.11994353,-0.32111076,-0.020824492,0.0,0.0,-0.6597746,0
22100000,0.18806587,-0.39239898,-0.027677953,0.0,0.0,-0.6614373,0
22120000,0.25596613,-0.46786413,-0.030901909,0.0,0.0,-0.6665344,0
22140000,0.32285324,-0.54051006,-0.038297355,0.0,0.0,-0.66839993,0
22164000,0.41433805,-0.64920527,-0.045856774,0.0,0.0,-0.67389405,0
22180000,0.48758975,-0.7314978,-0.051265776,0.0,0.0,-0.67618394,0
22204000,0.6135385,-0.87402946,-0.060270905,0.0,0.0,-0.6828019,0
22220000,0.70346355,-0.9733087,-0.0661276,0.0,0.0,-0.68600327,0
22240000,0.8389978,-1.130317,-0.07347715,0.0,0.0,-0.69447666,0
22260000,0.9429967,-1.2424914,-0.080168724,0.0,0.0,-0.6990785,0
22284000,1.0630364,-1.3677586,-0.08571792,0.0,0.0,-0.708151,0
22304000,1.1495684,-1.4594176,-0.087818265,0.0,0.0,-0.71442115,0
22320000,1.1938726,-1.5046128,-0.08801645,0.0,0.0,-0.7209239,0
22344000,1.2363272,-1.5440912,-0.08569372,0.0,0.0,-0.7264104,0
22364000,1.2430768,-1.5435402,-0.08222777,0.0,0.0,-0.73206776,0
22384000,1.2533087,-1.5473679,-0.07616538,0.0,0.0,-0.73638344,0
22404000,1.2403647,-1.5239766,-0.07020855,0.0,0.0,-0.74090827,0
22420000,1.2375295,-1.5149592,-0.06456673,0.0,0.0,-0.74205565,0
22440000,1.2294294,-1.5004926,-0.056471586,0.0,0.0,-0.7463155,0
22460000,1.1921264,-1.4454418,-0.04938239,0.0,0.0,-0.7468074,0
22480000,1.1587594,-1.3974442,-0.041303933,0.0,0.0,-0.749984,0
22500000,1.1068957,-1.3236363,-0.034356594,0.0,0.0,-0.74988216,0
22520000,1.058882,-1.2595954,-0.027403414,0.0,0.0,-0.7522819,0
22540000,0.99859107,-1.1783624,-0.02148205,0.0,0.0,-0.7514769,0
22560000,0.94393617,-1.1048957,-0.0162462,0.0,0.0,-0.77876246,0
22580000,0.8832213,-1.0257497,-0.011485994,0.0,0.0,-0.7776137,0
22604000,0.8187316,-0.9395469,-0.006849706,0.0,0.0,-0.77770394,0
22620000,0.7787598,-0.88707566,-0.0043312907,0.0,0.0,-0.77451813,0
22640000,0.7339441,-0.8249893,-0.002167523,0.0,0.0,-0.77219266,0
22660000,0.68473345,-0.7665249,0.00027996302,0.0,0.0,-0.7685216,0
22684000,0.6346924,-0.70586944,0.0020623803,0.0,0.0,-0.76639867,0
22704000,0.59882474,-0.66462857,0.002616465,0.0,0.0,-0.76109457,0
22724000,0.56463456,-0.62494665,0.00414145,0.0,0.0,-0.76153976,0
22744000,0.53528273,-0.5981176,0.0042449236,0.0,0.0,-0.7569347,0
22764000,0.5074252,-0.57186735,0.005317211,0.0,0.0,-0.7577839,0
22780000,0.49078035,-0.5563988,0.0057085752,0.0,0.0,-0.75526494,0
22800000,0.4792371,-0.5527605,0.0058203936,0.0,0.0,-0.7546192,0
22820000,0.47622177,-0.55803114,0.007078767,0.0,0.0,-0.75203145,0
22840000,0.48003778,-0.57061577,0.0074425936,0.0,0.0,-0.7514037,0
22860000,0.47555304,-0.5725832,0.00863713,0.0,0.0,-0.74898386,0
22880000,0.47249892,-0.58164525,0.008796513,0.0,0.0,-0.7486347,0
22904000,0.46605033,-0.58375424,0.009508729,0.0,0.0,-0.74427676,0
22924000,0.45744696,-0.5773855,0.010338604,0.0,0.0,-0.74642503,0
22940000,0.45015377,-0.5720274,0.010645688,0.0,0.0,-0.7445573,0
22964000,0.435769,-0.56177866,0.011137605,0.0,0.0,-0.74485767,0
22984000,0.4240738,-0.54990125,0.0110420585,0.0,0.0,-0.74117935,0
23004000,0.40836838,-0.5324427,0.011505604,0.0,0.0,-0.74351156,0
23024000,0.3944846,-0.5156707,0.011297822,0.0,0.0,-0.7400207,0
23040000,0.38021994,-0.49946624,0.011247337,0.0,0.0,-0.7423861,0
23060000,0.36400998,-0.47785363,0.011511445,0.0,0.0,-0.7407654,0
23080000,0.34596092,-0.4563734,0.010962367,0.0,0.0,-0.7413319,0
23100000,0.3294055,-0.43410873,0.011122584,0.0,0.0,-0.7398194,0
23120000,0.31196737,-0.4107932,0.010404527,0.0,0.0,-0.74036515,0
23140000,0.29663515,-0.38740832,0.010351121,0.0,0.0,-0.7388151,0
23160000,0.28125954,-0.36460888,0.009591758,0.0,0.0,-0.73944056,0
23184000,0.26601285,-0.33902034,0.009112775,0.0,0.0,-0.73611265,0
23204000,0.25943008,-0.32806262,0.009345174,0.0,0.0,-0.7382543,0
23220000,0.25843704,-0.3257788,0.009506643,0.0,0.0,-0.7363987,0
23244000,0.2566466,-0.32092193,0.009420276,0.0,0.0,-0.7365756,0
23264000,0.25456914,-0.31627795,0.009082317,0.0,0.0,-0.7324217,0
23284000,0.2531223,-0.31137332,0.009348512,0.0,0.0,-0.73520964,0
23304000,0.2482722,-0.30697823,0.009017646,0.0,0.0,-0.7312688,0
23324000,0.24318448,-0.30099547,0.009225011,0.0,0.0,-0.7341641,0
23344000,0.23563993,-0.2947966,0.008777738,0.0,0.0,-0.7304029,0
23364000,0.22925116,-0.28678808,0.008933365,0.0,0.0,-0.7332548,0
23380000,0.22279517,-0.2780165,0.008595824,0.0,0.0,-0.73187596,0
23400000,0.21245727,-0.26922378,0.00823909,0.0,0.0,-0.7325702,0
23420000,0.20344432,-0.25986862,0.008151054,0.0,0.0,-0.7311676,0
23444000,0.19295049,-0.24695629,0.007870674,0.0,0.0,-0.7319504,0
23464000,0.18347836,-0.23610523,0.007335782,0.0,0.0,-0.72858405,0
23484000,0.173247,-0.22545846,0.007324517,0.0,0.0,-0.73135537,0
23504000,0.1617595,-0.21409926,0.0066598654,0.0,0.0,-0.7279176,0
23524000,0.15562055,-0.2036984,0.0066006184,0.0,0.0,-0.73072857,0
23544000,0.14566775,-0.19203699,0.006041527,0.0,0.0,-0.7273496,0
23564000,0.13878696,-0.18384579,0.0060377717,0.0,0.0,-0.73011667,0
23584000,0.13066144,-0.17235267,0.005442798,0.0,0.0,-0.7268667,0
23604000,0.12447795,-0.16406375,0.0053756237,0.0,0.0,-0.7294329,0
23624000,0.11620798,-0.15261874,0.004749775,0.0,0.0,-0.72500265,0
23644000,0.110162266,-0.14753109,0.0048223734,0.0,0.0,-0.7279878,0
23664000,0.10339884,-0.14161092,0.0043755174,0.0,0.0,-0.7237532,0
23684000,0.0995768,-0.13827857,0.0044460297,0.0,0.0,-0.7268491,0
23704000,0.09554495,-0.13125423,0.004014194,0.0,0.0,-0.7227896,0
23720000,0.09327141,-0.1281144,0.0039032102,0.0,0.0,-0.725965,0
23744000,0.0900397,-0.12469688,0.003759265,0.0,0.0,-0.7221502,0
23764000,0.08797387,-0.12201126,0.003894031,0.0,0.0,-0.7253547,0
23780000,0.08331828,-0.11852245,0.00368917,0.0,0.0,-0.72406405,0
23804000,0.08061192,-0.11426895,0.0035756826,0.0,0.0,-0.7249727,0
