timestamp,timestamp_sample,time_last_fuse,device_id,observation[0],observation[1],observation[2],observation_variance[0],observation_variance[1],observation_variance[2],innovation[0],innovation[1],innovation[2],innovation_variance[0],innovation_variance[1],innovation_variance[2],test_ratio[0],test_ratio[1],test_ratio[2],estimator_instance,fusion_enabled,innovation_rejected,fused
3324000,3295000,0,0,0.0077647674,-0.21514224,0.43165603,0.0,0.0,0.0,-0.0077647674,0.21514224,-0.43165603,0.0,0.0,0.0,0.0,0.0,0.0,0,0,0,0
3452000,3365838,0,0,0.008032996,-0.2149184,0.42801005,0.0,0.0,0.0,-0.008032996,0.2149184,-0.42801005,0.0,0.0,0.0,inf,inf,inf,0,0,1,0
3524000,3438950,0,0,0.008672916,-0.21414082,0.4225591,0.0,0.0,0.0,-0.00072422717,-0.0010508448,0.008693606,0.0,0.0,0.0,inf,inf,inf,0,0,1,0
3596000,3509651,0,0,0.010897768,-0.2174407,0.42869076,0.0,0.0,0.0,-0.0027796673,0.002218753,0.0025437176,0.0,0.0,0.0,inf,inf,inf,0,0,1,0
3668000,3583124,0,0,0.007741824,-0.21585001,0.43132615,0.0,0.0,0.0,-0.00029399246,0.0005682558,-0.00010946393,0.0,0.0,0.0,inf,inf,inf,0,0,1,0
3740000,3653435,0,0,0.009291656,-0.21401808,0.42823958,0.0,0.0,0.0,-0.0010485128,-0.0013543367,0.0020869374,0.0,0.0,0.0,inf,inf,inf,0,0,1,0
3804000,3723262,0,0,0.007889714,-0.21945001,0.43088266,0.0,0.0,0.0,0.0005902685,0.004021108,-0.0005890429,0.0,0.0,0.0,inf,inf,inf,0,0,1,0
3876000,3791765,0,0,0.010662653,-0.21670087,0.42924553,0.0,0.0,0.0,-0.0020818487,0.001278922,0.001049608,0.0,0.0,0.0,inf,inf,inf,0,0,1,0
3940000,3859378,0,0,0.0057816585,-0.21710347,0.42763993,0.0,0.0,0.0,0.0031450908,0.0016715974,0.0026431978,0.0,0.0,0.0,inf,inf,inf,0,0,1,0
4012000,3930379,0,0,0.010181616,-0.21698053,0.4298451,0.0,0.0,0.0,-0.0013104705,0.0015252233,0.0004274249,0.0,0.0,0.0,inf,inf,inf,0,0,1,0
4084000,3999475,0,0,0.011510726,-0.2147896,0.43202254,0.0,0.0,0.0,-0.0025396012,-0.00058963895,-0.0017139614,0.0,0.0,0.0,inf,inf,inf,0,0,1,0
4156000,4068753,0,0,0.012463499,-0.21577811,0.42927662,0.0,0.0,0.0,-0.0031843074,0.00036378205,0.0010078251,0.0,0.0,0.0,inf,inf,inf,0,0,1,0
4220000,4135558,0,0,0.016487628,-0.21667601,0.43037853,0.0,0.0,0.0,-0.0068725348,0.001264736,-9.995699e-05,0.0,0.0,0.0,inf,inf,inf,0,0,1,0
4292000,4206172,0,0,0.011489913,-0.2158975,0.42863384,0.0,0.0,0.0,-0.0017622113,0.00052553415,0.0016618669,0.0,0.0,0.0,inf,inf,inf,0,0,1,0
4356000,4275631,0,0,0.007844141,-0.21890222,0.4316715,0.0,0.0,0.0,0.0021078158,0.0035006702,-0.0013957322,0.0,0.0,0.0,inf,inf,inf,0,0,1,0
4428000,4345283,0,0,0.0095620705,-0.21692787,0.4283153,0.0,0.0,0.0,0.000358087,0.0014881045,0.0019420981,0.0,0.0,0.0,inf,inf,inf,0,0,1,0
4500000,4417695,0,0,0.01079293,-0.21921384,0.43051976,0.0,0.0,0.0,-0.0013856106,0.003784597,-0.00024554133,0.0,0.0,0.0,inf,inf,inf,0,0,1,0
4572000,4488135,0,0,0.010571427,-0.21594231,0.428957,0.0,0.0,0.0,-0.0010091728,0.00052161515,0.0013180375,0.0,0.0,0.0,inf,inf,inf,0,0,1,0
4636000,4555741,0,0,0.0115292715,-0.21229427,0.43061873,0.0,0.0,0.0,-0.0018297182,-0.0031155199,-0.000341326,0.0,0.0,0.0,inf,inf,inf,0,0,1,0
4708000,4625960,0,0,0.00951471,-0.21667302,0.42743295,0.0,0.0,0.0,-3.3183023e-05,0.0012636185,0.0028495193,0.0,0.0,0.0,inf,inf,inf,0,0,1,0
4780000,4699784,0,0,0.009593707,-0.21537589,0.42354137,0.0,0.0,0.0,-0.000102143735,-5.2273273e-05,0.00673151,0.0,0.0,0.0,inf,inf,inf,0,0,1,0
4852000,4771088,0,0,0.011200298,-0.21657638,0.43113324,0.0,0.0,0.0,-0.0016797744,0.00112997,-0.0008701384,0.0,0.0,0.0,inf,inf,inf,0,0,1,0
4924000,4843820,0,0,0.017634215,-0.21182914,0.42742392,0.0,0.0,0.0,-0.008110726,-0.0034377426,0.0029289722,0.0,0.0,0.0,inf,inf,inf,0,0,1,0
4996000,4915846,0,0,0.01016707,-0.21609513,0.42932573,0.0,0.0,0.0,-9.2327595e-05,0.0008016825,0.0010012984,0.0,0.0,0.0,inf,inf,inf,0,0,1,0
5068000,4987850,0,0,0.0014270293,-0.21375047,0.44027957,0.0,0.0,0.0,0.0086484505,-0.0015279204,-0.009945035,0.0,0.0,0.0,inf,inf,inf,0,0,1,0
5140000,5059144,0,0,0.0081674885,-0.21672525,0.42640454,0.0,0.0,0.0,0.0013818312,0.0017614961,0.00409925,0.0,0.0,0.0,inf,inf,inf,0,0,1,0
5212000,5131874,0,0,0.0101843355,-0.21177225,0.4302635,0.0,0.0,0.0,-0.00069818925,-0.0031544417,0.00026020408,0.0,0.0,0.0,inf,inf,inf,0,0,1,0
5284000,5202074,0,0,0.011170092,-0.21734884,0.42967686,0.0,0.0,0.0,-0.001598577,0.0025539696,0.00091069937,0.0,0.0,0.0,inf,inf,inf,0,0,1,0
5356000,5275895,0,0,0.008684722,-0.21455692,0.4293879,0.0,0.0,0.0,0.0009883149,-0.00019536912,0.0012186468,0.0,0.0,0.0,inf,inf,inf,0,0,1,0
5428000,5347912,0,0,0.010674906,-0.21631621,0.42829007,0.0,0.0,0.0,-0.0010510879,0.0015709549,0.002321124,0.0,0.0,0.0,inf,inf,inf,0,0,1,0
5500000,5419913,0,0,0.014808082,-0.21133718,0.4310706,0.0,0.0,0.0,-0.005070151,-0.0033430606,-0.00042954087,0.0,0.0,0.0,inf,inf,inf,0,0,1,0
5572000,5490835,0,0,0.011376785,-0.21561755,0.42923963,0.0,0.0,0.0,-0.0012559909,0.0009571463,0.0014024377,0.0,0.0,0.0,inf,inf,inf,0,0,1,0
5644000,5563927,0,0,0.01116129,-0.21576543,0.43019813,0.0,0.0,0.0,-0.0009302795,0.001142174,0.00045984983,0.0,0.0,0.0,inf,inf,inf,0,0,1,0
5716000,5634848,0,0,0.011032428,-0.21546504,0.430469,0.0,0.0,0.0,-0.00069541764,0.00080795586,0.00016963482,0.0,0.0,0.0,inf,inf,inf,0,0,1,0
5788000,5707939,0,0,-0.00038428605,-0.20912348,0.42361706,0.0,0.0,0.0,0.010783665,-0.00555332,0.0070101917,0.0,0.0,0.0,inf,inf,inf,0,0,1,0
5860000,5778493,0,0,0.008554788,-0.21605429,0.43035245,0.0,0.0,0.0,0.0010815989,0.0014083385,0.0003079474,0.0,0.0,0.0,inf,inf,inf,0,0,1,0
5932000,5851950,0,0,0.006396198,-0.22248529,0.43262073,0.0,0.0,0.0,0.0031822086,0.0077402145,-0.002008438,0.0,0.0,0.0,inf,inf,inf,0,0,1,0
6004000,5922866,0,0,0.010631564,-0.21536028,0.42791632,0.0,0.0,0.0,-0.0012854664,0.0005943626,0.002690643,0.0,0.0,0.0,inf,inf,inf,0,0,1,0
6076000,5995958,0,0,0.0077666994,-0.21636182,0.43319273,0.0,0.0,0.0,0.0016779173,0.0015932322,-0.0025892258,0.0,0.0,0.0,inf,inf,inf,0,0,1,0
6148000,6067601,0,0,0.0096557755,-0.21635234,0.42726678,0.0,0.0,0.0,-0.0002784673,0.001575172,0.0033338964,0.0,0.0,0.0,inf,inf,inf,0,0,1,0
6220000,6139965,0,0,0.010584283,-0.21636824,0.42612374,0.0,0.0,0.0,-0.0012062294,0.0016116798,0.004487276,0.0,0.0,0.0,inf,inf,inf,0,0,1,0
6292000,6211607,0,0,0.009664528,-0.21468827,0.4295678,0.0,0.0,0.0,-0.00019971281,-7.301569e-05,0.0010388792,0.0,0.0,0.0,inf,inf,inf,0,0,1,0
6364000,6283971,0,0,0.013444149,-0.21912412,0.43026313,0.0,0.0,0.0,-0.0039621154,0.004360035,0.00034180284,0.0,0.0,0.0,inf,inf,inf,0,0,1,0
6436000,6354884,0,0,0.010314512,-0.21345939,0.42959383,0.0,0.0,0.0,-0.00056922715,-0.0012834072,0.0010158122,0.0,0.0,0.0,inf,inf,inf,0,0,1,0
6508000,6427976,0,0,0.011156017,-0.21321467,0.42791042,0.0,0.0,0.0,-0.0013318006,-0.0014818162,0.0027205646,0.0,0.0,0.0,inf,inf,inf,0,0,1,0
6580000,6498524,0,0,0.009139683,-0.21623439,0.42732188,0.0,0.0,0.0,0.0008215867,0.0015810281,0.0033273995,0.0,0.0,0.0,inf,inf,inf,0,0,1,0
6652000,6571980,0,0,0.009645332,-0.22416125,0.43466383,0.0,0.0,0.0,0.00028043613,0.00953126,-0.0040020943,0.0,0.0,0.0,inf,inf,inf,0,0,1,0
6724000,6643983,0,0,0.010424283,-0.21557698,0.42935997,0.0,0.0,0.0,-0.0004825564,0.0009794831,0.0013176203,0.0,0.0,0.0,inf,inf,inf,0,0,1,0
6796000,6715983,0,0,0.0054610367,-0.21231653,0.4319994,0.0,0.0,0.0,0.0046027233,-0.002255395,-0.0013118386,0.0,0.0,0.0,inf,inf,inf,0,0,1,0
6868000,6787622,0,0,0.0105250785,-0.21762085,0.4269039,0.0,0.0,0.0,-0.0007818723,0.003103882,0.0038183928,0.0,0.0,0.0,inf,inf,inf,0,0,1,0
6940000,6859986,0,0,0.00060439704,-0.21949978,0.4369037,0.0,0.0,0.0,0.009218151,0.0050364286,-0.0061564744,0.0,0.0,0.0,inf,inf,inf,0,0,1,0
7012000,6930897,0,0,0.010045794,-0.21615216,0.43060535,0.0,0.0,0.0,-0.0007130923,0.0017082095,0.00016236305,0.0,0.0,0.0,inf,inf,inf,0,0,1,0
7084000,6999989,0,0,0.00588824,-0.21735843,0.42946404,0.0,0.0,0.0,0.0034843222,0.002947718,0.0013193488,0.0,0.0,0.0,inf,inf,inf,0,0,1,0
7156000,7069590,0,0,0.011316824,-0.21633907,0.42972466,0.0,0.0,0.0,-0.0021098284,0.0019308031,0.0010634959,0.0,0.0,0.0,inf,inf,inf,0,0,1,0
7220000,7139991,0,0,0.008274551,-0.21527502,0.42966115,0.0,0.0,0.0,0.0010921555,0.0008599758,0.0011202097,0.0,0.0,0.0,inf,inf,inf,0,0,1,0
7292000,7207547,0,0,0.010402825,-0.21440068,0.42851868,0.0,0.0,0.0,-0.0010954104,1.475215e-05,0.002278477,0.0,0.0,0.0,inf,inf,inf,0,0,1,0
7364000,7279992,0,0,0.01185221,-0.21486287,0.43072197,0.0,0.0,0.0,-0.0024290662,0.0003696233,1.9282103e-05,0.0,0.0,0.0,inf,inf,inf,0,0,1,0
7436000,7349770,0,0,0.009848316,-0.21513076,0.4291805,0.0,0.0,0.0,-0.00027143676,0.00067304075,0.0015749931,0.0,0.0,0.0,inf,inf,inf,0,0,1,0
7500000,7417993,0,0,0.0083130095,-0.2132193,0.4335335,0.0,0.0,0.0,0.001250593,-0.0012474209,-0.0027821958,0.0,0.0,0.0,inf,inf,inf,0,0,1,0
7572000,7489194,0,0,0.009836782,-0.21367888,0.43304253,0.0,0.0,0.0,-0.00032264367,-0.000822559,-0.002307415,0.0,0.0,0.0,inf,inf,inf,0,0,1,0
7636000,7555995,0,0,0.006765709,-0.2128539,0.43048778,0.0,0.0,0.0,0.0027584578,-0.0016418248,0.00024998188,0.0,0.0,0.0,inf,inf,inf,0,0,1,0
7708000,7626540,0,0,0.009297738,-0.21669304,0.43085507,0.0,0.0,0.0,0.00011261366,0.0021845102,-0.000121206045,0.0,0.0,0.0,inf,inf,inf,0,0,1,0
7780000,7699996,0,0,0.012434333,-0.21520542,0.4352715,0.0,0.0,0.0,-0.002992249,0.000589028,-0.0045921206,0.0,0.0,0.0,inf,inf,inf,0,0,1,0
7852000,7771268,0,0,0.011741137,-0.21540025,0.42851576,0.0,0.0,0.0,-0.0021372046,0.00079616904,0.0021662414,0.0,0.0,0.0,inf,inf,inf,0,0,1,0
7924000,7839996,0,0,0.019211145,-0.21862443,0.4303684,0.0,0.0,0.0,-0.009478213,0.004021123,0.00031110644,0.0,0.0,0.0,inf,inf,inf,0,0,1,0
7996000,7909197,0,0,0.009545058,-0.2153898,0.42686802,0.0,0.0,0.0,0.00067043304,0.0007201731,0.003767252,0.0,0.0,0.0,inf,inf,inf,0,0,1,0
8060000,7975997,0,0,0.010559557,-0.21438414,0.43223318,0.0,0.0,0.0,-0.000358155,-0.000273481,-0.001591593,0.0,0.0,0.0,inf,inf,inf,0,0,1,0
8132000,8047270,0,0,0.010402105,-0.2156812,0.42947707,0.0,0.0,0.0,-0.00018722471,0.0010719299,0.0011882484,0.0,0.0,0.0,inf,inf,inf,0,0,1,0
8204000,8119998,0,0,0.013709326,-0.21925037,0.42796504,0.0,0.0,0.0,-0.0034360932,0.0046133995,0.0026850998,0.0,0.0,0.0,inf,inf,inf,0,0,1,0
8276000,8190907,0,0,0.010634895,-0.21724136,0.42774513,0.0,0.0,0.0,-0.00017633662,0.0026031286,0.0028999448,0.0,0.0,0.0,inf,inf,inf,0,0,1,0
8348000,8263998,0,0,0.0073675998,-0.21691175,0.42547813,0.0,0.0,0.0,0.0031042285,0.0022887588,0.00517419,0.0,0.0,0.0,inf,inf,inf,0,0,1,0
8420000,8335998,0,0,0.008680807,-0.21646127,0.43029916,0.0,0.0,0.0,0.0016688909,0.0018295795,0.00035181642,0.0,0.0,0.0,inf,inf,inf,0,0,1,0
8492000,8407998,0,0,0.0004967252,-0.21894869,0.42992714,0.0,0.0,0.0,0.009782088,0.0043464303,0.0007401407,0.0,0.0,0.0,inf,inf,inf,0,0,1,0
8564000,8478908,0,0,0.009016954,-0.21575761,0.42895794,0.0,0.0,0.0,0.00080487784,0.001147002,0.0017158389,0.0,0.0,0.0,inf,inf,inf,0,0,1,0
8628000,8547999,0,0,0.016183404,-0.21781217,0.42216924,0.0,0.0,0.0,-0.006405851,0.003231123,0.008520335,0.0,0.0,0.0,inf,inf,inf,0,0,1,0
8700000,8615999,0,0,0.009269728,-0.21383552,0.42871013,0.0,0.0,0.0,0.0008617649,-0.0007073581,0.0019902587,0.0,0.0,0.0,inf,inf,inf,0,0,1,0
8764000,8683999,0,0,0.009497533,-0.21588668,0.43281233,0.0,0.0,0.0,0.00057674013,0.0013534725,-0.0021057725,0.0,0.0,0.0,inf,inf,inf,0,0,1,0
8836000,8754908,0,0,0.009106519,-0.21654157,0.42885235,0.0,0.0,0.0,0.0009233188,0.002039358,0.001870662,0.0,0.0,0.0,inf,inf,inf,0,0,1,0
8908000,8827999,0,0,0.010662961,-0.21920197,0.42817265,0.0,0.0,0.0,-0.00065966975,0.0047374517,0.0025697947,0.0,0.0,0.0,inf,inf,inf,0,0,1,0
8980000,8899999,0,0,0.009922648,-0.2164501,0.42818514,0.0,0.0,0.0,0.00016026758,0.0019865632,0.0025559366,0.0,0.0,0.0,inf,inf,inf,0,0,1,0
9052000,8972000,0,0,0.009292091,-0.21170849,0.43331376,0.0,0.0,0.0,0.00078505,-0.002751261,-0.002570659,0.0,0.0,0.0,inf,inf,inf,0,0,1,0
9124000,9042909,0,0,0.008657508,-0.21572885,0.42753625,0.0,0.0,0.0,0.0014019236,0.0012744069,0.003209889,0.0,0.0,0.0,inf,inf,inf,0,0,1,0
9196000,9116000,0,0,0.00442722,-0.21721178,0.4246163,0.0,0.0,0.0,0.0055812565,0.0027787983,0.0061416924,0.0,0.0,0.0,inf,inf,inf,0,0,1,0
9268000,9186181,0,0,0.009375173,-0.21500762,0.4295922,0.0,0.0,0.0,0.00039407331,0.00059370697,0.0011807978,0.0,0.0,0.0,inf,inf,inf,0,0,1,0
9340000,9260000,0,0,0.009243225,-0.22014731,0.4277441,0.0,0.0,0.0,0.000487837,0.0057162344,0.0030212104,0.0,0.0,0.0,inf,inf,inf,0,0,1,0
9412000,9330909,0,0,0.0088817505,-0.21687678,0.42862287,0.0,0.0,0.0,0.00081409235,0.0024475455,0.002144158,0.0,0.0,0.0,inf,inf,inf,0,0,1,0
9484000,9404000,0,0,0.005218528,-0.22172184,0.43458056,0.0,0.0,0.0,0.004493855,0.0072901547,-0.003815174,0.0,0.0,0.0,inf,inf,inf,0,0,1,0
9556000,9475636,0,0,0.009934043,-0.21462095,0.42937306,0.0,0.0,0.0,-0.0003856765,0.00022366643,0.0014131367,0.0,0.0,0.0,inf,inf,inf,0,0,1,0
9628000,9548000,0,0,0.0076609096,-0.22232488,0.42970476,0.0,0.0,0.0,0.0018848786,0.007940233,0.001087755,0.0,0.0,0.0,inf,inf,inf,0,0,1,0
9700000,9618545,0,0,0.008229741,-0.21664739,0.43161502,0.0,0.0,0.0,0.0012080809,0.0022684634,-0.0008172095,0.0,0.0,0.0,inf,inf,inf,0,0,1,0
9772000,9692000,0,0,0.008472171,-0.21552537,0.42433032,0.0,0.0,0.0,0.0009010099,0.00116615,0.006478697,0.0,0.0,0.0,inf,inf,inf,0,0,1,0
9844000,9762909,0,0,0.008881012,-0.21462238,0.42784327,0.0,0.0,0.0,0.00046307407,0.00029468536,0.0029819906,0.0,0.0,0.0,inf,inf,inf,0,0,1,0
9916000,9836000,0,0,0.014635727,-0.21555395,0.43330386,0.0,0.0,0.0,-0.005326003,0.0012438148,-0.002469033,0.0,0.0,0.0,inf,inf,inf,0,0,1,0
9988000,9907272,0,0,0.009599002,-0.21746625,0.42807993,0.0,0.0,0.0,-0.000117706135,0.003130868,0.0027385652,0.0,0.0,0.0,inf,inf,inf,0,0,1,0
10060000,9980000,0,0,0.013033759,-0.21517111,0.4232061,0.0,0.0,0.0,-0.0035205,0.0008494407,0.0076185167,0.0,0.0,0.0,inf,inf,inf,0,0,1,0
10132000,10051636,0,0,0.008765149,-0.21649103,0.42875966,0.0,0.0,0.0,0.00089318026,0.0021741837,0.0020641088,0.0,0.0,0.0,inf,inf,inf,0,0,1,0
10204000,10124000,0,0,0.006823242,-0.21678852,0.43073192,0.0,0.0,0.0,0.0028065587,0.002515182,0.00011411309,0.0,0.0,0.0,inf,inf,inf,0,0,1,0
10276000,10194909,0,0,0.009123744,-0.21746029,0.43008715,0.0,0.0,0.0,0.00041173212,0.0032201856,0.0007775426,0.0,0.0,0.0,inf,inf,inf,0,0,1,0
10348000,10268000,0,0,0.009233756,-0.21559903,0.42750582,0.0,0.0,0.0,0.00032911636,0.0013562739,0.0033569634,0.0,0.0,0.0,inf,inf,inf,0,0,1,0
10420000,10337818,0,0,0.0099699795,-0.21493077,0.42806098,0.0,0.0,0.0,-0.00037825108,0.0006875694,0.0028009713,0.0,0.0,0.0,inf,inf,inf,0,0,1,0
10492000,10412000,0,0,0.007631936,-0.21624048,0.43272746,0.0,0.0,0.0,0.0019685691,0.0019756705,-0.0018765032,0.0,0.0,0.0,inf,inf,inf,0,0,1,0
10564000,10482545,0,0,0.010122485,-0.21507578,0.43002534,0.0,0.0,0.0,-0.00059071183,0.00082731247,0.0008352995,0.0,0.0,0.0,inf,inf,inf,0,0,1,0
10636000,10556000,0,0,0.009708629,-0.21555014,0.42558992,0.0,0.0,0.0,-0.00017651264,0.0013024062,0.0052710474,0.0,0.0,0.0,inf,inf,inf,0,0,1,0
10708000,10626909,0,0,0.009877413,-0.21433365,0.42993006,0.0,0.0,0.0,-0.00033327844,6.467104e-05,0.0009200871,0.0,0.0,0.0,inf,inf,inf,0,0,1,0
10780000,10700000,0,0,0.0069912244,-0.22139019,0.4336708,0.0,0.0,0.0,0.0025443342,0.0071572363,-0.002802521,0.0,0.0,0.0,inf,inf,inf,0,0,1,0
10852000,10772000,0,0,0.008943931,-0.21607845,0.4289207,0.0,0.0,0.0,0.00052765664,0.0018179119,0.0019352436,0.0,0.0,0.0,inf,inf,inf,0,0,1,0
10924000,10844000,0,0,0.007851876,-0.2141292,0.42842332,0.0,0.0,0.0,0.0016540661,-9.150803e-05,0.002451688,0.0,0.0,0.0,inf,inf,inf,0,0,1,0
10996000,10914909,0,0,0.010165168,-0.21417765,0.4295094,0.0,0.0,0.0,-0.00074070506,-2.8714538e-05,0.0013744831,0.0,0.0,0.0,inf,inf,inf,0,0,1,0
11068000,10988000,0,0,0.007470862,-0.21340801,0.4317227,0.0,0.0,0.0,0.0019285595,-0.0007683486,-0.00082331896,0.0,0.0,0.0,inf,inf,inf,0,0,1,0
11140000,11059272,0,0,0.008931787,-0.21679752,0.42918062,0.0,0.0,0.0,0.00040615257,0.0026664436,0.0017425716,0.0,0.0,0.0,inf,inf,inf,0,0,1,0
11212000,11132000,0,0,0.010584343,-0.21757625,0.43390453,0.0,0.0,0.0,-0.0012942441,0.003399551,-0.0030029416,0.0,0.0,0.0,inf,inf,inf,0,0,1,0
11284000,11202909,0,0,0.009130999,-0.21621293,0.42957723,0.0,0.0,0.0,0.00024960935,0.002053693,0.0013310909,0.0,0.0,0.0,inf,inf,inf,0,0,1,0
11356000,11276000,0,0,0.0047280807,-0.21284045,0.42834145,0.0,0.0,0.0,0.0046117213,-0.0013352185,0.0025595427,0.0,0.0,0.0,inf,inf,inf,0,0,1,0
11428000,11346545,0,0,0.009472382,-0.21724828,0.43142948,0.0,0.0,0.0,-0.0002701031,0.0030807257,-0.00052145123,0.0,0.0,0.0,inf,inf,inf,0,0,1,0
11500000,11420000,0,0,0.006582268,-0.21375704,0.42785138,0.0,0.0,0.0,0.0026099975,-0.0004120469,0.0030560493,0.0,0.0,0.0,inf,inf,inf,0,0,1,0
11572000,11491636,0,0,0.010392288,-0.21668895,0.42933226,0.0,0.0,0.0,-0.0013166312,0.0025299191,0.0015826523,0.0,0.0,0.0,inf,inf,inf,0,0,1,0
11644000,11564000,0,0,0.003506667,-0.21357816,0.43487176,0.0,0.0,0.0,0.0055959458,-0.0006027967,-0.0039682686,0.0,0.0,0.0,inf,inf,inf,0,0,1,0
11716000,11635272,0,0,0.009284466,-0.21598123,0.43023047,0.0,0.0,0.0,-0.00034771021,0.0018065274,0.00067952275,0.0,0.0,0.0,inf,inf,inf,0,0,1,0
11788000,11708000,0,0,0.0070766876,-0.21401627,0.4247244,0.0,0.0,0.0,0.0018766453,-0.00016529858,0.0061818957,0.0,0.0,0.0,inf,inf,inf,0,0,1,0
11860000,11778181,0,0,0.0082078595,-0.21564555,0.42824954,0.0,0.0,0.0,0.0007101204,0.0014683604,0.0026596785,0.0,0.0,0.0,inf,inf,inf,0,0,1,0
11932000,11852000,0,0,0.011561174,-0.21784778,0.42702413,0.0,0.0,0.0,-0.0026823469,0.003696099,0.0038985312,0.0,0.0,0.0,inf,inf,inf,0,0,1,0
12004000,11922909,0,0,0.009450438,-0.21507052,0.42975786,0.0,0.0,0.0,-0.0004574908,0.00083835423,0.0011224747,0.0,0.0,0.0,inf,inf,inf,0,0,1,0
12076000,11996000,0,0,0.008519827,-0.21898408,0.43071777,0.0,0.0,0.0,0.00044857804,0.0047573894,0.00016576052,0.0,0.0,0.0,inf,inf,inf,0,0,1,0
12148000,12066909,0,0,0.009663334,-0.21455054,0.42718664,0.0,0.0,0.0,-0.00073372386,0.00033153594,0.003701508,0.0,0.0,0.0,inf,inf,inf,0,0,1,0
12220000,12140000,0,0,0.009158182,-0.21609417,0.43051887,0.0,0.0,0.0,-0.00021045934,0.0018928647,0.00037768483,0.0,0.0,0.0,inf,inf,inf,0,0,1,0
12292000,12211272,0,0,0.008754405,-0.21529922,0.428787,0.0,0.0,0.0,0.00017085392,0.0011230707,0.0021225512,0.0,0.0,0.0,inf,inf,inf,0,0,1,0
12364000,12280000,0,0,0.010271429,-0.21085873,0.43271068,0.0,0.0,0.0,-0.0013758829,-0.003287077,-0.0017854273,0.0,0.0,0.0,inf,inf,inf,0,0,1,0
12436000,12348800,0,0,0.009519828,-0.21618144,0.42910525,0.0,0.0,0.0,-0.00056288857,0.0020449609,0.0018233359,0.0,0.0,0.0,inf,inf,inf,0,0,1,0
12500000,12420000,0,0,0.007862997,-0.22017808,0.42619574,0.0,0.0,0.0,0.0011557965,0.006045729,0.0047335923,0.0,0.0,0.0,inf,inf,inf,0,0,1,0
12572000,12487111,0,0,0.010234967,-0.21707244,0.4297612,0.0,0.0,0.0,-0.0012181997,0.0029489994,0.001172632,0.0,0.0,0.0,inf,inf,inf,0,0,1,0
12644000,12558666,0,0,0.012151472,-0.21787044,0.4263911,0.0,0.0,0.0,-0.0030902699,0.0037524402,0.0045445263,0.0,0.0,0.0,inf,inf,inf,0,0,1,0
12716000,12630222,0,0,0.008368175,-0.21730825,0.42842513,0.0,0.0,0.0,0.00078439433,0.0032072365,0.002516985,0.0,0.0,0.0,inf,inf,inf,0,0,1,0
12780000,12698000,0,0,0.010426162,-0.21381086,0.42776746,0.0,0.0,0.0,-0.0012703519,-0.0003053248,0.0031670332,0.0,0.0,0.0,inf,inf,inf,0,0,1,0
12852000,12768400,0,0,0.010540179,-0.21614952,0.42758837,0.0,0.0,0.0,-0.0014310693,0.0019506365,0.003306061,0.0,0.0,0.0,inf,inf,inf,0,0,1,0
12916000,12836000,0,0,0.007890868,-0.21669085,0.43016607,0.0,0.0,0.0,0.001271409,0.0025071055,0.00073474646,0.0,0.0,0.0,inf,inf,inf,0,0,1,0
12988000,12905818,0,0,0.010642551,-0.21593092,0.42757368,0.0,0.0,0.0,-0.0014878362,0.0017415285,0.0033244789,0.0,0.0,0.0,inf,inf,inf,0,0,1,0
13060000,12980000,0,0,0.013101432,-0.21608232,0.429988,0.0,0.0,0.0,-0.003910835,0.0018884093,0.0009071529,0.0,0.0,0.0,inf,inf,inf,0,0,1,0
13132000,13051272,0,0,0.0075536915,-0.21680035,0.4289945,0.0,0.0,0.0,0.0017356775,0.0026400536,0.0019152164,0.0,0.0,0.0,inf,inf,inf,0,0,1,0
13204000,13124000,0,0,0.008415528,-0.21392953,0.42968297,0.0,0.0,0.0,0.0008340776,-0.00021542609,0.0012352467,0.0,0.0,0.0,inf,inf,inf,0,0,1,0
13276000,13194181,0,0,0.009363178,-0.21417713,0.42892796,0.0,0.0,0.0,-0.0001222603,4.49121e-05,0.0019967556,0.0,0.0,0.0,inf,inf,inf,0,0,1,0
13348000,13268000,0,0,0.013242872,-0.21275654,0.42254862,0.0,0.0,0.0,-0.0040219147,-0.0014000982,0.008364409,0.0,0.0,0.0,inf,inf,inf,0,0,1,0
13420000,13338909,0,0,0.009757412,-0.21681684,0.42857122,0.0,0.0,0.0,-0.00039484818,0.0026876032,0.0023524165,0.0,0.0,0.0,inf,inf,inf,0,0,1,0
13492000,13412000,0,0,0.005248762,-0.217798,0.4354626,0.0,0.0,0.0,0.0040923436,0.0036756098,-0.0045351386,0.0,0.0,0.0,inf,inf,inf,0,0,1,0
13564000,13482909,0,0,0.008524263,-0.21807507,0.43031693,0.0,0.0,0.0,0.000702573,0.003938526,0.0006060004,0.0,0.0,0.0,inf,inf,inf,0,0,1,0
13636000,13556000,0,0,0.015331607,-0.21637508,0.4346079,0.0,0.0,0.0,-0.0060979314,0.0023819208,-0.0036139488,0.0,0.0,0.0,inf,inf,inf,0,0,1,0
13708000,13626181,0,0,0.009137163,-0.21612188,0.43050155,0.0,0.0,0.0,0.00024291687,0.0021183342,0.00048404932,0.0,0.0,0.0,inf,inf,inf,0,0,1,0
13780000,13700000,0,0,0.0142327035,-0.21685857,0.4286622,0.0,0.0,0.0,-0.0048732692,0.0028373897,0.0023150742,0.0,0.0,0.0,inf,inf,inf,0,0,1,0
13852000,13771636,0,0,0.007999785,-0.21688025,0.430729,0.0,0.0,0.0,0.0015060827,0.0028700083,0.00025051832,0.0,0.0,0.0,inf,inf,inf,0,0,1,0
13924000,13844000,0,0,0.012358934,-0.21925634,0.428524,0.0,0.0,0.0,-0.0028928146,0.005286306,0.0024763942,0.0,0.0,0.0,inf,inf,inf,0,0,1,0
13996000,13915636,0,0,0.010573236,-0.21581464,0.4291723,0.0,0.0,0.0,-0.0010208171,0.0018621832,0.0018348694,0.0,0.0,0.0,inf,inf,inf,0,0,1,0
14068000,13988000,0,0,0.015503823,-0.2219754,0.42680448,0.0,0.0,0.0,-0.005920655,0.007915452,0.004148692,0.0,0.0,0.0,inf,inf,inf,0,0,1,0
14140000,14059636,0,0,0.009610719,-0.21539812,0.42956662,0.0,0.0,0.0,0.00013625715,0.001348868,0.0013881922,0.0,0.0,0.0,inf,inf,inf,0,0,1,0
14212000,14132000,0,0,0.012713691,-0.22685759,0.4275752,0.0,0.0,0.0,-0.002972534,0.012783349,0.0033673644,0.0,0.0,0.0,inf,inf,inf,0,0,1,0
14284000,14202909,0,0,0.0110469535,-0.21660542,0.42928186,0.0,0.0,0.0,-0.0012506843,0.002547592,0.0016675293,0.0,0.0,0.0,inf,inf,inf,0,0,1,0
14356000,14276000,0,0,0.0067526456,-0.21916927,0.42965302,0.0,0.0,0.0,0.003047632,0.0051181912,0.0012996495,0.0,0.0,0.0,inf,inf,inf,0,0,1,0
14428000,14348000,0,0,0.010040255,-0.21470281,0.42881793,0.0,0.0,0.0,-0.00031968392,0.00067804754,0.0021496415,0.0,0.0,0.0,inf,inf,inf,0,0,1,0
14500000,14420000,0,0,0.015452777,-0.21422753,0.42556027,0.0,0.0,0.0,-0.005715211,0.0002335608,0.005422145,0.0,0.0,0.0,inf,inf,inf,0,0,1,0
14572000,14490181,0,0,0.00785726,-0.21634464,0.4282926,0.0,0.0,0.0,0.0019960655,0.0023286194,0.0026762784,0.0,0.0,0.0,inf,inf,inf,0,0,1,0
14644000,14564000,0,0,0.013604626,-0.2172588,0.43255448,0.0,0.0,0.0,-0.003796935,0.0032427013,-0.0015846491,0.0,0.0,0.0,inf,inf,inf,0,0,1,0
14716000,14634909,0,0,0.01011107,-0.21473274,0.42919812,0.0,0.0,0.0,-0.0002018502,0.0007208586,0.0017715096,0.0,0.0,0.0,inf,inf,inf,0,0,1,0
14788000,14708000,0,0,0.014077302,-0.21596704,0.42730287,0.0,0.0,0.0,-0.00415862,0.0019711703,0.0036744773,0.0,0.0,0.0,inf,inf,inf,0,0,1,0
14860000,14779272,0,0,0.009131374,-0.21498035,0.4300677,0.0,0.0,0.0,0.00089819543,0.0009903759,0.0009100139,0.0,0.0,0.0,inf,inf,inf,0,0,1,0
14932000,14852000,0,0,0.00628487,-0.2204677,0.43012506,0.0,0.0,0.0,0.0037400723,0.006496191,0.00086197257,0.0,0.0,0.0,inf,inf,inf,0,0,1,0
15004000,14923636,0,0,0.011354786,-0.21558344,0.42836216,0.0,0.0,0.0,-0.0014272602,0.001639545,0.0026408434,0.0,0.0,0.0,inf,inf,inf,0,0,1,0
15076000,14996000,0,0,0.011565301,-0.21390475,0.43136668,0.0,0.0,0.0,-0.0016149161,-6.492436e-05,-0.00037699938,0.0,0.0,0.0,inf,inf,inf,0,0,1,0
15148000,15066545,0,0,0.009537843,-0.21618547,0.43111876,0.0,0.0,0.0,0.00048370194,0.0022412688,-0.0001181066,0.0,0.0,0.0,inf,inf,inf,0,0,1,0
15220000,15140000,0,0,0.014103667,-0.21845874,0.43339366,0.0,0.0,0.0,-0.0041152397,0.0044561327,-0.0024212003,0.0,0.0,0.0,inf,inf,inf,0,0,1,0
15292000,15211272,0,0,0.008319552,-0.21465772,0.42939556,0.0,0.0,0.0,0.0017883452,0.0006530285,0.0015730262,0.0,0.0,0.0,inf,inf,inf,0,0,1,0
15364000,15284000,0,0,0.011170049,-0.21408418,0.4340141,0.0,0.0,0.0,-0.001127799,9.1701746e-05,-0.0030378997,0.0,0.0,0.0,inf,inf,inf,0,0,1,0
15436000,15354909,0,0,0.009235634,-0.21556394,0.4315924,0.0,0.0,0.0,0.0008083824,0.0015908927,-0.00060656667,0.0,0.0,0.0,inf,inf,inf,0,0,1,0
15508000,15428000,0,0,0.0088386405,-0.21591017,0.43703088,0.0,0.0,0.0,0.0012013223,0.0019665658,-0.0060304105,0.0,0.0,0.0,inf,inf,inf,0,0,1,0
15580000,15499272,0,0,0.011868961,-0.2140489,0.42978653,0.0,0.0,0.0,-0.0018708557,0.00010815263,0.0012163222,0.0,0.0,0.0,inf,inf,inf,0,0,1,0
15652000,15572000,0,0,0.014712018,-0.21290806,0.4311603,0.0,0.0,0.0,-0.0047499286,-0.0009406209,-0.00011083484,0.0,0.0,0.0,inf,inf,inf,0,0,1,0
15724000,15642909,0,0,0.010721135,-0.21700448,0.43003005,0.0,0.0,0.0,-0.000697176,0.0031709075,0.0010254383,0.0,0.0,0.0,inf,inf,inf,0,0,1,0
15796000,15716000,0,0,0.0173864,-0.21030061,0.43355462,0.0,0.0,0.0,-0.007387206,-0.0035275966,-0.0024959147,0.0,0.0,0.0,inf,inf,inf,0,0,1,0
15868000,15786181,0,0,0.010474247,-0.21505877,0.430057,0.0,0.0,0.0,-0.00031915028,0.0012284219,0.0009970665,0.0,0.0,0.0,inf,inf,inf,0,0,1,0
15940000,15860000,0,0,0.009983613,-0.2199344,0.4264746,0.0,0.0,0.0,0.00015575532,0.0061016977,0.00457862,0.0,0.0,0.0,inf,inf,inf,0,0,1,0
16012000,15931272,0,0,0.009919929,-0.2158653,0.4296687,0.0,0.0,0.0,0.0001790272,0.0020555407,0.0013968647,0.0,0.0,0.0,inf,inf,inf,0,0,1,0
16084000,16004000,0,0,0.011952474,-0.21272923,0.4306344,0.0,0.0,0.0,-0.0018459251,-0.0010541826,0.0004440546,0.0,0.0,0.0,inf,inf,inf,0,0,1,0
16156000,16073454,0,0,0.009877712,-0.21656331,0.42921874,0.0,0.0,0.0,0.00024070591,0.002758488,0.0018488467,0.0,0.0,0.0,inf,inf,inf,0,0,1,0
16228000,16148000,0,0,0.011236607,-0.21492368,0.4296391,0.0,0.0,0.0,-0.0011368385,0.0011097789,0.0014243424,0.0,0.0,0.0,inf,inf,inf,0,0,1,0
16300000,16218545,0,0,0.011526178,-0.21673988,0.43050182,0.0,0.0,0.0,-0.0014255671,0.0029248,0.0005610585,0.0,0.0,0.0,inf,inf,inf,0,0,1,0
16372000,16288000,0,0,0.010339106,-0.2162762,0.4317417,0.0,0.0,0.0,-0.00023075473,0.0024252236,-0.0006967783,0.0,0.0,0.0,inf,inf,inf,0,0,1,0
16444000,16357200,0,0,0.010889139,-0.21560235,0.43125492,0.0,0.0,0.0,-0.00076529756,0.0017641038,-0.0002040863,0.0,0.0,0.0,inf,inf,inf,0,0,1,0
16508000,16424000,0,0,0.013074139,-0.21787044,0.43008187,0.0,0.0,0.0,-0.0028983746,0.0040227175,0.00096306205,0.0,0.0,0.0,inf,inf,inf,0,0,1,0
16580000,16495272,0,0,0.008852827,-0.2151678,0.4298316,0.0,0.0,0.0,0.0013902085,0.0013105422,0.0012070239,0.0,0.0,0.0,inf,inf,inf,0,0,1,0
16652000,16568000,0,0,0.009296666,-0.21346112,0.4230742,0.0,0.0,0.0,0.00088737626,-0.00037147105,0.007978052,0.0,0.0,0.0,inf,inf,inf,0,0,1,0
16724000,16639272,0,0,0.009886798,-0.21791762,0.4285973,0.0,0.0,0.0,0.00029436778,0.0040662587,0.0024456978,0.0,0.0,0.0,inf,inf,inf,0,0,1,0
16788000,16708000,0,0,0.010880911,-0.22190592,0.4230879,0.0,0.0,0.0,-0.000708797,0.0080643,0.0079602,0.0,0.0,0.0,inf,inf,inf,0,0,1,0
16860000,16777600,0,0,0.008535402,-0.21715789,0.42852217,0.0,0.0,0.0,0.0016212147,0.0033593029,0.0025476217,0.0,0.0,0.0,inf,inf,inf,0,0,1,0
16932000,16850000,0,0,0.006803889,-0.21583119,0.43098992,0.0,0.0,0.0,0.0033558793,0.0019983947,6.279349e-05,0.0,0.0,0.0,inf,inf,inf,0,0,1,0
17004000,16921200,0,0,0.010882232,-0.21632648,0.43055615,0.0,0.0,0.0,-0.0007710941,0.0024840832,0.00049299,0.0,0.0,0.0,inf,inf,inf,0,0,1,0
17076000,16992000,0,0,0.0076606274,-0.22008777,0.42597255,0.0,0.0,0.0,0.0024578944,0.006228417,0.0050679147,0.0,0.0,0.0,inf,inf,inf,0,0,1,0
17140000,17058666,0,0,0.010769873,-0.21408601,0.43000832,0.0,0.0,0.0,-0.0006962782,0.00020311773,0.0010215342,0.0,0.0,0.0,inf,inf,inf,0,0,1,0
17212000,17126000,0,0,0.0063124727,-0.21631475,0.43314254,0.0,0.0,0.0,0.003746258,0.002437666,-0.002109468,0.0,0.0,0.0,inf,inf,inf,0,0,1,0
17284000,17196800,0,0,0.009892907,-0.21398269,0.42754778,0.0,0.0,0.0,8.88966e-05,9.353459e-05,0.0034811199,0.0,0.0,0.0,inf,inf,inf,0,0,1,0
17348000,17264000,0,0,0.0059157885,-0.21696997,0.4316967,0.0,0.0,0.0,0.0040675276,0.0030805469,-0.00066795945,0.0,0.0,0.0,inf,inf,inf,0,0,1,0
17420000,17334909,0,0,0.010405409,-0.21416067,0.43025565,0.0,0.0,0.0,-0.0005210368,0.00028319657,0.0007812679,0.0,0.0,0.0,inf,inf,inf,0,0,1,0
17484000,17404000,0,0,0.007788397,-0.21580349,0.42940882,0.0,0.0,0.0,0.0021423702,0.0019414872,0.001634717,0.0,0.0,0.0,inf,inf,inf,0,0,1,0
17556000,17473200,0,0,0.008413974,-0.21709721,0.43054911,0.0,0.0,0.0,0.0014668666,0.0032102913,0.00048321486,0.0,0.0,0.0,inf,inf,inf,0,0,1,0
17620000,17540000,0,0,0.010939901,-0.21190575,0.43147838,0.0,0.0,0.0,-0.0010877894,-0.001983136,-0.00044634938,0.0,0.0,0.0,inf,inf,inf,0,0,1,0
17692000,17611272,0,0,0.00960356,-0.21598315,0.42942685,0.0,0.0,0.0,0.00028423965,0.0021111816,0.0016127825,0.0,0.0,0.0,inf,inf,inf,0,0,1,0
17764000,17684000,0,0,0.011166296,-0.21509703,0.4312691,0.0,0.0,0.0,-0.0012740334,0.0012782961,-0.00020319223,0.0,0.0,0.0,inf,inf,inf,0,0,1,0
17836000,17754909,0,0,0.009389832,-0.21656282,0.43027455,0.0,0.0,0.0,0.00058337394,0.0027793199,0.0008069873,0.0,0.0,0.0,inf,inf,inf,0,0,1,0
17908000,17828000,0,0,0.009874459,-0.22126997,0.43401834,0.0,0.0,0.0,6.349012e-05,0.0075078458,-0.002925396,0.0,0.0,0.0,inf,inf,inf,0,0,1,0
17980000,17899272,0,0,0.008882629,-0.21561956,0.42849058,0.0,0.0,0.0,0.0010614675,0.0018716156,0.0026092231,0.0,0.0,0.0,inf,inf,inf,0,0,1,0
18052000,17972000,0,0,0.014839328,-0.2176595,0.42951372,0.0,0.0,0.0,-0.0049579283,0.003951013,0.00160712,0.0,0.0,0.0,inf,inf,inf,0,0,1,0
18124000,18042909,0,0,0.008683569,-0.2183455,0.42898193,0.0,0.0,0.0,0.0012694607,0.004665524,0.0021513999,0.0,0.0,0.0,inf,inf,inf,0,0,1,0
18196000,18116000,0,0,0.012436309,-0.20940131,0.43116876,0.0,0.0,0.0,-0.0025472874,-0.0042788684,-3.4064054e-05,0.0,0.0,0.0,inf,inf,inf,0,0,1,0
18268000,18187272,0,0,0.008618099,-0.21555069,0.43099117,0.0,0.0,0.0,0.001354347,0.0018347502,0.00012385845,0.0,0.0,0.0,inf,inf,inf,0,0,1,0
18340000,18260000,0,0,0.010777675,-0.21526428,0.43189898,0.0,0.0,0.0,-0.0008203164,0.0015549213,-0.0007803142,0.0,0.0,0.0,inf,inf,inf,0,0,1,0
18412000,18331636,0,0,0.009663343,-0.21483278,0.42959517,0.0,0.0,0.0,0.00029248744,0.0011319965,0.0015277863,0.0,0.0,0.0,inf,inf,inf,0,0,1,0
18484000,18404000,0,0,0.011874926,-0.21131577,0.42723083,0.0,0.0,0.0,-0.0019469606,-0.002379045,0.0038957,0.0,0.0,0.0,inf,inf,inf,0,0,1,0
18556000,18474181,0,0,0.010004688,-0.21528924,0.43220967,0.0,0.0,0.0,-3.3494085e-05,0.0016433,-0.0010599196,0.0,0.0,0.0,inf,inf,inf,0,0,1,0
18628000,18548000,0,0,0.013077128,-0.21657418,0.42454985,0.0,0.0,0.0,-0.0030678464,0.0029367507,0.006603241,0.0,0.0,0.0,inf,inf,inf,0,0,1,0
18700000,18618909,0,0,0.008672383,-0.21616797,0.42943016,0.0,0.0,0.0,0.0014074706,0.0025244206,0.0017183125,0.0,0.0,0.0,inf,inf,inf,0,0,1,0
18772000,18692000,0,0,0.017157605,-0.21575773,0.42563778,0.0,0.0,0.0,-0.007114431,0.0020867288,0.005497843,0.0,0.0,0.0,inf,inf,inf,0,0,1,0
18844000,18762909,0,0,0.009718155,-0.21604389,0.42922866,0.0,0.0,0.0,0.0004209308,0.0023417473,0.0018892884,0.0,0.0,0.0,inf,inf,inf,0,0,1,0
18916000,18836000,0,0,0.012123806,-0.21108572,0.43150553,0.0,0.0,0.0,-0.0020108726,-0.0026303977,-0.0003938973,0.0,0.0,0.0,inf,inf,inf,0,0,1,0
18988000,18906545,0,0,0.0094711445,-0.21445724,0.4287088,0.0,0.0,0.0,0.00064979866,0.0007380843,0.002401173,0.0,0.0,0.0,inf,inf,inf,0,0,1,0
19060000,18980000,0,0,0.00721254,-0.22001523,0.4320518,0.0,0.0,0.0,0.0029145945,0.006289363,-0.00094529986,0.0,0.0,0.0,inf,inf,inf,0,0,1,0
19132000,19052000,0,0,0.009757424,-0.2150478,0.42890725,0.0,0.0,0.0,0.0003176462,0.0013331175,0.0022060275,0.0,0.0,0.0,inf,inf,inf,0,0,1,0
19204000,19124000,0,0,0.011497483,-0.21496138,0.4328803,0.0,0.0,0.0,-0.0014291778,0.001310572,-0.0017351806,0.0,0.0,0.0,inf,inf,inf,0,0,1,0
19276000,19194545,0,0,0.010068912,-0.21642727,0.42985004,0.0,0.0,0.0,4.9170107e-05,0.0027765632,0.0012939274,0.0,0.0,0.0,inf,inf,inf,0,0,1,0
19348000,19268000,0,0,0.011023031,-0.22044657,0.42728847,0.0,0.0,0.0,-0.0008995617,0.006797895,0.003856361,0.0,0.0,0.0,inf,inf,inf,0,0,1,0
19420000,19339272,0,0,0.010420253,-0.21664421,0.4288675,0.0,0.0,0.0,-0.00030012894,0.0029674321,0.0022635162,0.0,0.0,0.0,inf,inf,inf,0,0,1,0
19492000,19412000,0,0,0.011584383,-0.21622585,0.42652872,0.0,0.0,0.0,-0.0014662342,0.0025485903,0.0046021044,0.0,0.0,0.0,inf,inf,inf,0,0,1,0
19564000,19483272,0,0,0.00971984,-0.214789,0.428516,0.0,0.0,0.0,0.00044658873,0.0010980666,0.0026068985,0.0,0.0,0.0,inf,inf,inf,0,0,1,0
19636000,19556000,0,0,0.011588627,-0.21402958,0.42679995,0.0,0.0,0.0,-0.0014071176,0.0003656447,0.0043359995,0.0,0.0,0.0,inf,inf,inf,0,0,1,0
19708000,19627272,0,0,0.008434862,-0.21486199,0.42940548,0.0,0.0,0.0,0.0017746463,0.0011990368,0.001730293,0.0,0.0,0.0,inf,inf,inf,0,0,1,0
19780000,19700000,0,0,0.008899839,-0.20920688,0.4342051,0.0,0.0,0.0,0.0012874445,-0.004445225,-0.0030635,0.0,0.0,0.0,inf,inf,inf,0,0,1,0
19852000,19770909,0,0,0.010326578,-0.21637397,0.42891365,0.0,0.0,0.0,-0.00016000774,0.002703756,0.0022194386,0.0,0.0,0.0,inf,inf,inf,0,0,1,0
19924000,19844000,0,0,0.01266541,-0.21303089,0.4362242,0.0,0.0,0.0,-0.0025047176,-0.0006699562,-0.0051060617,0.0,0.0,0.0,inf,inf,inf,0,0,1,0
19996000,19914545,0,0,0.008976067,-0.21555313,0.42973658,0.0,0.0,0.0,0.0012345286,0.0018363297,0.0013724267,0.0,0.0,0.0,inf,inf,inf,0,0,1,0
20068000,19988000,0,0,0.01300357,-0.21487764,0.422279,0.0,0.0,0.0,-0.0028495686,0.0012029409,0.008852243,0.0,0.0,0.0,inf,inf,inf,0,0,1,0
20140000,20058545,0,0,0.008132863,-0.21549892,0.42916435,0.0,0.0,0.0,0.002086957,0.0018429309,0.0019746423,0.0,0.0,0.0,inf,inf,inf,0,0,1,0
20212000,20132000,0,0,0.008517884,-0.2130662,0.434363,0.0,0.0,0.0,0.0016430765,-0.0005929917,-0.0032242239,0.0,0.0,0.0,inf,inf,inf,0,0,1,0
20284000,20202909,0,0,0.008302534,-0.21589486,0.42947358,0.0,0.0,0.0,0.0018266719,0.0022321492,0.0016641617,0.0,0.0,0.0,inf,inf,inf,0,0,1,0
20356000,20272000,0,0,0.01368669,-0.21729244,0.4297449,0.0,0.0,0.0,-0.0036190776,0.0036746413,0.001416564,0.0,0.0,0.0,inf,inf,inf,0,0,1,0
20428000,20341600,0,0,0.010453829,-0.21580832,0.4311835,0.0,0.0,0.0,-0.0006848881,0.0019783527,-0.00012037158,0.0,0.0,0.0,inf,inf,inf,0,0,1,0
20500000,20414000,0,0,0.008283639,-0.21594991,0.43158627,0.0,0.0,0.0,0.0014854055,0.0021520406,-0.0005072355,0.0,0.0,0.0,inf,inf,inf,0,0,1,0
20572000,20484400,0,0,0.0105389245,-0.21526924,0.42798004,0.0,0.0,0.0,-0.00082364306,0.0014674962,0.0030983388,0.0,0.0,0.0,inf,inf,inf,0,0,1,0
20636000,20552000,0,0,0.010106141,-0.21510446,0.43104756,0.0,0.0,0.0,-0.00037190504,0.0013287961,4.3272972e-05,0.0,0.0,0.0,inf,inf,inf,0,0,1,0
20708000,20623272,0,0,0.007556688,-0.21359985,0.4296684,0.0,0.0,0.0,0.0022156201,-0.00020551682,0.0014068782,0.0,0.0,0.0,inf,inf,inf,0,0,1,0
20780000,20696000,0,0,0.0096516,-0.21526493,0.43245745,0.0,0.0,0.0,7.7822246e-05,0.0014939904,-0.0013641119,0.0,0.0,0.0,inf,inf,inf,0,0,1,0
20852000,20766909,0,0,0.008239262,-0.21663788,0.4289854,0.0,0.0,0.0,0.000867635,0.0023000836,0.0018399656,0.0,0.0,0.0,inf,inf,inf,0,0,1,0
20924000,20840000,0,0,0.009930879,-0.21292064,0.43485147,0.0,0.0,0.0,-0.00080265105,-0.0014158189,-0.0040258765,0.0,0.0,0.0,inf,inf,inf,0,0,1,0
20996000,20910909,0,0,0.010745664,-0.21514818,0.42869002,0.0,0.0,0.0,-0.0015880587,0.0008162558,0.0021371841,0.0,0.0,0.0,inf,inf,inf,0,0,1,0
21060000,20980000,0,0,0.0018766864,-0.21208878,0.4293286,0.0,0.0,0.0,0.007302772,-0.0022380203,0.0015007257,0.0,0.0,0.0,inf,inf,inf,0,0,1,0
21132000,21048800,0,0,0.011061116,-0.21446617,0.42906985,0.0,0.0,0.0,-0.002023532,0.000112205744,0.0017490089,0.0,0.0,0.0,inf,inf,inf,0,0,1,0
21196000,21116000,0,0,0.00906564,-0.20974103,0.42868966,0.0,0.0,0.0,-2.6409514e-05,-0.004653245,0.0021090508,0.0,0.0,0.0,inf,inf,inf,0,0,1,0
21268000,21186545,0,0,0.01024479,-0.21268596,0.43043736,0.0,0.0,0.0,-0.0020627119,-0.0024317354,1.7732382e-05,0.0,0.0,0.0,inf,inf,inf,0,0,1,0
21340000,21260000,0,0,0.0061905026,-0.21512905,0.4281675,0.0,0.0,0.0,0.0020591156,2.2947788e-05,0.002292037,0.0,0.0,0.0,inf,inf,inf,0,0,1,0
21412000,21330909,0,0,0.008973313,-0.2140376,0.42939115,0.0,0.0,0.0,-0.000722711,-0.0010743886,0.001065433,0.0,0.0,0.0,inf,inf,inf,0,0,1,0
21484000,21404000,0,0,0.009802025,-0.21943218,0.43329903,0.0,0.0,0.0,-0.0015676357,0.004311517,-0.0028465092,0.0,0.0,0.0,inf,inf,inf,0,0,1,0
21556000,21474909,0,0,0.009448127,-0.21631584,0.42774463,0.0,0.0,0.0,-0.0011997828,0.0011703372,0.0026952624,0.0,0.0,0.0,inf,inf,inf,0,0,1,0
21628000,21548000,0,0,0.016166558,-0.20995747,0.42432117,0.0,0.0,0.0,-0.008957302,-0.0060052276,0.0057279468,0.0,0.0,0.0,inf,inf,inf,0,0,1,0
21700000,21618909,0,0,0.005017581,-0.21603608,0.42934424,0.0,0.0,0.0,-0.00037595117,5.5402517e-05,0.0007312894,0.0,0.0,0.0,inf,inf,inf,0,0,1,0
21772000,21692000,0,0,0.000335739,-0.21888286,0.4277823,0.0,0.0,0.0,-0.0022937218,0.0014149249,0.0015637279,0.0,0.0,0.0,inf,inf,inf,0,0,1,0
21844000,21762545,0,0,-0.011543502,-0.22235088,0.4268996,0.0,0.0,0.0,0.0004799785,0.0006362051,0.00013005733,0.0,0.0,0.0,inf,inf,inf,0,0,1,0
21916000,21836000,0,0,-0.02256303,-0.23268573,0.41866404,0.0,0.0,0.0,0.0005057417,0.003963247,0.0042231977,0.0,0.0,0.0,inf,inf,inf,0,0,1,0
21988000,21907272,0,0,-0.035631657,-0.23736529,0.41479486,0.0,0.0,0.0,0.00067716837,-0.000528574,0.0021210015,0.0,0.0,0.0,inf,inf,inf,0,0,1,0
22060000,21980000,0,0,-0.056950577,-0.24712119,0.40685186,0.0,0.0,0.0,0.0061835945,-0.002514571,0.0014847815,0.0,0.0,0.0,inf,inf,inf,0,0,1,0
22132000,22050181,0,0,-0.0670921,-0.2609079,0.39840084,0.0,0.0,0.0,-0.00029098243,-0.0004861951,5.468726e-05,0.0,0.0,0.0,inf,inf,inf,0,0,1,0
22204000,22124000,0,0,-0.08612677,-0.2706278,0.38607135,0.0,0.0,0.0,0.0010894015,-0.002834022,0.0007378757,0.0,0.0,0.0,inf,inf,inf,0,0,1,0
22276000,22195636,0,0,-0.098930895,-0.28385222,0.37293747,0.0,0.0,0.0,-0.0030625612,-0.0010448992,0.0013152361,0.0,0.0,0.0,inf,inf,inf,0,0,1,0
22348000,22268000,0,0,-0.10842998,-0.29631752,0.3614012,0.0,0.0,0.0,-0.0050622523,0.0020278692,0.002119422,0.0,0.0,0.0,inf,inf,inf,0,0,1,0
22420000,22338181,0,0,-0.10842236,-0.29053918,0.3674215,0.0,0.0,0.0,-0.0047808588,-0.005417168,-0.0051660836,0.0,0.0,0.0,inf,inf,inf,0,0,1,0
22492000,22412000,0,0,-0.09108473,-0.28010094,0.3819594,0.0,0.0,0.0,-0.007564485,-0.0062945485,-0.007953972,0.0,0.0,0.0,inf,inf,inf,0,0,1,0
22564000,22482909,0,0,-0.068765,-0.26586077,0.39361867,0.0,0.0,0.0,-0.007495545,-0.0046916306,-0.0029527843,0.0,0.0,0.0,inf,inf,inf,0,0,1,0
22636000,22556000,0,0,-0.04276767,-0.24584489,0.40854555,0.0,0.0,0.0,-0.008845877,-0.006575927,-0.002031237,0.0,0.0,0.0,inf,inf,inf,0,0,1,0
22708000,22627272,0,0,-0.025603013,-0.23278987,0.4185928,0.0,0.0,0.0,-0.004581144,-0.00326401,-0.00026088953,0.0,0.0,0.0,inf,inf,inf,0,0,1,0
22780000,22700000,0,0,-0.008677657,-0.2253332,0.42968228,0.0,0.0,0.0,-0.0063226493,0.0017085224,-0.0037702024,0.0,0.0,0.0,inf,inf,inf,0,0,1,0
22852000,22771272,0,0,-0.0010585893,-0.21098712,0.43080127,0.0,0.0,0.0,-0.0054990915,-0.0051442683,-0.000826478,0.0,0.0,0.0,inf,inf,inf,0,0,1,0
22924000,22844000,0,0,-0.0017416191,-0.21180713,0.43079492,0.0,0.0,0.0,0.0005246189,0.0012676418,0.0019934177,0.0,0.0,0.0,inf,inf,inf,0,0,1,0
22996000,22913818,0,0,0.007235341,-0.20059752,0.43586767,0.0,0.0,0.0,-0.0041455477,-0.0052889436,-0.0008558035,0.0,0.0,0.0,inf,inf,inf,0,0,1,0
23068000,22988000,0,0,0.01645371,-0.19358228,0.44172016,0.0,0.0,0.0,-0.007653039,-0.007209912,-0.004411131,0.0,0.0,0.0,inf,inf,inf,0,0,1,0
23140000,23058909,0,0,0.019032786,-0.19180669,0.44132152,0.0,0.0,0.0,-0.0036757607,-0.0039390475,-0.0019106567,0.0,0.0,0.0,inf,inf,inf,0,0,1,0
23212000,23132000,0,0,0.02884394,-0.18669064,0.44035044,0.0,0.0,0.0,-0.0081663355,-0.0055914074,0.0003695786,0.0,0.0,0.0,inf,inf,inf,0,0,1,0
23284000,23202545,0,0,0.028908692,-0.18387994,0.44191226,0.0,0.0,0.0,-0.0036402792,-0.005326599,-0.000101834536,0.0,0.0,0.0,inf,inf,inf,0,0,1,0
23356000,23276000,0,0,0.028711537,-0.18380131,0.44399923,0.0,0.0,0.0,-0.0005519409,-0.0033430308,-0.001485765,0.0,0.0,0.0,inf,inf,inf,0,0,1,0
23428000,23346545,0,0,0.035759408,-0.18028733,0.4427995,0.0,0.0,0.0,-0.0053970106,-0.0049863607,0.00035494566,0.0,0.0,0.0,inf,inf,inf,0,0,1,0
23500000,23420000,0,0,0.033421293,-0.1769433,0.44802225,0.0,0.0,0.0,-0.00081560016,-0.0063539445,-0.0042057037,0.0,0.0,0.0,inf,inf,inf,0,0,1,0
23572000,23489818,0,0,0.038170446,-0.17485487,0.44650984,0.0,0.0,0.0,-0.0036893524,-0.0068084598,-0.0021635294,0.0,0.0,0.0,inf,inf,inf,0,0,1,0
23644000,23564000,0,0,0.03791068,-0.17334269,0.4439278,0.0,0.0,0.0,-0.0022767745,-0.0072864145,0.00074902177,0.0,0.0,0.0,inf,inf,inf,0,0,1,0
23716000,23635272,0,0,0.038742602,-0.17513718,0.4476459,0.0,0.0,0.0,-0.002414003,-0.0051086694,-0.0028697848,0.0,0.0,0.0,inf,inf,inf,0,0,1,0
23788000,23708000,0,0,0.034845073,-0.1719052,0.4383658,0.0,0.0,0.0,0.0014560483,-0.008498326,0.0063486397,0.0,0.0,0.0,inf,inf,inf,0,0,1,0
23860000,23778181,0,0,0.039406974,-0.17551537,0.446504,0.0,0.0,0.0,-0.0036033504,-0.005387023,-0.0019518733,0.0,0.0,0.0,inf,inf,inf,0,0,1,0
23932000,23852000,0,0,0.04193693,-0.18299447,0.45363304,0.0,0.0,0.0,-0.0067602806,0.0014169663,-0.009306222,0.0,0.0,0.0,inf,inf,inf,0,0,1,0
24004000,23923272,0,0,0.0394042,-0.17878419,0.444204,0.0,0.0,0.0,-0.004691027,-0.0026037395,0.00023671985,0.0,0.0,0.0,inf,inf,inf,0,0,1,0
24076000,23996000,0,0,0.035878208,-0.17849484,0.4435953,0.0,0.0,0.0,-0.001773309,-0.0036001801,0.0006032884,0.0,0.0,0.0,inf,inf,inf,0,0,1,0
24148000,24067272,0,0,0.03780592,-0.17753823,0.44376796,0.0,0.0,0.0,-0.0043465607,-0.0052551776,0.00019279122,0.0,0.0,0.0,inf,inf,inf,0,0,1,0
24220000,24140000,0,0,0.029902194,-0.18124306,0.45136526,0.0,0.0,0.0,0.0023921914,-0.0029924214,-0.007914603,0.0,0.0,0.0,inf,inf,inf,0,0,1,0
24292000,24212000,0,0,0.03402879,-0.18279667,0.44095168,0.0,0.0,0.0,-0.0035796985,-0.0037370771,0.0016679466,0.0,0.0,0.0,inf,inf,inf,0,0,1,0
24364000,24284000,0,0,0.040367752,-0.18859118,0.44601214,0.0,0.0,0.0,-0.011568777,-0.0001603663,-0.004223019,0.0,0.0,0.0,inf,inf,inf,0,0,1,0
24436000,24354909,0,0,0.031642724,-0.1849006,0.44026515,0.0,0.0,0.0,-0.0035725199,-0.0036417395,0.001660198,0.0,0.0,0.0,inf,inf,inf,0,0,1,0
24508000,24428000,0,0,0.03407082,-0.18653068,0.44710517,0.0,0.0,0.0,-0.0065332726,-0.002705127,-0.005442798,0.0,0.0,0.0,inf,inf,inf,0,0,1,0
24580000,24499636,0,0,0.03149114,-0.1875253,0.4405463,0.0,0.0,0.0,-0.004357498,-0.0024897456,0.00080636144,0.0,0.0,0.0,inf,inf,inf,0,0,1,0
24652000,24572000,0,0,0.031022552,-0.18397664,0.44194666,0.0,0.0,0.0,-0.0057203732,-0.008485869,-0.0015467405,0.0,0.0,0.0,inf,inf,inf,0,0,1,0
24724000,24642909,0,0,0.02609177,-0.19273432,0.4402475,0.0,0.0,0.0,-0.003409706,-0.002940178,-0.0011220872,0.0,0.0,0.0,inf,inf,inf,0,0,1,0
24796000,24716000,0,0,0.027866356,-0.2014776,0.44188187,0.0,0.0,0.0,-0.0075674504,0.00306499,-0.0038698614,0.0,0.0,0.0,inf,inf,inf,0,0,1,0
24868000,24787272,0,0,0.022204766,-0.196747,0.43693826,0.0,0.0,0.0,-0.0026551206,-0.0010685027,0.001377821,0.0,0.0,0.0,inf,inf,inf,0,0,1,0
24940000,24860000,0,0,0.022524573,-0.19667329,0.44271305,0.0,0.0,0.0,-0.003231898,-0.0013498068,-0.0044793785,0.0,0.0,0.0,inf,inf,inf,0,0,1,0
25012000,24932000,0,0,0.021181127,-0.19828911,0.43708605,0.0,0.0,0.0,-0.0029558595,-0.00095389783,0.0006400943,0.0,0.0,0.0,inf,inf,inf,0,0,1,0
25084000,25004000,0,0,0.015100208,-0.20103355,0.43811417,0.0,0.0,0.0,0.00017052423,-0.0013089925,-0.0016987324,0.0,0.0,0.0,inf,inf,inf,0,0,1,0
25156000,25075636,0,0,0.014132832,-0.20469138,0.4348659,0.0,0.0,0.0,0.0067314683,0.009061784,0.004352331,0.0,0.0,0.0,inf,inf,inf,0,0,1,0
25228000,25148000,0,0,0.01558561,-0.20777991,0.42860392,0.0,0.0,0.0,0.0033467477,0.011169314,0.010263652,0.0,0.0,0.0,inf,inf,inf,0,0,1,0
25300000,25218909,0,0,0.012192761,-0.20513242,0.43391594,0.0,0.0,0.0,0.0061422465,0.00842458,0.004933387,0.0,0.0,0.0,inf,inf,inf,0,0,1,0
25372000,25292000,0,0,0.008887936,-0.20705779,0.42918596,0.0,0.0,0.0,0.009354721,0.010836184,0.009884864,0.0,0.0,0.0,inf,inf,inf,0,0,1,0
25444000,25362545,0,0,0.011538869,-0.2093385,0.433631,0.0,0.0,0.0,0.004428895,0.010960206,0.004558414,0.0,0.0,0.0,inf,inf,inf,0,0,1,0
25516000,25436000,0,0,0.005219232,-0.20898047,0.42792737,0.0,0.0,0.0,0.0071160835,0.006715387,0.008599281,0.0,0.0,0.0,inf,inf,inf,0,0,1,0
25588000,25505454,0,0,0.0031391855,-0.21568112,0.4310165,0.0,0.0,0.0,0.0055561187,0.010178432,0.004083395,0.0,0.0,0.0,inf,inf,inf,0,0,1,0
25660000,25580000,0,0,0.0017245415,-0.21643357,0.4248491,0.0,0.0,0.0,0.009620443,0.014696822,0.0119488835,0.0,0.0,0.0,inf,inf,inf,0,0,1,0
25732000,25650909,0,0,0.0021048703,-0.21510446,0.42723158,0.0,0.0,0.0,0.009173059,0.014350504,0.010020733,0.0,0.0,0.0,inf,inf,inf,0,0,1,0
25804000,25724000,0,0,0.002891042,-0.21513754,0.42890188,0.0,0.0,0.0,0.006815194,0.013135791,0.007813096,0.0,0.0,0.0,inf,inf,inf,0,0,1,0
25876000,25795272,0,0,-0.0038927672,-0.22289151,0.42615217,0.0,0.0,0.0,0.0077945245,0.0148206055,0.007795006,0.0,0.0,0.0,inf,inf,inf,0,0,1,0
25948000,25868000,0,0,-0.015116383,-0.23211034,0.41664743,0.0,0.0,0.0,0.01148015,0.016831473,0.013771772,0.0,0.0,0.0,inf,inf,inf,0,0,1,0
26020000,25938181,0,0,-0.017042318,-0.23492698,0.42038885,0.0,0.0,0.0,0.012349406,0.02003561,0.010213703,0.0,0.0,0.0,inf,inf,inf,0,0,1,0
26092000,26012000,0,0,-0.02027318,-0.23439442,0.41409725,0.0,0.0,0.0,0.012797834,0.018476889,0.015952349,0.0,0.0,0.0,inf,inf,inf,0,0,1,0
26164000,26082545,0,0,-0.020361844,-0.23684876,0.41869438,0.0,0.0,0.0,0.012386832,0.022012964,0.01188761,0.0,0.0,0.0,inf,inf,inf,0,0,1,0
26236000,26156000,0,0,-0.021455117,-0.23606831,0.40990183,0.0,0.0,0.0,0.008883566,0.0169743,0.018418938,0.0,0.0,0.0,inf,inf,inf,0,0,1,0
26308000,26227272,0,0,-0.030345641,-0.24605374,0.41037703,0.0,0.0,0.0,0.009605348,0.018708602,0.013300836,0.0,0.0,0.0,inf,inf,inf,0,0,1,0
26380000,26300000,0,0,-0.04352742,-0.25647146,0.40910777,0.0,0.0,0.0,0.014813092,0.022049785,0.010226071,0.0,0.0,0.0,inf,inf,inf,0,0,1,0
26452000,26370909,0,0,-0.042051226,-0.25522807,0.40267324,0.0,0.0,0.0,0.01112815,0.020312518,0.016226918,0.0,0.0,0.0,inf,inf,inf,0,0,1,0
26524000,26444000,0,0,-0.0405467,-0.2464927,0.40299225,0.0,0.0,0.0,0.008969128,0.012416199,0.016328543,0.0,0.0,0.0,inf,inf,inf,0,0,1,0
26596000,26514909,0,0,-0.04191004,-0.2544198,0.4021155,0.0,0.0,0.0,0.010661278,0.021018878,0.017606348,0.0,0.0,0.0,inf,inf,inf,0,0,1,0
26668000,26588000,0,0,-0.037662398,-0.26430205,0.400373,0.0,0.0,0.0,0.004301805,0.027896851,0.017500788,0.0,0.0,0.0,inf,inf,inf,0,0,1,0
26740000,26658909,0,0,-0.04601805,-0.26236364,0.39974824,0.0,0.0,0.0,0.009553455,0.021824986,0.015499085,0.0,0.0,0.0,inf,inf,inf,0,0,1,0
26812000,26732000,0,0,-0.044003908,-0.2618526,0.39742893,0.0,0.0,0.0,0.005806621,0.019488946,0.016599745,0.0,0.0,0.0,inf,inf,inf,0,0,1,0
26884000,26802909,0,0,-0.047802303,-0.26293987,0.39804658,0.0,0.0,0.0,0.00936969,0.020510226,0.015921623,0.0,0.0,0.0,inf,inf,inf,0,0,1,0
26956000,26876000,0,0,-0.04450593,-0.26189628,0.39360172,0.0,0.0,0.0,0.0076062977,0.02129516,0.02157101,0.0,0.0,0.0,inf,inf,inf,0,0,1,0
27028000,26947636,0,0,-0.04578287,-0.26128605,0.3994315,0.0,0.0,0.0,0.010368526,0.021223351,0.016182035,0.0,0.0,0.0,inf,inf,inf,0,0,1,0
27100000,27020000,0,0,-0.04322986,-0.2641546,0.40270075,0.0,0.0,0.0,0.00886837,0.023536444,0.012679905,0.0,0.0,0.0,inf,inf,inf,0,0,1,0
27172000,27091272,0,0,-0.04299517,-0.26308295,0.3975926,0.0,0.0,0.0,0.009727538,0.022041827,0.017631829,0.0,0.0,0.0,inf,inf,inf,0,0,1,0
27244000,27164000,0,0,-0.039910235,-0.2654711,0.39521006,0.0,0.0,0.0,0.007308528,0.024576217,0.020152003,0.0,0.0,0.0,inf,inf,inf,0,0,1,0
27316000,27235272,0,0,-0.03799527,-0.26071563,0.40405214,0.0,0.0,0.0,0.0073343217,0.02154085,0.012450248,0.0,0.0,0.0,inf,inf,inf,0,0,1,0
27388000,27308000,0,0,-0.0348351,-0.25646916,0.39642924,0.0,0.0,0.0,0.00671003,0.0195802,0.021555781,0.0,0.0,0.0,inf,inf,inf,0,0,1,0
27460000,27379636,0,0,-0.032026432,-0.25635993,0.40365863,0.0,0.0,0.0,0.0075098276,0.022006482,0.015979648,0.0,0.0,0.0,inf,inf,inf,0,0,1,0
27532000,27452000,0,0,-0.028501092,-0.25028858,0.4070027,0.0,0.0,0.0,0.007847359,0.018554062,0.014294624,0.0,0.0,0.0,inf,inf,inf,0,0,1,0
27604000,27523272,0,0,-0.024494598,-0.25120494,0.4057427,0.0,0.0,0.0,0.006072307,0.02068159,0.016321898,0.0,0.0,0.0,inf,inf,inf,0,0,1,0
27676000,27596000,0,0,-0.026342807,-0.249471,0.40879893,0.0,0.0,0.0,0.01063229,0.020849004,0.014407933,0.0,0.0,0.0,inf,inf,inf,0,0,1,0
27748000,27667272,0,0,-0.019411042,-0.25151873,0.4102284,0.0,0.0,0.0,0.005533412,0.024355024,0.013826996,0.0,0.0,0.0,inf,inf,inf,0,0,1,0
27820000,27740000,0,0,-0.014396154,-0.24669464,0.41239014,0.0,0.0,0.0,0.0034771645,0.02254437,0.013351947,0.0,0.0,0.0,inf,inf,inf,0,0,1,0
27892000,27811272,0,0,-0.012093008,-0.24181318,0.4162569,0.0,0.0,0.0,0.0054248944,0.021904498,0.0117788315,0.0,0.0,0.0,inf,inf,inf,0,0,1,0
27964000,27884000,0,0,-0.004360273,-0.23686701,0.4170631,0.0,0.0,0.0,0.0018797885,0.020978495,0.013058871,0.0,0.0,0.0,inf,inf,inf,0,0,1,0
28036000,27955272,0,0,-0.0030697186,-0.23466091,0.41930914,0.0,0.0,0.0,0.0021195014,0.019996926,0.011431366,0.0,0.0,0.0,inf,inf,inf,0,0,1,0
28108000,28028000,0,0,-0.0076955142,-0.22903869,0.42103595,0.0,0.0,0.0,0.008095469,0.015343159,0.010186672,0.0,0.0,0.0,inf,inf,inf,0,0,1,0
28180000,28100000,0,0,-0.0025101413,-0.23320216,0.42367408,0.0,0.0,0.0,0.0038091352,0.020517439,0.00804624,0.0,0.0,0.0,inf,inf,inf,0,0,1,0
28252000,28172000,0,0,0.0044538425,-0.22635224,0.41954005,0.0,0.0,0.0,0.00024591666,0.01746279,0.01400578,0.0,0.0,0.0,inf,inf,inf,0,0,1,0
28324000,28242909,0,0,0.008617301,-0.22629474,0.4238194,0.0,0.0,0.0,0.0005191304,0.021902815,0.0117943585,0.0,0.0,0.0,inf,inf,inf,0,0,1,0
28396000,28316000,0,0,0.0033164676,-0.22112522,0.42295325,0.0,0.0,0.0,0.00938415,0.020086661,0.014129221,0.0,0.0,0.0,inf,inf,inf,0,0,1,0
28468000,28385818,0,0,0.011042855,-0.22009534,0.42773014,0.0,0.0,0.0,0.0013628164,0.018967196,0.009319603,0.0,0.0,0.0,inf,inf,inf,0,0,1,0
28540000,28460000,0,0,0.009640689,-0.2157891,0.43130252,0.0,0.0,0.0,0.0020516785,0.014141604,0.0055274963,0.0,0.0,0.0,inf,inf,inf,0,0,1,0
28612000,28530909,0,0,0.009910665,-0.21948573,0.42708087,0.0,0.0,0.0,0.0025521964,0.01920025,0.010354042,0.0,0.0,0.0,inf,inf,inf,0,0,1,0
28684000,28604000,0,0,0.01790847,-0.21041727,0.4271241,0.0,0.0,0.0,-0.0019417498,0.013942406,0.011922091,0.0,0.0,0.0,inf,inf,inf,0,0,1,0
28756000,28674545,0,0,0.01946648,-0.21276002,0.43114957,0.0,0.0,0.0,0.00029734708,0.019696891,0.009253591,0.0,0.0,0.0,inf,inf,inf,0,0,1,0
28828000,28748000,0,0,0.019677725,-0.22071236,0.4294675,0.0,0.0,0.0,0.0008068122,0.027682751,0.010917366,0.0,0.0,0.0,inf,inf,inf,0,0,1,0
28900000,28818181,0,0,0.016952503,-0.21449992,0.43062854,0.0,0.0,0.0,0.002753321,0.020376325,0.009310782,0.0,0.0,0.0,inf,inf,inf,0,0,1,0
28972000,28888000,0,0,0.021108467,-0.21317174,0.42832068,0.0,0.0,0.0,-0.0034140237,0.01740785,0.010976851,0.0,0.0,0.0,inf,inf,inf,0,0,1,0
29044000,28957600,0,0,0.018196804,-0.2119029,0.43058643,0.0,0.0,0.0,0.0005635191,0.01841794,0.009675473,0.0,0.0,0.0,inf,inf,inf,0,0,1,0
29116000,29030000,0,0,0.016186606,-0.20396577,0.42770356,0.0,0.0,0.0,0.005205538,0.014352009,0.014119804,0.0,0.0,0.0,inf,inf,inf,0,0,1,0
29188000,29100800,0,0,0.022633133,-0.20729652,0.43442383,0.0,0.0,0.0,0.00059595145,0.020182908,0.008371621,0.0,0.0,0.0,inf,inf,inf,0,0,1,0
29252000,29168000,0,0,0.018977592,-0.20744155,0.42994392,0.0,0.0,0.0,0.0027914923,0.019053921,0.012385249,0.0,0.0,0.0,inf,inf,inf,0,0,1,0
29324000,29238909,29244000,0,0.018106017,-0.20806769,0.43357414,0.0025000002,0.0025000002,0.0025000002,0.00075222366,0.016938537,0.0076923966,0.0051060678,0.007537619,0.0075146216,1.23130285e-05,0.0042273626,0.0008786619,0,0,0,1
29396000,29312000,29316000,0,0.018834025,-0.20723526,0.43217283,0.0025000002,0.0025000002,0.0025000002,-0.0023231732,0.008905351,0.0059278905,0.0038650837,0.004221154,0.0041954992,0.00015515357,0.0020887442,0.0009284782,0,0,0,1
29468000,29382909,29388000,0,0.018846449,-0.19992271,0.43944222,0.0025000002,0.0025000002,0.0025000002,-0.0012458665,0.0022864342,-0.0014260709,0.0034449683,0.003549808,0.0035265074,5.0062823e-05,0.00016371017,6.4270294e-05,0,0,0,1
29540000,29456000,29460000,0,0.018756172,-0.19871646,0.44223607,0.0025000002,0.0025000002,0.0025000002,0.0011688031,0.0040019006,-0.0026617646,0.0032333885,0.0032615948,0.0032392917,4.694424e-05,0.00054552377,0.00024268159,0,0,0,1
29612000,29526909,29532000,0,0.018847104,-0.19503774,0.4405441,0.0025000002,0.0025000002,0.0025000002,0.001091718,0.00018647313,-0.0005553067,0.0031022816,0.0031009759,0.0030793778,4.2687152e-05,1.2424916e-06,1.1084596e-05,0,0,0,1
29676000,29596000,29596000,0,0.022062479,-0.1979746,0.44049805,0.0025000002,0.0025000002,0.0025000002,-0.003504081,0.0017020106,-0.0010257363,0.0030169045,0.0029986703,0.002977798,0.0004522142,0.000107412794,3.9386203e-05,0,0,0,1
29748000,29664800,29668000,0,0.01560417,-0.19878097,0.43569243,0.0025000002,0.0025000002,0.0025000002,-0.0008126409,-0.0014015287,0.0023017824,0.0029560742,0.0029277669,0.0029076664,2.4822155e-05,7.453799e-05,0.00020250141,0,0,0,1
29812000,29732000,29732000,0,0.012804908,-0.19956951,0.43494585,0.0025000002,0.0025000002,0.0025000002,0.00043928792,-0.0012853742,0.0025921762,0.0029103348,0.0028758063,0.0028560557,7.3673796e-06,6.3838044e-05,0.00026137376,0,0,0,1
29884000,29802545,29804000,0,0.013735151,-0.19772986,0.43702832,0.0025000002,0.0025000002,0.0025000002,0.0005703857,-0.0006508082,0.0014175177,0.002874664,0.0028361501,0.0028163756,1.257499e-05,1.659545e-05,7.9266414e-05,0,0,0,1
29956000,29876000,29876000,0,0.020701097,-0.1935021,0.44534865,0.0025000002,0.0025000002,0.0025000002,-0.004545117,-0.0024190545,-0.005951375,0.0028461649,0.0028049527,0.0027851078,0.0008064687,0.00023179525,0.0014132211,0,0,0,1
30028000,29946909,29948000,0,0.01376339,-0.19640654,0.43833685,0.0025000002,0.0025000002,0.0025000002,0.0015615198,-0.00036165118,0.0009587705,0.0028192766,0.0027794335,0.0027596003,9.60981e-05,5.2322903e-06,3.7007863e-05,0,0,0,1
30100000,30020000,30020000,0,0.015174336,-0.20004667,0.4418084,0.0025000002,0.0025000002,0.0025000002,-0.0024030143,0.0003516972,-0.0038072169,0.0027999931,0.0027583586,0.002738845,0.0002291465,4.9740283e-06,0.0005865825,0,1,0,1
30172000,30090909,30092000,0,0.009328352,-0.20131408,0.43702632,0.0025000002,0.0025000002,0.0025000002,9.332842e-05,-0.001697123,-0.0003029406,0.0027682653,0.0027341933,0.002718266,3.4960496e-07,0.000117049254,3.9723286e-06,0,1,0,1
30244000,30164000,30164000,0,0.008727733,-0.200339,0.4411845,0.0025000002,0.0025000002,0.0025000002,0.0026845534,0.0009396821,-0.0028849244,0.0027422442,0.0027141538,0.0027004753,0.00029200848,3.616067e-05,0.00034191684,0,1,0,1
30316000,30234545,30236000,0,0.019256068,-0.19038369,0.43837228,0.0025000002,0.0025000002,0.0025000002,-0.0018056125,-0.001984775,0.0029909909,0.0027209444,0.0026977444,0.0026856037,0.00013313336,0.00016229226,0.0003684622,0,1,0,1
30388000,30308000,30308000,0,0.015496872,-0.18469015,0.44052228,0.0025000002,0.0025000002,0.0025000002,0.007941451,-0.0018534958,0.0029494166,0.0027034946,0.0026840323,0.0026732164,0.0025919802,0.00014177249,0.00035957608,0,1,0,1
30460000,30379272,30380000,0,0.02476256,-0.18537885,0.44304398,0.0025000002,0.0025000002,0.0025000002,0.00027300802,0.00027386844,0.0008698106,0.0026873148,0.002671602,0.0026620256,3.0816957e-06,3.1223285e-06,3.162994e-05,0,1,0,1
30532000,30452000,30452000,0,0.030005654,-0.1943983,0.44257468,0.0025000002,0.0025000002,0.0025000002,-0.0061002886,0.007753566,0.00070241094,0.0026742679,0.0026603795,0.0026520037,0.0015461561,0.0025096154,2.1990845e-05,0,1,0,1
30604000,30522181,30524000,0,0.023557585,-0.18618968,0.44165185,0.0025000002,0.0025000002,0.0025000002,-0.0011299509,-0.0015833378,0.001295507,0.0026629644,0.0026506279,0.002643221,5.32735e-05,0.00010512168,7.014974e-05,0,1,0,1
30676000,30596000,30596000,0,0.0230625,-0.181566,0.44413427,0.0025000002,0.0025000002,0.0025000002,0.0003716593,-0.0037879199,-0.0002489686,0.0026531697,0.0026424031,0.0026356773,5.7847215e-06,0.000603304,2.7988394e-06,0,1,0,1
30748000,30666909,30668000,0,0.025413647,-0.18011093,0.44151714,0.0025000002,0.0025000002,0.0025000002,0.0003095346,-0.0020928085,0.003545165,0.0026446332,0.0026352343,0.0026290626,4.025413e-06,0.00018464371,0.0005298731,0,1,0,1
30820000,30740000,30740000,0,0.023673536,-0.18341935,0.44731307,0.0025000002,0.0025000002,0.0025000002,0.00269545,0.002103582,-0.0018418729,0.0026364,0.0026284447,0.002622789,0.00030620254,0.00018723337,0.0001431288,0,1,0,1
30892000,30811636,30812000,0,0.027935438,-0.18063685,0.44632986,0.0025000002,0.0025000002,0.0025000002,-0.0022921928,-0.0020994246,-0.0013759732,0.0026293977,0.002621997,0.0026168793,0.00022202583,0.00018690285,8.080382e-05,0,1,0,1
30964000,30884000,30884000,0,0.022607619,-0.18182333,0.4442304,0.0025000002,0.0025000002,0.0025000002,0.00073710596,-0.003772661,-0.00027236342,0.0026229697,0.0026160125,0.0026113957,2.3015695e-05,0.0006044858,3.3125395e-06,0,1,0,1
31036000,30954909,30956000,0,0.024490751,-0.18493332,0.4439346,0.0025000002,0.0025000002,0.0025000002,-0.0017066867,-0.0008650869,-3.823638e-05,0.0026172735,0.0026108802,0.002606631,0.00012365622,3.1866406e-05,6.6390754e-08,0,1,0,1
31108000,31028000,31028000,0,0.03165022,-0.18163373,0.4455063,0.0025000002,0.0025000002,0.0025000002,-0.007630471,-0.0026373267,-0.001029104,0.002612193,0.0026063619,0.0026023907,0.0024765946,0.00029682904,4.552725e-05,0,1,0,1
31180000,31098909,31100000,0,0.026274811,-0.18179764,0.44303817,0.0025000002,0.0025000002,0.0025000002,-0.0009851689,-0.0014524907,0.0018577576,0.0026075635,0.0026021742,0.0025984556,4.1356518e-05,9.0108406e-05,0.00014724965,0,1,0,1
31252000,31172000,31172000,0,0.022059625,-0.18624373,0.4399138,0.0025000002,0.0025000002,0.0025000002,0.0024895233,0.0017448664,0.004665196,0.0026029528,0.002598065,0.0025946063,0.00026455964,0.00013026533,0.0009329259,0,1,0,1
31324000,31242909,31244000,0,0.021594308,-0.18566316,0.4399182,0.0025000002,0.0025000002,0.0025000002,0.00061914977,-0.0019128025,0.003392011,0.0025988743,0.0025941671,0.0025909988,1.6389424e-05,0.00015670012,0.00049264444,0,1,0,1
31396000,31316000,31316000,0,0.02067991,-0.19485605,0.43383256,0.0025000002,0.0025000002,0.0025000002,-0.0012513166,0.0042420477,0.008233935,0.0025951753,0.0025906786,0.0025877706,6.703865e-05,0.000771762,0.0029151195,0,1,0,1
31468000,31386909,31388000,0,0.020134896,-0.18904047,0.44155517,0.0025000002,0.0025000002,0.0025000002,-0.0016882429,-0.0021200478,0.00022190809,0.002591805,0.0025875315,0.0025848057,0.000122187,0.00019301668,2.0710374e-06,0,1,0,1
31540000,31460000,31460000,0,0.0153114125,-0.19221817,0.4388977,0.0025000002,0.0025000002,0.0025000002,0.0034271276,0.0016496778,0.0030990243,0.0025886497,0.0025846143,0.002582026,0.00050413253,0.000117014366,0.00041374235,0,1,0,1
31612000,31531272,31532000,0,0.017743228,-0.18851826,0.44162688,0.0025000002,0.0025000002,0.0025000002,0.00048030284,-0.0026021004,0.00028660893,0.0025856202,0.0025818767,0.0025794266,9.91341e-06,0.00029138566,3.4617742e-06,0,1,0,1
31684000,31604000,31604000,0,0.016691681,-0.1874271,0.43994734,0.0025000002,0.0025000002,0.0025000002,0.00020827586,-0.005500406,0.0012162626,0.0025829216,0.002579326,0.0025770313,1.8660536e-06,0.001303292,6.3118176e-05,0,1,0,1
31756000,31674545,31676000,0,0.015870882,-0.19318531,0.43978706,0.0025000002,0.0025000002,0.0025000002,-0.0015449668,-0.0028109401,4.8846006e-05,0.0025804848,0.002577033,0.0025749058,0.00010277666,0.00034070908,9.073135e-08,0,1,0,1
31828000,31748000,31748000,0,0.015554534,-0.19663931,0.440293,0.0025000002,0.0025000002,0.0025000002,-0.0027024988,-0.0010648668,-0.0012200773,0.0025781866,0.0025748797,0.0025728808,0.00031475612,4.8959402e-05,6.437597e-05,0,1,0,1
31900000,31819636,31820000,0,0.014508587,-0.195305,0.4371646,0.0025000002,0.0025000002,0.0025000002,-0.0017426957,-0.0026657581,0.0017722547,0.0025759304,0.0025727612,0.002570851,0.00013099855,0.0003069547,0.00013534562,0,1,0,1
31972000,31892000,31892000,0,0.018785764,-0.1989584,0.44328964,0.0025000002,0.0025000002,0.0025000002,-0.005871148,0.00057919323,-0.0046097934,0.002573786,0.0025707725,0.0025689453,0.0014880964,1.4466027e-05,0.0009186201,0,1,0,1
32044000,31962545,31964000,0,0.010577897,-0.19928123,0.43675026,0.0025000002,0.0025000002,0.0025000002,0.001348757,-0.00078605115,0.0013225973,0.0025718187,0.0025690193,0.0025672864,7.859312e-05,2.6710046e-05,7.5593045e-05,0,1,0,1
