timestamp,timestamp_sample,control_mode_flags,output_tracking_error[0],output_tracking_error[1],output_tracking_error[2],filter_fault_flags,pos_horiz_accuracy,pos_vert_accuracy,mag_test_ratio,vel_test_ratio,pos_test_ratio,hgt_test_ratio,tas_test_ratio,hagl_test_ratio,beta_test_ratio,time_slip,accel_device_id,gyro_device_id,baro_device_id,mag_device_id,gps_check_fail_flags,innovation_check_flags,solution_status_flags,reset_count_vel_ne,reset_count_vel_d,reset_count_pos_ne,reset_count_pod_d,reset_count_quat,pre_flt_fail_innov_heading,pre_flt_fail_innov_vel_horiz,pre_flt_fail_innov_vel_vert,pre_flt_fail_innov_height,pre_flt_fail_mag_field_disturbed,health_flags,timeout_flags
3428000,3348000,13488881664,0.0006092646,0.014153969,0.0011702278,0,14.172738,10.008659,nan,nan,nan,nan,0.0,0.0,0.0,0.0,1310988,1310988,6620172,0,0,0,128,1,1,1,1,0,0,0,0,0,0,0,0
3436000,3356000,13488881664,0.00055480294,0.004893209,0.0013911615,0,14.142143,10.0,nan,nan,nan,nan,0.0,0.0,0.0,0.0,1310988,1310988,6620172,0,0,0,128,1,1,1,1,0,0,0,0,0,0,0,0
3620000,3540000,13488881664,5.3293454e-05,0.002565249,0.0016315333,0,0.014314679,7.071068,nan,nan,nan,nan,0.0,0.0,0.0,0.0,1310988,1310988,6620172,0,0,0,128,1,1,1,1,0,0,0,0,0,0,0,0
3828000,3748000,13488881665,0.00067061326,0.01841987,0.0056556845,0,0.010515763,5.7735023,nan,nan,nan,nan,0.0,0.0,0.0,0.0,1310988,1310988,6620172,0,0,0,128,1,1,1,1,0,0,0,0,0,0,0,0
4020000,3940000,13488881665,9.351082e-05,0.0073983027,0.0044614836,0,0.029806515,5.773505,nan,nan,nan,nan,0.0,0.0,0.0,0.0,1310988,1310988,6620172,0,0,0,128,1,1,1,1,0,0,0,0,0,0,0,0
4220000,4140000,4898947585,0.0003380537,0.0029124648,0.06009656,0,0.037669525,2.2180402,nan,nan,nan,0.004597683,0.0,0.0,0.0,0.0,1310988,1310988,6620172,0,0,0,164,1,1,1,1,0,0,0,0,0,0,0,0
4428000,4348000,4898947585,0.0003263969,0.002898838,0.025987292,0,0.03187252,1.493813,nan,nan,nan,0.0032412098,0.0,0.0,0.0,0.0,1310988,1310988,6620172,0,0,0,164,1,1,1,1,0,0,0,0,0,0,0,0
4628000,4548000,4898947585,0.00018920763,0.0024148482,0.0051765135,0,0.027567755,1.1362983,nan,nan,nan,0.00020370797,0.0,0.0,0.0,0.0,1310988,1310988,6620172,0,0,0,164,1,1,1,1,0,0,0,0,0,0,0,0
4828000,4748000,4898947585,0.00023186674,0.0020587076,0.011050046,0,0.02516533,0.9907282,nan,nan,nan,0.005327603,0.0,0.0,0.0,0.0,1310988,1310988,6620172,0,0,0,164,1,1,1,1,0,0,0,0,0,0,0,0
5028000,4948000,4898947585,0.00024354387,0.0017222256,0.012162743,0,0.023343762,0.8625789,nan,nan,nan,0.006488467,0.0,0.0,0.0,0.0,1310988,1310988,6620172,0,0,0,164,1,1,1,1,0,0,0,0,0,0,0,0
5228000,5148000,4898947585,0.00024542914,0.0017886611,0.007098891,0,0.021710286,0.7939312,nan,nan,nan,0.0035945757,0.0,0.0,0.0,0.0,1310988,1310988,6620172,0,0,0,164,1,1,1,1,0,0,0,0,0,0,0,0
5428000,5348000,4898947585,0.00016917428,0.0017803787,0.00699948,0,0.020256529,0.73971826,nan,nan,nan,0.0007068338,0.0,0.0,0.0,0.0,1310988,1310988,6620172,0,0,0,164,1,1,1,1,0,0,0,0,0,0,0,0
5628000,5548000,4898947585,0.00013139317,0.0013172172,0.00432571,0,0.019008957,0.68222016,nan,nan,nan,0.0014034526,0.0,0.0,0.0,0.0,1310988,1310988,6620172,0,0,0,164,1,1,1,1,0,0,0,0,0,0,0,0
5820000,5740000,4898947585,9.936722e-05,0.00071057957,0.0073746094,0,0.01753932,0.647307,nan,nan,nan,0.0073928013,0.0,0.0,0.0,0.0,1310988,1310988,6620172,0,0,0,164,1,1,1,1,0,0,0,0,0,0,0,0
6028000,5948000,4898947585,0.00011928597,0.0014137183,0.0029507848,0,0.017082121,0.6176198,nan,nan,nan,0.00011725037,0.0,0.0,0.0,0.0,1310988,1310988,6620172,0,0,0,164,1,1,1,1,0,0,0,0,0,0,0,0
6228000,6148000,4898947585,7.119233e-05,0.0015404412,0.0023123831,0,0.01633837,0.58357495,nan,nan,nan,0.00035294273,0.0,0.0,0.0,0.0,1310988,1310988,6620172,0,0,0,164,1,1,1,1,0,0,0,0,0,0,0,0
6420000,6340000,4898947585,4.8310558e-05,0.0013178196,0.0042902464,0,0.0153633,0.5618279,nan,nan,nan,0.004639693,0.0,0.0,0.0,0.0,1310988,1310988,6620172,0,0,0,164,1,1,1,1,0,0,0,0,0,0,0,0
6628000,6548000,4898947585,4.4099206e-06,0.0014166996,0.004234458,0,0.015141928,0.53630036,nan,nan,nan,0.0037247594,0.0,0.0,0.0,0.0,1310988,1310988,6620172,0,0,0,164,1,1,1,1,0,0,0,0,0,0,0,0
6820000,6740000,4898947585,0.000121831305,0.0023650979,0.0033789803,0,0.014347127,0.5196163,nan,nan,nan,0.0023252675,0.0,0.0,0.0,0.0,1310988,1310988,6620172,0,0,0,164,1,1,1,1,0,0,0,0,0,0,0,0
7020000,6940000,4898947585,0.00015652041,0.0030609472,0.0015904178,0,0.013918326,0.5046607,nan,nan,nan,0.0010667314,0.0,0.0,0.0,0.0,1310988,1310988,6620172,0,0,0,164,1,1,1,1,0,0,0,0,0,0,0,0
7220000,7140000,4898947585,0.00016196152,0.0033452413,0.002113947,0,0.01352825,0.49110037,nan,nan,nan,0.0018240269,0.0,0.0,0.0,0.0,1310988,1310988,6620172,0,0,0,164,1,1,1,1,0,0,0,0,0,0,0,0
7428000,7348000,4898947585,0.00021737005,0.0036348992,0.0022951285,0,0.013432807,0.47445914,nan,nan,nan,0.0013857298,0.0,0.0,0.0,0.0,1310988,1310988,6620172,0,0,0,164,1,1,1,1,0,0,0,0,0,0,0,0
7628000,7548000,4898947585,0.0002627706,0.004040211,0.002055365,0,0.013091775,0.46347782,nan,nan,nan,0.00055304106,0.0,0.0,0.0,0.0,1310988,1310988,6620172,0,0,0,164,1,1,1,1,0,0,0,0,0,0,0,0
7820000,7740000,4898947585,0.0002480025,0.0042730058,0.0023939677,0,0.012531411,0.44950467,nan,nan,nan,0.0013488978,0.0,0.0,0.0,0.0,1310988,1310988,6620172,0,0,0,164,1,1,1,1,0,0,0,0,0,0,0,0
8028000,7948000,4898947585,0.00018077265,0.00364935,0.0026469552,0,0.012476644,0.4405459,nan,nan,nan,0.0027453285,0.0,0.0,0.0,0.0,1310988,1310988,6620172,0,0,0,164,1,1,1,1,0,0,0,0,0,0,0,0
8228000,8148000,4898947585,0.000121611825,0.0029390487,0.0024224068,0,0.01219697,0.43213594,nan,nan,nan,0.0033161908,0.0,0.0,0.0,0.0,1310988,1310988,6620172,0,0,0,164,1,1,1,1,0,0,0,0,0,0,0,0
8420000,8340000,4898947585,7.42534e-05,0.002418601,0.0028446799,0,0.011769504,0.42279425,nan,nan,nan,0.0007181952,0.0,0.0,0.0,0.0,1310988,1310988,6620172,0,0,0,164,1,1,1,1,0,0,0,0,0,0,0,0
8628000,8548000,4898947585,8.208426e-05,0.0021548274,0.0028037878,0,0.011735482,0.41590762,nan,nan,nan,0.0010830034,0.0,0.0,0.0,0.0,1310988,1310988,6620172,0,0,0,164,1,1,1,1,0,0,0,0,0,0,0,0
8828000,8748000,4898949633,6.745764e-05,0.0020378889,0.00049531925,0,0.011492527,0.9615274,nan,nan,nan,0.0040185866,0.0,0.0,0.0,0.0,1310988,1310988,6620172,0,0,0,164,1,1,1,2,0,0,0,0,0,0,0,0
9020000,8940000,4898949633,6.407714e-05,0.0017553966,0.005600514,0,0.011061365,0.8683839,nan,nan,nan,0.0075385934,0.0,0.0,0.0,0.0,1310988,1310988,6620172,0,0,0,164,1,1,1,2,0,0,0,0,0,0,0,0
9220000,9140000,4898949633,4.0469637e-05,0.0016498751,0.0053193597,0,0.017354472,0.614164,nan,nan,nan,0.001462624,0.0,0.0,0.0,0.0,1310988,1310988,6620172,0,0,0,164,1,1,1,2,0,0,0,0,0,0,0,0
9428000,9348000,4898949633,4.4560034e-05,0.0014904493,0.0035276762,0,0.01727813,0.5881247,nan,nan,nan,0.0023082648,0.0,0.0,0.0,0.0,1310988,1310988,6620172,0,0,0,164,1,1,1,2,0,0,0,0,0,0,0,0
9628000,9548000,4898949633,5.4810138e-05,0.0013856592,0.0005516719,0,0.016908027,0.48742548,nan,nan,nan,0.00058214174,0.0,0.0,0.0,0.0,1310988,1310988,6620172,0,0,0,164,1,1,1,2,0,0,0,0,0,0,0,0
9820000,9740000,4898949633,5.8241552e-05,0.0014514865,0.0013405638,0,0.016261855,0.47464716,nan,nan,nan,0.000777858,0.0,0.0,0.0,0.0,1310988,1310988,6620172,0,0,0,164,1,1,1,2,0,0,0,0,0,0,0,0
10020000,9940000,4898949633,6.1380364e-05,0.0015356017,0.0014214722,0,0.015925609,0.42027563,nan,nan,nan,0.00033964653,0.0,0.0,0.0,0.0,1310988,1310988,6620172,0,0,0,164,1,1,1,2,0,0,0,0,0,0,0,0
10228000,10148000,4898949633,6.631476e-05,0.0016164161,0.001152669,0,0.015879637,0.4099207,nan,nan,nan,0.004578561,0.0,0.0,0.0,0.0,1310988,1310988,6620172,0,0,0,164,1,1,1,2,0,0,0,0,0,0,0,0
10420000,10340000,4898949633,5.994421e-05,0.0016290717,0.0024525356,0,0.015288023,0.37386742,nan,nan,nan,0.0013543012,0.0,0.0,0.0,0.0,1310988,1310988,6620172,0,0,0,164,1,1,1,2,0,0,0,0,0,0,0,0
10620000,10540000,4898949633,5.152899e-05,0.0014737379,0.0018427235,0,0.014985679,0.36916178,nan,nan,nan,0.0015262411,0.0,0.0,0.0,0.0,1310988,1310988,6620172,0,0,0,164,1,1,1,2,0,0,0,0,0,0,0,0
10828000,10748000,4898949633,4.6701483e-05,0.0016958717,0.0027814377,0,0.014954164,0.341254,nan,nan,nan,0.0019461561,0.0,0.0,0.0,0.0,1310988,1310988,6620172,0,0,0,164,1,1,1,2,0,0,0,0,0,0,0,0
11028000,10948000,4898949633,5.7894016e-05,0.002036697,0.0016018284,0,0.014664471,0.33832023,nan,nan,nan,0.0011873501,0.0,0.0,0.0,0.0,1310988,1310988,6620172,0,0,0,164,1,1,1,2,0,0,0,0,0,0,0,0
11228000,11148000,4898949633,5.866084e-05,0.002485682,0.003946984,0,0.014382867,0.3182488,nan,nan,nan,0.0021505754,0.0,0.0,0.0,0.0,1310988,1310988,6620172,0,0,0,164,1,1,1,2,0,0,0,0,0,0,0,0
11428000,11348000,4898949633,6.803409e-05,0.0027336755,0.0023270124,0,0.01410931,0.31518793,nan,nan,nan,0.0028248848,0.0,0.0,0.0,0.0,1310988,1310988,6620172,0,0,0,164,1,1,1,2,0,0,0,0,0,0,0,0
11620000,11540000,4898949633,8.389789e-05,0.0031404956,0.0041073877,0,0.013602522,0.29915848,nan,nan,nan,0.004053996,0.0,0.0,0.0,0.0,1310988,1310988,6620172,0,0,0,164,1,1,1,2,0,0,0,0,0,0,0,0
11828000,11748000,4898949633,8.82878e-05,0.0033349881,0.0033337541,0,0.013584649,0.2983589,nan,nan,nan,0.0023961961,0.0,0.0,0.0,0.0,1310988,1310988,6620172,0,0,0,164,1,1,1,2,0,0,0,0,0,0,0,0
12028000,11948000,4898949633,9.7832475e-05,0.0036221524,0.005270101,0,0.013332953,0.28430834,nan,nan,nan,0.0036588786,0.0,0.0,0.0,0.0,1310988,1310988,6620172,0,0,0,164,1,1,1,2,0,0,0,0,0,0,0,0
12220000,12140000,4898949633,0.000107611835,0.0034989964,0.003723103,0,0.012861933,0.2838516,nan,nan,nan,0.0030944613,0.0,0.0,0.0,0.0,1310988,1310988,6620172,0,0,0,164,1,1,1,2,0,0,0,0,0,0,0,0
12428000,12348000,4898949633,9.6112635e-05,0.0031065363,0.0036420366,0,0.012849996,0.27306253,nan,nan,nan,0.0037229424,0.0,0.0,0.0,0.0,1310988,1310988,6620172,0,0,0,164,1,1,1,2,0,0,0,0,0,0,0,0
12620000,12540000,4898949633,9.2297654e-05,0.0029013958,0.0027392583,0,0.012400605,0.27225015,nan,nan,nan,0.0042997105,0.0,0.0,0.0,0.0,1310988,1310988,6620172,0,0,0,164,1,1,1,2,0,0,0,0,0,0,0,0
12828000,12748000,4898949633,6.6618304e-05,0.0025510949,0.0036516646,0,0.012390859,0.26311055,nan,nan,nan,0.0021707383,0.0,0.0,0.0,0.0,1310988,1310988,6620172,0,0,0,164,1,1,1,2,0,0,0,0,0,0,0,0
13028000,12948000,4898949633,6.395408e-05,0.0021747516,0.0028394377,0,0.012169774,0.26293966,nan,nan,nan,0.0022103,0.0,0.0,0.0,0.0,1310988,1310988,6620172,0,0,0,164,1,1,1,2,0,0,0,0,0,0,0,0
13220000,13140000,4898949633,9.31387e-05,0.002745714,0.003966362,0,0.011751353,0.25470936,nan,nan,nan,0.0043232697,0.0,0.0,0.0,0.0,1310988,1310988,6620172,0,0,0,164,1,1,1,2,0,0,0,0,0,0,0,0
13420000,13340000,4898949633,0.00010092806,0.0030802558,0.0025668943,0,0.011546092,0.2548997,nan,nan,nan,0.0048620477,0.0,0.0,0.0,0.0,1310988,1310988,6620172,0,0,0,164,1,1,1,2,0,0,0,0,0,0,0,0
13628000,13548000,4898949633,9.769662e-05,0.003177464,0.0035265316,0,0.011539906,0.24803263,nan,nan,nan,0.0030825539,0.0,0.0,0.0,0.0,1310988,1310988,6620172,0,0,0,164,1,1,1,2,0,0,0,0,0,0,0,0
13828000,13748000,4898949633,0.00010223918,0.0026349537,0.0021376705,0,0.011382318,0.25073883,nan,nan,nan,0.0031492077,0.0,0.0,0.0,0.0,1310988,1310988,6620172,0,0,0,164,1,1,1,2,0,0,0,0,0,0,0,0
14020000,13940000,4898949633,0.000101876314,0.0026943437,0.002410648,0,0.010999279,0.24420579,nan,nan,nan,0.0026734928,0.0,0.0,0.0,0.0,1310988,1310988,6620172,0,0,0,164,1,1,1,2,0,0,0,0,0,0,0,0
14220000,14140000,4898949633,7.317592e-05,0.0021324453,0.0016717417,0,0.010812834,0.24568431,nan,nan,nan,0.0032259133,0.0,0.0,0.0,0.0,1310988,1310988,6620172,0,0,0,164,1,1,1,2,0,0,0,0,0,0,0,0
14420000,14340000,4898949633,2.435444e-05,0.00092599815,0.0009889598,0,0.016484534,0.23996057,nan,nan,nan,0.0038700865,0.0,0.0,0.0,0.0,1310988,1310988,6620172,0,0,0,164,1,1,1,2,0,0,0,0,0,0,0,0
14628000,14548000,4898949633,1.992186e-05,0.00077442056,0.0016189751,0,0.016471054,0.24126919,nan,nan,nan,0.0036451886,0.0,0.0,0.0,0.0,1310988,1310988,6620172,0,0,0,164,1,1,1,2,0,0,0,0,0,0,0,0
14820000,14740000,4898949633,2.6642105e-05,0.00086605526,0.00076979055,0,0.015917273,0.23582624,nan,nan,nan,0.0018944384,0.0,0.0,0.0,0.0,1310988,1310988,6620172,0,0,0,164,1,1,1,2,0,0,0,0,0,0,0,0
15028000,14948000,4898949633,2.7438675e-05,0.0009855159,0.00086633075,0,0.015906448,0.23729216,nan,nan,nan,0.0018399596,0.0,0.0,0.0,0.0,1310988,1310988,6620172,0,0,0,164,1,1,1,2,0,0,0,0,0,0,0,0
15220000,15140000,4898949633,3.1040567e-05,0.0010957033,0.0008785416,0,0.015370676,0.23227821,nan,nan,nan,0.0018806296,0.0,0.0,0.0,0.0,1310988,1310988,6620172,0,0,0,164,1,1,1,2,0,0,0,0,0,0,0,0
15420000,15340000,4898949633,3.1368883e-05,0.00093153125,0.0008494121,0,0.015104004,0.23414606,nan,nan,nan,0.004169746,0.0,0.0,0.0,0.0,1310988,1310988,6620172,0,0,0,164,1,1,1,2,0,0,0,0,0,0,0,0
15628000,15548000,4898949633,2.8207325e-05,0.0005529183,0.0008182462,0,0.015095194,0.22945845,nan,nan,nan,0.005241476,0.0,0.0,0.0,0.0,1310988,1310988,6620172,0,0,0,164,1,1,1,2,0,0,0,0,0,0,0,0
15820000,15740000,4898949633,2.9082728e-05,0.0004490644,0.00044623998,0,0.014585012,0.2311643,nan,nan,nan,0.004311927,0.0,0.0,0.0,0.0,1310988,1310988,6620172,0,0,0,164,1,1,1,2,0,0,0,0,0,0,0,0
16020000,15940000,4898949633,3.265465e-05,0.00043361326,0.00055197557,0,0.014332477,0.22702493,nan,nan,nan,0.001060052,0.0,0.0,0.0,0.0,1310988,1310988,6620172,0,0,0,164,1,1,1,2,0,0,0,0,0,0,0,0
16228000,16148000,4898949633,1.6414515e-05,0.00033249895,0.00027712877,0,0.014326242,0.22883011,nan,nan,nan,0.003031136,0.0,0.0,0.0,0.0,1310988,1310988,6620172,0,0,0,164,1,1,1,2,0,0,0,0,0,0,0,0
16428000,16348000,4898949633,2.2475424e-05,0.0006285106,0.00043108565,0,0.014078964,0.22494654,nan,nan,nan,0.0009660329,0.0,0.0,0.0,0.0,1310988,1310988,6620172,0,0,0,164,1,1,1,2,0,0,0,0,0,0,0,0
16620000,16540000,4898949633,3.1630356e-05,0.00087734323,0.0006273072,0,0.013602912,0.22678861,nan,nan,nan,0.0012293202,0.0,0.0,0.0,0.0,1310988,1310988,6620172,0,0,0,164,1,1,1,2,0,0,0,0,0,0,0,0
16828000,16748000,4898949633,4.322795e-05,0.001207729,0.00084219396,0,0.013597725,0.22290535,nan,nan,nan,0.00062970945,0.0,0.0,0.0,0.0,1310988,1310988,6620172,0,0,0,164,1,1,1,2,0,0,0,0,0,0,0,0
17020000,16940000,4898949633,5.2487052e-05,0.0016195646,0.0015130009,0,0.013138252,0.22479314,nan,nan,nan,0.0017704798,0.0,0.0,0.0,0.0,1310988,1310988,6620172,0,0,0,164,1,1,1,2,0,0,0,0,0,0,0,0
17228000,17148000,4898949633,5.480798e-05,0.0017876015,0.0013491665,0,0.013134189,0.22111423,nan,nan,nan,0.0021689716,0.0,0.0,0.0,0.0,1310988,1310988,6620172,0,0,0,164,1,1,1,2,0,0,0,0,0,0,0,0
17428000,17348000,4898949633,5.7466703e-05,0.0018888904,0.0015994204,0,0.012909274,0.22330596,nan,nan,nan,0.0021403912,0.0,0.0,0.0,0.0,1310988,1310988,6620172,0,0,0,164,1,1,1,2,0,0,0,0,0,0,0,0
17628000,17548000,4898949633,6.632993e-05,0.0020273284,0.002318608,0,0.012688774,0.21954171,nan,nan,nan,0.0033714501,0.0,0.0,0.0,0.0,1310988,1310988,6620172,0,0,0,164,1,1,1,2,0,0,0,0,0,0,0,0
17828000,17748000,4898949633,5.6805628e-05,0.0017787815,0.0014646462,0,0.012472742,0.22176427,nan,nan,nan,0.0031832494,0.0,0.0,0.0,0.0,1310988,1310988,6620172,0,0,0,164,1,1,1,2,0,0,0,0,0,0,0,0
18028000,17948000,4898949633,4.2148833e-05,0.0014536441,0.0012711715,0,0.012261082,0.21856691,nan,nan,nan,0.002649117,0.0,0.0,0.0,0.0,1310988,1310988,6620172,0,0,0,164,1,1,1,2,0,0,0,0,0,0,0,0
18220000,18140000,4898949633,2.8969178e-05,0.0012443938,0.001019468,0,0.01185222,0.22013704,nan,nan,nan,0.0017492385,0.0,0.0,0.0,0.0,1310988,1310988,6620172,0,0,0,164,1,1,1,2,0,0,0,0,0,0,0,0
18420000,18340000,4898949633,2.1162388e-05,0.0010157723,0.0011915662,0,0.011652693,0.21706675,nan,nan,nan,0.0015388178,0.0,0.0,0.0,0.0,1310988,1310988,6620172,0,0,0,164,1,1,1,2,0,0,0,0,0,0,0,0
18628000,18548000,4898949633,6.860458e-05,0.0011368545,0.00085684797,0,0.011650503,0.21917483,nan,nan,nan,0.0014350374,0.0,0.0,0.0,0.0,1310988,1310988,6620172,0,0,0,164,1,1,1,2,0,0,0,0,0,0,0,0
18828000,18748000,4898949633,9.827661e-05,0.002060314,0.0014702609,0,0.011455643,0.2162037,nan,nan,nan,0.0016307463,0.0,0.0,0.0,0.0,1310988,1310988,6620172,0,0,0,164,1,1,1,2,0,0,0,0,0,0,0,0
19028000,18948000,4898949633,0.00010526977,0.0024907258,0.0015734959,0,0.01130441,0.22162151,nan,nan,nan,0.0019366655,0.0,0.0,0.0,0.0,1310988,1310988,6620172,0,0,0,164,1,1,1,2,0,0,0,0,0,0,0,0
19228000,19148000,4898949633,0.00011366579,0.002883676,0.0017760375,0,0.011116247,0.2181737,nan,nan,nan,0.0015222179,0.0,0.0,0.0,0.0,1310988,1310988,6620172,0,0,0,164,1,1,1,2,0,0,0,0,0,0,0,0
19420000,19340000,4898949633,0.00011064293,0.00288822,0.0017993174,0,0.010754461,0.22030963,nan,nan,nan,0.0017866958,0.0,0.0,0.0,0.0,1310988,1310988,6620172,0,0,0,164,1,1,1,2,0,0,0,0,0,0,0,0
19620000,19540000,4898949633,1.7475282e-05,0.0007734637,0.0008377552,0,0.01628758,0.21736951,nan,nan,nan,0.0027874056,0.0,0.0,0.0,0.0,1310988,1310988,6620172,0,0,0,164,1,1,1,2,0,0,0,0,0,0,0,0
19828000,19748000,4898949633,1.5879099e-05,0.00058602705,0.00046540107,0,0.016284093,0.2196634,nan,nan,nan,0.0050836233,0.0,0.0,0.0,0.0,1310988,1310988,6620172,0,0,0,164,1,1,1,2,0,0,0,0,0,0,0,0
20028000,19948000,4898949633,1.71603e-05,0.0005591529,0.0007392267,0,0.016014837,0.2167988,nan,nan,nan,0.0057580196,0.0,0.0,0.0,0.0,1310988,1310988,6620172,0,0,0,164,1,1,1,2,0,0,0,0,0,0,0,0
20228000,20148000,4898949633,1.459228e-05,0.00044164335,0.0008516767,0,0.015743103,0.21882847,nan,nan,nan,0.0011601138,0.0,0.0,0.0,0.0,1310988,1310988,6620172,0,0,0,164,1,1,1,2,0,0,0,0,0,0,0,0
20428000,20348000,4832889473,0.00025034507,0.010219926,0.012292576,0,0.015559403,0.21602736,nan,nan,nan,0.0040248027,0.0,0.0,0.0,0.0,1310988,1310988,6620172,0,0,0,164,1,1,1,2,0,0,0,0,0,0,0,0
20620000,20540000,4832889473,2.6278296e-05,0.003988691,0.005192506,0,0.026747355,0.2217782,nan,nan,nan,0.005410522,0.0,0.0,0.0,0.0,1310988,1310988,6620172,0,0,0,164,1,1,1,2,0,0,0,0,0,0,0,0
20828000,20748000,4832889473,1.6644848e-05,0.0016500506,0.005597034,0,0.0526873,0.22284462,nan,nan,nan,0.012731715,0.0,0.0,0.0,0.0,1310988,1310988,6620172,0,0,0,164,1,1,1,2,0,0,0,0,0,0,0,0
21020000,20940000,4832889473,1.5887017e-05,0.0015160077,0.001514955,0,0.09026271,0.2301509,nan,nan,nan,0.012917498,0.0,0.0,0.0,0.0,1310988,1310988,6620172,0,0,0,164,1,1,1,2,0,0,0,0,0,0,0,0
21220000,21140000,4832889473,8.308763e-05,0.0019612475,0.013975971,0,0.14288434,0.23182558,nan,nan,nan,0.03575097,0.0,0.0,0.0,0.0,1310988,1310988,6620172,0,0,0,164,1,1,1,2,0,0,0,0,0,0,0,0
21420000,21340000,4832889473,4.5738063e-05,0.0008305583,0.006496276,0,0.2090454,0.2413032,nan,nan,nan,0.037944593,0.0,0.0,0.0,0.0,1310988,1310988,6620172,0,0,0,164,1,1,1,2,0,0,0,0,0,0,0,0
21620000,21540000,4832889473,0.00024320665,0.006657107,0.029651415,0,0.28864893,0.24431805,nan,nan,nan,0.058392026,0.0,0.0,0.0,0.0,1310988,1310988,6620172,0,0,0,164,1,1,1,2,0,0,0,0,0,0,0,0
21820000,21740000,4832889473,0.00013138357,0.003466402,0.017020412,0,0.38201058,0.2550631,nan,nan,nan,0.06052792,0.0,0.0,0.0,0.0,1310988,1310988,6620172,0,0,0,164,1,1,1,2,0,0,0,0,0,0,0,0
22020000,21940000,4832889473,0.0005400257,0.015153668,0.052986804,0,0.48931378,0.25847933,nan,nan,nan,0.08630708,0.0,0.0,0.0,0.0,1310988,1310988,6620172,0,0,0,164,1,1,1,2,0,0,0,0,0,0,0,0
22220000,22140000,4832889473,0.00025110264,0.007129622,0.026650447,0,0.6104258,0.2715811,nan,nan,nan,0.086733006,0.0,0.0,0.0,0.0,1310988,1310988,6620172,0,0,0,164,1,1,1,2,0,0,0,0,0,0,0,0
22420000,22340000,4832889473,0.00094248966,0.028151384,0.082616396,0,0.7442593,0.27376118,nan,nan,nan,0.10673867,0.0,0.0,0.0,0.0,1310988,1310988,6620172,0,0,0,164,1,1,1,2,0,0,0,0,0,0,0,0
22628000,22548000,4832889473,0.00041621394,0.017331164,0.041296877,0,0.8969953,0.28788942,nan,nan,nan,0.11257574,0.0,0.0,0.0,0.0,1310988,1310988,6620172,0,0,0,164,1,1,1,2,0,0,0,0,0,0,0,0
22820000,22740000,4832889473,0.0011333383,0.042486504,0.11301861,0,1.0508078,0.28725925,nan,nan,nan,0.12881552,0.0,0.0,0.0,0.0,1310988,1310988,6620172,0,0,0,164,1,1,1,2,0,0,0,0,0,0,0,0
23028000,22948000,4832889473,0.00052103197,0.023450138,0.05548717,0,1.2320454,0.3012329,nan,nan,nan,0.13066259,0.0,0.0,0.0,0.0,1310988,1310988,6620172,0,0,0,164,1,1,1,2,0,0,0,0,0,0,0,0
23220000,23140000,4832889473,0.0011663502,0.04801435,0.13154107,0,1.4102051,0.29976025,nan,nan,nan,0.14530961,0.0,0.0,0.0,0.0,1310988,1310988,6620172,0,0,0,164,1,1,1,2,0,0,0,0,0,0,0,0
23420000,23340000,4832889473,0.00065956183,0.029031405,0.07109818,0,1.606417,0.31179145,nan,nan,nan,0.14537609,0.0,0.0,0.0,0.0,1310988,1310988,6620172,0,0,0,164,1,1,1,2,0,0,0,0,0,0,0,0
23628000,23548000,4832889473,0.001275812,0.05215445,0.14243615,0,1.8198845,0.30992478,nan,nan,nan,0.14705898,0.0,0.0,0.0,0.0,1310988,1310988,6620172,0,0,0,164,1,1,1,2,0,0,0,0,0,0,0,0
23828000,23748000,4832889473,0.00077557925,0.033239935,0.078461096,0,2.0315971,0.32158756,nan,nan,nan,0.14443237,0.0,0.0,0.0,0.0,1310988,1310988,6620172,0,0,0,164,1,1,1,2,0,0,0,0,0,0,0,0
24028000,23948000,4832889473,0.0014850262,0.06075121,0.15786375,0,2.2468626,0.31747457,nan,nan,nan,0.14129443,0.0,0.0,0.0,0.0,1310988,1310988,6620172,0,0,0,164,1,1,1,2,0,0,0,0,0,0,0,0
24228000,24148000,4832889473,0.0009604167,0.042292483,0.09560833,0,2.4637647,0.33018735,nan,nan,nan,0.13580486,0.0,0.0,0.0,0.0,1310988,1310988,6620172,0,0,0,164,1,1,1,2,0,0,0,0,0,0,0,0
24428000,24348000,4832889473,0.0016755918,0.07142646,0.17849287,0,2.6777174,0.32329515,nan,nan,nan,0.12650469,0.0,0.0,0.0,0.0,1310988,1310988,6620172,0,0,0,164,1,1,1,2,0,0,0,0,0,0,0,0
24628000,24548000,4832889473,0.0011943912,0.056696206,0.13449681,0,2.8868756,0.33571824,nan,nan,nan,0.12283571,0.0,0.0,0.0,0.0,1310988,1310988,6620172,0,0,0,164,1,1,1,2,0,0,0,0,0,0,0,0
24820000,24740000,4832889473,0.0008548173,0.041576054,0.12291997,0,3.1519501,0.3285063,nan,nan,nan,0.10221975,0.0,0.0,0.0,0.0,1310988,1310988,6620172,0,0,0,164,1,1,1,2,0,0,0,0,0,0,0,0
25020000,24940000,4832889473,0.00040211377,0.02187639,0.06732615,0,3.357866,0.3392586,nan,nan,nan,0.09755249,0.0,0.0,0.0,0.0,1310988,1310988,6620172,0,0,0,164,1,1,1,2,0,0,0,0,0,0,0,0
25220000,25140000,4832889473,0.00066983624,0.02998009,0.09496259,0,3.550865,0.3318342,nan,nan,nan,0.06563963,0.0,0.0,0.0,0.0,1310988,1310988,6620172,0,0,0,164,1,1,1,2,0,0,0,0,0,0,0,0
25428000,25348000,4832889473,0.00034680738,0.017824726,0.06465256,0,3.742026,0.34474486,nan,nan,nan,0.063758075,0.0,0.0,0.0,0.0,1310988,1310988,6620172,0,0,0,164,1,1,1,2,0,0,0,0,0,0,0,0
25628000,25548000,4832889473,0.0004524057,0.01629068,0.06399746,0,3.9040918,0.33511704,nan,nan,nan,0.041024752,0.0,0.0,0.0,0.0,1310988,1310988,6620172,0,0,0,164,1,1,1,2,0,0,0,0,0,0,0,0
25828000,25748000,4832889473,0.00035026253,0.01677692,0.06570662,0,4.0485215,0.3474533,nan,nan,nan,0.041511826,0.0,0.0,0.0,0.0,1310988,1310988,6620172,0,0,0,164,1,1,1,2,0,0,0,0,0,0,0,0
26028000,25948000,4832889473,0.00032049872,0.01851138,0.068330444,0,4.1744375,0.33750328,nan,nan,nan,0.012343183,0.0,0.0,0.0,0.0,1310988,1310988,6620172,0,0,0,164,1,1,1,2,0,0,0,0,0,0,0,0
26228000,26148000,4832889473,0.00028796977,0.020584779,0.06852268,0,4.2834215,0.35009077,nan,nan,nan,0.019078651,0.0,0.0,0.0,0.0,1310988,1310988,6620172,0,0,0,164,1,1,1,2,0,0,0,0,0,0,0,0
26428000,26348000,4832889473,0.00023518469,0.033242576,0.10856007,0,4.3754992,0.34156346,nan,nan,nan,0.058420554,0.0,0.0,0.0,0.0,1310988,1310988,6620172,0,0,0,164,1,1,1,2,0,0,0,0,0,0,0,0
26620000,26540000,4832889473,0.00015477417,0.03241612,0.094568096,0,4.439942,0.35223845,nan,nan,nan,0.060302727,0.0,0.0,0.0,0.0,1310988,1310988,6620172,0,0,0,164,1,1,1,2,0,0,0,0,0,0,0,0
26820000,26740000,4832889473,0.00019477447,0.049049076,0.16139139,0,4.5004635,0.34369862,nan,nan,nan,0.09781227,0.0,0.0,0.0,0.0,1310988,1310988,6620172,0,0,0,164,1,1,1,2,0,0,0,0,0,0,0,0
27020000,26940000,4832889473,0.00023459215,0.051364277,0.15481053,0,4.546901,0.35744593,nan,nan,nan,0.1000177,0.0,0.0,0.0,0.0,1310988,1310988,6620172,0,0,0,164,1,1,1,2,0,0,0,0,0,0,0,0
27220000,27140000,4832889473,0.00023676855,0.0650238,0.21934152,0,4.5801463,0.34698382,nan,nan,nan,0.13581267,0.0,0.0,0.0,0.0,1310988,1310988,6620172,0,0,0,164,1,1,1,2,0,0,0,0,0,0,0,0
27420000,27340000,4832889473,0.0006132912,0.07492427,0.24463958,0,4.6024613,0.36131558,nan,nan,nan,0.13730526,0.0,0.0,0.0,0.0,1310988,1310988,6620172,0,0,0,164,1,1,1,2,0,0,0,0,0,0,0,0
27620000,27540000,4832889473,0.00041729613,0.08143926,0.28426492,0,4.6138334,0.35053918,nan,nan,nan,0.1665478,0.0,0.0,0.0,0.0,1310988,1310988,6620172,0,0,0,164,1,1,1,2,0,0,0,0,0,0,0,0
27820000,27740000,4832889473,0.0010354158,0.09950936,0.34993696,0,4.617647,0.36526635,nan,nan,nan,0.16952804,0.0,0.0,0.0,0.0,1310988,1310988,6620172,0,0,0,164,1,1,1,2,0,0,0,0,0,0,0,0
28028000,27948000,4832889473,0.0006137916,0.094956994,0.34414923,0,4.6223907,0.35659328,nan,nan,nan,0.19592835,0.0,0.0,0.0,0.0,1310988,1310988,6620172,0,0,0,164,1,1,1,2,0,0,0,0,0,0,0,0
28220000,28140000,4832889473,0.0012847674,0.12132403,0.4549346,0,4.602843,0.36885503,nan,nan,nan,0.1970751,0.0,0.0,0.0,0.0,1310988,1310988,6620172,0,0,0,164,1,1,1,2,0,0,0,0,0,0,0,0
28428000,28348000,4832889473,0.00077208265,0.10941487,0.41440004,0,4.595429,0.35962045,nan,nan,nan,0.21299033,0.0,0.0,0.0,0.0,1310988,1310988,6620172,0,0,0,164,1,1,1,2,0,0,0,0,0,0,0,0
28620000,28540000,4832889473,0.0014270709,0.1370533,0.5447516,0,4.5669866,0.3739756,nan,nan,nan,0.2070306,0.0,0.0,0.0,0.0,1310988,1310988,6620172,0,0,0,164,1,1,1,2,0,0,0,0,0,0,0,0
28820000,28740000,4832889473,0.0009293236,0.12510039,0.4967078,0,4.542392,0.3612987,nan,nan,nan,0.21828406,0.0,0.0,0.0,0.0,1310988,1310988,6620172,0,0,0,164,1,1,1,2,0,0,0,0,0,0,0,0
29020000,28940000,4832889473,0.0014699505,0.14395122,0.60435325,0,4.5166636,0.37653804,nan,nan,nan,0.21131416,0.0,0.0,0.0,0.0,1310988,1310988,6620172,0,0,0,164,1,1,1,2,0,0,0,0,0,0,0,0
29220000,29140000,4832889473,0.0010344507,0.13076934,0.54547846,0,4.4871125,0.36330226,nan,nan,nan,0.20373479,0.0,0.0,0.0,0.0,1310988,1310988,6620172,0,0,0,164,1,1,1,2,0,0,0,0,0,0,0,0
29428000,29348000,4832889473,0.0014130798,0.13558055,0.600706,0,4.465147,0.37937942,nan,nan,nan,0.20808348,0.0,0.0,0.0,0.0,1310988,1310988,6620172,0,0,0,164,1,1,1,2,0,0,0,0,0,0,0,0
29628000,29548000,4832889473,0.0010584507,0.12289081,0.54093766,0,4.432525,0.36765105,nan,nan,nan,0.19211036,0.0,0.0,0.0,0.0,1310988,1310988,6620172,0,0,0,164,1,1,1,2,0,0,0,0,0,0,0,0
29828000,29748000,4832889473,0.0013151814,0.1245806,0.5825123,0,4.399708,0.3808529,nan,nan,nan,0.18426378,0.0,0.0,0.0,0.0,1310988,1310988,6620172,0,0,0,164,1,1,1,2,0,0,0,0,0,0,0,0
30020000,29940000,4832889473,1.9694187e-05,0.04335146,0.14624037,0,4.5819983,0.3680034,nan,nan,nan,0.15858333,0.0,0.0,0.0,0.0,1310988,1310988,6620172,0,0,0,164,1,1,1,2,0,0,0,0,0,0,0,0
30220000,30140000,4832889473,0.00023151972,0.014976601,0.077212304,0,4.543471,0.38334516,nan,nan,nan,0.15341473,0.0,0.0,0.0,0.0,1310988,1310988,6620172,0,0,0,164,1,1,1,2,0,0,0,0,0,0,0,0
30420000,30340000,4832889473,0.00016110929,0.029463042,0.09646396,0,4.504267,0.36877856,nan,nan,nan,0.11828546,0.0,0.0,0.0,0.0,1310988,1310988,6620172,0,0,0,164,1,1,1,2,0,0,0,0,0,0,0,0
30620000,30540000,4832889473,0.0002741332,0.0051122312,0.037954222,0,4.465301,0.38406175,nan,nan,nan,0.11652441,0.0,0.0,0.0,0.0,1310988,1310988,6620172,0,0,0,164,1,1,1,2,0,0,0,0,0,0,0,0
30828000,30748000,4832889473,0.0002113835,0.016917564,0.04718235,0,4.4330654,0.372187,nan,nan,nan,0.08546032,0.0,0.0,0.0,0.0,1310988,1310988,6620172,0,0,0,164,1,1,1,2,0,0,0,0,0,0,0,0
31020000,30940000,4832889473,0.0002917986,0.0111999605,0.038976997,0,4.3873715,0.3844473,nan,nan,nan,0.07745513,0.0,0.0,0.0,0.0,1310988,1310988,6620172,0,0,0,164,1,1,1,2,0,0,0,0,0,0,0,0
31228000,31148000,4832889473,0.00025178428,0.016517416,0.057176962,0,4.3554215,0.37239572,nan,nan,nan,0.048341583,0.0,0.0,0.0,0.0,1310988,1310988,6620172,0,0,0,164,1,1,1,2,0,0,0,0,0,0,0,0
31428000,31348000,4832889473,0.0002553959,0.023699405,0.09174967,0,4.317287,0.38774675,nan,nan,nan,0.04967625,0.0,0.0,0.0,0.0,1310988,1310988,6620172,0,0,0,164,1,1,1,2,0,0,0,0,0,0,0,0
31628000,31548000,4832889473,0.00024692717,0.026802098,0.10844377,0,4.279722,0.3723344,nan,nan,nan,0.028372634,0.0,0.0,0.0,0.0,1310988,1310988,6620172,0,0,0,164,1,1,1,2,0,0,0,0,0,0,0,0
31820000,31740000,4832889473,0.0002509104,0.032832444,0.13319543,0,4.2367535,0.38664868,nan,nan,nan,0.034563947,0.0,0.0,0.0,0.0,1310988,1310988,6620172,0,0,0,164,1,1,1,2,0,0,0,0,0,0,0,0
32020000,31940000,4832889473,0.00023056951,0.037441976,0.15539613,0,4.2007275,0.37327152,nan,nan,nan,0.01065832,0.0,0.0,0.0,0.0,1310988,1310988,6620172,0,0,0,164,1,1,1,2,0,0,0,0,0,0,0,0
32220000,32140000,4832889473,0.00020716053,0.04161105,0.17643976,0,4.165473,0.38618717,nan,nan,nan,0.015006278,0.0,0.0,0.0,0.0,1310988,1310988,6620172,0,0,0,164,1,1,1,2,0,0,0,0,0,0,0,0
32420000,32340000,4832889473,0.0001766906,0.048290763,0.20398022,0,4.131003,0.37275782,nan,nan,nan,0.03289478,0.0,0.0,0.0,0.0,1310988,1310988,6620172,0,0,0,164,1,1,1,2,0,0,0,0,0,0,0,0
32620000,32540000,4831840897,0.00016441314,0.04625536,0.20372032,0,4.0973825,0.38785195,nan,nan,nan,0.035329346,0.0,0.0,0.0,0.0,1310988,1310988,6620172,0,0,0,164,1,1,1,2,0,0,0,0,0,0,0,0
32828000,32748000,4831840897,0.00011462215,0.055389795,0.23857962,0,4.070047,0.37290993,nan,nan,nan,0.051594667,0.0,0.0,0.0,0.0,1310988,1310988,6620172,0,0,0,164,1,1,1,2,0,0,0,0,0,0,0,0
33020000,32940000,4831840897,0.00012364985,0.04924218,0.22115059,0,4.032703,0.38698143,nan,nan,nan,0.059140924,0.0,0.0,0.0,0.0,1310988,1310988,6620172,0,0,0,164,1,1,1,2,0,0,0,0,0,0,0,0
33220000,33140000,4831840897,7.888537e-05,0.057621635,0.2490466,0,4.0016637,0.37331745,nan,nan,nan,0.06861173,0.0,0.0,0.0,0.0,1310988,1310988,6620172,0,0,0,164,1,1,1,2,0,0,0,0,0,0,0,0
33420000,33340000,4831840897,8.2334e-05,0.049246207,0.22414982,0,3.9715626,0.38597426,nan,nan,nan,0.06925841,0.0,0.0,0.0,0.0,1310988,1310988,6620172,0,0,0,164,1,1,1,2,0,0,0,0,0,0,0,0
33628000,33548000,4831840897,4.150574e-05,0.057701834,0.25088635,0,3.9473937,0.3732143,nan,nan,nan,0.08051331,0.0,0.0,0.0,0.0,1310988,1310988,6620172,0,0,0,164,1,1,1,2,0,0,0,0,0,0,0,0
33828000,33748000,4831840897,6.0709044e-05,0.044720728,0.20938769,0,3.9190226,0.38809222,nan,nan,nan,0.0789967,0.0,0.0,0.0,0.0,1310988,1310988,6620172,0,0,0,164,1,1,1,2,0,0,0,0,0,0,0,0
34020000,33940000,4831840897,2.3593015e-05,0.057288628,0.24471442,0,3.8866067,0.37136453,nan,nan,nan,0.08872413,0.0,0.0,0.0,0.0,1310988,1310988,6620172,0,0,0,164,1,1,1,2,0,0,0,0,0,0,0,0
34228000,34148000,4831840897,4.5221605e-05,0.041044623,0.19230436,0,3.8649952,0.38697755,nan,nan,nan,0.08994064,0.0,0.0,0.0,0.0,1310988,1310988,6620172,0,0,0,164,1,1,1,2,0,0,0,0,0,0,0,0
34420000,34340000,4831840897,1.8279663e-05,0.05460532,0.22969711,0,3.8345633,0.37041125,nan,nan,nan,0.09471184,0.0,0.0,0.0,0.0,1310988,1310988,6620172,0,0,0,164,1,1,1,2,0,0,0,0,0,0,0,0
34620000,34540000,4831840897,3.771595e-05,0.036760762,0.17029786,0,3.8099315,0.38503617,nan,nan,nan,0.09666032,0.0,0.0,0.0,0.0,1310988,1310988,6620172,0,0,0,164,1,1,1,2,0,0,0,0,0,0,0,0
34828000,34748000,4831840897,1.674986e-05,0.047989488,0.20119382,0,3.7908404,0.3723682,nan,nan,nan,0.10401772,0.0,0.0,0.0,0.0,1310988,1310988,6620172,0,0,0,164,1,1,1,2,0,0,0,0,0,0,0,0
35020000,34940000,4831840897,3.525987e-05,0.031855654,0.14613616,0,3.763377,0.38396946,nan,nan,nan,0.10030125,0.0,0.0,0.0,0.0,1310988,1310988,6620172,0,0,0,164,1,1,1,2,0,0,0,0,0,0,0,0
35220000,35140000,4831840897,3.1451353e-05,0.047846265,0.20466502,0,3.8800566,0.37058628,nan,nan,nan,0.10236052,0.0,0.0,0.0,0.0,1310988,1310988,6620172,0,0,0,164,1,1,1,2,0,0,0,0,0,0,0,0
35420000,35340000,4831840897,1.1048966e-05,0.02918634,0.14385577,0,3.8570259,0.38524097,nan,nan,nan,0.10290473,0.0,0.0,0.0,0.0,1310988,1310988,6620172,0,0,0,164,1,1,1,2,0,0,0,0,0,0,0,0
35620000,35540000,4831840897,2.2040242e-05,0.04375097,0.18285471,0,3.834995,0.3696916,nan,nan,nan,0.10634647,0.0,0.0,0.0,0.0,1310988,1310988,6620172,0,0,0,164,1,1,1,2,0,0,0,0,0,0,0,0
35828000,35748000,4831840897,9.961162e-06,0.023910206,0.11922103,0,3.8186247,0.3851678,nan,nan,nan,0.10285318,0.0,0.0,0.0,0.0,1310988,1310988,6620172,0,0,0,164,1,1,1,2,0,0,0,0,0,0,0,0
36020000,35940000,4831840897,1.13896085e-05,0.03728108,0.15447253,0,3.7940242,0.37094286,nan,nan,nan,0.10617897,0.0,0.0,0.0,0.0,1310988,1310988,6620172,0,0,0,164,1,1,1,2,0,0,0,0,0,0,0,0
36220000,36140000,4831840897,1.0789478e-05,0.020199316,0.09976885,0,3.775061,0.38341647,nan,nan,nan,0.103970066,0.0,0.0,0.0,0.0,1310988,1310988,6620172,0,0,0,164,1,1,1,2,0,0,0,0,0,0,0,0
36420000,36340000,4831840897,5.7049715e-06,0.033809125,0.1365598,0,3.757076,0.3701695,nan,nan,nan,0.10661271,0.0,0.0,0.0,0.0,1310988,1310988,6620172,0,0,0,164,1,1,1,2,0,0,0,0,0,0,0,0
36620000,36540000,4831840897,1.4253205e-05,0.01550219,0.07897251,0,3.7400897,0.3848558,nan,nan,nan,0.102505684,0.0,0.0,0.0,0.0,1310988,1310988,6620172,0,0,0,164,1,1,1,2,0,0,0,0,0,0,0,0
36820000,36740000,4831840897,1.0365661e-05,0.030123794,0.11895682,0,3.7240674,0.36941576,nan,nan,nan,0.10108615,0.0,0.0,0.0,0.0,1310988,1310988,6620172,0,0,0,164,1,1,1,2,0,0,0,0,0,0,0,0
37020000,36940000,4831840897,1.7632367e-05,0.012507339,0.06412348,0,3.7090259,0.3840383,nan,nan,nan,0.10017083,0.0,0.0,0.0,0.0,1310988,1310988,6620172,0,0,0,164,1,1,1,2,0,0,0,0,0,0,0,0
37228000,37148000,4831840897,1.6665923e-05,0.02529795,0.09875666,0,3.6994104,0.36951888,nan,nan,nan,0.096753836,0.0,0.0,0.0,0.0,1310988,1310988,6620172,0,0,0,164,1,1,1,2,0,0,0,0,0,0,0,0
37428000,37348000,4831840897,2.039249e-05,0.009947399,0.051796127,0,3.6862717,0.38410348,nan,nan,nan,0.09529546,0.0,0.0,0.0,0.0,1310988,1310988,6620172,0,0,0,164,1,1,1,2,0,0,0,0,0,0,0,0
37628000,37548000,4831840897,2.4387713e-05,0.02029302,0.07839384,0,3.674066,0.37091777,nan,nan,nan,0.09422369,0.0,0.0,0.0,0.0,1310988,1310988,6620172,0,0,0,164,1,1,1,2,0,0,0,0,0,0,0,0
37828000,37748000,4831840897,2.491363e-05,0.008044688,0.041698683,0,3.66279,0.3834271,nan,nan,nan,0.097625494,0.0,0.0,0.0,0.0,1310988,1310988,6620172,0,0,0,164,1,1,1,2,0,0,0,0,0,0,0,0
38020000,37940000,4831840897,3.411693e-05,0.018970905,0.07019114,0,3.6479294,0.36949253,nan,nan,nan,0.09038411,0.0,0.0,0.0,0.0,1310988,1310988,6620172,0,0,0,164,1,1,1,2,0,0,0,0,0,0,0,0
38220000,38140000,4831840897,3.1838754e-05,0.007322827,0.035144035,0,3.6384325,0.3841906,nan,nan,nan,0.08510881,0.0,0.0,0.0,0.0,1310988,1310988,6620172,0,0,0,164,1,1,1,2,0,0,0,0,0,0,0,0
38428000,38348000,4831840897,4.057725e-05,0.015281294,0.05525197,0,3.6342962,0.36972472,nan,nan,nan,0.081848405,0.0,0.0,0.0,0.0,1310988,1310988,6620172,0,0,0,164,1,1,1,2,0,0,0,0,0,0,0,0
38620000,38540000,4831840897,3.525638e-05,0.006435674,0.029056737,0,3.621996,0.38353333,nan,nan,nan,0.086947426,0.0,0.0,0.0,0.0,1310988,1310988,6620172,0,0,0,164,1,1,1,2,0,0,0,0,0,0,0,0
38828000,38748000,4831840897,4.5389505e-05,0.011546712,0.040194076,0,3.619551,0.371187,nan,nan,nan,0.07785844,0.0,0.0,0.0,0.0,1310988,1310988,6620172,0,0,0,164,1,1,1,2,0,0,0,0,0,0,0,0
39020000,38940000,4831840897,3.9828585e-05,0.006352558,0.026386358,0,3.6088333,0.38287547,nan,nan,nan,0.08157951,0.0,0.0,0.0,0.0,1310988,1310988,6620172,0,0,0,164,1,1,1,2,0,0,0,0,0,0,0,0
39220000,39140000,4831840897,5.279549e-05,0.01112653,0.036584403,0,3.6034205,0.3698058,nan,nan,nan,0.075491086,0.0,0.0,0.0,0.0,1310988,1310988,6620172,0,0,0,164,1,1,1,2,0,0,0,0,0,0,0,0
39420000,39340000,4831840897,4.4926874e-05,0.0076089655,0.029650215,0,3.5987566,0.3845872,nan,nan,nan,0.07657086,0.0,0.0,0.0,0.0,1310988,1310988,6620172,0,0,0,164,1,1,1,2,0,0,0,0,0,0,0,0
39628000,39548000,4831840897,5.870651e-05,0.008227487,0.025904166,0,3.5994225,0.37015477,nan,nan,nan,0.0712472,0.0,0.0,0.0,0.0,1310988,1310988,6620172,0,0,0,164,1,1,1,2,0,0,0,0,0,0,0,0
39820000,39740000,4831840897,5.1691397e-05,0.0079595605,0.031113539,0,3.5915153,0.3840821,nan,nan,nan,0.07321473,0.0,0.0,0.0,0.0,1310988,1310988,6620172,0,0,0,164,1,1,1,2,0,0,0,0,0,0,0,0
40028000,39948000,4831840897,6.603093e-05,0.007229415,0.023313804,0,3.5935512,0.3696926,nan,nan,nan,0.06697761,0.0,0.0,0.0,0.0,1310988,1310988,6620172,0,0,0,164,1,1,1,2,0,0,0,0,0,0,0,0
40220000,40140000,4831840897,5.9266804e-05,0.008554783,0.034368757,0,3.5868433,0.38355815,nan,nan,nan,0.06567717,0.0,0.0,0.0,0.0,1310988,1310988,6620172,0,0,0,164,1,1,1,2,0,0,0,0,0,0,0,0
40420000,40340000,4831840897,2.4827872e-05,0.007668968,0.026851567,0,3.7068174,0.36844394,nan,nan,nan,0.06436087,0.0,0.0,0.0,0.0,1310988,1310988,6620172,0,0,0,164,1,1,1,2,0,0,0,0,0,0,0,0
40620000,40540000,4831840897,1.5984682e-05,0.009512075,0.037152007,0,3.706147,0.38315725,nan,nan,nan,0.061693277,0.0,0.0,0.0,0.0,1310988,1310988,6620172,0,0,0,164,1,1,1,2,0,0,0,0,0,0,0,0
40828000,40748000,4831840897,2.6762787e-05,0.0047716238,0.01683037,0,3.7109938,0.36890247,nan,nan,nan,0.058647975,0.0,0.0,0.0,0.0,1310988,1310988,6620172,0,0,0,164,1,1,1,2,0,0,0,0,0,0,0,0
41028000,40948000,4831840897,1.8667493e-05,0.009840526,0.037781235,0,3.7114286,0.3835755,nan,nan,nan,0.061137825,0.0,0.0,0.0,0.0,1310988,1310988,6620172,0,0,0,164,1,1,1,2,0,0,0,0,0,0,0,0
41220000,41140000,4831840897,3.5076846e-05,0.004918981,0.015706617,0,3.7072968,0.36969754,nan,nan,nan,0.05701336,0.0,0.0,0.0,0.0,1310988,1310988,6620172,0,0,0,164,1,1,1,2,0,0,0,0,0,0,0,0
41420000,41340000,4831840897,2.7941418e-05,0.009065608,0.03419924,0,3.7085888,0.3844936,nan,nan,nan,0.058106568,0.0,0.0,0.0,0.0,1310988,1310988,6620172,0,0,0,164,1,1,1,2,0,0,0,0,0,0,0,0
41620000,41540000,4831840897,4.2587308e-05,0.0045967526,0.014114988,0,3.7102456,0.36922026,nan,nan,nan,0.052520454,0.0,0.0,0.0,0.0,1310988,1310988,6620172,0,0,0,164,1,1,1,2,0,0,0,0,0,0,0,0
41820000,41740000,4831840897,3.6249574e-05,0.008723025,0.032455128,0,3.7122343,0.38394505,nan,nan,nan,0.052494172,0.0,0.0,0.0,0.0,1310988,1310988,6620172,0,0,0,164,1,1,1,2,0,0,0,0,0,0,0,0
42020000,41940000,4831840897,5.128147e-05,0.0045653186,0.0141092865,0,3.714501,0.37075144,nan,nan,nan,0.054338306,0.0,0.0,0.0,0.0,1310988,1310988,6620172,0,0,0,164,1,1,1,2,0,0,0,0,0,0,0,0
42228000,42148000,4831840897,4.192767e-05,0.00841031,0.031004764,0,3.722211,0.38420504,nan,nan,nan,0.053596802,0.0,0.0,0.0,0.0,1310988,1310988,6620172,0,0,0,164,1,1,1,2,0,0,0,0,0,0,0,0
42428000,42348000,4831840897,5.6580597e-05,0.0032612723,0.0101304585,0,3.7249355,0.37103513,nan,nan,nan,0.047649734,0.0,0.0,0.0,0.0,1310988,1310988,6620172,0,0,0,164,1,1,1,2,0,0,0,0,0,0,0,0
42620000,42540000,4831840897,5.62757e-05,0.008616936,0.031843502,0,3.722545,0.38499108,nan,nan,nan,0.048649043,0.0,0.0,0.0,0.0,1310988,1310988,6620172,0,0,0,164,1,1,1,2,0,0,0,0,0,0,0,0
42820000,42740000,4831840897,7.11022e-05,0.00375757,0.01340103,0,3.7254806,0.36960575,nan,nan,nan,0.04483692,0.0,0.0,0.0,0.0,1310988,1310988,6620172,0,0,0,164,1,1,1,2,0,0,0,0,0,0,0,0
43028000,42948000,4831840897,6.340031e-05,0.008734691,0.032364577,0,3.7338,0.38518873,nan,nan,nan,0.045662813,0.0,0.0,0.0,0.0,1310988,1310988,6620172,0,0,0,164,1,1,1,2,0,0,0,0,0,0,0,0
43228000,43148000,4831840897,7.793426e-05,0.0031370122,0.0127140395,0,3.736835,0.369817,nan,nan,nan,0.04682888,0.0,0.0,0.0,0.0,1310988,1310988,6620172,0,0,0,164,1,1,1,2,0,0,0,0,0,0,0,0
43420000,43340000,4831840897,8.137437e-05,0.008189888,0.031358518,0,3.7344756,0.38361314,nan,nan,nan,0.044337437,0.0,0.0,0.0,0.0,1310988,1310988,6620172,0,0,0,164,1,1,1,2,0,0,0,0,0,0,0,0
43620000,43540000,4831840897,9.1131704e-05,0.0044767326,0.019200468,0,3.7374022,0.37040785,nan,nan,nan,0.043523856,0.0,0.0,0.0,0.0,1310988,1310988,6620172,0,0,0,164,1,1,1,2,0,0,0,0,0,0,0,0
43820000,43740000,4831840897,8.634384e-05,0.00808955,0.0318922,0,3.74024,0.38518512,nan,nan,nan,0.040860124,0.0,0.0,0.0,0.0,1310988,1310988,6620172,0,0,0,164,1,1,1,2,0,0,0,0,0,0,0,0
44028000,43948000,4831840897,9.324691e-05,0.003670563,0.018321492,0,3.74839,0.37058008,nan,nan,nan,0.04232721,0.0,0.0,0.0,0.0,1310988,1310988,6620172,0,0,0,164,1,1,1,2,0,0,0,0,0,0,0,0
44228000,44148000,4831840897,8.959691e-05,0.008560229,0.033922106,0,3.7509623,0.38531467,nan,nan,nan,0.03883187,0.0,0.0,0.0,0.0,1310988,1310988,6620172,0,0,0,164,1,1,1,2,0,0,0,0,0,0,0,0
44420000,44340000,4831840897,9.933523e-05,0.005304858,0.02546174,0,3.7478611,0.3711318,nan,nan,nan,0.038606796,0.0,0.0,0.0,0.0,1310988,1310988,6620172,0,0,0,164,1,1,1,2,0,0,0,0,0,0,0,0
44620000,44540000,4831840897,9.628759e-05,0.008358876,0.035169575,0,3.7500224,0.38368696,nan,nan,nan,0.03908164,0.0,0.0,0.0,0.0,1310988,1310988,6620172,0,0,0,164,1,1,1,2,0,0,0,0,0,0,0,0
44820000,44740000,4831840897,0.00010292611,0.0056832004,0.028268524,0,3.7519488,0.37048262,nan,nan,nan,0.038068045,0.0,0.0,0.0,0.0,1310988,1310988,6620172,0,0,0,164,1,1,1,2,0,0,0,0,0,0,0,0
45020000,44940000,4831840897,0.00010116658,0.008369622,0.036487635,0,3.753629,0.38305485,nan,nan,nan,0.038534425,0.0,0.0,0.0,0.0,1310988,1310988,6620172,0,0,0,164,1,1,1,2,0,0,0,0,0,0,0,0
45228000,45148000,4831840897,0.00010412153,0.0057022483,0.028674616,0,3.7605765,0.3707909,nan,nan,nan,0.034404606,0.0,0.0,0.0,0.0,1310988,1310988,6620172,0,0,0,164,1,1,1,2,0,0,0,0,0,0,0,0
45420000,45340000,4831840897,0.00010555919,0.008529753,0.03817599,0,3.7561653,0.38474277,nan,nan,nan,0.03579366,0.0,0.0,0.0,0.0,1310988,1310988,6620172,0,0,0,164,1,1,1,2,0,0,0,0,0,0,0,0
45620000,45540000,4831840897,2.2044956e-05,0.0034432514,0.016274525,0,3.8974617,0.3694361,nan,nan,nan,0.03407357,0.0,0.0,0.0,0.0,1310988,1310988,6620172,0,0,0,164,1,1,1,2,0,0,0,0,0,0,0,0
45828000,45748000,4831840897,1.967237e-05,0.006606154,0.02623705,0,3.9042568,0.38278046,nan,nan,nan,0.033559833,0.0,0.0,0.0,0.0,1310988,1310988,6620172,0,0,0,164,1,1,1,2,0,0,0,0,0,0,0,0
46020000,45940000,4831840897,2.7282706e-05,0.0032581694,0.015529727,0,3.8991575,0.3689937,nan,nan,nan,0.035400234,0.0,0.0,0.0,0.0,1310988,1310988,6620172,0,0,0,164,1,1,1,2,0,0,0,0,0,0,0,0
46220000,46140000,4831840897,2.8663535e-05,0.006515362,0.025287455,0,3.8994741,0.38372263,nan,nan,nan,0.036937002,0.0,0.0,0.0,0.0,1310988,1310988,6620172,0,0,0,164,1,1,1,2,0,0,0,0,0,0,0,0
46420000,46340000,4831840897,3.3180782e-05,0.003032923,0.014620367,0,3.899426,0.36856577,nan,nan,nan,0.033500124,0.0,0.0,0.0,0.0,1310988,1310988,6620172,0,0,0,164,1,1,1,2,0,0,0,0,0,0,0,0
46620000,46540000,4831840897,3.541048e-05,0.0056795534,0.022345083,0,3.8990133,0.38329735,nan,nan,nan,0.0327788,0.0,0.0,0.0,0.0,1310988,1310988,6620172,0,0,0,164,1,1,1,2,0,0,0,0,0,0,0,0
46820000,46740000,4831840897,3.9489085e-05,0.0033965618,0.015207621,0,3.8982348,0.3682242,nan,nan,nan,0.03181298,0.0,0.0,0.0,0.0,1310988,1310988,6620172,0,0,0,164,1,1,1,2,0,0,0,0,0,0,0,0
47020000,46940000,4831840897,4.191256e-05,0.0051424135,0.020147635,0,3.897097,0.38290104,nan,nan,nan,0.03193261,0.0,0.0,0.0,0.0,1310988,1310988,6620172,0,0,0,164,1,1,1,2,0,0,0,0,0,0,0,0
47220000,47140000,4831840897,4.5510544e-05,0.0028490617,0.013241116,0,3.8955956,0.36989346,nan,nan,nan,0.033287566,0.0,0.0,0.0,0.0,1310988,1310988,6620172,0,0,0,164,1,1,1,2,0,0,0,0,0,0,0,0
47420000,47340000,4831840897,4.8168382e-05,0.0052260314,0.020049239,0,3.8937316,0.3825039,nan,nan,nan,0.028537536,0.0,0.0,0.0,0.0,1310988,1310988,6620172,0,0,0,164,1,1,1,2,0,0,0,0,0,0,0,0
47628000,47548000,4831840897,4.755923e-05,0.002757137,0.012876952,0,3.8972778,0.37036666,nan,nan,nan,0.030199153,0.0,0.0,0.0,0.0,1310988,1310988,6620172,0,0,0,164,1,1,1,2,0,0,0,0,0,0,0,0
47820000,47740000,4831840897,5.4303146e-05,0.0048218123,0.018247403,0,3.8889506,0.3843395,nan,nan,nan,0.032201424,0.0,0.0,0.0,0.0,1310988,1310988,6620172,0,0,0,164,1,1,1,2,0,0,0,0,0,0,0,0
48020000,47940000,4831840897,5.739716e-05,0.0028169572,0.011708459,0,3.8860528,0.36910948,nan,nan,nan,0.03051799,0.0,0.0,0.0,0.0,1310988,1310988,6620172,0,0,0,164,1,1,1,2,0,0,0,0,0,0,0,0
48220000,48140000,4831840897,6.0284317e-05,0.0043231915,0.016063605,0,3.8828316,0.3838566,nan,nan,nan,0.028047193,0.0,0.0,0.0,0.0,1310988,1310988,6620172,0,0,0,164,1,1,1,2,0,0,0,0,0,0,0,0
48428000,48348000,4831840897,5.923153e-05,0.0024964411,0.010558663,0,3.8850174,0.36952496,nan,nan,nan,0.029365435,0.0,0.0,0.0,0.0,1310988,1310988,6620172,0,0,0,164,1,1,1,2,0,0,0,0,0,0,0,0
48620000,48540000,4831840897,6.62669e-05,0.004533095,0.016371973,0,3.8754408,0.38338926,nan,nan,nan,0.032038137,0.0,0.0,0.0,0.0,1310988,1310988,6620172,0,0,0,164,1,1,1,2,0,0,0,0,0,0,0,0
48820000,48740000,4831840897,6.581799e-05,0.002440145,0.009391891,0,3.8712986,0.3702907,nan,nan,nan,0.02442917,0.0,0.0,0.0,0.0,1310988,1310988,6620172,0,0,0,164,1,1,1,2,0,0,0,0,0,0,0,0
49020000,48940000,4831840897,6.563077e-05,0.0036046375,0.012977457,0,3.8668802,0.38287047,nan,nan,nan,0.024960693,0.0,0.0,0.0,0.0,1310988,1310988,6620172,0,0,0,164,1,1,1,2,0,0,0,0,0,0,0,0
49220000,49140000,4831840897,6.548521e-05,0.0027715338,0.010507745,0,3.8621964,0.36984605,nan,nan,nan,0.025885671,0.0,0.0,0.0,0.0,1310988,1310988,6620172,0,0,0,164,1,1,1,2,0,0,0,0,0,0,0,0
49420000,49340000,4831840897,6.546298e-05,0.0041106776,0.014777145,0,3.8572617,0.3823821,nan,nan,nan,0.026229799,0.0,0.0,0.0,0.0,1310988,1310988,6620172,0,0,0,164,1,1,1,2,0,0,0,0,0,0,0,0
49628000,49548000,4831840897,6.409019e-05,0.0027172654,0.010349433,0,3.857724,0.3702155,nan,nan,nan,0.025225032,0.0,0.0,0.0,0.0,1310988,1310988,6620172,0,0,0,164,1,1,1,2,0,0,0,0,0,0,0,0
49828000,49748000,4831840897,6.414032e-05,0.0032101271,0.011879328,0,3.8523004,0.38499504,nan,nan,nan,0.026354063,0.0,0.0,0.0,0.0,1310988,1310988,6620172,0,0,0,164,1,1,1,2,0,0,0,0,0,0,0,0
50020000,49940000,4831840897,6.564537e-05,0.0032386112,0.013057015,0,3.84105,0.36886945,nan,nan,nan,0.026963696,0.0,0.0,0.0,0.0,1310988,1310988,6620172,0,0,0,164,1,1,1,2,0,0,0,0,0,0,0,0
50228000,50148000,4831840897,6.390065e-05,0.0027099908,0.010848543,0,3.8407805,0.38439745,nan,nan,nan,0.02427716,0.0,0.0,0.0,0.0,1310988,1310988,6620172,0,0,0,164,1,1,1,2,0,0,0,0,0,0,0,0
50428000,50348000,4831840897,6.0440263e-05,0.0048659984,0.018601257,0,3.834661,0.37120846,nan,nan,nan,0.028729191,0.0,0.0,0.0,0.0,1310988,1310988,6620172,0,0,0,164,1,1,1,2,0,0,0,0,0,0,0,0
50628000,50548000,4831840897,5.64988e-05,0.0022315977,0.010076786,0,3.8283794,0.3837587,nan,nan,nan,0.025410853,0.0,0.0,0.0,0.0,1310988,1310988,6620172,0,0,0,164,1,1,1,2,0,0,0,0,0,0,0,0
50820000,50740000,4831840897,1.4064854e-05,0.009203169,0.037941534,0,3.9639013,0.36978626,nan,nan,nan,0.03408492,0.0,0.0,0.0,0.0,1310988,1310988,6620172,0,0,0,164,1,1,1,2,0,0,0,0,0,0,0,0
51020000,50940000,4831840897,1.5245909e-05,0.004564648,0.02517632,0,3.956983,0.38452247,nan,nan,nan,0.035745945,0.0,0.0,0.0,0.0,1310988,1310988,6620172,0,0,0,164,1,1,1,2,0,0,0,0,0,0,0,0
51228000,51148000,4831840897,1.5499032e-05,0.015001343,0.057879236,0,3.955578,0.37000355,nan,nan,nan,0.048467986,0.0,0.0,0.0,0.0,1310988,1310988,6620172,0,0,0,164,1,1,1,2,0,0,0,0,0,0,0,0
51420000,51340000,4831840897,1.7198694e-05,0.006596514,0.03235342,0,3.9426057,0.38382116,nan,nan,nan,0.049784318,0.0,0.0,0.0,0.0,1310988,1310988,6620172,0,0,0,164,1,1,1,2,0,0,0,0,0,0,0,0
51628000,51548000,4831840897,2.0719694e-05,0.022060355,0.08309466,0,3.9408092,0.3714299,nan,nan,nan,0.06624956,0.0,0.0,0.0,0.0,1310988,1310988,6620172,0,0,0,164,1,1,1,2,0,0,0,0,0,0,0,0
51828000,51748000,4831840897,2.0114012e-05,0.009969377,0.044654466,0,3.9331822,0.3839645,nan,nan,nan,0.06824389,0.0,0.0,0.0,0.0,1310988,1310988,6620172,0,0,0,164,1,1,1,2,0,0,0,0,0,0,0,0
52020000,51940000,4831840897,3.3505698e-05,0.031622887,0.117699064,0,3.9197798,0.36994207,nan,nan,nan,0.08933359,0.0,0.0,0.0,0.0,1310988,1310988,6620172,0,0,0,164,1,1,1,2,0,0,0,0,0,0,0,0
52228000,52148000,4831840897,2.8416975e-05,0.012351383,0.054911602,0,3.9174747,0.38553727,nan,nan,nan,0.08931476,0.0,0.0,0.0,0.0,1310988,1310988,6620172,0,0,0,164,1,1,1,2,0,0,0,0,0,0,0,0
52420000,52340000,4831840897,5.497657e-05,0.037526567,0.14021383,0,3.9038625,0.3692814,nan,nan,nan,0.09930274,0.0,0.0,0.0,0.0,1310988,1310988,6620172,0,0,0,164,1,1,1,2,0,0,0,0,0,0,0,0
52620000,52540000,4831840897,4.9236125e-05,0.015951017,0.07040086,0,3.8957567,0.38392714,nan,nan,nan,0.103627905,0.0,0.0,0.0,0.0,1310988,1310988,6620172,0,0,0,164,1,1,1,2,0,0,0,0,0,0,0,0
52820000,52740000,4831840897,8.86231e-05,0.04139759,0.15627551,0,3.8875535,0.37067732,nan,nan,nan,0.11842811,0.0,0.0,0.0,0.0,1310988,1310988,6620172,0,0,0,164,1,1,1,2,0,0,0,0,0,0,0,0
53020000,52940000,4831840897,7.895047e-05,0.017926674,0.08233112,0,3.879313,0.38318086,nan,nan,nan,0.11666635,0.0,0.0,0.0,0.0,1310988,1310988,6620172,0,0,0,164,1,1,1,2,0,0,0,0,0,0,0,0
53220000,53140000,4831840897,0.00013561867,0.04450431,0.17088357,0,3.871021,0.37000662,nan,nan,nan,0.12335823,0.0,0.0,0.0,0.0,1310988,1310988,6620172,0,0,0,164,1,1,1,2,0,0,0,0,0,0,0,0
53420000,53340000,4831840897,0.000119350734,0.018796172,0.09320721,0,3.8627486,0.38473415,nan,nan,nan,0.123928964,0.0,0.0,0.0,0.0,1310988,1310988,6620172,0,0,0,164,1,1,1,2,0,0,0,0,0,0,0,0
53620000,53540000,4831840897,0.00018883529,0.04399118,0.17502807,0,3.8544536,0.3693318,nan,nan,nan,0.120191656,0.0,0.0,0.0,0.0,1310988,1310988,6620172,0,0,0,164,1,1,1,2,0,0,0,0,0,0,0,0
53828000,53748000,4831840897,0.00015923707,0.01920764,0.1030811,0,3.8516202,0.38484153,nan,nan,nan,0.11903694,0.0,0.0,0.0,0.0,1310988,1310988,6620172,0,0,0,164,1,1,1,2,0,0,0,0,0,0,0,0
54020000,53940000,4831840897,0.00023399023,0.03974832,0.16915712,0,3.8379645,0.37071207,nan,nan,nan,0.116744585,0.0,0.0,0.0,0.0,1310988,1310988,6620172,0,0,0,164,1,1,1,2,0,0,0,0,0,0,0,0
54220000,54140000,4831840897,0.00020563886,0.021720396,0.12260562,0,3.8297973,0.38320762,nan,nan,nan,0.11078292,0.0,0.0,0.0,0.0,1310988,1310988,6620172,0,0,0,164,1,1,1,2,0,0,0,0,0,0,0,0
54420000,54340000,4831840897,0.00026235403,0.034594703,0.16240154,0,3.821661,0.3700187,nan,nan,nan,0.09555743,0.0,0.0,0.0,0.0,1310988,1310988,6620172,0,0,0,164,1,1,1,2,0,0,0,0,0,0,0,0
54620000,54540000,4831840897,0.00023276354,0.023370845,0.13599932,0,3.8136265,0.38473138,nan,nan,nan,0.09280833,0.0,0.0,0.0,0.0,1310988,1310988,6620172,0,0,0,164,1,1,1,2,0,0,0,0,0,0,0,0
54820000,54740000,4831840897,0.00027441178,0.028364522,0.15316433,0,3.8056357,0.36931413,nan,nan,nan,0.06861069,0.0,0.0,0.0,0.0,1310988,1310988,6620172,0,0,0,164,1,1,1,2,0,0,0,0,0,0,0,0
55020000,54940000,4831840897,0.0002512783,0.025918258,0.14780176,0,3.797754,0.38393632,nan,nan,nan,0.06952277,0.0,0.0,0.0,0.0,1310988,1310988,6620172,0,0,0,164,1,1,1,2,0,0,0,0,0,0,0,0
55220000,55140000,4831840897,0.0002725241,0.025299795,0.14872216,0,3.7899375,0.3706608,nan,nan,nan,0.048084944,0.0,0.0,0.0,0.0,1310988,1310988,6620172,0,0,0,164,1,1,1,2,0,0,0,0,0,0,0,0
55420000,55340000,4831840897,0.0002556193,0.029334445,0.15605775,0,3.7822273,0.3831334,nan,nan,nan,0.05339971,0.0,0.0,0.0,0.0,1310988,1310988,6620172,0,0,0,164,1,1,1,2,0,0,0,0,0,0,0,0
55620000,55540000,4831840897,0.0002573523,0.028611492,0.15272805,0,3.774609,0.36994,nan,nan,nan,0.034150057,0.0,0.0,0.0,0.0,1310988,1310988,6620172,0,0,0,164,1,1,1,2,0,0,0,0,0,0,0,0
55820000,55740000,4831840897,0.00024858394,0.031349756,0.15496378,0,3.7671041,0.38463295,nan,nan,nan,0.032636248,0.0,0.0,0.0,0.0,1310988,1310988,6620172,0,0,0,164,1,1,1,2,0,0,0,0,0,0,0,0
56028000,55948000,4831840897,0.00022703354,0.036018293,0.16014102,0,3.7649593,0.3700558,nan,nan,nan,0.03021992,0.0,0.0,0.0,0.0,1310988,1310988,6620172,0,0,0,164,1,1,1,2,0,0,0,0,0,0,0,0
56220000,56140000,4831840897,5.3363223e-05,0.029083863,0.11103737,0,3.8928041,0.38384032,nan,nan,nan,0.034658987,0.0,0.0,0.0,0.0,1310988,1310988,6620172,0,0,0,164,1,1,1,2,0,0,0,0,0,0,0,0
56420000,56340000,4831840897,5.5169996e-05,0.042856716,0.1605791,0,3.8853,0.37058562,nan,nan,nan,0.06586538,0.0,0.0,0.0,0.0,1310988,1310988,6620172,0,0,0,164,1,1,1,2,0,0,0,0,0,0,0,0
56628000,56548000,4831840897,5.298314e-05,0.034704015,0.13381559,0,3.8833613,0.38393503,nan,nan,nan,0.0715379,0.0,0.0,0.0,0.0,1310988,1310988,6620172,0,0,0,164,1,1,1,2,0,0,0,0,0,0,0,0
56828000,56748000,4831840897,6.593264e-05,0.054673187,0.20490286,0,3.8762264,0.37074324,nan,nan,nan,0.10539952,0.0,0.0,0.0,0.0,1310988,1310988,6620172,0,0,0,164,1,1,1,2,0,0,0,0,0,0,0,0
57020000,56940000,4831840897,5.7369478e-05,0.03669724,0.14509913,0,3.8639078,0.3846359,nan,nan,nan,0.103900105,0.0,0.0,0.0,0.0,1310988,1310988,6620172,0,0,0,164,1,1,1,2,0,0,0,0,0,0,0,0
57220000,57140000,4831840897,8.850339e-05,0.06487665,0.24318376,0,3.8572128,0.36926296,nan,nan,nan,0.1281085,0.0,0.0,0.0,0.0,1310988,1310988,6620172,0,0,0,164,1,1,1,2,0,0,0,0,0,0,0,0
57428000,57348000,4831840897,4.3632375e-05,0.037307963,0.15444577,0,3.856132,0.38480598,nan,nan,nan,0.12612724,0.0,0.0,0.0,0.0,1310988,1310988,6620172,0,0,0,164,1,1,1,2,0,0,0,0,0,0,0,0
57628000,57548000,4831840897,9.499644e-05,0.06738949,0.25582096,0,3.8498821,0.36952695,nan,nan,nan,0.14507306,0.0,0.0,0.0,0.0,1310988,1310988,6620172,0,0,0,164,1,1,1,2,0,0,0,0,0,0,0,0
57820000,57740000,4831840897,4.0781633e-05,0.03956163,0.17199965,0,3.8385046,0.38334864,nan,nan,nan,0.14990018,0.0,0.0,0.0,0.0,1310988,1310988,6620172,0,0,0,164,1,1,1,2,0,0,0,0,0,0,0,0
58028000,57948000,4831840897,8.087142e-05,0.065306306,0.2547344,0,3.838041,0.37106365,nan,nan,nan,0.16232061,0.0,0.0,0.0,0.0,1310988,1310988,6620172,0,0,0,164,1,1,1,2,0,0,0,0,0,0,0,0
58220000,58140000,4831840897,7.3624484e-05,0.039858963,0.18737675,0,3.8270605,0.38281003,nan,nan,nan,0.16215493,0.0,0.0,0.0,0.0,1310988,1310988,6620172,0,0,0,164,1,1,1,2,0,0,0,0,0,0,0,0
58420000,58340000,4831840897,5.2211497e-05,0.065523796,0.26550007,0,3.821531,0.36980268,nan,nan,nan,0.16561596,0.0,0.0,0.0,0.0,1310988,1310988,6620172,0,0,0,164,1,1,1,2,0,0,0,0,0,0,0,0
58628000,58548000,4831840897,0.00013745103,0.037617408,0.1978017,0,3.8215437,0.38324508,nan,nan,nan,0.16495985,0.0,0.0,0.0,0.0,1310988,1310988,6620172,0,0,0,164,1,1,1,2,0,0,0,0,0,0,0,0
58820000,58740000,4831840897,8.071035e-05,0.06158188,0.26693714,0,3.810792,0.36944002,nan,nan,nan,0.16729249,0.0,0.0,0.0,0.0,1310988,1310988,6620172,0,0,0,164,1,1,1,2,0,0,0,0,0,0,0,0
59028000,58948000,4831840897,0.00023672837,0.037664108,0.21933867,0,3.8108788,0.38512346,nan,nan,nan,0.16170973,0.0,0.0,0.0,0.0,1310988,1310988,6620172,0,0,0,164,1,1,1,2,0,0,0,0,0,0,0,0
59228000,59148000,4831840897,0.00015838542,0.053983595,0.25960553,0,3.8054447,0.36989293,nan,nan,nan,0.14663856,0.0,0.0,0.0,0.0,1310988,1310988,6620172,0,0,0,164,1,1,1,2,0,0,0,0,0,0,0,0
59420000,59340000,4831840897,0.00031978468,0.043129716,0.25763187,0,3.7947316,0.38382757,nan,nan,nan,0.14472568,0.0,0.0,0.0,0.0,1310988,1310988,6620172,0,0,0,164,1,1,1,2,0,0,0,0,0,0,0,0
59620000,59540000,4831840897,0.00024485445,0.052286197,0.27870023,0,3.7890959,0.36864534,nan,nan,nan,0.124730244,0.0,0.0,0.0,0.0,1310988,1310988,6620172,0,0,0,164,1,1,1,2,0,0,0,0,0,0,0,0
59828000,59748000,4831840897,0.00037886534,0.046378296,0.27594063,0,3.7887106,0.38417917,nan,nan,nan,0.12212745,0.0,0.0,0.0,0.0,1310988,1310988,6620172,0,0,0,164,1,1,1,2,0,0,0,0,0,0,0,0
60020000,59940000,4831840897,0.0003380442,0.05008427,0.29122904,0,3.7774093,0.37022954,nan,nan,nan,0.09820761,0.0,0.0,0.0,0.0,1310988,1310988,6620172,0,0,0,164,1,1,1,2,0,0,0,0,0,0,0,0
60228000,60148000,4831840897,0.00042544285,0.050935995,0.29651862,0,3.7765775,0.38366625,nan,nan,nan,0.09447317,0.0,0.0,0.0,0.0,1310988,1310988,6620172,0,0,0,164,1,1,1,2,0,0,0,0,0,0,0,0
60420000,60340000,4831840897,0.00041238006,0.051390767,0.30545935,0,3.7650454,0.36974764,nan,nan,nan,0.07001162,0.0,0.0,0.0,0.0,1310988,1310988,6620172,0,0,0,164,1,1,1,2,0,0,0,0,0,0,0,0
60620000,60540000,4831840897,0.00047251355,0.05675246,0.32256228,0,3.7586412,0.38451022,nan,nan,nan,0.06315229,0.0,0.0,0.0,0.0,1310988,1310988,6620172,0,0,0,164,1,1,1,2,0,0,0,0,0,0,0,0
60820000,60740000,4831840897,0.00046351418,0.054344356,0.31374994,0,3.7519226,0.36919945,nan,nan,nan,0.039208435,0.0,0.0,0.0,0.0,1310988,1310988,6620172,0,0,0,164,1,1,1,2,0,0,0,0,0,0,0,0
61028000,60948000,4831840897,0.00047772564,0.055662528,0.30617663,0,3.7502034,0.38474473,nan,nan,nan,0.03753465,0.0,0.0,0.0,0.0,1310988,1310988,6620172,0,0,0,164,1,1,1,2,0,0,0,0,0,0,0,0
61228000,61148000,4831840897,0.00047019933,0.05320073,0.29314885,0,3.7430532,0.36943653,nan,nan,nan,0.02250035,0.0,0.0,0.0,0.0,1310988,1310988,6620172,0,0,0,164,1,1,1,2,0,0,0,0,0,0,0,0
61420000,61340000,4831840897,0.00010235087,0.025622243,0.10385226,0,3.8684676,0.38320288,nan,nan,nan,0.025055686,0.0,0.0,0.0,0.0,1310988,1310988,6620172,0,0,0,164,1,1,1,2,0,0,0,0,0,0,0,0
61628000,61548000,4831840897,9.796284e-05,0.025683638,0.102000706,0,3.8659592,0.37088677,nan,nan,nan,0.008199325,0.0,0.0,0.0,0.0,1310988,1310988,6620172,0,0,0,164,1,1,1,2,0,0,0,0,0,0,0,0
61820000,61740000,4831840897,0.00012028668,0.02536404,0.10031448,0,3.852849,0.38480672,nan,nan,nan,0.008546573,0.0,0.0,0.0,0.0,1310988,1310988,6620172,0,0,0,164,1,1,1,2,0,0,0,0,0,0,0,0
62028000,61948000,4831840897,0.000111076784,0.03060504,0.119482756,0,3.8502939,0.37030444,nan,nan,nan,0.027550353,0.0,0.0,0.0,0.0,1310988,1310988,6620172,0,0,0,164,1,1,1,2,0,0,0,0,0,0,0,0
62228000,62148000,4831840897,0.00011314358,0.027079653,0.10922362,0,3.8425467,0.38283443,nan,nan,nan,0.023346085,0.0,0.0,0.0,0.0,1310988,1310988,6620172,0,0,0,164,1,1,1,2,0,0,0,0,0,0,0,0
62428000,62348000,4831840897,0.00010704749,0.03394789,0.13507709,0,3.8349044,0.36986637,nan,nan,nan,0.039816007,0.0,0.0,0.0,0.0,1310988,1310988,6620172,0,0,0,164,1,1,1,2,0,0,0,0,0,0,0,0
62620000,62540000,4831840897,0.00012261435,0.02644608,0.11233062,0,3.8221858,0.38375613,nan,nan,nan,0.040917452,0.0,0.0,0.0,0.0,1310988,1310988,6620172,0,0,0,164,1,1,1,2,0,0,0,0,0,0,0,0
62828000,62748000,4831840897,8.8104534e-05,0.037566826,0.15371723,0,3.820031,0.36939353,nan,nan,nan,0.051278196,0.0,0.0,0.0,0.0,1310988,1310988,6620172,0,0,0,164,1,1,1,2,0,0,0,0,0,0,0,0
63020000,62940000,4831840897,0.00010535144,0.02810425,0.12657765,0,3.8076336,0.38322252,nan,nan,nan,0.055230558,0.0,0.0,0.0,0.0,1310988,1310988,6620172,0,0,0,164,1,1,1,2,0,0,0,0,0,0,0,0
63220000,63140000,4831840897,7.011445e-05,0.040508967,0.16922122,0,3.8005648,0.3701182,nan,nan,nan,0.06745455,0.0,0.0,0.0,0.0,1310988,1310988,6620172,0,0,0,164,1,1,1,2,0,0,0,0,0,0,0,0
63428000,63348000,4831840897,7.544776e-05,0.029712236,0.1417851,0,3.7988396,0.38350305,nan,nan,nan,0.062600076,0.0,0.0,0.0,0.0,1310988,1310988,6620172,0,0,0,164,1,1,1,2,0,0,0,0,0,0,0,0
63620000,63540000,4831840897,4.167296e-05,0.043039262,0.18380196,0,3.7868683,0.36958522,nan,nan,nan,0.07161313,0.0,0.0,0.0,0.0,1310988,1310988,6620172,0,0,0,164,1,1,1,2,0,0,0,0,0,0,0,0
63828000,63748000,4831840897,5.739045e-05,0.028542977,0.14519948,0,3.785395,0.38523516,nan,nan,nan,0.074068934,0.0,0.0,0.0,0.0,1310988,1310988,6620172,0,0,0,164,1,1,1,2,0,0,0,0,0,0,0,0
64028000,63948000,4831840897,3.3274646e-05,0.04346352,0.1904496,0,3.7788262,0.36993036,nan,nan,nan,0.079500996,0.0,0.0,0.0,0.0,1310988,1310988,6620172,0,0,0,164,1,1,1,2,0,0,0,0,0,0,0,0
64228000,64148000,4831840897,3.9573035e-05,0.028828321,0.15005857,0,3.7724175,0.38468042,nan,nan,nan,0.08035393,0.0,0.0,0.0,0.0,1310988,1310988,6620172,0,0,0,164,1,1,1,2,0,0,0,0,0,0,0,0
64428000,64348000,4831840897,5.246506e-05,0.043389928,0.19231401,0,3.766059,0.36945218,nan,nan,nan,0.08242697,0.0,0.0,0.0,0.0,1310988,1310988,6620172,0,0,0,164,1,1,1,2,0,0,0,0,0,0,0,0
64620000,64540000,4831840897,3.6406956e-05,0.028311899,0.14991039,0,3.7547257,0.38328025,nan,nan,nan,0.08395287,0.0,0.0,0.0,0.0,1310988,1310988,6620172,0,0,0,164,1,1,1,2,0,0,0,0,0,0,0,0
64828000,64748000,4831840897,7.169556e-05,0.040926244,0.18488257,0,3.753676,0.3710039,nan,nan,nan,0.09026486,0.0,0.0,0.0,0.0,1310988,1310988,6620172,0,0,0,164,1,1,1,2,0,0,0,0,0,0,0,0
65020000,64940000,4831840897,4.779732e-05,0.027757984,0.14802991,0,3.7425272,0.38269028,nan,nan,nan,0.08916058,0.0,0.0,0.0,0.0,1310988,1310988,6620172,0,0,0,164,1,1,1,2,0,0,0,0,0,0,0,0
65228000,65148000,4831840897,8.874902e-05,0.040138572,0.1809259,0,3.7416308,0.37045297,nan,nan,nan,0.089881465,0.0,0.0,0.0,0.0,1310988,1310988,6620172,0,0,0,164,1,1,1,2,0,0,0,0,0,0,0,0
65420000,65340000,4831840897,5.7227e-05,0.024800777,0.13830589,0,3.7306595,0.38435203,nan,nan,nan,0.091477744,0.0,0.0,0.0,0.0,1310988,1310988,6620172,0,0,0,164,1,1,1,2,0,0,0,0,0,0,0,0
65628000,65548000,4831840897,9.838795e-05,0.038561642,0.17344247,0,3.7299001,0.3697538,nan,nan,nan,0.09117705,0.0,0.0,0.0,0.0,1310988,1310988,6620172,0,0,0,164,1,1,1,2,0,0,0,0,0,0,0,0
65820000,65740000,4831840897,7.0418515e-05,0.023338443,0.13156624,0,3.7190917,0.3835656,nan,nan,nan,0.091267124,0.0,0.0,0.0,0.0,1310988,1310988,6620172,0,0,0,164,1,1,1,2,0,0,0,0,0,0,0,0
66028000,65948000,4831840897,0.00010286227,0.03415137,0.15743324,0,3.7184725,0.37121972,nan,nan,nan,0.09140273,0.0,0.0,0.0,0.0,1310988,1310988,6620172,0,0,0,164,1,1,1,2,0,0,0,0,0,0,0,0
66220000,66140000,4831840897,7.963965e-05,0.021649601,0.1238751,0,3.7078123,0.3828892,nan,nan,nan,0.09258162,0.0,0.0,0.0,0.0,1310988,1310988,6620172,0,0,0,164,1,1,1,2,0,0,0,0,0,0,0,0
66428000,66348000,4831840897,0.000108581306,0.032218207,0.14845899,0,3.7072685,0.3706023,nan,nan,nan,0.0909325,0.0,0.0,0.0,0.0,1310988,1310988,6620172,0,0,0,164,1,1,1,2,0,0,0,0,0,0,0,0
