timestamp,data_rate,rate_multiplier,tx_rate_avg,tx_error_rate_avg,tx_message_count,tx_buffer_overruns,rx_rate_avg,rx_message_count,rx_message_lost_count,rx_buffer_overruns,rx_parse_errors,rx_packet_drop_count,rx_message_lost_rate,type,mode,flow_control,forwarding,mavlink_v2,ftp,streams,heartbeat_type_antenna_tracker,heartbeat_type_gcs,heartbeat_type_onboard_controller,heartbeat_type_gimbal,heartbeat_type_adsb,heartbeat_type_camera,heartbeat_type_parachute,heartbeat_type_open_drone_id,heartbeat_component_telemetry_radio,heartbeat_component_log,heartbeat_component_osd,heartbeat_component_obstacle_avoidance,heartbeat_component_vio,heartbeat_component_pairing_manager,heartbeat_component_udp_bridge,heartbeat_component_uart_bridge,avoidance_system_healthy,open_drone_id_system_healthy,parachute_system_healthy
3428000,4000.0,0.14012119,0.0,0.0,1,0,0.0,0,0,0,0,0,0.0,0,2,0,1,1,1,60,0,0,0,0,0,0,0,0,0,0,0,0,0,0,0,0,0,0,0
4688000,4000.0,0.13333982,2936.2551,0.0,56,0,0.0,0,0,0,0,0,0.0,0,2,0,1,1,1,60,0,0,0,0,0,0,0,0,0,0,0,0,0,0,0,0,0,0,0
5940000,4000.0,0.13333982,3298.805,0.0,134,0,0.0,0,0,0,0,0,0.0,0,2,0,1,1,1,60,0,0,0,0,0,0,0,0,0,0,0,0,0,0,0,0,0,0,0
7192000,4000.0,0.13333982,3588.6455,0.0,203,0,0.0,0,0,0,0,0,0.0,0,2,0,1,1,1,60,0,0,0,0,0,0,0,0,0,0,0,0,0,0,0,0,0,0,0
8192000,4000.0,0.13333982,3038.8447,0.0,254,0,0.0,0,0,0,0,0,0.0,0,2,0,1,1,1,60,0,0,0,0,0,0,0,0,0,0,0,0,0,0,0,0,0,0,0
8448000,4000.0,0.13333982,3112.5498,0.0,266,0,0.0,0,0,0,0,0,0.0,0,2,0,1,1,1,60,0,0,0,0,0,0,0,0,0,0,0,0,0,0,0,0,0,0,0
9704000,4000.0,0.13333982,3995.02,0.0,351,0,0.0,0,0,0,0,0,0.0,0,2,0,1,1,1,60,0,0,0,0,0,0,0,0,0,0,0,0,0,0,0,0,0,0,0
10964000,4000.0,0.13333982,3401.3945,0.0,443,0,0.0,0,0,0,0,0,0.0,0,2,0,1,1,1,60,0,0,0,0,0,0,0,0,0,0,0,0,0,0,0,0,0,0,0
12224000,4000.0,0.13333982,3907.3706,0.0,510,0,0.0,0,0,0,0,0,0.0,0,2,0,1,1,1,60,0,0,0,0,0,0,0,0,0,0,0,0,0,0,0,0,0,0,0
13224000,4000.0,0.13333982,3878.486,0.0,578,0,0.0,0,0,0,0,0,0.0,0,2,0,1,1,1,60,0,0,0,0,0,0,0,0,0,0,0,0,0,0,0,0,0,0,0
13480000,4000.0,0.13333982,3386.4543,0.0,592,0,0.0,0,0,0,0,0,0.0,0,2,0,1,1,1,60,0,0,0,0,0,0,0,0,0,0,0,0,0,0,0,0,0,0,0
14732000,4000.0,0.13333982,3433.267,0.0,668,0,0.0,0,0,0,0,0,0.0,0,2,0,1,1,1,60,0,0,0,0,0,0,0,0,0,0,0,0,0,0,0,0,0,0,0
15992000,4000.0,0.13333982,3823.7053,0.0,740,0,0.0,0,0,0,0,0,0.0,0,2,0,1,1,1,60,0,0,0,0,0,0,0,0,0,0,0,0,0,0,0,0,0,0,0
17248000,4000.0,0.13333982,3481.0757,0.0,819,0,0.0,0,0,0,0,0,0.0,0,2,0,1,1,1,60,0,0,0,0,0,0,0,0,0,0,0,0,0,0,0,0,0,0,0
18248000,4000.0,0.13333982,3338.6455,0.0,874,0,0.0,0,0,0,0,0,0.0,0,2,0,1,1,1,60,0,0,0,0,0,0,0,0,0,0,0,0,0,0,0,0,0,0,0
18504000,4000.0,0.13333982,4308.765,0.0,910,0,0.0,0,0,0,0,0,0.0,0,2,0,1,1,1,60,0,0,0,0,0,0,0,0,0,0,0,0,0,0,0,0,0,0,0
19764000,4000.0,0.13333982,3622.51,0.0,982,0,0.0,0,0,0,0,0,0.0,0,2,0,1,1,1,60,0,0,0,0,0,0,0,0,0,0,0,0,0,0,0,0,0,0,0
21020000,4000.0,0.13333982,3572.7092,0.0,1062,0,0.0,0,0,0,0,0,0.0,0,2,0,1,1,1,60,0,0,0,0,0,0,0,0,0,0,0,0,0,0,0,0,0,0,0
22272000,4000.0,0.13333982,3932.271,0.0,1142,0,0.0,0,0,0,0,0,0.0,0,2,0,1,1,1,60,0,0,0,0,0,0,0,0,0,0,0,0,0,0,0,0,0,0,0
23272000,4000.0,0.13333982,3540.8367,0.0,1202,0,0.0,0,0,0,0,0,0.0,0,2,0,1,1,1,60,0,0,0,0,0,0,0,0,0,0,0,0,0,0,0,0,0,0,0
23528000,4000.0,0.13333982,3532.8687,0.0,1216,0,0.0,0,0,0,0,0,0.0,0,2,0,1,1,1,60,0,0,0,0,0,0,0,0,0,0,0,0,0,0,0,0,0,0,0
24788000,4000.0,0.13333982,3947.2112,0.0,1295,0,0.0,0,0,0,0,0,0.0,0,2,0,1,1,1,60,0,0,0,0,0,0,0,0,0,0,0,0,0,0,0,0,0,0,0
26048000,4000.0,0.13333982,3486.056,0.0,1385,0,0.0,0,0,0,0,0,0.0,0,2,0,1,1,1,60,0,0,0,0,0,0,0,0,0,0,0,0,0,0,0,0,0,0,0
27304000,4000.0,0.13333982,3858.566,0.0,1453,0,0.0,0,0,0,0,0,0.0,0,2,0,1,1,1,60,0,0,0,0,0,0,0,0,0,0,0,0,0,0,0,0,0,0,0
28304000,4000.0,0.13333982,3892.4304,0.0,1523,0,0.0,0,0,0,0,0,0.0,0,2,0,1,1,1,60,0,0,0,0,0,0,0,0,0,0,0,0,0,0,0,0,0,0,0
28560000,4000.0,0.13333982,3540.8367,0.0,1536,0,0.0,0,0,0,0,0,0.0,0,2,0,1,1,1,60,0,0,0,0,0,0,0,0,0,0,0,0,0,0,0,0,0,0,0
29820000,4000.0,0.13333982,3572.7092,0.0,1618,0,0.0,0,0,0,0,0,0.0,0,2,0,1,1,1,60,0,0,0,0,0,0,0,0,0,0,0,0,0,0,0,0,0,0,0
31076000,4000.0,0.13333982,3970.1196,0.0,1687,0,0.0,0,0,0,0,0,0.0,0,2,0,1,1,1,60,0,0,0,0,0,0,0,0,0,0,0,0,0,0,0,0,0,0,0
32332000,4000.0,0.13333982,3423.307,0.0,1768,0,0.0,0,0,0,0,0,0.0,0,2,0,1,1,1,60,0,0,0,0,0,0,0,0,0,0,0,0,0,0,0,0,0,0,0
33332000,4000.0,0.13333982,3627.4902,0.0,1824,0,0.0,0,0,0,0,0,0.0,0,2,0,1,1,1,60,0,0,0,0,0,0,0,0,0,0,0,0,0,0,0,0,0,0,0
33588000,4000.0,0.13333982,4420.319,0.0,1861,0,0.0,0,0,0,0,0,0.0,0,2,0,1,1,1,60,0,0,0,0,0,0,0,0,0,0,0,0,0,0,0,0,0,0,0
34844000,4000.0,0.13333982,3488.0479,0.0,1931,0,0.0,0,0,0,0,0,0.0,0,2,0,1,1,1,60,0,0,0,0,0,0,0,0,0,0,0,0,0,0,0,0,0,0,0
36104000,4000.0,0.13333982,3489.044,0.0,2011,0,0.0,0,0,0,0,0,0.0,0,2,0,1,1,1,60,0,0,0,0,0,0,0,0,0,0,0,0,0,0,0,0,0,0,0
37360000,4000.0,0.13333982,4083.6655,0.0,2091,0,0.0,0,0,0,0,0,0.0,0,2,0,1,1,1,60,0,0,0,0,0,0,0,0,0,0,0,0,0,0,0,0,0,0,0
38360000,4000.0,0.13333982,3393.4265,0.0,2150,0,0.0,0,0,0,0,0,0.0,0,2,0,1,1,1,60,0,0,0,0,0,0,0,0,0,0,0,0,0,0,0,0,0,0,0
38616000,4000.0,0.13333982,3543.8247,0.0,2163,0,0.0,0,0,0,0,0,0.0,0,2,0,1,1,1,60,0,0,0,0,0,0,0,0,0,0,0,0,0,0,0,0,0,0,0
39872000,4000.0,0.13333982,4068.7253,0.0,2246,0,0.0,0,0,0,0,0,0.0,0,2,0,1,1,1,60,0,0,0,0,0,0,0,0,0,0,0,0,0,0,0,0,0,0,0
41132000,4000.0,0.13333982,3408.3667,0.0,2333,0,0.0,0,0,0,0,0,0.0,0,2,0,1,1,1,60,0,0,0,0,0,0,0,0,0,0,0,0,0,0,0,0,0,0,0
42388000,4000.0,0.13333982,3759.9602,0.0,2411,0,0.0,0,0,0,0,0,0.0,0,2,0,1,1,1,60,0,0,0,0,0,0,0,0,0,0,0,0,0,0,0,0,0,0,0
43388000,4000.0,0.13333982,4123.506,0.0,2473,0,0.0,0,0,0,0,0,0.0,0,2,0,1,1,1,60,0,0,0,0,0,0,0,0,0,0,0,0,0,0,0,0,0,0,0
43644000,4000.0,0.13333982,3427.291,0.0,2486,0,0.0,0,0,0,0,0,0.0,0,2,0,1,1,1,60,0,0,0,0,0,0,0,0,0,0,0,0,0,0,0,0,0,0,0
44896000,4000.0,0.13333982,3470.1196,0.0,2567,0,0.0,0,0,0,0,0,0.0,0,2,0,1,1,1,60,0,0,0,0,0,0,0,0,0,0,0,0,0,0,0,0,0,0,0
46148000,4000.0,0.13333982,4068.7253,0.0,2647,0,0.0,0,0,0,0,0,0.0,0,2,0,1,1,1,60,0,0,0,0,0,0,0,0,0,0,0,0,0,0,0,0,0,0,0
47400000,4000.0,0.13333982,3482.0718,0.0,2717,0,0.0,0,0,0,0,0,0.0,0,2,0,1,1,1,60,0,0,0,0,0,0,0,0,0,0,0,0,0,0,0,0,0,0,0
48400000,4000.0,0.13333982,3553.785,0.0,2784,0,0.0,0,0,0,0,0,0.0,0,2,0,1,1,1,60,0,0,0,0,0,0,0,0,0,0,0,0,0,0,0,0,0,0,0
48656000,4000.0,0.13333982,4416.335,0.0,2810,0,0.0,0,0,0,0,0,0.0,0,2,0,1,1,1,60,0,0,0,0,0,0,0,0,0,0,0,0,0,0,0,0,0,0,0
49912000,4000.0,0.13333982,3521.9124,0.0,2888,0,0.0,0,0,0,0,0,0.0,0,2,0,1,1,1,60,0,0,0,0,0,0,0,0,0,0,0,0,0,0,0,0,0,0,0
51168000,4000.0,0.13333982,3459.1633,0.0,2958,0,0.0,0,0,0,0,0,0.0,0,2,0,1,1,1,60,0,0,0,0,0,0,0,0,0,0,0,0,0,0,0,0,0,0,0
52168000,4000.0,0.13333982,4039.8408,0.0,3029,0,0.0,0,0,0,0,0,0.0,0,2,0,1,1,1,60,0,0,0,0,0,0,0,0,0,0,0,0,0,0,0,0,0,0,0
52428000,4000.0,0.13333982,4039.8408,0.0,3042,0,0.0,0,0,0,0,0,0.0,0,2,0,1,1,1,60,0,0,0,0,0,0,0,0,0,0,0,0,0,0,0,0,0,0,0
53680000,4000.0,0.13333982,3474.1038,0.0,3122,0,0.0,0,0,0,0,0,0.0,0,2,0,1,1,1,60,0,0,0,0,0,0,0,0,0,0,0,0,0,0,0,0,0,0,0
54936000,4000.0,0.13333982,3985.0598,0.0,3193,0,0.0,0,0,0,0,0,0.0,0,2,0,1,1,1,60,0,0,0,0,0,0,0,0,0,0,0,0,0,0,0,0,0,0,0
56192000,4000.0,0.13333982,3561.7532,0.0,3281,0,0.0,0,0,0,0,0,0.0,0,2,0,1,1,1,60,0,0,0,0,0,0,0,0,0,0,0,0,0,0,0,0,0,0,0
57192000,4000.0,0.13333982,4467.132,0.0,3339,0,0.0,0,0,0,0,0,0.0,0,2,0,1,1,1,60,0,0,0,0,0,0,0,0,0,0,0,0,0,0,0,0,0,0,0
57448000,4000.0,0.13333982,4467.132,0.0,3362,0,0.0,0,0,0,0,0,0.0,0,2,0,1,1,1,60,0,0,0,0,0,0,0,0,0,0,0,0,0,0,0,0,0,0,0
58704000,4000.0,0.13333982,3506.9722,0.0,3432,0,0.0,0,0,0,0,0,0.0,0,2,0,1,1,1,60,0,0,0,0,0,0,0,0,0,0,0,0,0,0,0,0,0,0,0
59964000,4000.0,0.13333982,3968.1277,0.0,3514,0,0.0,0,0,0,0,0,0.0,0,2,0,1,1,1,60,0,0,0,0,0,0,0,0,0,0,0,0,0,0,0,0,0,0,0
61220000,4000.0,0.13333982,3574.7014,0.0,3593,0,0.0,0,0,0,0,0,0.0,0,2,0,1,1,1,60,0,0,0,0,0,0,0,0,0,0,0,0,0,0,0,0,0,0,0
62220000,4000.0,0.13333982,3478.0876,0.0,3654,0,0.0,0,0,0,0,0,0.0,0,2,0,1,1,1,60,0,0,0,0,0,0,0,0,0,0,0,0,0,0,0,0,0,0,0
62472000,4000.0,0.13333982,3478.0876,0.0,3666,0,0.0,0,0,0,0,0,0.0,0,2,0,1,1,1,60,0,0,0,0,0,0,0,0,0,0,0,0,0,0,0,0,0,0,0
63724000,4000.0,0.13333982,4020.9165,0.0,3758,0,0.0,0,0,0,0,0,0.0,0,2,0,1,1,1,60,0,0,0,0,0,0,0,0,0,0,0,0,0,0,0,0,0,0,0
64980000,4000.0,0.13333982,3423.307,0.0,3836,0,0.0,0,0,0,0,0,0.0,0,2,0,1,1,1,60,0,0,0,0,0,0,0,0,0,0,0,0,0,0,0,0,0,0,0
66240000,4000.0,0.13333982,4047.8088,0.0,3907,0,0.0,0,0,0,0,0,0.0,0,2,0,1,1,1,60,0,0,0,0,0,0,0,0,0,0,0,0,0,0,0,0,0,0,0
67240000,4000.0,0.13333982,3519.9204,0.0,3977,0,0.0,0,0,0,0,0,0.0,0,2,0,1,1,1,60,0,0,0,0,0,0,0,0,0,0,0,0,0,0,0,0,0,0,0
67492000,4000.0,0.13333982,3519.9204,0.0,3990,0,0.0,0,0,0,0,0,0.0,0,2,0,1,1,1,60,0,0,0,0,0,0,0,0,0,0,0,0,0,0,0,0,0,0,0
68744000,4000.0,0.13333982,3993.028,0.0,4069,0,0.0,0,0,0,0,0,0.0,0,2,0,1,1,1,60,0,0,0,0,0,0,0,0,0,0,0,0,0,0,0,0,0,0,0
69996000,4000.0,0.13333982,3623.506,0.0,4143,0,0.0,0,0,0,0,0,0.0,0,2,0,1,1,1,60,0,0,0,0,0,0,0,0,0,0,0,0,0,0,0,0,0,0,0
71248000,4000.0,0.13333982,3433.267,0.0,4229,0,0.0,0,0,0,0,0,0.0,0,2,0,1,1,1,60,0,0,0,0,0,0,0,0,0,0,0,0,0,0,0,0,0,0,0
72248000,4000.0,0.13333982,4236.0557,0.0,4286,0,0.0,0,0,0,0,0,0.0,0,2,0,1,1,1,60,0,0,0,0,0,0,0,0,0,0,0,0,0,0,0,0,0,0,0
72508000,4000.0,0.13333982,4236.0557,0.0,4310,0,0.0,0,0,0,0,0,0.0,0,2,0,1,1,1,60,0,0,0,0,0,0,0,0,0,0,0,0,0,0,0,0,0,0,0
73760000,4000.0,0.13333982,3448.2073,0.0,4380,0,0.0,0,0,0,0,0,0.0,0,2,0,1,1,1,60,0,0,0,0,0,0,0,0,0,0,0,0,0,0,0,0,0,0,0
