timestamp,timestamp_sample,ref_timestamp,ref_lat,ref_lon,x,y,z,delta_xy[0],delta_xy[1],delta_z,vx,vy,vz,z_deriv,delta_vxy[0],delta_vxy[1],delta_vz,ax,ay,az,heading,delta_heading,ref_alt,dist_bottom,eph,epv,evh,evv,vxy_max,vz_max,hagl_min,hagl_max,xy_valid,z_valid,v_xy_valid,v_z_valid,xy_reset_counter,z_reset_counter,vxy_reset_counter,vz_reset_counter,heading_reset_counter,heading_good_for_control,xy_global,z_global,dist_bottom_valid,dist_bottom_sensor_bitfield,dead_reckoning
3852000,3852000,0,nan,nan,0.001219966,-0.00024990534,-0.0073860614,-5.255593e-08,1.3669487e-08,0.0,0.005167854,-0.00083042914,-0.023395468,-0.018298605,-8.759322e-06,2.2782478e-06,0.0014087781,0.0147014065,-0.031095127,-0.024300998,-5.1610776e-05,0.0,nan,0.10749396,0.011181805,5.7735023,0.07516641,0.023662431,inf,inf,inf,inf,0,0,0,0,1,1,1,1,0,0,0,0,0,0,1
4356000,4356000,0,nan,nan,0.0022792798,-0.00026095132,-0.039732426,-5.255593e-08,1.3669487e-08,0.0,0.007761082,1.9090334e-05,-0.015730338,-0.039367236,-8.759322e-06,2.2782478e-06,0.0014087781,-0.019720493,0.01598126,-0.042399388,-0.0001237181,0.0,nan,0.1,0.023145033,1.6517773,0.11033911,0.061037995,inf,inf,inf,inf,0,1,0,1,1,1,1,1,0,0,0,0,0,0,1
4852000,4852000,4392000,47.3977508,8.5456073,0.0022457084,-0.0004301804,-0.056740817,-5.255593e-08,1.3669487e-08,0.0,0.005813509,-0.003784314,-0.016423032,-0.037427347,-8.759322e-06,2.2782478e-06,0.0014087781,0.0059801964,-0.014583201,0.028791836,0.00014277472,0.0,488.02798,0.11362854,0.027531685,0.9533294,0.107584774,0.08699542,inf,inf,inf,inf,0,1,0,1,1,1,1,1,0,0,1,1,0,0,1
5348000,5348000,4392000,47.3977508,8.5456073,0.0007452575,-0.0016135027,-0.051917892,-5.255593e-08,1.3669487e-08,0.0,0.0023850463,-0.0043631746,-0.014913962,-0.017672354,-8.759322e-06,2.2782478e-06,0.0014087781,-0.013331111,-0.003724839,-0.03568921,-0.00016475428,0.0,488.02798,0.10949507,0.015535585,0.75632584,0.06301598,0.090219125,inf,inf,inf,inf,0,1,0,1,1,1,1,1,0,0,1,1,0,0,1
5852000,5852000,4392000,47.3977508,8.5456073,-0.000150107,0.00037926243,-0.047750678,-5.255593e-08,1.3669487e-08,0.0,0.00016725546,0.0020819916,-0.012554089,-0.00583523,-8.759322e-06,2.2782478e-06,0.0014087781,0.002712899,-0.004025685,-0.00971835,-6.815473e-05,0.0,488.02798,0.1072353,0.01927773,0.6475893,0.06466211,0.09459344,inf,inf,inf,inf,0,1,0,1,1,1,1,1,0,0,1,1,0,0,1
6356000,6356000,4392000,47.3977508,8.5456073,-0.00050774904,0.0006697978,-0.04568328,-5.255593e-08,1.3669487e-08,0.0,-0.00061873393,0.00047625764,-0.009812132,-0.00010654004,-8.759322e-06,2.2782478e-06,0.0014087781,-0.039250515,0.002914734,0.016712582,-0.000120346136,0.0,488.02798,0.103985846,0.01291701,0.5685035,0.045870017,0.08616503,inf,inf,inf,inf,0,1,0,1,1,1,1,1,0,0,1,1,0,0,1
6852000,6852000,4392000,47.3977508,8.5456073,-0.0020899046,0.00048890704,-0.0408012,-5.255593e-08,1.3669487e-08,0.0,-0.0057289773,0.0020004192,-0.0066664484,0.0056858207,-8.759322e-06,2.2782478e-06,0.0014087781,-0.03518017,0.015981786,0.0025918705,-3.885295e-05,0.0,488.02798,0.10297011,0.01558566,0.5200307,0.049399067,0.085927024,inf,inf,inf,inf,0,1,0,1,1,1,1,1,0,0,1,1,0,0,1
7348000,7348000,4392000,47.3977508,8.5456073,-0.001984797,0.0023146693,-0.037827175,-5.255593e-08,1.3669487e-08,0.0,-0.002706753,0.00840137,-0.0010967285,0.009757155,-8.759322e-06,2.2782478e-06,0.0014087781,0.030396096,0.016804347,0.02038013,-0.00028982284,0.0,488.02798,0.10157968,0.018567536,0.47903654,0.052780192,0.08512933,inf,inf,inf,inf,0,1,0,1,1,1,1,1,0,0,1,1,0,0,1
7852000,7852000,4392000,47.3977508,8.5456073,-0.00027580315,0.003177062,-0.03345285,-5.255593e-08,1.3669487e-08,0.0,0.0008512453,0.0059050894,0.0013384547,0.010872326,-8.759322e-06,2.2782478e-06,0.0014087781,0.03530673,0.00631556,0.0066058706,-0.00051582896,0.0,488.02798,0.1,0.01353334,0.45000318,0.042538095,0.078018434,inf,inf,inf,inf,0,1,0,1,1,1,1,1,0,0,1,1,0,0,1
8356000,8356000,4392000,47.3977508,8.5456073,-0.00023212613,0.001375724,-0.034911666,-5.255593e-08,1.3669487e-08,0.0,-0.002667246,0.0023835355,-0.0007298648,0.0034488863,-8.759322e-06,2.2782478e-06,0.0014087781,-0.02226939,0.021087747,-0.004300847,-0.0006826414,0.0,488.02798,0.1,0.016484365,0.4247151,0.04680625,0.07804395,inf,inf,inf,inf,0,1,0,1,1,1,1,1,0,0,1,1,0,0,1
8852000,8852000,4392000,47.3977508,8.5456073,-0.0006179909,0.0001623213,-0.07111157,-5.255593e-08,1.3669487e-08,-0.03332181,-0.0009079596,0.001313462,0.0008468939,0.0013329897,-8.759322e-06,2.2782478e-06,0.0014087781,-0.008317904,-0.0013676762,-0.011727213,-0.0006856796,0.0,488.02798,0.1,0.012084033,0.96153265,0.03829943,0.07294335,inf,inf,inf,inf,0,1,0,1,1,2,1,1,0,0,1,1,0,0,1
9348000,9348000,4392000,47.3977508,8.5456073,0.00085477513,0.0005886464,-0.06943013,-5.255593e-08,1.3669487e-08,-0.03332181,0.0037248882,0.003920537,0.001778295,0.0024894122,-8.759322e-06,2.2782478e-06,0.0014087781,0.010148228,-0.005409936,-0.028016044,-0.0007171177,0.0,488.02798,0.1,0.014430219,0.59634274,0.04212632,0.073908105,inf,inf,inf,inf,0,1,0,1,1,2,1,1,0,0,1,1,0,0,1
9852000,9852000,4392000,47.3977508,8.5456073,0.0019517924,0.000985548,-0.06875293,-5.255593e-08,1.3669487e-08,-0.03332181,0.0052542766,0.0037667616,0.0031474796,0.0038360367,-8.759322e-06,2.2782478e-06,0.0014087781,0.025486877,-0.00952561,0.022736376,-0.0005433607,0.0,488.02798,0.10058631,0.0109865535,0.47484314,0.035452917,0.07526222,inf,inf,inf,inf,0,1,0,1,1,2,1,1,0,0,1,1,0,0,1
10356000,10356000,4392000,47.3977508,8.5456073,0.001430867,0.00046392824,-0.06306165,-5.255593e-08,1.3669487e-08,-0.03332181,0.0007849326,0.00020541422,0.006592417,0.009580233,-8.759322e-06,2.2782478e-06,0.0014087781,0.010325776,-0.0036422424,-0.005460344,-0.00069389533,0.0,488.02798,0.1,0.013256205,0.40513623,0.039364416,0.07188172,inf,inf,inf,inf,0,1,0,1,1,2,1,1,0,0,1,1,0,0,1
10852000,10852000,4392000,47.3977508,8.5456073,-0.00045436117,-0.0011316484,-0.062249552,-5.255593e-08,1.3669487e-08,-0.03332181,-0.0014361382,-0.0029804693,0.0081227105,0.008148676,-8.759322e-06,2.2782478e-06,0.0014087781,-0.0058498406,-0.05173629,0.021168029,-0.00076682295,0.0,488.02798,0.1,0.01576272,0.34154493,0.043034714,0.07325887,inf,inf,inf,inf,0,1,0,1,1,2,1,1,0,0,1,1,0,0,1
11348000,11348000,4392000,47.3977508,8.5456073,-0.0009664762,-0.0023998418,-0.06171072,-5.255593e-08,1.3669487e-08,-0.03332181,-0.0025001355,-0.005224762,0.013160188,0.009519448,-8.759322e-06,2.2782478e-06,0.0014087781,-0.022896463,-0.013717042,-0.0128448,-0.00073011214,0.0,488.02798,0.1,0.011836772,0.31654155,0.03632461,0.070104405,inf,inf,inf,inf,0,1,0,1,1,2,1,1,0,0,1,1,0,0,1
11852000,11852000,4392000,47.3977508,8.5456073,-0.0016289576,-0.0028580886,-0.059756108,-5.255593e-08,1.3669487e-08,-0.03332181,-0.004393986,-0.005921581,0.01774116,0.011233677,-8.759322e-06,2.2782478e-06,0.0014087781,-0.029799469,0.0024914914,-0.0043688337,-0.0006508629,0.0,488.02798,0.1,0.014316769,0.29771715,0.04037669,0.07189818,inf,inf,inf,inf,0,1,0,1,1,2,1,1,0,0,1,1,0,0,1
12356000,12356000,4392000,47.3977508,8.5456073,-0.002314082,-0.0015456526,-0.059875067,-5.255593e-08,1.3669487e-08,-0.03332181,-0.0052334117,-0.0024430342,0.015836345,0.005849177,-8.759322e-06,2.2782478e-06,0.0014087781,-0.0042752507,-0.023265993,0.022158956,-0.0007294632,0.0,488.02798,0.1,0.011045325,0.28482056,0.03466344,0.073762625,inf,inf,inf,inf,0,1,0,1,1,2,1,1,0,0,1,1,0,0,1
12852000,12852000,4392000,47.3977508,8.5456073,-0.0012994388,0.00010602262,-0.06016117,-5.255593e-08,1.3669487e-08,-0.03332181,-0.00023323447,0.00343773,0.015744641,0.004068363,-8.759322e-06,2.2782478e-06,0.0014087781,-0.0068969815,0.021690516,-0.0050030644,-0.00069480145,0.0,488.02798,0.1,0.013052382,0.2628977,0.038051493,0.070573255,inf,inf,inf,inf,0,1,0,1,1,2,1,1,0,0,1,1,0,0,1
13348000,13348000,4392000,47.3977508,8.5456073,0.00019488318,0.0024441453,-0.061060715,-5.255593e-08,1.3669487e-08,-0.03332181,0.0012111944,0.0051595746,0.015211927,0.0020734624,-8.759322e-06,2.2782478e-06,0.0014087781,0.010718809,0.009318959,0.006734393,-0.0006609503,0.0,488.02798,0.1,0.015480234,0.25644475,0.0416046,0.07230766,inf,inf,inf,inf,0,1,0,1,1,2,1,1,0,0,1,1,0,0,1
13852000,13852000,4392000,47.3977508,8.5456073,0.0015058591,0.002510464,-0.06158557,-5.255593e-08,1.3669487e-08,-0.03332181,0.004508599,0.003956549,0.012951912,-0.0003513732,-8.759322e-06,2.2782478e-06,0.0014087781,0.021736704,0.008109258,-0.039658505,-0.0006042907,0.0,488.02798,0.1,0.011933604,0.24913426,0.0358974,0.069654964,inf,inf,inf,inf,0,1,0,1,1,2,1,1,0,0,1,1,0,0,1
14356000,14356000,4392000,47.3977508,8.5456073,0.001555682,0.0006029197,-0.063650824,-5.255593e-08,1.3669487e-08,-0.03332181,0.0027485017,-0.0010522082,0.01121955,-0.0025000894,-8.759322e-06,2.2782478e-06,0.0014087781,0.02458978,-0.011326541,-0.006387941,-0.0005334536,0.0,488.02798,0.1,0.014397965,0.24587677,0.03982341,0.07161027,inf,inf,inf,inf,0,1,0,1,1,2,1,1,0,0,1,1,0,0,1
14852000,14852000,4392000,47.3977508,8.5456073,0.0014422399,-0.0009530226,-0.06308267,-5.255593e-08,1.3669487e-08,-0.03332181,0.004515422,-0.002644195,0.007996214,-0.0034045035,-8.759322e-06,2.2782478e-06,0.0014087781,-0.0060887537,-0.0003386667,0.01152791,-0.0006503175,0.0,488.02798,0.1,0.010982787,0.2362518,0.034118436,0.07303814,inf,inf,inf,inf,0,1,0,1,1,2,1,1,0,0,1,1,0,0,1
15348000,15348000,4392000,47.3977508,8.5456073,0.0012467476,-0.0005268312,-0.06450893,-5.255593e-08,1.3669487e-08,-0.03332181,0.0017412765,-0.00021299797,0.008174356,-0.0025929147,-8.759322e-06,2.2782478e-06,0.0014087781,-0.009878713,-0.01620411,0.03384426,-0.00052640424,0.0,488.02798,0.1,0.0129558,0.23248489,0.037437662,0.07031479,inf,inf,inf,inf,0,1,0,1,1,2,1,1,0,0,1,1,0,0,1
15852000,15852000,4392000,47.3977508,8.5456073,0.00092236506,-0.00014705904,-0.06568578,-5.255593e-08,1.3669487e-08,-0.03332181,0.00056258985,-0.0007927103,0.008928123,-0.0016860098,-8.759322e-06,2.2782478e-06,0.0014087781,0.005323527,-0.0038358264,0.007210299,-0.0004473562,0.0,488.02798,0.1,0.015602939,0.23217793,0.041269943,0.072320096,inf,inf,inf,inf,0,1,0,1,1,2,1,1,0,0,1,1,0,0,1
16356000,16356000,4392000,47.3977508,8.5456073,6.123132e-05,-0.0009322392,-0.065891825,-5.255593e-08,1.3669487e-08,-0.03332181,0.0004696367,-0.0025981695,0.009261925,-0.0006960303,-8.759322e-06,2.2782478e-06,0.0014087781,-0.038902406,-0.011402342,0.0046854834,-0.00035243735,0.0,488.02798,0.1,0.012079387,0.22903349,0.035842218,0.06975266,inf,inf,inf,inf,0,1,0,1,1,2,1,1,0,0,1,1,0,0,1
16852000,16852000,4392000,47.3977508,8.5456073,-0.0002800808,-0.0019060224,-0.06553242,-5.255593e-08,1.3669487e-08,-0.03332181,-0.0012032508,-0.0052313465,0.01322763,0.0032723532,-8.759322e-06,2.2782478e-06,0.0014087781,0.015177574,-0.0038308206,0.009702518,-0.0002933266,0.0,488.02798,0.1,0.0143081425,0.22366895,0.039334558,0.07122967,inf,inf,inf,inf,0,1,0,1,1,2,1,1,0,0,1,1,0,0,1
17356000,17356000,4392000,47.3977508,8.5456073,-0.00076496764,-0.0022549923,-0.064543314,-5.255593e-08,1.3669487e-08,-0.03332181,-0.0015715311,-0.0057627102,0.0138669945,0.0033759475,-8.759322e-06,2.2782478e-06,0.0014087781,0.001843582,0.013898897,-0.015467404,-0.00010632262,0.0,488.02798,0.1,0.011132131,0.22443724,0.034191187,0.07324721,inf,inf,inf,inf,0,1,0,1,1,2,1,1,0,0,1,1,0,0,1
17852000,17852000,4392000,47.3977508,8.5456073,-0.0011179934,-0.0015757366,-0.06526128,-5.255593e-08,1.3669487e-08,-0.03332181,-0.002683077,-0.0018410768,0.010782535,-0.0010044328,-8.759322e-06,2.2782478e-06,0.0014087781,-0.0008355127,-0.005206835,-0.013856216,-0.00019172223,0.0,488.02798,0.1,0.013124191,0.22253953,0.037468165,0.07056021,inf,inf,inf,inf,0,1,0,1,1,2,1,1,0,0,1,1,0,0,1
18348000,18348000,4392000,47.3977508,8.5456073,-0.0006050981,-0.00041561745,-0.06538584,-5.255593e-08,1.3669487e-08,-0.03332181,0.0017803091,-0.0028159241,0.0124052195,0.0012351461,-8.759322e-06,2.2782478e-06,0.0014087781,0.0038635477,-0.015163793,0.0073881815,-6.50769e-05,0.0,488.02798,0.1,0.0155262565,0.2234855,0.0408945,0.0723853,inf,inf,inf,inf,0,1,0,1,1,2,1,1,0,0,1,1,0,0,1
18852000,18852000,4392000,47.3977508,8.5456073,0.0015107044,-0.0016046936,-0.064177215,-5.255593e-08,1.3669487e-08,-0.03332181,0.0046457015,-0.006112561,0.013484459,0.002877993,-8.759322e-06,2.2782478e-06,0.0014087781,0.0013070093,-0.016186764,0.026702879,7.516563e-05,0.0,488.02798,0.1,0.01204611,0.21696348,0.03560885,0.06952457,inf,inf,inf,inf,0,1,0,1,1,2,1,1,0,0,1,1,0,0,1
19348000,19348000,4392000,47.3977508,8.5456073,0.0008396648,-0.0027117063,-0.063630894,-5.255593e-08,1.3669487e-08,-0.03332181,7.1603426e-06,-0.0069379485,0.013377035,0.0022555983,-8.759322e-06,2.2782478e-06,0.0014087781,-0.02126576,0.010346513,0.018100252,-1.5068558e-05,0.0,488.02798,0.1,0.014258969,0.21826163,0.039073676,0.07135186,inf,inf,inf,inf,0,1,0,1,1,2,1,1,0,0,1,1,0,0,1
19852000,19852000,4392000,47.3977508,8.5456073,7.305497e-05,-0.0021358128,-0.06346381,-5.255593e-08,1.3669487e-08,-0.03332181,0.0002711013,-0.0042038374,0.011852316,0.0006345922,-8.759322e-06,2.2782478e-06,0.0014087781,0.018339166,-0.017198892,-0.022229737,-0.0001835132,0.0,488.02798,0.1,0.011112494,0.22051373,0.034032624,0.07341884,inf,inf,inf,inf,0,1,0,1,1,2,1,1,0,0,1,1,0,0,1
20348000,20348000,4392000,47.3977508,8.5456073,0.028451031,0.028224576,-0.038007766,-5.255593e-08,1.3669487e-08,-0.03332181,0.16883837,0.17091903,0.1809656,0.1651406,-8.759322e-06,2.2782478e-06,0.0014087781,0.46540272,0.5234924,0.51254404,0.000119372664,0.0,488.02798,0.1,0.013085114,0.21887954,0.038896143,0.0708308,inf,inf,inf,inf,0,1,0,1,1,2,1,1,0,0,1,1,0,0,1
20852000,20852000,4392000,47.3977508,8.5456073,0.16320187,0.16825908,0.08934435,-5.255593e-08,1.3669487e-08,-0.03332181,0.38345212,0.3993288,0.40599927,0.38188356,-8.759322e-06,2.2782478e-06,0.0014087781,0.41093972,0.414014,0.42168328,0.00029294414,0.0,488.02798,0.1,0.05667863,0.22388045,0.18468559,0.08256547,inf,inf,inf,inf,0,1,0,1,1,2,1,1,0,0,1,1,0,0,1
21348000,21348000,4392000,47.3977508,8.5456073,0.39833033,0.41475305,0.321126,-5.255593e-08,1.3669487e-08,-0.03332181,0.56065214,0.59249574,0.59506637,0.56571054,-8.759322e-06,2.2782478e-06,0.0014087781,0.32146767,0.33321252,0.31835863,0.00041349026,0.0,488.02798,0.1,0.18366922,0.23772228,0.34720418,0.094694465,inf,inf,inf,inf,0,1,0,1,1,2,1,1,0,0,1,1,0,0,1
21852000,21852000,4392000,47.3977508,8.5456073,0.7035198,0.75022256,0.5894678,-5.255593e-08,1.3669487e-08,-0.03332181,0.6194684,0.7387594,0.57704747,0.5243711,-8.759322e-06,2.2782478e-06,0.0014087781,-0.043955047,0.21207994,-0.12956466,0.017789332,0.0,488.02798,0.1,0.39828008,0.2573058,0.5192504,0.10627866,inf,inf,inf,inf,0,1,0,1,1,2,1,1,0,0,1,1,0,0,1
22348000,22348000,4392000,47.3977508,8.5456073,0.96341217,1.0955782,0.7943896,-5.255593e-08,1.3669487e-08,-0.03332181,0.27351734,0.45778954,0.6619825,0.5683758,-8.759322e-06,2.2782478e-06,0.0014087781,-1.9465253,-2.0494237,0.2777185,0.08774976,0.0,488.02798,0.1,0.69446445,0.27944845,0.68701,0.113125525,inf,inf,inf,inf,0,1,0,1,1,2,1,1,0,0,1,1,0,0,1
22852000,22852000,4392000,47.3977508,8.5456073,0.9370227,1.1554937,0.87934464,-5.255593e-08,1.3669487e-08,-0.03332181,-0.008167946,0.0967804,0.14006014,-0.03006546,-8.759322e-06,2.2782478e-06,0.0014087781,0.4228827,0.33674964,-1.0531181,0.08345446,0.0,488.02798,0.1,1.0782682,0.28985143,0.86893815,0.10802268,inf,inf,inf,inf,0,1,0,1,1,2,1,1,0,0,1,1,0,0,1
23356000,23356000,4392000,47.3977508,8.5456073,0.91744715,1.2221382,0.6353024,-5.255593e-08,1.3669487e-08,-0.03332181,0.2519562,0.36423084,-0.26725712,-0.5281419,-8.759322e-06,2.2782478e-06,0.0014087781,0.73819524,0.69235873,-0.5265269,0.06928186,0.0,488.02798,0.32004547,1.5487195,0.3076371,1.0477031,0.10762351,inf,inf,inf,inf,0,1,0,1,1,2,1,1,0,0,1,1,0,0,1
23852000,23852000,4392000,47.3977508,8.5456073,1.0012125,1.4100102,0.20699407,-5.255593e-08,1.3669487e-08,-0.03332181,0.5055632,0.6350484,-0.54521537,-0.87600595,-8.759322e-06,2.2782478e-06,0.0014087781,0.47053424,0.47714448,-0.40051058,0.060818028,0.0,488.02798,0.74835384,2.0601146,0.32363135,1.1962718,0.10954963,inf,inf,inf,inf,0,1,0,1,1,2,1,1,0,0,1,1,0,0,1
24356000,24356000,4392000,47.3977508,8.5456073,1.1197982,1.6449151,-0.32705727,-5.255593e-08,1.3669487e-08,-0.03332181,0.5363367,0.6841627,-0.5955408,-0.96031666,-8.759322e-06,2.2782478e-06,0.0014087781,-0.02520601,-0.053141497,0.44433585,0.05468863,0.0,488.02798,1.2824051,2.630729,0.3366987,1.329613,0.112014934,inf,inf,inf,inf,0,1,0,1,1,2,1,1,0,0,1,1,0,0,1
24852000,24852000,4392000,47.3977508,8.5456073,1.1242719,1.7560624,-0.8217913,-5.255593e-08,1.3669487e-08,-0.03332181,0.33336842,0.47600433,-0.5218011,-0.9058026,-8.759322e-06,2.2782478e-06,0.0014087781,-0.39315116,-0.3973712,0.18192734,0.04964999,0.0,488.02798,1.7771392,3.120226,0.32965627,1.3943918,0.1108667,inf,inf,inf,inf,0,1,0,1,1,2,1,1,0,0,1,1,0,0,1
25348000,25348000,4392000,47.3977508,8.5456073,0.9608007,1.6357914,-1.2247627,-5.255593e-08,1.3669487e-08,-0.03332181,-0.037108433,0.075445436,-0.43217322,-0.78212947,-8.759322e-06,2.2782478e-06,0.0014087781,-0.6423372,-0.6799271,0.4432369,0.044497024,0.0,488.02798,2.1801105,3.6251688,0.33948058,1.454356,0.114222854,inf,inf,inf,inf,0,1,0,1,1,2,1,1,0,0,1,1,0,0,1
25852000,25852000,4392000,47.3977508,8.5456073,0.62003696,1.2628938,-1.4128432,-5.255593e-08,1.3669487e-08,-0.03332181,-0.5195986,-0.4442226,-0.084100805,-0.34737605,-8.759322e-06,2.2782478e-06,0.0014087781,-1.0073998,-1.1088185,-0.12864543,0.039572936,0.0,488.02798,2.3681912,4.0837836,0.34786025,1.4785763,0.11906578,inf,inf,inf,inf,0,1,0,1,1,2,1,1,0,0,1,1,0,0,1
26348000,26348000,4392000,47.3977508,8.5456073,0.066281445,0.60339606,-1.5229775,-5.255593e-08,1.3669487e-08,-0.03332181,-1.2021512,-1.1829758,-0.35199615,-0.51330477,-8.759322e-06,2.2782478e-06,0.0014087781,-1.5647312,-1.5847548,-0.28378236,0.031520396,0.0,488.02798,2.4783254,4.261318,0.35743144,1.424708,0.12585638,inf,inf,inf,inf,0,1,0,1,1,2,1,1,0,0,1,1,0,0,1
26852000,26852000,4392000,47.3977508,8.5456073,-0.74006385,-0.34977144,-1.6591562,-5.255593e-08,1.3669487e-08,-0.03332181,-1.9670845,-1.9930649,-0.47776875,-0.5133929,-8.759322e-06,2.2782478e-06,0.0014087781,-1.4197267,-1.3967185,-0.07709115,0.02051768,0.0,488.02798,2.614504,4.545195,0.34499186,1.4087135,0.12997147,inf,inf,inf,inf,0,1,0,1,1,2,1,1,0,0,1,1,0,0,1
27356000,27356000,4392000,47.3977508,8.5456073,-1.7140628,-1.4887124,-1.7808288,-5.255593e-08,1.3669487e-08,-0.03332181,-2.5037377,-2.5980573,-0.60904723,-0.5082479,-8.759322e-06,2.2782478e-06,0.0014087781,-0.8395481,-0.973612,-0.5873162,0.014719203,0.0,488.02798,2.7361767,4.519088,0.3567277,1.3061329,0.13653953,inf,inf,inf,inf,0,1,0,1,1,2,1,1,0,0,1,1,0,0,1
27852000,27852000,4392000,47.3977508,8.5456073,-2.642538,-2.586015,-1.9168676,-5.255593e-08,1.3669487e-08,-0.03332181,-2.6391017,-2.8188303,-0.7729687,-0.55314964,-8.759322e-06,2.2782478e-06,0.0014087781,-0.09631333,-0.23166129,-0.56587344,0.01064975,0.0,488.02798,2.8722155,4.6576524,0.36864552,1.2631402,0.14061548,inf,inf,inf,inf,0,1,0,1,1,2,1,1,0,0,1,1,0,0,1
28348000,28348000,4392000,47.3977508,8.5456073,-3.3867526,-3.491574,-2.0876558,-5.255593e-08,1.3669487e-08,-0.03332181,-2.4208093,-2.6604018,-0.9078582,-0.5951215,-8.759322e-06,2.2782478e-06,0.0014087781,0.47011435,0.3951404,-0.2203416,0.0072087706,0.0,488.02798,3.0430036,4.7553105,0.37849128,1.21461,0.14199252,inf,inf,inf,inf,0,1,0,1,1,2,1,1,0,0,1,1,0,0,1
28852000,28852000,4392000,47.3977508,8.5456073,-3.7810304,-4.0261736,-2.237497,-5.255593e-08,1.3669487e-08,-0.03332181,-1.9529672,-2.2130566,-0.9319841,-0.5093614,-8.759322e-06,2.2782478e-06,0.0014087781,0.6442519,0.6519977,-0.02457667,0.0060891407,0.0,488.02798,3.1928449,4.577158,0.36273524,1.1040008,0.13677192,inf,inf,inf,inf,0,1,0,1,1,2,1,1,0,0,1,1,0,0,1
29348000,29348000,4392000,47.3977508,8.5456073,-3.860621,-4.2036734,-2.3686004,-5.255593e-08,1.3669487e-08,-0.03332181,-1.4121999,-1.6499277,-0.8999716,-0.3951807,-8.759322e-06,2.2782478e-06,0.0014087781,0.7000972,0.79672134,-0.10249949,0.007666455,0.0,488.02798,3.3239484,4.6193905,0.37292847,1.0556568,0.13815013,inf,inf,inf,inf,0,1,0,1,1,2,1,1,0,0,1,1,0,0,1
29852000,29852000,4392000,47.3977508,8.5456073,-3.6100569,-3.9922862,-2.497426,-5.255593e-08,1.3669487e-08,-0.03332181,-0.87063724,-1.0350713,-0.78132194,-0.25682816,-8.759322e-06,2.2782478e-06,0.0014087781,0.69624054,0.886161,0.08709914,0.010435547,0.0,488.02798,3.452774,4.422384,0.38351816,0.96207577,0.14002717,inf,inf,inf,inf,0,1,0,1,1,2,1,1,0,0,1,1,0,0,1
30348000,30348000,4392000,47.3977508,8.5456073,-3.1607182,-3.5198855,-2.6159124,-5.255593e-08,1.3669487e-08,-0.03332181,-0.53527176,-0.60665745,-0.6568093,-0.16587368,-8.759322e-06,2.2782478e-06,0.0014087781,0.40852025,0.5714371,0.42193753,0.013053459,0.0,488.02798,3.5712605,4.439293,0.39304233,0.92354023,0.14178713,inf,inf,inf,inf,0,1,0,1,1,2,1,1,0,0,1,1,0,0,1
30852000,30852000,4392000,47.3977508,8.5456073,-2.6720188,-2.9639647,-2.6654084,-5.255593e-08,1.3669487e-08,-0.03332181,-0.20975071,-0.18336089,-0.37434158,0.06916012,-8.759322e-06,2.2782478e-06,0.0014087781,0.3206883,0.50585186,0.37384683,0.01566175,0.0,488.02798,3.6207561,4.4537997,0.372691,0.887867,0.13657992,inf,inf,inf,inf,0,1,0,1,1,2,1,1,0,0,1,1,0,0,1
31356000,31356000,4392000,47.3977508,8.5456073,-2.0913174,-2.2772906,-2.6594574,-5.255593e-08,1.3669487e-08,-0.03332181,0.061088953,0.16637896,-0.13652404,0.22318459,-8.759322e-06,2.2782478e-06,0.0014087781,0.16421437,0.26863194,0.37033388,0.018037625,0.0,488.02798,3.6148052,4.259999,0.3820215,0.8203946,0.13817185,inf,inf,inf,inf,0,1,0,1,1,2,1,1,0,0,1,1,0,0,1
31852000,31852000,4392000,47.3977508,8.5456073,-1.5705924,-1.6468244,-2.6368282,-5.255593e-08,1.3669487e-08,-0.03332181,0.20710056,0.3581792,0.057640027,0.30223992,-8.759322e-06,2.2782478e-06,0.0014087781,0.0346876,0.0798136,0.40469223,0.019516319,0.0,488.02798,3.592176,4.261126,0.38784498,0.7951833,0.138819,inf,inf,inf,inf,0,1,0,1,1,2,1,1,0,0,1,1,0,0,1
32348000,32348000,4392000,47.3977508,8.5456073,-1.115613,-1.0957986,-2.6095061,-5.255593e-08,1.3669487e-08,-0.03332181,0.25551033,0.41210866,0.22568409,0.339005,-8.759322e-06,2.2782478e-06,0.0014087781,-0.027772693,-0.113710396,0.2905987,0.020438967,0.0,488.02798,3.5648541,4.080031,0.39563698,0.7440673,0.13981399,inf,inf,inf,inf,0,1,0,1,1,2,1,1,0,0,1,1,0,0,1
32852000,32852000,4392000,47.3977508,8.5456073,-0.7602943,-0.6727325,-2.5853276,-5.255593e-08,1.3669487e-08,-0.03332181,0.22788154,0.3615586,0.34486553,0.32066292,-8.759322e-06,2.2782478e-06,0.0014087781,-0.17637159,-0.24402617,0.22210552,0.021652816,0.0,488.02798,3.5406756,4.086454,0.37546805,0.72867894,0.13449147,inf,inf,inf,inf,0,1,0,1,1,2,1,1,0,0,1,1,0,0,1
33356000,33356000,4392000,47.3977508,8.5456073,-0.52539355,-0.39790392,-2.5652294,-5.255593e-08,1.3669487e-08,-0.03332181,0.15495461,0.26938492,0.4440096,0.2933937,-8.759322e-06,2.2782478e-06,0.0014087781,-0.20934008,-0.23287787,0.3608493,0.022610946,0.0,488.02798,3.5205774,3.9304345,0.3813275,0.6925025,0.13528529,inf,inf,inf,inf,0,1,0,1,1,2,1,1,0,0,1,1,0,0,1
33852000,33852000,4392000,47.3977508,8.5456073,-0.37924638,-0.23239797,-2.5313137,-5.255593e-08,1.3669487e-08,-0.03332181,0.08343238,0.17610236,0.5251897,0.2799398,-8.759322e-06,2.2782478e-06,0.0014087781,-0.12990645,-0.18759696,0.30747613,0.023639923,0.0,488.02798,3.4866614,3.9340243,0.38836294,0.68497413,0.13646172,inf,inf,inf,inf,0,1,0,1,1,2,1,1,0,0,1,1,0,0,1
34348000,34348000,4392000,47.3977508,8.5456073,-0.30545866,-0.15327032,-2.4874146,-5.255593e-08,1.3669487e-08,-0.03332181,0.026315039,0.096997,0.5742395,0.26191399,-8.759322e-06,2.2782478e-06,0.0014087781,-0.122239895,-0.11456211,0.19831303,0.024728583,0.0,488.02798,3.4427624,3.938222,0.39539838,0.6808249,0.13774455,inf,inf,inf,inf,0,1,0,1,1,2,1,1,0,0,1,1,0,0,1
34852000,34852000,4392000,47.3977508,8.5456073,-0.2697069,-0.12444058,-2.4577758,-5.255593e-08,1.3669487e-08,-0.03332181,-0.0077052717,0.0448835,0.58382356,0.20371279,-8.759322e-06,2.2782478e-06,0.0014087781,-0.059143797,-0.07276941,0.07274094,0.026193563,0.0,488.02798,3.4131236,3.80485,0.37278312,0.66109425,0.13253482,inf,inf,inf,inf,0,1,0,1,1,2,1,1,0,0,1,1,0,0,1
35348000,35348000,4392000,47.3977508,8.5456073,-0.25509852,-0.120156914,-2.4330592,-5.255593e-08,1.3669487e-08,-0.03332181,-0.027581885,0.016872248,0.57891023,0.15086176,-8.759322e-06,2.2782478e-06,0.0014087781,-0.035967793,-0.050728206,0.1737317,0.027565747,0.0,488.02798,3.3884072,3.8150635,0.3797692,0.66452014,0.13409916,inf,inf,inf,inf,0,1,0,1,1,2,1,1,0,0,1,1,0,0,1
35852000,35852000,4392000,47.3977508,8.5456073,-0.25073305,-0.12396478,-2.4020085,-5.255593e-08,1.3669487e-08,-0.03332181,-0.038347885,0.00476387,0.5686886,0.11930741,-8.759322e-06,2.2782478e-06,0.0014087781,-0.033343878,-0.017534329,0.12222956,0.028452884,0.0,488.02798,3.3573565,3.699066,0.38543135,0.6540911,0.13539316,inf,inf,inf,inf,0,1,0,1,1,2,1,1,0,0,1,1,0,0,1
36348000,36348000,4392000,47.3977508,8.5456073,-0.2446371,-0.12623213,-2.3665621,-5.255593e-08,1.3669487e-08,-0.03332181,-0.04580819,-0.0055002347,0.5525766,0.10480297,-8.759322e-06,2.2782478e-06,0.0014087781,-0.029376168,0.021242129,0.099811696,0.029060075,0.0,488.02798,3.32191,3.7165623,0.39257848,0.66344076,0.13702235,inf,inf,inf,inf,0,1,0,1,1,2,1,1,0,0,1,1,0,0,1
36852000,36852000,4392000,47.3977508,8.5456073,-0.24696243,-0.12919962,-2.3513284,-5.255593e-08,1.3669487e-08,-0.03332181,-0.06354486,-0.0071290727,0.51558167,0.058571838,-8.759322e-06,2.2782478e-06,0.0014087781,-0.084379874,-0.0017093552,-0.027137807,0.029688789,0.0,488.02798,3.3066764,3.742086,0.3727465,0.6758419,0.13269503,inf,inf,inf,inf,0,1,0,1,1,2,1,1,0,0,1,1,0,0,1
37348000,37348000,4392000,47.3977508,8.5456073,-0.2539694,-0.12925006,-2.34218,-5.255593e-08,1.3669487e-08,-0.03332181,-0.07978495,-0.017769355,0.47105768,0.014846696,-8.759322e-06,2.2782478e-06,0.0014087781,-0.020567952,-0.02568634,0.044493,0.029647676,0.0,488.02798,3.2975278,3.641793,0.37780985,0.67419744,0.13395919,inf,inf,inf,inf,0,1,0,1,1,2,1,1,0,0,1,1,0,0,1
37852000,37852000,4392000,47.3977508,8.5456073,-0.26443666,-0.13349591,-2.327394,-5.255593e-08,1.3669487e-08,-0.03332181,-0.09349367,-0.03864865,0.43101317,-0.0036701243,-8.759322e-06,2.2782478e-06,0.0014087781,-0.042764146,-0.07890131,0.06436649,0.030251564,0.0,488.02798,3.282742,3.6762598,0.38602224,0.69089717,0.1358956,inf,inf,inf,inf,0,1,0,1,1,2,1,1,0,0,1,1,0,0,1
38348000,38348000,4392000,47.3977508,8.5456073,-0.28077632,-0.14704306,-2.3083787,-5.255593e-08,1.3669487e-08,-0.03332181,-0.11376527,-0.06266843,0.40078452,-0.001324825,-8.759322e-06,2.2782478e-06,0.0014087781,-0.07321451,-0.08010006,-0.011460855,0.030746007,0.0,488.02798,3.2637267,3.589552,0.39347202,0.6930639,0.13761108,inf,inf,inf,inf,0,1,0,1,1,2,1,1,0,0,1,1,0,0,1
38852000,38852000,4392000,47.3977508,8.5456073,-0.3017554,-0.16557677,-2.3088074,-5.255593e-08,1.3669487e-08,-0.03332181,-0.14118612,-0.08340272,0.35629565,-0.02945968,-8.759322e-06,2.2782478e-06,0.0014087781,-0.07121366,-0.031616945,-0.05407724,0.031235768,0.0,488.02798,3.2641554,3.6331973,0.3716267,0.71244186,0.13279901,inf,inf,inf,inf,0,1,0,1,1,2,1,1,0,0,1,1,0,0,1
39348000,39348000,4392000,47.3977508,8.5456073,-0.3324054,-0.18825975,-2.3131258,-5.255593e-08,1.3669487e-08,-0.03332181,-0.16093256,-0.09464424,0.3109354,-0.055130407,-8.759322e-06,2.2782478e-06,0.0014087781,-0.05319493,-0.008014699,0.076602206,0.031767473,0.0,488.02798,3.2684736,3.6774867,0.37907037,0.73212135,0.13455538,inf,inf,inf,inf,0,1,0,1,1,2,1,1,0,0,1,1,0,0,1
39852000,39852000,4392000,47.3977508,8.5456073,-0.36329588,-0.20939654,-2.3082888,-5.255593e-08,1.3669487e-08,-0.03332181,-0.17065576,-0.10092375,0.29363438,-0.04201346,-8.759322e-06,2.2782478e-06,0.0014087781,-0.05326347,-0.028062655,0.041430812,0.03195928,0.0,488.02798,3.2636366,3.6101627,0.38524863,0.73745894,0.13598137,inf,inf,inf,inf,0,1,0,1,1,2,1,1,0,0,1,1,0,0,1
40348000,40348000,4392000,47.3977508,8.5456073,-0.39367673,-0.22947188,-2.2974749,-5.255593e-08,1.3669487e-08,-0.03332181,-0.18445946,-0.10925589,0.26455936,-0.036538605,-8.759322e-06,2.2782478e-06,0.0014087781,-0.083788656,-0.035972856,0.008693895,0.0322028,0.0,488.02798,3.2528229,3.6630788,0.39043173,0.75775975,0.13712576,inf,inf,inf,inf,0,1,0,1,1,2,1,1,0,0,1,1,0,0,1
40852000,40852000,4392000,47.3977508,8.5456073,-0.42574155,-0.25111827,-2.3019407,-5.255593e-08,1.3669487e-08,-0.03332181,-0.19308776,-0.12089044,0.22621189,-0.053796005,-8.759322e-06,2.2782478e-06,0.0014087781,-0.015129247,0.0010002694,-0.027369706,0.032307703,0.0,488.02798,3.2572885,3.6032982,0.37140623,0.76279545,0.1328933,inf,inf,inf,inf,0,1,0,1,1,2,1,1,0,0,1,1,0,0,1
41348000,41348000,4392000,47.3977508,8.5456073,-0.45299557,-0.27251294,-2.3107498,-5.255593e-08,1.3669487e-08,-0.03332181,-0.2038512,-0.13287923,0.19699293,-0.06348995,-8.759322e-06,2.2782478e-06,0.0014087781,-0.06552696,-0.0031629314,0.046658326,0.03222739,0.0,488.02798,3.2660975,3.6633537,0.3789749,0.78282624,0.13462475,inf,inf,inf,inf,0,1,0,1,1,2,1,1,0,0,1,1,0,0,1
41852000,41852000,4392000,47.3977508,8.5456073,-0.48330215,-0.297804,-2.3149188,-5.255593e-08,1.3669487e-08,-0.03332181,-0.21059045,-0.14291787,0.17658383,-0.05998566,-8.759322e-06,2.2782478e-06,0.0014087781,-0.011571071,-0.046584316,0.042813826,0.03227115,0.0,488.02798,3.2702665,3.7328205,0.38509542,0.803279,0.13597353,inf,inf,inf,inf,0,1,0,1,1,2,1,1,0,0,1,1,0,0,1
42356000,42356000,4392000,47.3977508,8.5456073,-0.50520223,-0.32173407,-2.3201377,-5.255593e-08,1.3669487e-08,-0.03332181,-0.20821851,-0.15261497,0.15650193,-0.055168692,-8.759322e-06,2.2782478e-06,0.0014087781,-0.04919643,-0.051621854,-0.0043716277,0.032136355,0.0,488.02798,3.2754855,3.678154,0.39345965,0.80535233,0.13777693,inf,inf,inf,inf,0,1,0,1,1,2,1,1,0,0,1,1,0,0,1
42852000,42852000,4392000,47.3977508,8.5456073,-0.52448225,-0.3447919,-2.3372214,-5.255593e-08,1.3669487e-08,-0.03332181,-0.21057446,-0.15641615,0.13766436,-0.061808687,-8.759322e-06,2.2782478e-06,0.0014087781,-0.03994042,-0.0049495134,-0.033960674,0.032659978,0.0,488.02798,3.2925692,3.7467034,0.3729532,0.8232406,0.13314843,inf,inf,inf,inf,0,1,0,1,1,2,1,1,0,0,1,1,0,0,1
43348000,43348000,4392000,47.3977508,8.5456073,-0.540853,-0.36478657,-2.353056,-5.255593e-08,1.3669487e-08,-0.03332181,-0.20776796,-0.1549768,0.124569744,-0.06269453,-8.759322e-06,2.2782478e-06,0.0014087781,-0.043385528,-0.033537537,0.048550773,0.03270573,0.0,488.02798,3.308404,3.686484,0.3781539,0.82122827,0.13431993,inf,inf,inf,inf,0,1,0,1,1,2,1,1,0,0,1,1,0,0,1
43852000,43852000,4392000,47.3977508,8.5456073,-0.54815185,-0.3762397,-2.3626494,-5.255593e-08,1.3669487e-08,-0.03332181,-0.20396915,-0.14593697,0.11759687,-0.05285573,-8.759322e-06,2.2782478e-06,0.0014087781,-0.01841357,-0.0056851273,0.06735138,0.032739494,0.0,488.02798,3.3179975,3.761984,0.3863519,0.83773047,0.13612752,inf,inf,inf,inf,0,1,0,1,1,2,1,1,0,0,1,1,0,0,1
44348000,44348000,4392000,47.3977508,8.5456073,-0.55707157,-0.37986305,-2.3626146,-5.255593e-08,1.3669487e-08,-0.03332181,-0.20207681,-0.12219015,0.110930644,-0.037694406,-8.759322e-06,2.2782478e-06,0.0014087781,-0.04499679,0.009045267,0.0014053656,0.032596696,0.0,488.02798,3.3179626,3.833968,0.39371926,0.85240805,0.13771608,inf,inf,inf,inf,0,1,0,1,1,2,1,1,0,0,1,1,0,0,1
44852000,44852000,4392000,47.3977508,8.5456073,-0.5557477,-0.36755836,-2.374313,-5.255593e-08,1.3669487e-08,-0.03332181,-0.19150163,-0.09921829,0.09642336,-0.044063512,-8.759322e-06,2.2782478e-06,0.0014087781,-0.016992925,0.033906847,-0.026898457,0.03254088,0.0,488.02798,3.329661,3.7740574,0.37175778,0.8462768,0.13278323,inf,inf,inf,inf,0,1,0,1,1,2,1,1,0,0,1,1,0,0,1
45348000,45348000,4392000,47.3977508,8.5456073,-0.5512993,-0.3471298,-2.3859031,-5.255593e-08,1.3669487e-08,-0.03332181,-0.18022823,-0.07707718,0.08690244,-0.045763828,-8.759322e-06,2.2782478e-06,0.0014087781,-0.020269057,-0.0009453433,0.04736613,0.032373328,0.0,488.02798,3.341251,3.844695,0.37922478,0.85857904,0.13450387,inf,inf,inf,inf,0,1,0,1,1,2,1,1,0,0,1,1,0,0,1
45852000,45852000,4392000,47.3977508,8.5456073,-0.5414107,-0.32007244,-2.3935337,-5.255593e-08,1.3669487e-08,-0.03332181,-0.16565354,-0.05947498,0.07925356,-0.042176556,-8.759322e-06,2.2782478e-06,0.0014087781,0.034747295,0.03473005,0.010283663,0.031749986,0.0,488.02798,3.3488817,3.7798166,0.3853771,0.84908974,0.13589746,inf,inf,inf,inf,0,1,0,1,1,2,1,1,0,0,1,1,0,0,1
46356000,46356000,4392000,47.3977508,8.5456073,-0.52217,-0.28916687,-2.3961809,-5.255593e-08,1.3669487e-08,-0.03332181,-0.15271947,-0.050619453,0.07472261,-0.030952193,-8.759322e-06,2.2782478e-06,0.0014087781,-0.022688225,0.0011241208,-0.017637385,0.03137154,0.0,488.02798,3.3515286,3.8534634,0.39146784,0.85990745,0.1372364,inf,inf,inf,inf,0,1,0,1,1,2,1,1,0,0,1,1,0,0,1
46852000,46852000,4392000,47.3977508,8.5456073,-0.50617313,-0.264235,-2.409384,-5.255593e-08,1.3669487e-08,-0.03332181,-0.14751467,-0.05020062,0.060767915,-0.04155202,-8.759322e-06,2.2782478e-06,0.0014087781,0.009834926,-0.03730238,-0.046855766,0.03168036,0.0,488.02798,3.3647318,3.9214218,0.37155837,0.8690658,0.13281593,inf,inf,inf,inf,0,1,0,1,1,2,1,1,0,0,1,1,0,0,1
47348000,47348000,4392000,47.3977508,8.5456073,-0.4857257,-0.24025229,-2.4239752,-5.255593e-08,1.3669487e-08,-0.03332181,-0.14488137,-0.04546621,0.058666915,-0.039551597,-8.759322e-06,2.2782478e-06,0.0014087781,-0.019142374,0.002014567,0.01580361,0.031689726,0.0,488.02798,3.379323,3.8421574,0.37703463,0.8547852,0.13409884,inf,inf,inf,inf,0,1,0,1,1,2,1,1,0,0,1,1,0,0,1
47852000,47852000,4392000,47.3977508,8.5456073,-0.46953833,-0.2196232,-2.4303248,-5.255593e-08,1.3669487e-08,-0.03332181,-0.14118585,-0.042905673,0.055337675,-0.033287946,-8.759322e-06,2.2782478e-06,0.0014087781,-0.038056836,-0.012105824,0.00618305,0.030968558,0.0,488.02798,3.3856726,3.912033,0.38551635,0.86292243,0.13600743,inf,inf,inf,inf,0,1,0,1,1,2,1,1,0,0,1,1,0,0,1
48348000,48348000,4392000,47.3977508,8.5456073,-0.45588756,-0.20228681,-2.4350207,-5.255593e-08,1.3669487e-08,-0.03332181,-0.13814397,-0.041584156,0.054964136,-0.023726024,-8.759322e-06,2.2782478e-06,0.0014087781,-0.010816147,0.006742731,0.026906839,0.030433258,0.0,488.02798,3.3903685,3.8281126,0.39318532,0.8467782,0.13768907,inf,inf,inf,inf,0,1,0,1,1,2,1,1,0,0,1,1,0,0,1
48852000,48852000,4392000,47.3977508,8.5456073,-0.4405766,-0.18633822,-2.4428656,-5.255593e-08,1.3669487e-08,-0.03332181,-0.13753204,-0.04009157,0.048038594,-0.026827104,-8.759322e-06,2.2782478e-06,0.0014087781,-0.01782173,-0.014135403,-0.00595767,0.03016545,0.0,488.02798,3.3982134,3.8941557,0.3715712,0.8535314,0.1328362,inf,inf,inf,inf,0,1,0,1,1,2,1,1,0,0,1,1,0,0,1
49356000,49356000,4392000,47.3977508,8.5456073,-0.4309446,-0.1722948,-2.4559133,-5.255593e-08,1.3669487e-08,-0.03332181,-0.1290628,-0.032191765,0.039797317,-0.033857413,-8.759322e-06,2.2782478e-06,0.0014087781,-0.014866454,0.03997952,0.046030615,0.02999584,0.0,488.02798,3.411261,3.959748,0.37999398,0.8599041,0.13475803,inf,inf,inf,inf,0,1,0,1,1,2,1,1,0,0,1,1,0,0,1
49852000,49852000,4392000,47.3977508,8.5456073,-0.4147447,-0.15520169,-2.4638486,-5.255593e-08,1.3669487e-08,-0.03332181,-0.12725727,-0.023087874,0.04021855,-0.027841585,-8.759322e-06,2.2782478e-06,0.0014087781,-0.025215587,0.008907227,0.0242386,0.029826064,0.0,488.02798,3.4191966,3.8692243,0.38528517,0.84210616,0.13592906,inf,inf,inf,inf,0,1,0,1,1,2,1,1,0,0,1,1,0,0,1
50356000,50356000,4392000,47.3977508,8.5456073,-0.3767178,-0.107635655,-2.4553802,-5.255593e-08,1.3669487e-08,-0.03332181,0.009635813,0.13108855,0.10180939,0.03704129,-8.759322e-06,2.2782478e-06,0.0014087781,0.1747955,0.22521476,-0.050451603,0.029484814,0.0,488.02798,3.410728,3.9312325,0.39366755,0.8469164,0.13775572,inf,inf,inf,inf,0,1,0,1,1,2,1,1,0,0,1,1,0,0,1
50852000,50852000,4392000,47.3977508,8.5456073,-0.28885633,-0.0050018295,-2.4530802,-5.255593e-08,1.3669487e-08,-0.03332181,0.06431169,0.19822942,0.10335603,0.026175855,-8.759322e-06,2.2782478e-06,0.0014087781,0.011647148,0.04072132,0.017241573,0.029409252,0.0,488.02798,3.4084282,3.8385706,0.37313378,0.82883996,0.13313453,inf,inf,inf,inf,0,1,0,1,1,2,1,1,0,0,1,1,0,0,1
51348000,51348000,4392000,47.3977508,8.5456073,-0.19538516,0.105978675,-2.4626405,-5.255593e-08,1.3669487e-08,-0.03332181,0.10542668,0.2546734,0.16615744,0.0564593,-8.759322e-06,2.2782478e-06,0.0014087781,0.10327118,0.15356228,0.30332243,0.030276123,0.0,488.02798,3.4179883,3.891829,0.3783545,0.8326373,0.13431853,inf,inf,inf,inf,0,1,0,1,1,2,1,1,0,0,1,1,0,0,1
51852000,51852000,4392000,47.3977508,8.5456073,-0.08582657,0.24048679,-2.4705431,-5.255593e-08,1.3669487e-08,-0.03332181,0.20510739,0.37387472,0.28582513,0.12287605,-8.759322e-06,2.2782478e-06,0.0014087781,0.26900297,0.35467154,0.39582416,0.030497277,0.0,488.02798,3.425891,3.9501274,0.38656908,0.8365699,0.13615708,inf,inf,inf,inf,0,1,0,1,1,2,1,1,0,0,1,1,0,0,1
52348000,52348000,4392000,47.3977508,8.5456073,0.0656001,0.4183273,-2.4688253,-5.255593e-08,1.3669487e-08,-0.03332181,0.35677844,0.5499228,0.40975678,0.18137002,-8.759322e-06,2.2782478e-06,0.0014087781,0.34908834,0.4466043,0.24570243,0.030637478,0.0,488.02798,3.4241734,3.8541474,0.3939609,0.81760335,0.13780084,inf,inf,inf,inf,0,1,0,1,1,2,1,1,0,0,1,1,0,0,1
52852000,52852000,4392000,47.3977508,8.5456073,0.26905537,0.6584972,-2.4796548,-5.255593e-08,1.3669487e-08,-0.03332181,0.5182096,0.74168664,0.50398695,0.18162107,-8.759322e-06,2.2782478e-06,0.0014087781,0.3181746,0.42566666,0.20765139,0.031159151,0.0,488.02798,3.4350028,3.9096594,0.3719422,0.8220257,0.13291065,inf,inf,inf,inf,0,1,0,1,1,2,1,1,0,0,1,1,0,0,1
53356000,53356000,4392000,47.3977508,8.5456073,0.5057968,0.9395772,-2.4847753,-5.255593e-08,1.3669487e-08,-0.03332181,0.640845,0.8931289,0.56372356,0.15550986,-8.759322e-06,2.2782478e-06,0.0014087781,0.16782421,0.26357383,0.34179908,0.032198474,0.0,488.02798,3.440123,3.8193967,0.3800913,0.805587,0.13479492,inf,inf,inf,inf,0,1,0,1,1,2,1,1,0,0,1,1,0,0,1
53852000,53852000,4392000,47.3977508,8.5456073,0.73490506,1.218285,-2.4639122,-5.255593e-08,1.3669487e-08,-0.03332181,0.67493486,0.95864284,0.5946114,0.14155173,-8.759322e-06,2.2782478e-06,0.0014087781,0.02122001,0.06866539,0.17769541,0.033725478,0.0,488.02798,3.41926,3.8679,0.38745174,0.80984867,0.13641757,inf,inf,inf,inf,0,1,0,1,1,2,1,1,0,0,1,1,0,0,1
54348000,54348000,4392000,47.3977508,8.5456073,0.92162263,1.464152,-2.42089,-5.255593e-08,1.3669487e-08,-0.03332181,0.61133915,0.9170507,0.541498,0.08959876,-8.759322e-06,2.2782478e-06,0.0014087781,-0.18411204,-0.13260324,-0.12500118,0.035396658,0.0,488.02798,3.3762379,3.9166548,0.39238855,0.8141951,0.13740921,inf,inf,inf,inf,0,1,0,1,1,2,1,1,0,0,1,1,0,0,1
54852000,54852000,4392000,47.3977508,8.5456073,1.0084854,1.603364,-2.395465,-5.255593e-08,1.3669487e-08,-0.03332181,0.4345292,0.75110483,0.3993681,-0.026627932,-8.759322e-06,2.2782478e-06,0.0014087781,-0.3685406,-0.32967678,-0.27062556,0.03709896,0.0,488.02798,3.350813,3.8269677,0.37265265,0.79867744,0.13290787,inf,inf,inf,inf,0,1,0,1,1,2,1,1,0,0,1,1,0,0,1
55348000,55348000,4392000,47.3977508,8.5456073,0.9786468,1.6236968,-2.3701105,-5.255593e-08,1.3669487e-08,-0.03332181,0.17005208,0.48263723,0.19842298,-0.14808492,-8.759322e-06,2.2782478e-06,0.0014087781,-0.5072986,-0.51733863,-0.47422385,0.038519833,0.0,488.02798,3.3254585,3.8754487,0.37992167,0.8042172,0.13453409,inf,inf,inf,inf,0,1,0,1,1,2,1,1,0,0,1,1,0,0,1
55852000,55852000,4392000,47.3977508,8.5456073,0.80437946,1.4848949,-2.3430674,-5.255593e-08,1.3669487e-08,-0.03332181,-0.15918796,0.12206499,-0.05021918,-0.26269254,-8.759322e-06,2.2782478e-06,0.0014087781,-0.649063,-0.68121505,-0.58079696,0.03906225,0.0,488.02798,3.2984152,3.7881362,0.38577738,0.79159695,0.13589862,inf,inf,inf,inf,0,1,0,1,1,2,1,1,0,0,1,1,0,0,1
56356000,56356000,4392000,47.3977508,8.5456073,0.48667508,1.1783031,-2.3376918,-5.255593e-08,1.3669487e-08,-0.03332181,-0.52209073,-0.28526145,-0.29999802,-0.35562626,-8.759322e-06,2.2782478e-06,0.0014087781,-0.7463461,-0.7858569,-0.40396953,0.038862433,0.0,488.02798,3.2930398,3.84229,0.39394632,0.8017003,0.13784829,inf,inf,inf,inf,0,1,0,1,1,2,1,1,0,0,1,1,0,0,1
56852000,56852000,4392000,47.3977508,8.5456073,0.050579228,0.73771924,-2.3308148,-5.255593e-08,1.3669487e-08,-0.03332181,-0.8697121,-0.6781531,-0.5043104,-0.37739405,-8.759322e-06,2.2782478e-06,0.0014087781,-0.60277253,-0.6559558,-0.41213536,0.03899515,0.0,488.02798,3.2861629,3.8924532,0.3732558,0.81276315,0.13347207,inf,inf,inf,inf,0,1,0,1,1,2,1,1,0,0,1,1,0,0,1
57356000,57356000,4392000,47.3977508,8.5456073,-0.49235633,0.16136153,-2.3260016,-5.255593e-08,1.3669487e-08,-0.03332181,-1.1769974,-1.0243212,-0.7011668,-0.3851235,-8.759322e-06,2.2782478e-06,0.0014087781,-0.54655176,-0.5481246,-0.68078095,0.03758982,0.0,488.02798,3.2813497,3.8079934,0.3793086,0.805414,0.13508752,inf,inf,inf,inf,0,1,0,1,1,2,1,1,0,0,1,1,0,0,1
57852000,57852000,4392000,47.3977508,8.5456073,-1.0848768,-0.46720976,-2.3514419,-5.255593e-08,1.3669487e-08,-0.03332181,-1.4152052,-1.2822344,-0.8546164,-0.38979375,-8.759322e-06,2.2782478e-06,0.0014087781,-0.43128487,-0.41070762,-0.557661,0.03524982,0.0,488.02798,3.3067899,3.860055,0.3868279,0.81741506,0.13691911,inf,inf,inf,inf,0,1,0,1,1,2,1,1,0,0,1,1,0,0,1
58348000,58348000,4392000,47.3977508,8.5456073,-1.6797253,-1.1008712,-2.4003088,-5.255593e-08,1.3669487e-08,-0.03332181,-1.5565561,-1.432583,-0.9218349,-0.352344,-8.759322e-06,2.2782478e-06,0.0014087781,-0.25702226,-0.21437071,-0.13082753,0.033254344,0.0,488.02798,3.3556566,3.7736402,0.3920635,0.807607,0.13804816,inf,inf,inf,inf,0,1,0,1,1,2,1,1,0,0,1,1,0,0,1
58852000,58852000,4392000,47.3977508,8.5456073,-2.231578,-1.6887654,-2.4219806,-5.255593e-08,1.3669487e-08,-0.03332181,-1.5798446,-1.4558208,-0.88403374,-0.22323103,-8.759322e-06,2.2782478e-06,0.0014087781,-0.018458871,0.029810702,0.02397783,0.031782355,0.0,488.02798,3.3773284,3.8322654,0.37071615,0.815618,0.13315022,inf,inf,inf,inf,0,1,0,1,1,2,1,1,0,0,1,1,0,0,1
59348000,59348000,4392000,47.3977508,8.5456073,-2.6800404,-2.1619315,-2.4476368,-5.255593e-08,1.3669487e-08,-0.03332181,-1.4730619,-1.348822,-0.8110959,-0.115243256,-8.759322e-06,2.2782478e-06,0.0014087781,0.23076987,0.2259077,-0.076115124,0.03078365,0.0,488.02798,3.4029846,3.8864212,0.3783245,0.8198429,0.13467784,inf,inf,inf,inf,0,1,0,1,1,2,1,1,0,0,1,1,0,0,1
59852000,59852000,4392000,47.3977508,8.5456073,-2.9211223,-2.4376245,-2.502088,-5.255593e-08,1.3669487e-08,-0.03332181,-1.2148002,-1.1117144,-0.66947293,-0.016013522,-8.759322e-06,2.2782478e-06,0.0014087781,0.5216128,0.50403905,0.15204026,0.030487757,0.0,488.02798,3.457436,3.804628,0.3844692,0.80192006,0.13581188,inf,inf,inf,inf,0,1,0,1,1,2,1,1,0,0,1,1,0,0,1
60356000,60356000,4392000,47.3977508,8.5456073,-3.0000255,-2.55065,-2.5793426,-5.255593e-08,1.3669487e-08,-0.03332181,-0.9903896,-0.90380687,-0.5236229,0.029339353,-8.759322e-06,2.2782478e-06,0.0014087781,0.4447683,0.4596676,0.3907466,0.030654946,0.0,488.02798,3.5346904,3.8616636,0.39291266,0.80500984,0.13755994,inf,inf,inf,inf,0,1,0,1,1,2,1,1,0,0,1,1,0,0,1
60852000,60852000,4392000,47.3977508,8.5456073,-2.8972552,-2.4829695,-2.6329815,-5.255593e-08,1.3669487e-08,-0.03332181,-0.62897605,-0.5428031,-0.27271158,0.16125368,-8.759322e-06,2.2782478e-06,0.0014087781,0.6563563,0.65233636,0.36729032,0.029300582,0.0,488.02798,3.5883293,3.7727273,0.37253892,0.7857048,0.13296212,inf,inf,inf,inf,0,1,0,1,1,2,1,1,0,0,1,1,0,0,1
61356000,61356000,4392000,47.3977508,8.5456073,-2.6043184,-2.2157624,-2.6598408,-5.255593e-08,1.3669487e-08,-0.03332181,-0.23564827,-0.13408715,-0.052748002,0.2428754,-8.759322e-06,2.2782478e-06,0.0014087781,0.5404595,0.5903624,0.4150234,0.02969752,0.0,488.02798,3.6151886,3.8262336,0.37860712,0.78883743,0.13443618,inf,inf,inf,inf,0,1,0,1,1,2,1,1,0,0,1,1,0,0,1
61852000,61852000,4392000,47.3977508,8.5456073,-2.1947806,-1.8156852,-2.6668646,-5.255593e-08,1.3669487e-08,-0.03332181,0.070564255,0.1928178,0.11912883,0.27893612,-8.759322e-06,2.2782478e-06,0.0014087781,0.3770248,0.44296396,0.36296153,0.029632809,0.0,488.02798,3.6222124,3.7363198,0.38597363,0.7742233,0.13621257,inf,inf,inf,inf,0,1,0,1,1,2,1,1,0,0,1,1,0,0,1
62348000,62348000,4392000,47.3977508,8.5456073,-1.7051715,-1.3292333,-2.657641,-5.255593e-08,1.3669487e-08,-0.03332181,0.2714754,0.4055762,0.24228765,0.28155392,-8.759322e-06,2.2782478e-06,0.0014087781,0.17897862,0.21865487,0.22370088,0.029401358,0.0,488.02798,3.612989,3.782966,0.39115423,0.7804236,0.13744304,inf,inf,inf,inf,0,1,0,1,1,2,1,1,0,0,1,1,0,0,1
62852000,62852000,4392000,47.3977508,8.5456073,-1.2405919,-0.8592929,-2.640801,-5.255593e-08,1.3669487e-08,-0.03332181,0.3713485,0.5104129,0.32578614,0.25786883,-8.759322e-06,2.2782478e-06,0.0014087781,0.03637091,0.048196092,0.13723876,0.029334895,0.0,488.02798,3.596149,3.8356824,0.37190083,0.7876262,0.13316447,inf,inf,inf,inf,0,1,0,1,1,2,1,1,0,0,1,1,0,0,1
63356000,63356000,4392000,47.3977508,8.5456073,-0.82600933,-0.4429435,-2.6207783,-5.255593e-08,1.3669487e-08,-0.03332181,0.39801475,0.5311541,0.39619505,0.23534265,-8.759322e-06,2.2782478e-06,0.0014087781,-0.06850312,-0.07211127,0.2783807,0.029571187,0.0,488.02798,3.576126,3.7525232,0.38026214,0.7755325,0.13501245,inf,inf,inf,inf,0,1,0,1,1,2,1,1,0,0,1,1,0,0,1
63852000,63852000,4392000,47.3977508,8.5456073,-0.49682444,-0.1154664,-2.5937545,-5.255593e-08,1.3669487e-08,-0.03332181,0.38091788,0.5055838,0.45135877,0.21991466,-8.759322e-06,2.2782478e-06,0.0014087781,-0.10641902,-0.1062928,0.22134091,0.030092478,0.0,488.02798,3.5491023,3.8009052,0.38553405,0.7817541,0.13611102,inf,inf,inf,inf,0,1,0,1,1,2,1,1,0,0,1,1,0,0,1
64356000,64356000,4392000,47.3977508,8.5456073,-0.24139836,0.13238296,-2.5583122,-5.255593e-08,1.3669487e-08,-0.03332181,0.35222596,0.4548038,0.48250142,0.2016829,-8.759322e-06,2.2782478e-06,0.0014087781,-0.084041655,-0.11157448,0.093198374,0.030671753,0.0,488.02798,3.51366,3.720183,0.39400402,0.769751,0.13789412,inf,inf,inf,inf,0,1,0,1,1,2,1,1,0,0,1,1,0,0,1
64852000,64852000,4392000,47.3977508,8.5456073,-0.049766093,0.29820964,-2.5391545,-5.255593e-08,1.3669487e-08,-0.03332181,0.3264557,0.38725147,0.48832738,0.15722792,-8.759322e-06,2.2782478e-06,0.0014087781,-0.05669957,-0.11881739,0.069370486,0.030982083,0.0,488.02798,3.4945025,3.7690566,0.37144002,0.77639884,0.13279167,inf,inf,inf,inf,0,1,0,1,1,2,1,1,0,0,1,1,0,0,1
65348000,65348000,4392000,47.3977508,8.5456073,0.09352657,0.40073794,-2.5229604,-5.255593e-08,1.3669487e-08,-0.03332181,0.306759,0.32110482,0.48979947,0.12016682,-8.759322e-06,2.2782478e-06,0.0014087781,-0.042599287,-0.08988867,0.22495444,0.031321216,0.0,488.02798,3.4783082,3.81894,0.3788553,0.78346413,0.13445558,inf,inf,inf,inf,0,1,0,1,1,2,1,1,0,0,1,1,0,0,1
65852000,65852000,4392000,47.3977508,8.5456073,0.20524691,0.4574147,-2.4906943,-5.255593e-08,1.3669487e-08,-0.03332181,0.28308877,0.27247432,0.4913947,0.11001246,-8.759322e-06,2.2782478e-06,0.0014087781,-0.03610285,-0.06174805,0.1537567,0.031888478,0.0,488.02798,3.446042,3.739437,0.3870387,0.772426,0.13625239,inf,inf,inf,inf,0,1,0,1,1,2,1,1,0,0,1,1,0,0,1
66348000,66348000,4392000,47.3977508,8.5456073,0.28576526,0.48574802,-2.4419804,-5.255593e-08,1.3669487e-08,-0.03332181,0.2560552,0.23907025,0.6216785,0.24364209,-8.759322e-06,2.2782478e-06,0.0014087781,-0.06288006,0.007388065,1.3613011,0.032041784,0.0,488.02798,3.3973284,3.7896247,0.3920744,0.77933466,0.13733003,inf,inf,inf,inf,0,1,0,1,1,2,1,1,0,0,1,1,0,0,1
66852000,66852000,4392000,47.3977508,8.5456073,0.33751065,0.5005946,-2.1524014,-5.255593e-08,1.3669487e-08,-0.03332181,0.21691914,0.21686079,1.2365716,0.84669787,-8.759322e-06,2.2782478e-06,0.0014087781,-0.01402528,-0.028089313,-0.1554815,0.03232465,0.0,488.02798,3.1077495,3.71041,0.37255415,0.7621696,0.1329674,inf,inf,inf,inf,0,1,0,1,1,2,1,1,0,0,1,1,0,0,1
67348000,67348000,4392000,47.3977508,8.5456073,0.37075928,0.49762243,-1.8015046,-5.255593e-08,1.3669487e-08,-0.03332181,0.21338473,0.18436325,1.0640517,0.67087936,-8.759322e-06,2.2782478e-06,0.0014087781,0.034203053,-0.0011255905,0.10438635,0.03305157,0.0,488.02798,2.7568526,3.759147,0.37780076,0.7715263,0.1341879,inf,inf,inf,inf,0,1,0,1,1,2,1,1,0,0,1,1,0,0,1
67852000,67852000,4392000,47.3977508,8.5456073,0.4037821,0.48888925,-1.4532657,-5.255593e-08,1.3669487e-08,-0.03332181,0.21339229,0.15804306,1.0526651,0.676388,-8.759322e-06,2.2782478e-06,0.0014087781,-0.005823283,-0.034915134,0.13569555,0.03366633,0.0,488.02798,2.4086137,3.814487,0.38604295,0.7803882,0.13603692,inf,inf,inf,inf,0,1,0,1,1,2,1,1,0,0,1,1,0,0,1
68356000,68356000,4392000,47.3977508,8.5456073,0.4320573,0.4671647,-1.0886497,-5.255593e-08,1.3669487e-08,-0.03332181,0.21433152,0.12849423,1.0438001,0.6974125,-8.759322e-06,2.2782478e-06,0.0014087781,0.061367344,-0.045379963,0.0010645016,0.034592636,0.0,488.02798,2.0439978,3.73626,0.3919604,0.77043974,0.13732274,inf,inf,inf,inf,0,1,0,1,1,2,1,1,0,0,1,1,0,0,1
68852000,68852000,4392000,47.3977508,8.5456073,0.46006283,0.43946922,-0.74772686,-5.255593e-08,1.3669487e-08,-0.03332181,0.21694085,0.10066645,1.0067692,0.6695881,-8.759322e-06,2.2782478e-06,0.0014087781,0.0348874,-0.04502391,-0.018941237,0.03514713,0.0,488.02798,1.7030747,3.7871332,0.37171394,0.7788695,0.13280652,inf,inf,inf,inf,0,1,0,1,1,2,1,1,0,0,1,1,0,0,1
69348000,69348000,4392000,47.3977508,8.5456073,0.48744637,0.40665764,-0.40282857,-5.255593e-08,1.3669487e-08,-0.03332181,0.21945393,0.07495464,0.96552104,0.6489959,-8.759322e-06,2.2782478e-06,0.0014087781,0.030857218,-0.015539058,-0.037441026,0.035789102,0.0,488.02798,1.3581765,3.705431,0.37909368,0.76868874,0.13449787,inf,inf,inf,inf,0,1,0,1,1,2,1,1,0,0,1,1,0,0,1
69852000,69852000,4392000,47.3977508,8.5456073,0.5102961,0.36515146,-0.043620232,-5.255593e-08,1.3669487e-08,-0.03332181,0.22162622,0.050598454,0.93077433,0.6486682,-8.759322e-06,2.2782478e-06,0.0014087781,0.035463713,-0.024823615,0.033758577,0.03645285,0.0,488.02798,0.9989681,3.7619426,0.38738254,0.77809286,0.13635124,inf,inf,inf,inf,0,1,0,1,1,2,1,1,0,0,1,1,0,0,1
70348000,70348000,4392000,47.3977508,8.5456073,0.53432214,0.32389843,0.31551617,-5.255593e-08,1.3669487e-08,-0.03332181,0.22248477,0.027535994,0.9075816,0.66291827,-8.759322e-06,2.2782478e-06,0.0014087781,-0.004254514,-0.0694531,-0.04891585,0.03706401,0.0,488.02798,0.6398317,3.8144987,0.39238983,0.78668845,0.13742474,inf,inf,inf,inf,0,1,0,1,1,2,1,1,0,0,1,1,0,0,1
70852000,70852000,4392000,47.3977508,8.5456073,0.54295146,0.27521577,0.67632854,-5.255593e-08,1.3669487e-08,-0.03332181,0.21940583,0.001200967,0.7880789,0.55296063,-8.759322e-06,2.2782478e-06,0.0014087781,0.08822165,-0.017492972,0.14338641,0.0373656,0.0,488.02798,0.27901936,3.7381616,0.37199056,0.7779089,0.12585296,inf,inf,inf,inf,0,1,0,1,1,2,1,1,0,0,1,1,0,0,1
71348000,71348000,4392000,47.3977508,8.5456073,0.5602914,0.22632495,0.9236806,-5.255593e-08,1.3669487e-08,-0.03332181,0.21262845,-0.01974259,1.0379802,0.72726864,-8.759322e-06,2.2782478e-06,0.0014087781,-0.010766612,0.014439239,0.8819662,0.038739882,0.0,488.02798,0.1,3.7909193,0.37617952,0.7841895,0.119730145,inf,inf,inf,inf,0,1,0,1,1,2,1,1,0,0,1,1,0,0,1
71852000,71852000,4392000,47.3977508,8.5456073,0.56409836,0.17830099,1.221236,-5.255593e-08,1.3669487e-08,-0.03332181,0.16760667,-0.036453903,1.3181033,0.8910278,-8.759322e-06,2.2782478e-06,0.0014087781,-0.091949016,-0.025842883,0.7313052,0.03987623,0.0,488.02798,0.1,3.714558,0.37717885,0.77117866,0.11577206,inf,inf,inf,inf,0,1,0,1,1,2,1,1,0,0,1,1,0,0,1
72348000,72348000,4392000,47.3977508,8.5456073,0.53606796,0.13036308,1.5717121,-5.255593e-08,1.3669487e-08,-0.03332181,0.100391775,-0.054458313,1.4890604,0.96304446,-8.759322e-06,2.2782478e-06,0.0014087781,-0.10810537,-0.010079369,0.3310507,0.040576953,0.0,488.02798,0.1,3.7656488,0.3787717,0.7769879,0.11463735,inf,inf,inf,inf,0,1,0,1,1,2,1,1,0,0,1,1,0,0,1
72852000,72852000,4392000,47.3977508,8.5456073,0.4919752,0.100627236,1.8299876,-5.255593e-08,1.3669487e-08,-0.03332181,0.09674073,0.02330335,0.95194197,0.31078976,-8.759322e-06,2.2782478e-06,0.0014087781,0.009746843,-0.028001811,-0.013500451,0.040642153,0.0,488.02798,0.1,3.8226256,0.35481614,0.7901741,0.11044432,inf,inf,inf,inf,0,1,0,1,1,2,1,1,0,0,1,1,0,0,1
73356000,73356000,4392000,47.3977508,8.5456073,0.45369926,0.10095495,1.8460352,-5.255593e-08,1.3669487e-08,-0.03332181,0.079010725,0.010497424,0.8463439,0.1243185,-8.759322e-06,2.2782478e-06,0.0014087781,0.032457624,-0.027593892,-0.02022553,0.04071392,0.0,488.02798,0.1,3.7466025,0.35759827,0.7803755,0.10623939,inf,inf,inf,inf,0,1,0,1,1,2,1,1,0,0,1,1,0,0,1
73852000,73852000,4392000,47.3977508,8.5456073,0.41657394,0.09455253,1.8475915,-5.255593e-08,1.3669487e-08,-0.03332181,0.06051795,-0.003583364,0.75297886,0.011622209,-8.759322e-06,2.2782478e-06,0.0014087781,-0.013813026,-0.0324348,-0.011571682,0.040790766,0.0,488.02798,0.10875571,3.7999234,0.3575692,0.78886986,0.1036361,inf,inf,inf,inf,0,1,0,1,1,2,1,1,0,0,1,1,0,0,1
74348000,74348000,4392000,47.3977508,8.5456073,0.3773122,0.08086681,1.8353399,-5.255593e-08,1.3669487e-08,-0.03332181,0.04167324,-0.0184142,0.66542953,-0.057383865,-8.759322e-06,2.2782478e-06,0.0014087781,-4.3961332e-05,-0.017814862,-0.024005769,0.04064729,0.0,488.02798,0.1300559,3.7192402,0.3592395,0.77816004,0.10360427,inf,inf,inf,inf,0,1,0,1,1,2,1,1,0,0,1,1,0,0,1
74852000,74852000,4392000,47.3977508,8.5456073,0.33216092,0.06023821,1.7628348,-5.255593e-08,1.3669487e-08,-0.03332181,0.018978667,-0.03522141,0.57227117,-0.15240823,-8.759322e-06,2.2782478e-06,0.0014087781,-0.013420678,-0.033315603,-0.030311754,0.04048179,0.0,488.02798,0.20256102,3.7775419,0.33913952,0.78726447,0.10229789,inf,inf,inf,inf,0,1,0,1,1,2,1,1,0,0,1,1,0,0,1
