timestamp,timestamp_sample,time_last_fuse,device_id,observation[0],observation[1],observation[2],observation_variance[0],observation_variance[1],observation_variance[2],innovation[0],innovation[1],innovation[2],innovation_variance[0],innovation_variance[1],innovation_variance[2],test_ratio[0],test_ratio[1],test_ratio[2],estimator_instance,fusion_enabled,innovation_rejected,fused
3596000,3477124,0,0,0.0,0.0,0.02,0.09,0.09,0.20250002,0.0006205262,0.002725474,-0.041395213,0.11651664,0.11647381,0.20434281,1.3218808e-07,2.5510315e-06,0.0003354292,0,1,0,0
3996000,3877470,0,0,0.0,-0.01,0.01,0.09,0.09,0.20250002,0.00095869147,0.012248449,-0.018552246,0.10590871,0.1059087,0.20376264,3.471251e-07,5.6661822e-05,6.7566034e-05,0,1,0,0
4396000,4277680,0,0,0.0,0.01,0.01,0.09,0.09,0.20250002,-3.1248084e-05,-0.006148665,-0.0245671,0.106069,0.10606803,0.20660949,3.6822928e-10,1.4257296e-05,0.000116846975,0,1,0,0
4796000,4677806,0,0,0.01,0.0,-0.03,0.09,0.09,0.20250002,-0.007917205,0.0010238603,0.014271958,0.09980448,0.09980515,0.209414,2.512197e-05,4.2013463e-07,3.890643e-05,0,1,0,0
5196000,5077883,0,0,0.01,0.0,-0.03,0.09,0.09,0.20250002,-0.008127437,-0.00084171514,0.015889844,0.09431311,0.094313845,0.21087864,2.8015293e-05,3.0047948e-07,4.7892405e-05,0,1,0,0
5596000,5477929,0,0,0.0,0.0,-0.03,0.09,0.09,0.20250002,-0.0024200901,-6.795807e-05,0.018021574,0.09244313,0.09244362,0.2111179,2.534244e-06,1.9983204e-09,6.153474e-05,0,1,0,0
5996000,5877958,0,0,0.0,0.01,-0.02,0.09,0.09,0.20250002,-0.0009979162,-0.01008279,0.008928757,0.09168261,0.091682926,0.21074452,4.3447136e-07,4.4354012e-05,1.5131631e-05,0,1,0,0
6396000,6277974,0,0,0.0,0.0,0.02,0.09,0.09,0.20250002,0.00019417607,-9.458646e-05,-0.029386956,0.09130198,0.09130218,0.21017145,1.6518523e-08,3.9195553e-09,0.00016435975,0,1,0,0
6796000,6677985,0,0,0.0,0.0,0.04,0.09,0.09,0.20250002,-0.0002464424,-0.0032439611,-0.04660427,0.09107815,0.091078244,0.20958646,2.6673293e-08,4.6216455e-06,0.00041452257,0,1,0,0
7196000,7077991,0,0,0.0,0.01,0.02,0.09,0.09,0.20250002,-0.003918907,-0.011687241,-0.024294365,0.09093087,0.09093096,0.20904888,6.755828e-06,6.008585e-05,0.00011293362,0,1,0,0
7596000,7477995,0,0,0.0,0.0,0.02,0.09,0.09,0.20250002,-0.0048291,0.00072576816,-0.022545237,0.09084276,0.09084281,0.20967036,1.02683825e-05,2.3193445e-07,9.696891e-05,0,1,0,0
7996000,7877997,0,0,0.01,0.0,0.02,0.09,0.09,0.20250002,-0.011070476,-9.3639195e-05,-0.020570874,0.09075997,0.09076,0.20915604,5.4012988e-05,3.8643893e-09,8.092731e-05,0,1,0,0
8396000,8277998,0,0,0.0,0.0,-0.01,0.09,0.09,0.20250002,-0.0010039187,-0.002121325,0.007801177,0.09124095,0.091241054,0.20875165,4.418423e-07,1.9728045e-06,1.1661391e-05,0,1,0,0
8796000,8677999,8716000,0,0.0,0.0,-0.01,0.09,0.09,0.20250002,-0.0007932669,-0.0009226135,0.009320045,0.09113658,0.09113667,0.20844258,2.7618873e-07,3.7359962e-07,1.6668999e-05,0,1,0,0
9196000,9078000,9116000,0,0.0,0.0,-0.01,0.09,0.09,0.20250002,-0.0026367563,0.0021297974,0.00055001397,0.1806846,0.18068448,0.40465948,1.5391424e-06,1.0041896e-06,2.9903205e-08,0,1,0,1
9596000,9478000,9516000,0,0.0,-0.02,0.0,0.09,0.09,0.20250002,-0.0038096926,0.023164736,-0.008773357,0.13609764,0.13609758,0.3028213,4.2656898e-06,0.00015771184,1.0167288e-05,0,1,0,1
9996000,9878000,9916000,0,-0.01,0.0,0.0,0.09,0.09,0.20250002,0.0038972828,-0.001365863,-0.002500765,0.12189606,0.12189603,0.26856455,4.984185e-06,6.121879e-07,9.314447e-07,0,1,0,1
10396000,10278000,10316000,0,-0.01,0.01,0.0,0.09,0.09,0.20250002,0.0019798642,-0.010973799,0.0016834661,0.115610875,0.115611225,0.25146544,1.3562261e-06,4.1665247e-05,4.508068e-07,0,1,0,1
10796000,10678000,10716000,0,0.0,0.0,-0.02,0.09,0.09,0.20250002,-0.008837933,0.0018137404,0.023684587,0.11278133,0.112782165,0.2410732,2.7702832e-05,1.1667286e-06,9.307707e-05,0,1,0,1
11196000,11078000,11116000,0,0.01,-0.02,0.01,0.09,0.09,0.20250002,-0.015971696,0.023574777,-0.005444335,0.111889265,0.11189063,0.23419449,9.119555e-05,0.00019868335,5.0625927e-06,0,1,0,1
11596000,11478000,11516000,0,0.01,0.0,0.02,0.09,0.09,0.20250002,-0.010893393,-0.002613165,-0.008193556,0.11220303,0.112205245,0.22950232,4.230403e-05,2.4343356e-06,1.170086e-05,0,1,0,1
11996000,11878000,11916000,0,0.02,0.01,0.0,0.09,0.09,0.20250002,-0.017104523,-0.01385638,0.019924816,0.113227814,0.11323069,0.22601739,0.00010335436,6.782588e-05,7.025978e-05,0,1,0,1
12396000,12278000,12316000,0,0.01,0.0,-0.01,0.09,0.09,0.20250002,-0.0031349575,-0.0022244519,0.030238854,0.114571676,0.11457478,0.22345589,3.4312002e-06,1.7274956e-06,0.00016368121,0,1,0,1
12796000,12678000,12716000,0,0.02,-0.01,0.03,0.09,0.09,0.20250002,-0.013077293,0.009144365,-0.008472776,0.115890875,0.11589377,0.22156973,5.9026417e-05,2.886071e-05,1.295988e-05,0,1,0,1
13196000,13078000,13116000,0,0.01,0.0,0.01,0.09,0.09,0.20250002,-0.0029911874,-0.0033600593,0.016340045,0.11695621,0.11695867,0.22019288,3.0600177e-06,3.861193e-06,4.8502403e-05,0,1,0,1
13596000,13478000,13516000,0,-0.03,0.0,-0.02,0.09,0.09,0.20250002,0.036690067,-0.0014133313,0.049353886,0.11764939,0.11765152,0.2191943,0.00045768567,6.7912606e-07,0.00044450175,0,1,0,1
13996000,13878000,13916000,0,0.02,0.0,0.03,0.09,0.09,0.20250002,-0.023640344,0.0016048972,-0.0032216888,0.11795147,0.11795315,0.21856579,0.000189524,8.734638e-07,1.8995249e-06,0,1,0,1
14396000,14278000,14316000,0,0.0,0.0,-0.01,0.09,0.09,0.20250002,0.0034427177,0.0020858725,0.040915996,0.11789568,0.11789726,0.21807352,4.0212853e-06,1.4761545e-06,0.00030707417,0,1,0,1
14796000,14678000,14716000,0,0.0,0.02,0.0,0.09,0.09,0.20250002,0.0020249167,-0.01600058,0.031021692,0.11756456,0.117565796,0.21774715,1.3950761e-06,8.7106484e-05,0.00017678217,0,1,0,1
15196000,15078000,15116000,0,0.02,0.0,-0.02,0.09,0.09,0.20250002,-0.019619582,0.010366135,0.049202442,0.11703826,0.11703925,0.2176208,0.0001315563,3.6725036e-05,0.00044497222,0,1,0,1
15596000,15478000,15516000,0,-0.01,-0.01,0.0,0.09,0.09,0.20250002,0.015120632,0.020070612,0.029409207,0.11637847,0.116379336,0.21751004,7.858275e-05,0.00013845395,0.000159055,0,1,0,1
15996000,15878000,15916000,0,0.0,0.0,0.01,0.09,0.09,0.20250002,0.0020124754,0.005601193,0.021348493,0.11564935,0.11565027,0.21745898,1.4008059e-06,1.0851117e-05,8.383341e-05,0,1,0,1
16396000,16278000,16316000,0,0.0,0.01,-0.01,0.09,0.09,0.20250002,0.0031631528,-0.0032160236,0.043083243,0.114895985,0.114896886,0.21744858,3.483337e-06,3.6007268e-06,0.00034144457,0,1,0,1
16796000,16678000,16716000,0,0.0,-0.01,-0.01,0.09,0.09,0.20250002,0.0055621364,0.018284183,0.046325922,0.114142776,0.1141438,0.21753055,1.0841635e-05,0.00011715444,0.00039462798,0,1,0,1
17196000,17078000,17116000,0,0.0,0.0,0.0,0.09,0.09,0.20250002,0.006825747,0.00459471,0.03846466,0.11341655,0.113417655,0.2175479,1.6431753e-05,7.4455293e-06,0.0002720376,0,1,0,1
17596000,17478000,17516000,0,0.0,0.0,0.01,0.09,0.09,0.20250002,0.008797044,0.0028345664,0.030116485,0.11272924,0.11273053,0.21756837,2.7459773e-05,2.8509637e-06,0.00016675268,0,1,0,1
17996000,17878000,17916000,0,-0.01,0.0,0.02,0.09,0.09,0.20250002,0.016659575,0.0014298918,0.018569909,0.11209127,0.112092435,0.21757692,9.904123e-05,7.296087e-07,6.339671e-05,0,1,0,1
18396000,18278000,18316000,0,0.0,0.0,0.0,0.09,0.09,0.20250002,0.006764774,0.004801417,0.04266154,0.111494415,0.111495495,0.217574,1.6417745e-05,8.270685e-06,0.00033460007,0,1,0,1
18796000,18678000,18716000,0,0.02,0.0,0.02,0.09,0.09,0.20250002,-0.0095146615,0.0061711804,0.024523053,0.11094915,0.110950306,0.21763705,3.2637934e-05,1.37299185e-05,0.000110529,0,1,0,1
19196000,19078000,19116000,0,-0.01,0.0,0.0,0.09,0.09,0.20250002,0.029138116,0.0043750703,0.046948683,0.110452965,0.110454515,0.21760699,0.000307472,6.9318094e-06,0.00040516694,0,1,0,1
19596000,19478000,19516000,0,0.02,0.0,0.0,0.09,0.09,0.20250002,-0.0026146397,0.0052131787,0.046715952,0.11000638,0.11000781,0.21756418,2.485798e-06,9.881928e-06,0.00040123888,0,1,0,1
19996000,19878000,19916000,0,0.0,0.0,-0.01,0.09,0.09,0.20250002,0.021785943,0.0054564653,0.055264696,0.10960494,0.109606214,0.21752079,0.00017321383,1.0865447e-05,0.0005616358,0,1,0,1
20396000,20278000,20316000,0,-0.01,0.0,-0.01,0.09,0.09,0.20250002,-0.13487732,0.15547188,0.21103598,0.10914311,0.10912199,0.21757415,0.0066671707,0.008860361,0.008187771,0,1,0,1
20796000,20678000,20716000,0,0.0,0.0,-0.02,0.09,0.09,0.20250002,-0.3152174,0.30058062,0.39602306,0.108816445,0.10878091,0.21758744,0.036524635,0.03322227,0.028831495,0,1,0,1
21196000,21078000,21116000,0,0.0,0.0,-0.03,0.09,0.09,0.20250002,-0.427276,0.3928886,0.54414535,0.108571574,0.1085337,0.217615,0.06726061,0.056889776,0.05442532,0,1,0,1
21596000,21478000,21516000,0,-0.01,0.0,0.0,0.09,0.09,0.20250002,-0.468702,0.43137598,0.60093766,0.10834639,0.10831209,0.21763133,0.08110342,0.06872187,0.066373914,0,1,0,1
21996000,21878000,21916000,0,0.0,-0.089999996,-0.13,0.09,0.09,0.20250002,-0.47964996,0.43439594,0.59855646,0.10816356,0.10820347,0.21766083,0.08508007,0.0697574,0.06584002,0,1,0,1
22396000,22278000,22316000,0,0.17999999,-0.31,-0.099999994,0.09,0.09,0.20250002,-0.31358743,0.2943939,0.6109786,0.10781395,0.1078329,0.2179867,0.036483992,0.032148916,0.06849865,0,1,0,1
22796000,22678000,22716000,0,0.66999996,-0.69,-0.39,0.09,0.09,0.20250002,-0.2554689,0.24352697,0.5245935,0.108208954,0.108412154,0.21782506,0.024125308,0.021881452,0.05053566,0,1,0,1
23196000,23078000,23116000,0,0.48999998,-0.48,-0.71,0.09,0.09,0.20250002,-0.15405878,0.13602531,0.39921826,0.108483665,0.10861974,0.21771388,0.008751219,0.006813821,0.029281592,0,1,0,1
23596000,23478000,23516000,0,0.089999996,-0.089999996,-0.82,0.09,0.09,0.20250002,0.028563276,-0.025128253,0.21847212,0.10869591,0.10873158,0.21751474,0.00030023605,0.00023228911,0.008777349,0,1,0,1
23996000,23878000,23916000,0,-0.32,0.26999998,-0.78,0.09,0.09,0.20250002,0.2381922,-0.17554039,-0.045336366,0.10885813,0.10885306,0.21734837,0.02084751,0.011323312,0.00037826574,0,1,0,1
24396000,24278000,24316000,0,-0.61,0.53,-0.71,0.09,0.09,0.20250002,0.43124032,-0.33476937,-0.13213187,0.10852775,0.10852909,0.2171452,0.06854218,0.04130525,0.003216066,0,1,0,1
24796000,24678000,24716000,0,-0.74,0.71,-0.29999998,0.09,0.09,0.20250002,0.5723686,-0.5095506,-0.44326642,0.10798302,0.10799012,0.21709314,0.12135457,0.09617242,0.036202915,0,1,0,1
25196000,25078000,25116000,0,-0.78999996,0.77,0.0,0.09,0.09,0.20250002,0.7219472,-0.63808906,-0.65527326,0.10725932,0.107292995,0.2172611,0.19437294,0.15179282,0.07905383,0,1,0,1
25596000,25478000,25516000,0,-0.76,0.77,0.35999998,0.09,0.09,0.20250002,0.83597714,-0.75879174,-0.7768757,0.11914536,0.1192835,0.21734038,0.23462358,0.19307445,0.111076616,0,1,0,1
25996000,25878000,25916000,0,-0.64,0.66999996,0.75,0.09,0.09,0.20250002,0.7728062,-0.69410944,-0.9215816,0.1405756,0.14078426,0.21743767,0.16993831,0.13688686,0.15624022,0,1,0,1
26396000,26278000,26316000,0,-0.32,0.35,0.63,0.09,0.09,0.20250002,0.48716974,-0.39393014,-1.0144738,0.15584725,0.15602046,0.21750915,0.060914606,0.039784767,0.1892623,0,1,0,1
26796000,26678000,26716000,0,0.06,-0.049999997,0.59,0.09,0.09,0.20250002,0.2443828,-0.15149722,-1.1000574,0.15635866,0.15640208,0.2175365,0.015278451,0.0058698463,0.22251461,0,1,0,1
27196000,27078000,27116000,0,0.48,-0.48,0.53999996,0.09,0.09,0.20250002,-0.015280962,0.088710874,-1.1417129,0.14991328,0.14989173,0.21752875,6.230477e-05,0.0021000807,0.239694,0,1,0,1
27596000,27478000,27516000,0,0.81,-0.74,0.35999998,0.09,0.09,0.20250002,-0.23951393,0.2311691,-1.0322973,0.1423752,0.14236669,0.21735233,0.016117113,0.015014511,0.19611247,0,1,0,1
27996000,27878000,27916000,0,0.97999996,-0.85999995,0.17999999,0.09,0.09,0.20250002,-0.4310285,0.38707307,-0.9095842,0.13600877,0.1359534,0.21718442,0.05463929,0.044081446,0.1523762,0,1,0,1
28396000,28278000,28316000,0,0.96,-0.84,-0.089999996,0.09,0.09,0.20250002,-0.56402767,0.51934206,-0.6737965,0.1312516,0.13111283,0.2171932,0.09695187,0.08228521,0.0836125,0,1,0,1
28796000,28678000,28716000,0,0.87,-0.69,-0.29999998,0.09,0.09,0.20250002,-0.7292925,0.59532166,-0.45739862,0.12773427,0.12757026,0.21724826,0.16655438,0.11112555,0.038520627,0,1,0,1
29196000,29078000,29116000,0,0.7,-0.52,-0.59,0.09,0.09,0.20250002,-0.8394598,0.69210005,-0.12703186,0.12490636,0.12476203,0.21740347,0.22567073,0.15357316,0.002969059,0,1,0,1
29596000,29478000,29516000,0,0.48999998,-0.34,-0.68,0.09,0.09,0.20250002,-0.90395796,0.7533028,0.030746162,0.122504786,0.12250042,0.21760656,0.2668108,0.1852941,0.000173768,0,1,0,1
29996000,29878000,29916000,0,0.35999998,-0.22999999,-0.87,0.09,0.09,0.20250002,-1.0184562,0.83811665,0.31744397,0.12020442,0.120403975,0.21789107,0.34516302,0.23336089,0.018499276,0,1,0,1
30396000,30278000,30316000,0,0.19,-0.099999994,-1.0,0.09,0.09,0.20250002,-0.8826987,0.7093698,0.49117446,0.11722677,0.117412224,0.21785554,0.26586318,0.17143206,0.044295836,0,1,0,1
30796000,30678000,30716000,0,-0.01,0.03,-0.83,0.09,0.09,0.20250002,-0.776837,0.6368579,0.4876255,0.11493975,0.11519879,0.21774776,0.21001463,0.14083065,0.043679647,0,1,0,1
31204000,31082000,31124000,0,-0.24,0.22,-0.65999997,0.09,0.09,0.20250002,-0.65152895,0.5050161,0.47146034,0.11313583,0.11345326,0.21766284,0.15008153,0.0899194,0.04084755,0,1,0,1
31596000,31478000,31516000,0,-0.41,0.29999998,-0.59999996,0.09,0.09,0.20250002,-0.52759445,0.4511039,0.53045803,0.11135763,0.11164737,0.21755083,0.099986285,0.07290623,0.051737007,0,1,0,1
31996000,31878000,31916000,0,-0.48999998,0.38,-0.53,0.09,0.09,0.20250002,-0.44198546,0.34970576,0.56204796,0.10991727,0.11013313,0.21742201,0.071090244,0.044416834,0.058117006,0,1,0,1
32396000,32278000,32316000,0,-0.47,0.37,-0.39,0.09,0.09,0.20250002,-0.3909445,0.30329418,0.514387,0.10872077,0.10884107,0.2173919,0.056231245,0.033806123,0.048685163,0,1,0,1
32796000,32678000,32716000,0,-0.39999998,0.34,-0.32999998,0.09,0.09,0.20250002,-0.33850682,0.24530473,0.53054124,0.107791066,0.10784106,0.21730183,0.042521846,0.022319667,0.05181254,0,1,0,1
33196000,33078000,33116000,0,-0.35,0.28,-0.29,0.09,0.09,0.20250002,-0.2533184,0.2039071,0.5501231,0.10712091,0.107156985,0.21723291,0.023961788,0.015520447,0.055725522,0,1,0,1
33596000,33478000,33516000,0,-0.26,0.19999999,-0.14999999,0.09,0.09,0.20250002,-0.21822146,0.17919111,0.46089554,0.106673345,0.10673504,0.21726094,0.017856607,0.012033332,0.0391096,0,1,0,1
33996000,33878000,33916000,0,-0.17,0.12,-0.21,0.09,0.09,0.20250002,-0.1927238,0.16656294,0.55672705,0.10640174,0.10651259,0.21722136,0.013963103,0.010418755,0.057074502,0,1,0,1
34396000,34278000,34316000,0,-0.12,0.099999994,-0.049999997,0.09,0.09,0.20250002,-0.14410636,0.10696587,0.41675955,0.10625328,0.10641815,0.21719408,0.007817789,0.0043006563,0.031987708,0,1,0,1
34796000,34678000,34716000,0,-0.06,0.06,0.0,0.09,0.09,0.20250002,-0.1325496,0.09325184,0.38312796,0.106189,0.1063876,0.21717143,0.006618161,0.0032695185,0.027036158,0,1,0,1
35196000,35078000,35116000,0,-0.04,0.049999997,0.04,0.09,0.09,0.20250002,-0.099082135,0.058299296,0.3450997,0.10619013,0.10639787,0.21722995,0.0036979972,0.001277773,0.021929536,0,1,0,1
35596000,35478000,35516000,0,-0.049999997,0.04,0.08,0.09,0.09,0.20250002,-0.050704442,0.035858087,0.2981053,0.10624052,0.106445596,0.21721052,0.0009679698,0.0004831773,0.016365094,0,1,0,1
35996000,35878000,35916000,0,-0.02,0.07,0.03,0.09,0.09,0.20250002,-0.056518752,-0.01717247,0.3337772,0.10632741,0.10651853,0.2171946,0.0012017105,0.000110738954,0.020517493,0,1,0,1
36396000,36278000,36316000,0,-0.03,0.07,0.08,0.09,0.09,0.20250002,-0.019047273,-0.03206341,0.26977223,0.10643919,0.106616154,0.2171774,0.00013634024,0.00038570596,0.013404166,0,1,0,1
36796000,36678000,36716000,0,-0.06,0.04,0.13,0.09,0.09,0.20250002,0.02540373,-0.022776604,0.20719358,0.10657135,0.10671726,0.21723846,0.00024222251,0.0001944479,0.007904527,0,1,0,1
37196000,37078000,37116000,0,-0.06,0.04,0.14999999,0.09,0.09,0.20250002,0.037150793,-0.04769515,0.1672342,0.10671748,0.10683963,0.21721776,0.0005173216,0.0008516791,0.0051500904,0,1,0,1
37596000,37478000,37516000,0,-0.07,0.049999997,0.099999994,0.09,0.09,0.20250002,0.06584652,-0.07371553,0.18892598,0.10686603,0.10697377,0.217198,0.0016228781,0.0020318925,0.0065733623,0,1,0,1
37996000,37878000,37916000,0,-0.03,0.06,0.089999996,0.09,0.09,0.20250002,0.04571888,-0.09670089,0.17565158,0.10699811,0.10709366,0.21725938,0.0007814029,0.003492667,0.0056804875,0,1,0,1
38396000,38278000,38316000,0,-0.02,0.04,0.099999994,0.09,0.09,0.20250002,0.05936677,-0.088152595,0.14775813,0.10711032,0.1071931,0.21723846,0.0013161807,0.0028997688,0.00402,0,1,0,1
38796000,38678000,38716000,0,0.0,0.02,0.14,0.09,0.09,0.20250002,0.057903867,-0.0858928,0.08862151,0.107207395,0.1072737,0.2172152,0.0012509801,0.0027509343,0.0014462657,0,1,0,1
39196000,39078000,39116000,0,-0.01,-0.01,0.01,0.09,0.09,0.20250002,0.08202794,-0.072644144,0.1973476,0.10728799,0.10733861,0.2171937,0.0025086065,0.0019665512,0.007172597,0,1,0,1
39596000,39478000,39516000,0,0.0,0.02,0.08,0.09,0.09,0.20250002,0.07744618,-0.11346568,0.10671258,0.10733643,0.107372865,0.21725525,0.0022351816,0.004796169,0.002096626,0,1,0,1
39996000,39878000,39916000,0,0.0,-0.01,0.07,0.09,0.09,0.20250002,0.08097433,-0.0823159,0.10710075,0.10735945,0.10738413,0.21723765,0.0024429495,0.0025239883,0.0021120778,0,1,0,1
40396000,40278000,40316000,0,-0.02,-0.01,0.08,0.09,0.09,0.20250002,0.10480952,-0.08902017,0.08004159,0.107373305,0.1073888,0.21722154,0.0040922784,0.002951738,0.0011797459,0,1,0,1
40796000,40678000,40716000,0,0.0,0.0,0.049999997,0.09,0.09,0.20250002,0.08578441,-0.10095023,0.09499402,0.10737149,0.10738032,0.2172093,0.0027414972,0.0037962075,0.0016617824,0,1,0,1
41196000,41078000,41116000,0,-0.01,-0.01,0.02,0.09,0.09,0.20250002,0.10102501,-0.09217779,0.105705574,0.10735738,0.10736099,0.21719295,0.0038026455,0.0031656732,0.0020578327,0,1,0,1
41596000,41478000,41516000,0,0.0,-0.03,0.07,0.09,0.09,0.20250002,0.09089418,-0.07082391,0.04579585,0.10731995,0.10731913,0.21725373,0.0030792977,0.0018695738,0.00038614022,0,1,0,1
41996000,41878000,41916000,0,0.02,0.0,0.04,0.09,0.09,0.20250002,0.07265055,-0.100308694,0.06540977,0.10727797,0.107273735,0.21723144,0.0019680099,0.003751835,0.00078781194,0,1,0,1
42396000,42278000,42316000,0,0.02,-0.03,0.02,0.09,0.09,0.20250002,0.07602665,-0.059226766,0.075831845,0.107226245,0.1072188,0.21720743,0.0021562076,0.0013086548,0.001058982,0,1,0,1
42796000,42678000,42716000,0,0.03,-0.02,0.02,0.09,0.09,0.20250002,0.064315364,-0.07082562,0.06988639,0.10716499,0.10715574,0.21726342,0.0015439618,0.0018725151,0.0008992047,0,1,0,1
43196000,43078000,43116000,0,0.03,-0.01,0.01,0.09,0.09,0.20250002,0.061007127,-0.07327188,0.07662753,0.10709993,0.10708871,0.2172381,0.0013900549,0.0020053536,0.0010811691,0,1,0,1
43596000,43478000,43516000,0,0.06,-0.02,0.0,0.09,0.09,0.20250002,0.02623747,-0.055889066,0.081984796,0.10703437,0.1070221,0.2172127,0.00025726494,0.0011674552,0.0012377742,0,1,0,1
43996000,43878000,43916000,0,0.06,-0.04,0.0,0.09,0.09,0.20250002,0.021185625,-0.031590335,0.08036868,0.10696678,0.10695446,0.217268,0.00016783929,0.000373224,0.0011891535,0,1,0,1
44396000,44278000,44316000,0,0.04,-0.02,0.01,0.09,0.09,0.20250002,0.026154578,-0.051207956,0.06847243,0.10690093,0.10688996,0.21724246,0.0002559611,0.0009812913,0.00086327025,0,1,0,1
44796000,44674000,44716000,0,0.04,-0.02,0.01,0.09,0.09,0.20250002,0.011704631,-0.041443065,0.06312311,0.10684243,0.10683215,0.21721908,5.1289884e-05,0.0006430752,0.00073373417,0,1,0,1
45196000,45078000,45116000,0,0.02,-0.04,0.0,0.09,0.09,0.20250002,0.020302314,-0.01543672,0.06908493,0.1067836,0.10677484,0.21720369,0.00015439972,8.9269095e-05,0.0008789404,0,1,0,1
45596000,45478000,45516000,0,0.01,-0.02,0.02,0.09,0.09,0.20250002,0.017696196,-0.02843197,0.046750274,0.1067265,0.106718116,0.21726802,0.00011736743,0.0003029952,0.00040237638,0,1,0,1
45996000,45878000,45916000,0,-0.01,0.0,0.0,0.09,0.09,0.20250002,0.030822841,-0.040784057,0.061963398,0.10667414,0.1066664,0.21725684,0.00035624285,0.0006237538,0.00070689834,0,1,0,1
46396000,46278000,46316000,0,0.0,-0.01,0.03,0.09,0.09,0.20250002,0.017267032,-0.020329678,0.029441407,0.10662214,0.10661446,0.21724541,0.00011185309,0.00015506182,0.00015959766,0,1,0,1
46796000,46678000,46716000,0,0.0,0.01,-0.01,0.09,0.09,0.20250002,0.019225793,-0.038197435,0.06607751,0.10657336,0.10656693,0.21723825,0.00013873301,0.00054765365,0.0008039537,0,1,0,1
47196000,47078000,47116000,0,-0.01,-0.01,0.01,0.09,0.09,0.20250002,0.030721022,-0.014777912,0.042317674,0.106525674,0.10652105,0.21722776,0.00035438634,8.200696e-05,0.0003297526,0,1,0,1
47596000,47478000,47516000,0,0.01,0.0,0.02,0.09,0.09,0.20250002,0.007650746,-0.025518548,0.03558623,0.10647722,0.10647453,0.21721631,2.1989272e-05,0.00024463926,0.0002332016,0,1,0,1
47996000,47878000,47916000,0,-0.01,0.0,-0.03,0.09,0.09,0.20250002,0.029413505,-0.02590242,0.082599975,0.10643757,0.106436945,0.21728069,0.00032513117,0.00025214377,0.0012560262,0,1,0,1
48396000,48278000,48316000,0,0.02,0.0,0.03,0.09,0.09,0.20250002,-0.00059816986,-0.02425098,0.021480044,0.106397286,0.106398165,0.21726477,1.345174e-07,0.00022109783,8.494563e-05,0,1,0,1
48796000,48678000,48716000,0,0.01,-0.03,0.04,0.09,0.09,0.20250002,0.01349804,0.005399693,0.012564354,0.10636177,0.10636433,0.21724704,6.851976e-05,1.09648345e-05,2.9066077e-05,0,1,0,1
49196000,49078000,49116000,0,0.02,0.01,0.0,0.09,0.09,0.20250002,-0.0020751879,-0.037113618,0.046369776,0.106335655,0.10633922,0.21722879,1.6199288e-06,0.00051812327,0.0003959247,0,1,0,1
49596000,49478000,49516000,0,0.0,0.01,0.0,0.09,0.09,0.20250002,0.01867686,-0.027657855,0.046793688,0.10630509,0.10630905,0.21729027,0.00013125433,0.00028782384,0.0004030828,0,1,0,1
49996000,49874000,49916000,0,0.0,0.0,-0.02,0.09,0.09,0.20250002,0.009812629,-0.017489307,0.06640217,0.10627645,0.106281444,0.21726863,3.6240457e-05,0.00011511919,0.0008117597,0,1,0,1
50396000,50278000,50316000,0,0.02,0.01,-0.11,0.09,0.09,0.20250002,-0.15388678,0.10010849,0.21463005,0.106240645,0.106226124,0.2172488,0.008916038,0.0037737272,0.008481715,0,1,0,1
50796000,50678000,50716000,0,0.19,-0.14,-0.26999998,0.09,0.09,0.20250002,-0.3612017,0.28380847,0.36272585,0.10625042,0.1062222,0.21732703,0.04911667,0.030331606,0.024216048,0,1,0,1
51196000,51078000,51116000,0,0.32999998,-0.29999998,-0.39,0.09,0.09,0.20250002,-0.4726172,0.4181997,0.49806097,0.1062185,0.10618322,0.21733925,0.08411605,0.06588271,0.04565484,0,1,0,1
51596000,51478000,51516000,0,0.41,-0.38,-0.45,0.09,0.09,0.20250002,-0.52933437,0.4712416,0.5963128,0.1061732,0.10613112,0.21735868,0.105561435,0.083695956,0.06543819,0,1,0,1
51996000,51878000,51916000,0,0.42999998,-0.35999998,-0.42999998,0.09,0.09,0.20250002,-0.55691475,0.4544742,0.6331901,0.10613039,0.10607971,0.21745038,0.11689546,0.07788362,0.073751025,0,1,0,1
52396000,52278000,52316000,0,0.34,-0.29,-0.39999998,0.09,0.09,0.20250002,-0.49922198,0.41527486,0.6673171,0.10609786,0.1060438,0.21743433,0.09395952,0.065049805,0.08192121,0,1,0,1
52796000,52678000,52716000,0,0.19,-0.16,-0.24,0.09,0.09,0.20250002,-0.39835116,0.32667267,0.5667589,0.106072694,0.10602723,0.2173829,0.059839584,0.040259484,0.059105963,0,1,0,1
53196000,53078000,53116000,0,0.01,0.04,-0.07,0.09,0.09,0.20250002,-0.26929444,0.16566473,0.44422534,0.106045954,0.106023505,0.217385,0.027353989,0.010354234,0.036310907,0,1,0,1
53596000,53478000,53516000,0,-0.21,0.22,0.11,0.09,0.09,0.20250002,-0.07893537,0.012209848,0.29494828,0.10600755,0.106013805,0.21729831,0.002351075,5.6249424e-05,0.016013835,0,1,0,1
53996000,53878000,53916000,0,-0.39,0.37,0.35,0.09,0.09,0.20250002,0.099830806,-0.14736743,0.06940204,0.10595986,0.10599201,0.21723108,0.003762251,0.008195773,0.00088691595,0,1,0,1
54396000,54278000,54316000,0,-0.57,0.55,0.53999996,0.09,0.09,0.20250002,0.31556642,-0.37039948,-0.14493215,0.10595706,0.10599541,0.21728957,0.037593406,0.05177423,0.00386679,0,1,0,1
54796000,54678000,54716000,0,-0.69,0.62,0.71999997,0.09,0.09,0.20250002,0.5050582,-0.5103746,-0.38675594,0.1060306,0.10605037,0.21732578,0.09623027,0.0982485,0.027531048,0,1,0,1
55196000,55078000,55116000,0,-0.74,0.64,0.82,0.09,0.09,0.20250002,0.66210586,-0.6351137,-0.5825418,0.106211245,0.106191605,0.21741676,0.16509897,0.15194023,0.062434003,0,1,0,1
55596000,55478000,55516000,0,-0.72999996,0.61,0.89,0.09,0.09,0.20250002,0.78698784,-0.7311464,-0.7740513,0.106495366,0.106431976,0.21762273,0.23262979,0.20090768,0.11012737,0,1,0,1
55996000,55878000,55916000,0,-0.66999996,0.57,0.85999995,0.09,0.09,0.20250002,0.8753698,-0.82108,-0.8835477,0.106842756,0.10675518,0.21774969,0.2868785,0.25260502,0.1434044,0,1,0,1
56396000,56278000,56316000,0,-0.53,0.44,0.79999995,0.09,0.09,0.20250002,0.87891096,-0.8125545,-0.96976113,0.10718779,0.1071032,0.21784118,0.2882733,0.24658266,0.17268299,0,1,0,1
56796000,56674000,56716000,0,-0.38,0.32999998,0.69,0.09,0.09,0.20250002,0.86286736,-0.81328917,-0.9973756,0.1074514,0.10739778,0.21794999,0.27716348,0.24635118,0.18256631,0,1,0,1
57196000,57078000,57116000,0,-0.17999999,0.17,0.53999996,0.09,0.09,0.20250002,0.7655074,-0.73127747,-0.977574,0.10758902,0.107589304,0.21789351,0.21786667,0.1988178,0.1754345,0,1,0,1
57596000,57478000,57516000,0,0.03,-0.03,0.35,0.09,0.09,0.20250002,0.6245053,-0.58199733,-0.8946332,0.10756809,0.107620016,0.21776432,0.14502697,0.12589513,0.14701554,0,1,0,1
57996000,57878000,57916000,0,0.21,-0.19999999,0.17,0.09,0.09,0.20250002,0.47034478,-0.43582797,-0.7912522,0.107406184,0.10749589,0.21758612,0.08238789,0.07068029,0.115095586,0,1,0,1
58396000,58278000,58316000,0,0.42,-0.39999998,-0.06,0.09,0.09,0.20250002,0.23853287,-0.21542484,-0.59813637,0.10712644,0.10723846,0.21740162,0.02124515,0.017310156,0.06582602,0,1,0,1
58796000,58678000,58716000,0,0.58,-0.57,-0.22,0.09,0.09,0.20250002,0.019754708,0.0063744187,-0.43350914,0.106798515,0.106909625,0.21733293,0.00014616252,1.5202827e-05,0.03458844,0,1,0,1
59196000,59078000,59116000,0,0.71,-0.72999996,-0.47,0.09,0.09,0.20250002,-0.21377105,0.2552462,-0.15158477,0.106510304,0.10659075,0.21725003,0.01716193,0.024448883,0.004230691,0,1,0,1
59596000,59478000,59516000,0,0.84999996,-0.82,-0.66999996,0.09,0.09,0.20250002,-0.4867416,0.47052944,0.11018765,0.10630605,0.10632572,0.21725604,0.0891454,0.08329046,0.0022353935,0,1,0,1
59996000,59878000,59916000,0,0.9,-0.83,-0.79999995,0.09,0.09,0.20250002,-0.69133484,0.64137834,0.33194616,0.106236964,0.10615738,0.21734978,0.17995389,0.15500239,0.020278512,0,1,0,1
60396000,60278000,60316000,0,0.83,-0.78999996,-0.82,0.09,0.09,0.20250002,-0.65763915,0.652989,0.40782762,0.10622986,0.10608679,0.21742104,0.16285035,0.16077198,0.030599315,0,1,0,1
60796000,60678000,60716000,0,0.64,-0.55,-0.71999997,0.09,0.09,0.20250002,-0.62231606,0.5604007,0.46646816,0.10626616,0.106056705,0.21753563,0.14577633,0.11844568,0.040010463,0,1,0,1
61196000,61078000,61116000,0,0.35,-0.29,-0.56,0.09,0.09,0.20250002,-0.53819895,0.49846017,0.45045456,0.10641399,0.10617029,0.21753943,0.1088797,0.093609065,0.037309892,0,1,0,1
61596000,61478000,61516000,0,0.08,-0.049999997,-0.44,0.09,0.09,0.20250002,-0.4575643,0.431467,0.45006308,0.106538504,0.1063128,0.21750902,0.07860635,0.07004379,0.037250277,0,1,0,1
61996000,61878000,61916000,0,-0.12,0.13,-0.34,0.09,0.09,0.20250002,-0.39433718,0.37084895,0.44465864,0.106558494,0.106382534,0.21753748,0.058372375,0.051711097,0.036356274,0,1,0,1
62396000,62278000,62316000,0,-0.22999999,0.22,-0.28,0.09,0.09,0.20250002,-0.34850708,0.3357021,0.45545778,0.10646531,0.10634321,0.21747902,0.045632586,0.0423895,0.038153894,0,1,0,1
62796000,62678000,62716000,0,-0.31,0.26999998,-0.24,0.09,0.09,0.20250002,-0.27032536,0.28379816,0.46874905,0.10630351,0.1062252,0.21741474,0.027497042,0.030328544,0.040425166,0,1,0,1
63196000,63078000,63116000,0,-0.32,0.29,-0.16,0.09,0.09,0.20250002,-0.22360766,0.22724733,0.43002954,0.10613708,0.10608696,0.21735111,0.0188437,0.019471327,0.03403257,0,1,0,1
63596000,63478000,63516000,0,-0.29999998,0.26,-0.12,0.09,0.09,0.20250002,-0.17770317,0.19692937,0.4230801,0.10599989,0.10596909,0.21737371,0.011916396,0.014638674,0.032938067,0,1,0,1
63996000,63878000,63916000,0,-0.29,0.19999999,-0.07,0.09,0.09,0.20250002,-0.10827416,0.18355986,0.39526406,0.10590727,0.105889075,0.21732682,0.004427758,0.012728121,0.028755529,0,1,0,1
64396000,64278000,64316000,0,-0.26,0.17,-0.049999997,0.09,0.09,0.20250002,-0.061206937,0.1395592,0.38857573,0.10586259,0.10585217,0.21728915,0.0014155289,0.0073599885,0.027795425,0,1,0,1
64796000,64678000,64716000,0,-0.19999999,0.12,0.0,0.09,0.09,0.20250002,-0.043802768,0.12906125,0.34767318,0.105851516,0.10584624,0.2172569,0.00072504673,0.006294718,0.022255061,0,1,0,1
65196000,65078000,65116000,0,-0.12,0.14999999,0.02,0.09,0.09,0.20250002,-0.0504786,0.043598562,0.32998484,0.10586325,0.10586521,0.2173072,0.00096278515,0.00071820937,0.020043515,0,1,0,1
65604000,65482000,65524000,0,-0.11,0.099999994,0.0,0.09,0.09,0.20250002,0.006840095,0.058189332,0.3498535,0.105950646,0.10596037,0.21732512,1.7663659e-05,0.0012782131,0.02252799,0,1,0,1
65996000,65878000,65916000,0,-0.08,0.089999996,0.099999994,0.09,0.09,0.20250002,0.018635552,0.02585809,0.2384874,0.10589951,0.10591346,0.21724084,0.00013117485,0.00025252343,0.010472476,0,1,0,1
66396000,66278000,66316000,0,-0.08,0.049999997,0.14,0.09,0.09,0.20250002,0.048384894,0.030155592,0.2923289,0.10587159,0.10588605,0.21729554,0.00088450464,0.0003435239,0.015730867,0,1,0,1
66796000,66678000,66716000,0,-0.06,0.049999997,0.82,0.09,0.09,0.20250002,0.03766711,-0.003155008,0.24560565,0.10557764,0.10559125,0.21727408,0.00053754234,3.7707953e-06,0.011105261,0,1,0,1
67196000,67078000,67116000,0,-0.049999997,0.02,0.82,0.09,0.09,0.20250002,0.054788426,0.0048818253,0.13724214,0.1056983,0.10571054,0.21725217,0.0011359772,9.0179155e-06,0.0034679342,0,1,0,1
67596000,67478000,67516000,0,-0.049999997,0.03,0.77,0.09,0.09,0.20250002,0.07242589,-0.021982733,0.16137153,0.10577602,0.105787426,0.21722877,0.0019836288,0.00018272136,0.0047950866,0,1,0,1
67996000,67878000,67916000,0,-0.04,0.01,0.72999996,0.09,0.09,0.20250002,0.076742396,-0.008080142,0.1954937,0.105834045,0.10584618,0.21728514,0.0022258982,2.4673043e-05,0.0070355088,0,1,0,1
68396000,68278000,68316000,0,-0.03,0.02,0.83,0.09,0.09,0.20250002,0.07966879,-0.026834566,0.09050053,0.10588307,0.10589549,0.21726456,0.002397783,0.00027200175,0.001507903,0,1,0,1
68796000,68678000,68716000,0,-0.02,0.0,0.84,0.09,0.09,0.20250002,0.08183929,-0.00984736,0.067322016,0.10593376,0.10594681,0.2172424,0.002529003,3.661101e-05,0.00083450624,0,1,0,1
69196000,69078000,69116000,0,-0.03,0.01,0.83,0.09,0.09,0.20250002,0.101420425,-0.028462732,0.060824573,0.105982065,0.105994344,0.21729918,0.003882205,0.00030572468,0.00068102026,0,1,0,1
69596000,69482000,69516000,0,-0.01,0.0,0.78999996,0.09,0.09,0.20250002,0.08577345,-0.0201701,0.07569224,0.10602741,0.10603924,0.2172748,0.0027755408,0.00015346505,0.0010547593,0,1,0,1
69996000,69878000,69916000,0,-0.02,0.0,0.77,0.09,0.09,0.20250002,0.101637706,-0.024977898,0.07530618,0.10605968,0.106070384,0.21724874,0.0038960043,0.00023527599,0.0010441524,0,1,0,1
70396000,70278000,70316000,0,0.0,0.01,0.83,0.09,0.09,0.20250002,0.082662046,-0.037349194,0.0011146665,0.1060786,0.106088005,0.21730264,0.002576585,0.0005259642,2.2870985e-07,0,1,0,1
70796000,70678000,70716000,0,0.01,0.01,-0.42999998,0.09,0.09,0.20250002,0.079368286,-0.053749368,1.1654838,0.108091176,0.10815763,0.21584705,0.0023311153,0.0010684386,0.25172502,0,1,0,1
71196000,71078000,71116000,0,0.04,0.06,-0.35,0.09,0.09,0.20250002,0.048098646,-0.08095468,1.1523237,0.11589704,0.116184235,0.21446216,0.0007984604,0.0022562994,0.2476614,0,1,0,1
71596000,71478000,71516000,0,0.03,0.06,-0.06,0.09,0.09,0.20250002,0.052564368,-0.07163698,1.0521611,0.12553732,0.1260391,0.21363732,0.0008803797,0.0016286555,0.20727523,0,1,0,1
71996000,71878000,71916000,0,0.07,0.049999997,0.19,0.09,0.09,0.20250002,-0.0011615232,-0.067321464,0.9689539,0.13237017,0.13293041,0.21315593,4.076858e-07,0.0013637751,0.17618497,0,1,0,1
72396000,72278000,72316000,0,0.07,0.01,0.44,0.09,0.09,0.20250002,0.0016355738,-0.039099883,0.8299406,0.13476272,0.13524438,0.21300496,7.940184e-07,0.00045215953,0.12934937,0,1,0,1
72796000,72678000,72716000,0,0.08,-0.049999997,0.55,0.09,0.09,0.20250002,-0.10039763,0.057345316,0.30551106,0.13468345,0.1350617,0.2130879,0.0029935928,0.000973921,0.017520845,0,1,0,1
73196000,73078000,73116000,0,0.0,0.0,0.02,0.09,0.09,0.20250002,0.017009838,-0.029287837,0.67219526,0.1269689,0.12722152,0.21219479,9.115131e-05,0.00026969568,0.08517579,0,1,0,1
73596000,73478000,73516000,0,0.02,0.01,0.0,0.09,0.09,0.20250002,-0.003728345,-0.030389085,0.6107234,0.12520546,0.12546322,0.21158093,4.440879e-06,0.0002944278,0.07051355,0,1,0,1
73996000,73878000,73916000,0,0.0,0.01,0.0,0.09,0.09,0.20250002,0.021969981,-0.018724944,0.5361833,0.12651876,0.126823,0.21134356,0.00015260349,0.00011058674,0.05441236,0,1,0,1
74396000,74278000,74316000,0,0.0,-0.01,0.02,0.09,0.09,0.20250002,0.019501012,0.008337168,0.4445077,0.1280968,0.12842515,0.21134993,0.00011875065,2.1649457e-05,0.03739525,0,1,0,1
74796000,74678000,74716000,0,0.01,0.0,0.0,0.09,0.09,0.20250002,0.0091014635,-0.004564833,0.39554894,0.1287154,0.12903014,0.21159214,2.5742573e-05,6.4597925e-06,0.029577462,0,1,0,1
