timestamp,x,y,z,vx,vy,vz,acceleration[0],acceleration[1],acceleration[2],thrust[0],thrust[1],thrust[2],yaw,yawspeed
3428000,nan,nan,nan,nan,nan,nan,0.0,0.0,100.0,-0.0,-0.0,-0.001,-5.7202782e-05,0.0
3436000,nan,nan,nan,nan,nan,nan,0.0,0.0,100.0,-0.0,-0.0,-0.001,-5.3839503e-05,0.0
3524000,nan,nan,nan,nan,nan,nan,0.0,0.0,100.0,-0.0,-0.0,-0.001,1.6358156,0.0
3620000,nan,nan,nan,nan,nan,nan,0.0,0.0,100.0,-0.0,-0.0,-0.001,1.6357945,0.0
3724000,nan,nan,nan,nan,nan,nan,0.0,0.0,100.0,-0.0,-0.0,-0.001,1.6324669,0.0
3820000,nan,nan,nan,nan,nan,nan,0.0,0.0,100.0,-0.0,-0.0,-0.001,1.6323322,0.0
3924000,nan,nan,nan,nan,nan,nan,0.0,0.0,100.0,-0.0,-0.0,-0.001,1.632038,0.0
4020000,nan,nan,nan,nan,nan,nan,0.0,0.0,100.0,-0.0,-0.0,-0.001,1.63208,0.0
4124000,nan,nan,nan,nan,nan,nan,0.0,0.0,100.0,-0.0,-0.0,-0.001,1.6319872,0.0
4220000,nan,nan,nan,nan,nan,nan,0.0,0.0,100.0,-0.0,-0.0,-0.001,1.6310865,0.0
4324000,nan,nan,nan,nan,nan,nan,0.0,0.0,100.0,-0.0,-0.0,-0.001,1.628586,0.0
4428000,nan,nan,nan,nan,nan,nan,0.0,0.0,100.0,-0.0,-0.0,-0.001,1.6275296,0.0
4524000,nan,nan,nan,nan,nan,nan,0.0,0.0,100.0,-0.0,-0.0,-0.001,1.6274716,0.0
4628000,nan,nan,nan,nan,nan,nan,0.0,0.0,100.0,-0.0,-0.0,-0.001,1.627188,0.0
4724000,nan,nan,nan,nan,nan,nan,0.0,0.0,100.0,-0.0,-0.0,-0.001,1.626525,0.0
4820000,nan,nan,nan,nan,nan,nan,0.0,0.0,100.0,-0.0,-0.0,-0.001,1.6262001,0.0
4924000,nan,nan,nan,nan,nan,nan,0.0,0.0,100.0,-0.0,-0.0,-0.001,1.625703,0.0
5020000,nan,nan,nan,nan,nan,nan,0.0,0.0,100.0,-0.0,-0.0,-0.001,1.6235238,0.0
5124000,nan,nan,nan,nan,nan,nan,0.0,0.0,100.0,-0.0,-0.0,-0.001,1.623106,0.0
5228000,nan,nan,nan,nan,nan,nan,0.0,0.0,100.0,-0.0,-0.0,-0.001,1.6244733,0.0
5324000,nan,nan,nan,nan,nan,nan,0.0,0.0,100.0,-0.0,-0.0,-0.001,1.6247058,0.0
5428000,nan,nan,nan,nan,nan,nan,0.0,0.0,100.0,-0.0,-0.0,-0.001,1.6242912,0.0
5524000,nan,nan,nan,nan,nan,nan,0.0,0.0,100.0,-0.0,-0.0,-0.001,1.6235559,0.0
5628000,nan,nan,nan,nan,nan,nan,0.0,0.0,100.0,-0.0,-0.0,-0.001,1.6219828,0.0
5724000,nan,nan,nan,nan,nan,nan,0.0,0.0,100.0,-0.0,-0.0,-0.001,1.6208402,0.0
5820000,nan,nan,nan,nan,nan,nan,0.0,0.0,100.0,-0.0,-0.0,-0.001,1.6208845,0.0
5924000,nan,nan,nan,nan,nan,nan,0.0,0.0,100.0,-0.0,-0.0,-0.001,1.6229893,0.0
6028000,nan,nan,nan,nan,nan,nan,0.0,0.0,100.0,-0.0,-0.0,-0.001,1.6245748,0.0
6124000,nan,nan,nan,nan,nan,nan,0.0,0.0,100.0,-0.0,-0.0,-0.001,1.6248794,0.0
6220000,nan,nan,nan,nan,nan,nan,0.0,0.0,100.0,-0.0,-0.0,-0.001,1.624942,0.0
6324000,nan,nan,nan,nan,nan,nan,0.0,0.0,100.0,-0.0,-0.0,-0.001,1.6244918,0.0
6420000,nan,nan,nan,nan,nan,nan,0.0,0.0,100.0,-0.0,-0.0,-0.001,1.6236246,0.0
6524000,nan,nan,nan,nan,nan,nan,0.0,0.0,100.0,-0.0,-0.0,-0.001,1.6226121,0.0
6628000,nan,nan,nan,nan,nan,nan,0.0,0.0,100.0,-0.0,-0.0,-0.001,1.6219082,0.0
6724000,nan,nan,nan,nan,nan,nan,0.0,0.0,100.0,-0.0,-0.0,-0.001,1.6217426,0.0
6820000,nan,nan,nan,nan,nan,nan,0.0,0.0,100.0,-0.0,-0.0,-0.001,1.6219089,0.0
6924000,nan,nan,nan,nan,nan,nan,0.0,0.0,100.0,-0.0,-0.0,-0.001,1.622567,0.0
7020000,nan,nan,nan,nan,nan,nan,0.0,0.0,100.0,-0.0,-0.0,-0.001,1.6241108,0.0
7124000,nan,nan,nan,nan,nan,nan,0.0,0.0,100.0,-0.0,-0.0,-0.001,1.6254957,0.0
7220000,nan,nan,nan,nan,nan,nan,0.0,0.0,100.0,-0.0,-0.0,-0.001,1.6259345,0.0
7324000,nan,nan,nan,nan,nan,nan,0.0,0.0,100.0,-0.0,-0.0,-0.001,1.6257292,0.0
7420000,nan,nan,nan,nan,nan,nan,0.0,0.0,100.0,-0.0,-0.0,-0.001,1.6251734,0.0
7524000,nan,nan,nan,nan,nan,nan,0.0,0.0,100.0,-0.0,-0.0,-0.001,1.624613,0.0
7628000,nan,nan,nan,nan,nan,nan,0.0,0.0,100.0,-0.0,-0.0,-0.001,1.6245959,0.0
7724000,nan,nan,nan,nan,nan,nan,0.0,0.0,100.0,-0.0,-0.0,-0.001,1.6249192,0.0
7820000,nan,nan,nan,nan,nan,nan,0.0,0.0,100.0,-0.0,-0.0,-0.001,1.6249,0.0
7924000,nan,nan,nan,nan,nan,nan,0.0,0.0,100.0,-0.0,-0.0,-0.001,1.6242206,0.0
8028000,nan,nan,nan,nan,nan,nan,0.0,0.0,100.0,-0.0,-0.0,-0.001,1.6220582,0.0
8124000,nan,nan,nan,nan,nan,nan,0.0,0.0,100.0,-0.0,-0.0,-0.001,1.620903,0.0
8220000,nan,nan,nan,nan,nan,nan,0.0,0.0,100.0,-0.0,-0.0,-0.001,1.6204696,0.0
8324000,nan,nan,nan,nan,nan,nan,0.0,0.0,100.0,-0.0,-0.0,-0.001,1.619723,0.0
8420000,nan,nan,nan,nan,nan,nan,0.0,0.0,100.0,-0.0,-0.0,-0.001,1.6196548,0.0
8524000,nan,nan,nan,nan,nan,nan,0.0,0.0,100.0,-0.0,-0.0,-0.001,1.6205032,0.0
8620000,nan,nan,nan,nan,nan,nan,0.0,0.0,100.0,-0.0,-0.0,-0.001,1.6218953,0.0
8724000,nan,nan,nan,nan,nan,nan,0.0,0.0,100.0,-0.0,-0.0,-0.001,1.6217,0.0
8820000,nan,nan,nan,nan,nan,nan,0.0,0.0,100.0,-0.0,-0.0,-0.001,1.6212302,0.0
8924000,nan,nan,nan,nan,nan,nan,0.0,0.0,100.0,-0.0,-0.0,-0.001,1.6211064,0.0
9020000,nan,nan,nan,nan,nan,nan,0.0,0.0,100.0,-0.0,-0.0,-0.001,1.6209637,0.0
9124000,nan,nan,nan,nan,nan,nan,0.0,0.0,100.0,-0.0,-0.0,-0.001,1.620895,0.0
9220000,nan,nan,nan,nan,nan,nan,0.0,0.0,100.0,-0.0,-0.0,-0.001,1.6212354,0.0
9324000,nan,nan,nan,nan,nan,nan,0.0,0.0,100.0,-0.0,-0.0,-0.001,1.6220006,0.0
9428000,nan,nan,nan,nan,nan,nan,0.0,0.0,100.0,-0.0,-0.0,-0.001,1.6222659,0.0
9524000,nan,nan,nan,nan,nan,nan,0.0,0.0,100.0,-0.0,-0.0,-0.001,1.6227134,0.0
9620000,nan,nan,nan,nan,nan,nan,0.0,0.0,100.0,-0.0,-0.0,-0.001,1.6232324,0.0
9724000,nan,nan,nan,nan,nan,nan,0.0,0.0,100.0,-0.0,-0.0,-0.001,1.6235732,0.0
9820000,nan,nan,nan,nan,nan,nan,0.0,0.0,100.0,-0.0,-0.0,-0.001,1.623856,0.0
9924000,nan,nan,nan,nan,nan,nan,0.0,0.0,100.0,-0.0,-0.0,-0.001,1.6239494,0.0
10020000,nan,nan,nan,nan,nan,nan,0.0,0.0,100.0,-0.0,-0.0,-0.001,1.623255,0.0
10124000,nan,nan,nan,nan,nan,nan,0.0,0.0,100.0,-0.0,-0.0,-0.001,1.6224849,0.0
10228000,nan,nan,nan,nan,nan,nan,0.0,0.0,100.0,-0.0,-0.0,-0.001,1.622185,0.0
10324000,nan,nan,nan,nan,nan,nan,0.0,0.0,100.0,-0.0,-0.0,-0.001,1.6223433,0.0
10420000,nan,nan,nan,nan,nan,nan,0.0,0.0,100.0,-0.0,-0.0,-0.001,1.6225407,0.0
10524000,nan,nan,nan,nan,nan,nan,0.0,0.0,100.0,-0.0,-0.0,-0.001,1.6224848,0.0
10628000,nan,nan,nan,nan,nan,nan,0.0,0.0,100.0,-0.0,-0.0,-0.001,1.6225843,0.0
10724000,nan,nan,nan,nan,nan,nan,0.0,0.0,100.0,-0.0,-0.0,-0.001,1.6225241,0.0
10828000,nan,nan,nan,nan,nan,nan,0.0,0.0,100.0,-0.0,-0.0,-0.001,1.6224893,0.0
10924000,nan,nan,nan,nan,nan,nan,0.0,0.0,100.0,-0.0,-0.0,-0.001,1.622588,0.0
11028000,nan,nan,nan,nan,nan,nan,0.0,0.0,100.0,-0.0,-0.0,-0.001,1.6229225,0.0
11124000,nan,nan,nan,nan,nan,nan,0.0,0.0,100.0,-0.0,-0.0,-0.001,1.6230403,0.0
11228000,nan,nan,nan,nan,nan,nan,0.0,0.0,100.0,-0.0,-0.0,-0.001,1.6231002,0.0
11324000,nan,nan,nan,nan,nan,nan,0.0,0.0,100.0,-0.0,-0.0,-0.001,1.6230048,0.0
11420000,nan,nan,nan,nan,nan,nan,0.0,0.0,100.0,-0.0,-0.0,-0.001,1.6231397,0.0
11524000,nan,nan,nan,nan,nan,nan,0.0,0.0,100.0,-0.0,-0.0,-0.001,1.6235967,0.0
11628000,nan,nan,nan,nan,nan,nan,0.0,0.0,100.0,-0.0,-0.0,-0.001,1.623879,0.0
11724000,nan,nan,nan,nan,nan,nan,0.0,0.0,100.0,-0.0,-0.0,-0.001,1.6242858,0.0
11828000,nan,nan,nan,nan,nan,nan,0.0,0.0,100.0,-0.0,-0.0,-0.001,1.6246768,0.0
11924000,nan,nan,nan,nan,nan,nan,0.0,0.0,100.0,-0.0,-0.0,-0.001,1.6248854,0.0
12020000,nan,nan,nan,nan,nan,nan,0.0,0.0,100.0,-0.0,-0.0,-0.001,1.6246936,0.0
12124000,nan,nan,nan,nan,nan,nan,0.0,0.0,100.0,-0.0,-0.0,-0.001,1.62442,0.0
12220000,nan,nan,nan,nan,nan,nan,0.0,0.0,100.0,-0.0,-0.0,-0.001,1.6242429,0.0
12324000,nan,nan,nan,nan,nan,nan,0.0,0.0,100.0,-0.0,-0.0,-0.001,1.624261,0.0
12428000,nan,nan,nan,nan,nan,nan,0.0,0.0,100.0,-0.0,-0.0,-0.001,1.6240871,0.0
12524000,nan,nan,nan,nan,nan,nan,0.0,0.0,100.0,-0.0,-0.0,-0.001,1.6239625,0.0
12620000,nan,nan,nan,nan,nan,nan,0.0,0.0,100.0,-0.0,-0.0,-0.001,1.6239585,0.0
12724000,nan,nan,nan,nan,nan,nan,0.0,0.0,100.0,-0.0,-0.0,-0.001,1.6237391,0.0
12820000,nan,nan,nan,nan,nan,nan,0.0,0.0,100.0,-0.0,-0.0,-0.001,1.6234566,0.0
12924000,nan,nan,nan,nan,nan,nan,0.0,0.0,100.0,-0.0,-0.0,-0.001,1.6231551,0.0
13028000,nan,nan,nan,nan,nan,nan,0.0,0.0,100.0,-0.0,-0.0,-0.001,1.6230737,0.0
13124000,nan,nan,nan,nan,nan,nan,0.0,0.0,100.0,-0.0,-0.0,-0.001,1.6227621,0.0
13220000,nan,nan,nan,nan,nan,nan,0.0,0.0,100.0,-0.0,-0.0,-0.001,1.6225224,0.0
13324000,nan,nan,nan,nan,nan,nan,0.0,0.0,100.0,-0.0,-0.0,-0.001,1.6225762,0.0
13420000,nan,nan,nan,nan,nan,nan,0.0,0.0,100.0,-0.0,-0.0,-0.001,1.6223515,0.0
13524000,nan,nan,nan,nan,nan,nan,0.0,0.0,100.0,-0.0,-0.0,-0.001,1.6220767,0.0
13628000,nan,nan,nan,nan,nan,nan,0.0,0.0,100.0,-0.0,-0.0,-0.001,1.6222888,0.0
13724000,nan,nan,nan,nan,nan,nan,0.0,0.0,100.0,-0.0,-0.0,-0.001,1.6220654,0.0
13828000,nan,nan,nan,nan,nan,nan,0.0,0.0,100.0,-0.0,-0.0,-0.001,1.6216279,0.0
13924000,nan,nan,nan,nan,nan,nan,0.0,0.0,100.0,-0.0,-0.0,-0.001,1.6212369,0.0
14020000,nan,nan,nan,nan,nan,nan,0.0,0.0,100.0,-0.0,-0.0,-0.001,1.6208605,0.0
14124000,nan,nan,nan,nan,nan,nan,0.0,0.0,100.0,-0.0,-0.0,-0.001,1.6203209,0.0
14220000,nan,nan,nan,nan,nan,nan,0.0,0.0,100.0,-0.0,-0.0,-0.001,1.6199383,0.0
14324000,nan,nan,nan,nan,nan,nan,0.0,0.0,100.0,-0.0,-0.0,-0.001,1.6195095,0.0
14420000,nan,nan,nan,nan,nan,nan,0.0,0.0,100.0,-0.0,-0.0,-0.001,1.6193968,0.0
14524000,nan,nan,nan,nan,nan,nan,0.0,0.0,100.0,-0.0,-0.0,-0.001,1.619259,0.0
14620000,nan,nan,nan,nan,nan,nan,0.0,0.0,100.0,-0.0,-0.0,-0.001,1.6188747,0.0
14724000,nan,nan,nan,nan,nan,nan,0.0,0.0,100.0,-0.0,-0.0,-0.001,1.6184405,0.0
14820000,nan,nan,nan,nan,nan,nan,0.0,0.0,100.0,-0.0,-0.0,-0.001,1.6180863,0.0
14924000,nan,nan,nan,nan,nan,nan,0.0,0.0,100.0,-0.0,-0.0,-0.001,1.6177601,0.0
15028000,nan,nan,nan,nan,nan,nan,0.0,0.0,100.0,-0.0,-0.0,-0.001,1.6179156,0.0
15124000,nan,nan,nan,nan,nan,nan,0.0,0.0,100.0,-0.0,-0.0,-0.001,1.6178269,0.0
15220000,nan,nan,nan,nan,nan,nan,0.0,0.0,100.0,-0.0,-0.0,-0.001,1.6176647,0.0
15324000,nan,nan,nan,nan,nan,nan,0.0,0.0,100.0,-0.0,-0.0,-0.001,1.6173626,0.0
15420000,nan,nan,nan,nan,nan,nan,0.0,0.0,100.0,-0.0,-0.0,-0.001,1.6171433,0.0
15524000,nan,nan,nan,nan,nan,nan,0.0,0.0,100.0,-0.0,-0.0,-0.001,1.6170317,0.0
15628000,nan,nan,nan,nan,nan,nan,0.0,0.0,100.0,-0.0,-0.0,-0.001,1.6170931,0.0
15724000,nan,nan,nan,nan,nan,nan,0.0,0.0,100.0,-0.0,-0.0,-0.001,1.616736,0.0
15820000,nan,nan,nan,nan,nan,nan,0.0,0.0,100.0,-0.0,-0.0,-0.001,1.6162398,0.0
15924000,nan,nan,nan,nan,nan,nan,0.0,0.0,100.0,-0.0,-0.0,-0.001,1.6155567,0.0
16020000,nan,nan,nan,nan,nan,nan,0.0,0.0,100.0,-0.0,-0.0,-0.001,1.6152542,0.0
16124000,nan,nan,nan,nan,nan,nan,0.0,0.0,100.0,-0.0,-0.0,-0.001,1.6151768,0.0
16220000,nan,nan,nan,nan,nan,nan,0.0,0.0,100.0,-0.0,-0.0,-0.001,1.6149635,0.0
16324000,nan,nan,nan,nan,nan,nan,0.0,0.0,100.0,-0.0,-0.0,-0.001,1.6147033,0.0
16420000,nan,nan,nan,nan,nan,nan,0.0,0.0,100.0,-0.0,-0.0,-0.001,1.6144468,0.0
16524000,nan,nan,nan,nan,nan,nan,0.0,0.0,100.0,-0.0,-0.0,-0.001,1.6142291,0.0
16620000,nan,nan,nan,nan,nan,nan,0.0,0.0,100.0,-0.0,-0.0,-0.001,1.6139742,0.0
16724000,nan,nan,nan,nan,nan,nan,0.0,0.0,100.0,-0.0,-0.0,-0.001,1.6139106,0.0
16820000,nan,nan,nan,nan,nan,nan,0.0,0.0,100.0,-0.0,-0.0,-0.001,1.6138667,0.0
16924000,nan,nan,nan,nan,nan,nan,0.0,0.0,100.0,-0.0,-0.0,-0.001,1.6138092,0.0
17020000,nan,nan,nan,nan,nan,nan,0.0,0.0,100.0,-0.0,-0.0,-0.001,1.6139877,0.0
17124000,nan,nan,nan,nan,nan,nan,0.0,0.0,100.0,-0.0,-0.0,-0.001,1.6141597,0.0
17220000,nan,nan,nan,nan,nan,nan,0.0,0.0,100.0,-0.0,-0.0,-0.001,1.6141915,0.0
17324000,nan,nan,nan,nan,nan,nan,0.0,0.0,100.0,-0.0,-0.0,-0.001,1.6143825,0.0
17428000,nan,nan,nan,nan,nan,nan,0.0,0.0,100.0,-0.0,-0.0,-0.001,1.6145844,0.0
17524000,nan,nan,nan,nan,nan,nan,0.0,0.0,100.0,-0.0,-0.0,-0.001,1.6146863,0.0
17628000,nan,nan,nan,nan,nan,nan,0.0,0.0,100.0,-0.0,-0.0,-0.001,1.6147623,0.0
17724000,nan,nan,nan,nan,nan,nan,0.0,0.0,100.0,-0.0,-0.0,-0.001,1.614682,0.0
17828000,nan,nan,nan,nan,nan,nan,0.0,0.0,100.0,-0.0,-0.0,-0.001,1.6144658,0.0
17924000,nan,nan,nan,nan,nan,nan,0.0,0.0,100.0,-0.0,-0.0,-0.001,1.6143458,0.0
18020000,nan,nan,nan,nan,nan,nan,0.0,0.0,100.0,-0.0,-0.0,-0.001,1.6143837,0.0
18124000,nan,nan,nan,nan,nan,nan,0.0,0.0,100.0,-0.0,-0.0,-0.001,1.6141534,0.0
18228000,nan,nan,nan,nan,nan,nan,0.0,0.0,100.0,-0.0,-0.0,-0.001,1.613921,0.0
18324000,nan,nan,nan,nan,nan,nan,0.0,0.0,100.0,-0.0,-0.0,-0.001,1.6137167,0.0
18420000,nan,nan,nan,nan,nan,nan,0.0,0.0,100.0,-0.0,-0.0,-0.001,1.6136616,0.0
18524000,nan,nan,nan,nan,nan,nan,0.0,0.0,100.0,-0.0,-0.0,-0.001,1.6134624,0.0
18628000,nan,nan,nan,nan,nan,nan,0.0,0.0,100.0,-0.0,-0.0,-0.001,1.6132827,0.0
18724000,nan,nan,nan,nan,nan,nan,0.0,0.0,100.0,-0.0,-0.0,-0.001,1.6130644,0.0
18828000,nan,nan,nan,nan,nan,nan,0.0,0.0,100.0,-0.0,-0.0,-0.001,1.6127896,0.0
18924000,nan,nan,nan,nan,nan,nan,0.0,0.0,100.0,-0.0,-0.0,-0.001,1.6124327,0.0
19028000,nan,nan,nan,nan,nan,nan,0.0,0.0,100.0,-0.0,-0.0,-0.001,1.6121486,0.0
19124000,nan,nan,nan,nan,nan,nan,0.0,0.0,100.0,-0.0,-0.0,-0.001,1.6120532,0.0
19228000,nan,nan,nan,nan,nan,nan,0.0,0.0,100.0,-0.0,-0.0,-0.001,1.6121182,0.0
19324000,nan,nan,nan,nan,nan,nan,0.0,0.0,100.0,-0.0,-0.0,-0.001,1.6119939,0.0
19420000,nan,nan,nan,nan,nan,nan,0.0,0.0,100.0,-0.0,-0.0,-0.001,1.611707,0.0
19524000,nan,nan,nan,nan,nan,nan,0.0,0.0,100.0,-0.0,-0.0,-0.001,1.6114281,0.0
19620000,0.009348981,0.0078650275,0.010064525,-0.0007436364,-9.78049e-05,2.2772093,-0.036222514,-0.010260128,9.336296,-8.871237e-05,-2.5128027e-05,-0.023981392,1.6112595,0.0
19724000,0.009337701,0.007864738,0.013265971,-0.0020068535,1.6092765e-05,2.0882185,-0.04292777,-0.009061195,9.030522,-0.00017327255,-3.6574373e-05,-0.039571494,1.6110781,0.0
19820000,0.009318801,0.007864252,0.0073264185,-0.003512203,-8.5372965e-05,1.9137652,-0.042853307,-0.006814366,8.710323,-0.00024408834,-3.881398e-05,-0.055897117,1.6110792,0.0
19924000,0.009289158,0.007863488,0.011846765,-0.0053833476,-0.00030211662,1.7247741,-0.04770741,-0.0080417115,8.321233,-0.0003682884,-6.207986e-05,-0.07573521,1.6110725,0.0
20028000,0.009253351,0.007862566,0.007379276,-0.0060186507,-0.0006247217,1.5357832,0.040318936,-0.08754891,7.840514,0.00041206647,-0.000894765,-0.10024503,1.6109678,0.0
20124000,0.009205359,0.007861329,0.011760371,-0.0019032962,-0.003861343,1.3613299,0.17670931,-0.21305287,7.2216034,0.0023747645,-0.0028631792,-0.13180071,1.610847,0.0
20220000,0.009152471,0.007859966,0.015322053,0.006119247,-0.011477501,1.1868767,0.27942067,-0.30373496,6.5514336,0.0047290293,-0.005140534,-0.16596985,1.6107626,0.0
20324000,0.00908593,0.00785825,0.03236932,0.019361382,-0.024481585,0.9978863,0.39706904,-0.41164827,5.78467,0.008303023,-0.008607886,-0.20506391,1.6108755,0.0
20428000,0.009015994,0.007856447,0.04459693,0.031160966,-0.03486888,0.8088963,0.48712143,-0.4841956,4.977539,0.012230211,-0.012156752,-0.24621615,1.6108214,0.0
20524000,0.008931005,0.007854255,0.05935262,0.039184175,-0.040221237,0.6344441,0.5715041,-0.5535326,4.196576,0.016669177,-0.016144997,-0.28603417,1.6106218,0.0
20620000,0.008844039,0.007852012,0.07689824,0.05386321,-0.052443158,0.4599918,0.67728734,-0.64166856,3.3796692,0.022631353,-0.021441162,-0.32768482,1.6105137,0.0
20724000,0.008740603,0.007849343,0.10616877,0.07648184,-0.072523795,0.27100182,0.80354273,-0.7535512,2.445109,0.030754365,-0.028841013,-0.37533414,1.6104801,0.0
20820000,0.008636609,0.007846661,0.13024843,0.09078966,-0.084902175,0.09654951,0.8692217,-0.8090142,1.5531031,0.037299138,-0.034715574,-0.4208138,1.6104742,0.0
20924000,0.008514725,0.007843518,0.14735585,0.09131054,-0.08400933,0.03901305,0.9248608,-0.84908295,1.113338,0.041801278,-0.038376316,-0.44323558,1.610397,0.0
21020000,0.0083937,0.007840396,0.17209338,0.102971084,-0.09383742,-0.010857837,1.0165192,-0.92894036,0.6951742,0.04815406,-0.044005316,-0.46455598,1.6102768,0.0
21124000,0.008253368,0.007836776,0.20794344,0.12565146,-0.1139647,-0.0647163,1.1360985,-1.031291,0.22292137,0.056608368,-0.051386125,-0.48863417,1.6103128,0.0
21220000,0.008115315,0.0078332145,0.23928045,0.13766457,-0.12440611,-0.110577606,1.1822559,-1.0676546,-0.18576336,0.061420232,-0.0554665,-0.5094713,1.6103905,0.0
21324000,0.007956536,0.0078291185,0.25361833,0.12966451,-0.116395086,-0.16582638,1.1919247,-1.0739324,-0.63229346,0.06468945,-0.05828564,-0.532238,1.6101955,0.0
21420000,0.007801455,0.007825118,0.28101704,0.13647956,-0.12207601,-0.21417673,1.2555681,-1.1263183,-1.0498145,0.07086939,-0.063574,-0.5535256,1.610032,0.0
21524000,0.007624225,0.007820546,0.31721497,0.15602879,-0.13934179,-0.26969805,1.3500779,-1.2050534,-1.5328329,0.07959399,-0.071044065,-0.5781527,1.609883,0.0
21620000,0.0074521145,0.007816105,0.34955072,0.16459414,-0.14612594,-0.3131983,1.3701675,-1.1698705,-1.7936938,0.0826369,-0.07055668,-0.59145296,1.6097832,0.0
21724000,0.007256437,0.0078110574,0.3518771,0.15087645,-0.13039835,-0.36964452,1.3511885,-1.0835369,-2.0049005,0.082975574,-0.066539265,-0.6022215,1.6127418,0.0
21828000,0.007067297,0.007806178,0.36794233,0.15458556,-0.12808545,-0.41767883,1.3907297,-1.0497772,-2.2453284,0.08714252,-0.065778576,-0.6144799,1.622251,0.0
21924000,0.006853172,0.0078006536,0.38549578,0.16967405,-0.13437088,-0.47308618,1.4379712,-1.0421504,-2.5400405,0.09230591,-0.06689747,-0.629506,1.6364186,0.0
22020000,0.006647716,0.0077953376,0.40050513,0.17394659,-0.1291692,-0.51463735,1.3927449,-0.95781094,-2.7748322,0.09110299,-0.062652856,-0.64147705,1.6536607,0.0
22124000,0.006423858,0.007789506,0.38113737,0.15311979,-0.099258475,-0.5730736,1.2987441,-0.83952206,-3.1149366,0.08725065,-0.056399748,-0.6588175,1.6733289,0.0
22220000,0.0062179053,0.007784142,0.3853443,0.14631152,-0.08180483,-0.61863154,0.9831788,-0.5079097,-3.5946167,0.06850283,-0.035388533,-0.68327445,1.6877257,0.0
22324000,0.0059961434,0.007778365,0.39665535,0.13634442,-0.05972634,-0.67795324,0.36745957,0.066515446,-4.361004,0.027067197,0.0048995507,-0.7223493,1.6930755,0.0
22420000,0.0057933195,0.007773083,0.41535804,0.10329921,-0.017720738,-0.71783864,-0.09123996,0.48053288,-4.728088,-0.0068946355,0.03631193,-0.7410654,1.6984107,0.0
22524000,0.0055763545,0.0077674338,0.3935485,0.034477547,0.057038683,-0.7776397,-0.43625215,0.7782531,-4.873084,-0.03329524,0.059397127,-0.74845815,1.7020643,0.0
22620000,0.0053840666,0.0077624265,0.39168325,-0.02845352,0.12363459,-0.8184048,-0.5879956,0.89060825,-5.255983,-0.04604714,0.069745354,-0.7679806,1.7002443,0.0
22724000,0.0051931567,0.007757457,0.37270862,-0.09248051,0.18961558,-0.8712598,-0.6610063,0.93707126,-4.992482,-0.050859414,0.07210052,-0.75454575,1.6948752,0.0
22820000,0.005028545,0.0077531724,0.34798104,-0.15613118,0.2533753,-0.9023763,-0.750925,1.030425,-4.771813,-0.056916293,0.07810097,-0.7432947,1.6900313,0.0
22924000,0.0048651886,0.007748922,0.27130872,-0.23547424,0.3316461,-0.9508626,-0.8710944,1.1579499,-4.636827,-0.0654134,0.08695435,-0.7364124,1.6857716,0.0
23028000,0.0047269636,0.0077453256,0.21673019,-0.30104533,0.3965045,-0.9767256,-0.931868,1.2253702,-4.496896,-0.06929875,0.09112517,-0.72927785,1.6823099,0.0
23124000,0.0045889206,0.007741733,0.14795732,-0.35055277,0.4457063,-1.024568,-0.9393762,1.2384578,-4.5011954,-0.06987845,0.09212658,-0.7294971,1.679264,0.0
23220000,0.004470684,0.007738657,0.08457602,-0.3968009,0.49140713,-1.0481135,-0.95187354,1.2416468,-4.405566,-0.070334606,0.09174616,-0.72462136,1.6763014,0.0
23324000,0.0043528276,0.0077355914,-0.02484538,-0.44766563,0.540981,-1.0876927,-0.97601366,1.2615308,-4.362499,-0.07189976,0.09293289,-0.7224256,1.6732882,0.0
23420000,0.0042521874,0.0077329734,-0.10845203,-0.482441,0.5747558,-1.1120889,-0.9644926,1.2516924,-4.3102694,-0.070789054,0.091868125,-0.71976256,1.6709045,0.0
23524000,0.004150585,0.0077303317,-0.20557459,-0.50876653,0.60013807,-1.1485319,-0.9305756,1.2156022,-4.3135595,-0.068316,0.08924055,-0.7199303,1.6685306,0.0
23628000,0.0040626437,0.0077280463,-0.29153982,-0.5244138,0.61566097,-1.1591759,-0.8818967,1.1630408,-4.2060003,-0.06424898,0.084731214,-0.7144463,1.6663225,0.0
23724000,0.003973171,0.0077257208,-0.41669762,-0.5305281,0.62242675,-1.2045765,-0.8369132,1.1190546,-4.2416034,-0.061126754,0.08173388,-0.71626157,1.6644871,0.0
23828000,0.003896125,0.007723719,-0.5154256,-0.5302877,0.6223557,-1.2186248,-0.78535026,1.0713369,-4.1703234,-0.057069775,0.077851824,-0.7126273,1.6626694,0.0
23924000,0.0038203655,0.007721751,-0.6300401,-0.52487946,0.6167448,-1.2623053,-0.74821895,1.0257726,-4.1472635,-0.054281432,0.07441726,-0.7114516,1.6610397,0.0
24028000,0.003759825,0.0077201785,-0.7277849,-0.50453013,0.5990561,-1.2631409,-0.6630281,0.95255697,-3.8534696,-0.047088403,0.06765081,-0.6964723,1.6591088,0.0
24124000,0.0037040622,0.007718731,-0.854843,-0.4713047,0.571705,-1.2843703,-0.57910377,0.8843521,-3.711726,-0.040701605,0.062155616,-0.68924534,1.6575392,0.0
24228000,0.003660659,0.007717603,-0.95260537,-0.43817213,0.54274654,-1.2605519,-0.53237754,0.83820784,-3.4957497,-0.036819283,0.05797054,-0.6782336,1.6559608,0.0
24324000,0.0036129197,0.007716363,-1.0635381,-0.41044214,0.5171995,-1.2479643,-0.5132873,0.8189678,-3.4235902,-0.035306744,0.056333147,-0.6745545,1.6545984,0.0
24428000,0.0035676039,0.0077151866,-1.1486934,-0.36417702,0.47665483,-1.2016144,-0.41887343,0.7356715,-3.4677143,-0.028908668,0.050772578,-0.6768042,1.6529241,0.0
24524000,0.00351612,0.007713852,-1.2549657,-0.30278808,0.4244864,-1.1807706,-0.30546758,0.6376047,-3.5472565,-0.021207878,0.04426736,-0.68085974,1.6513383,0.0
24620000,0.0034669165,0.007712576,-1.333191,-0.25237268,0.38008246,-1.1389222,-0.26004502,0.5936471,-3.5260272,-0.018025782,0.041150387,-0.6797774,1.6498791,0.0
24724000,0.0034127187,0.0077111702,-1.4262656,-0.20880806,0.33988884,-1.1059381,-0.2618768,0.58391166,-3.5376892,-0.018168554,0.040510774,-0.68037194,1.6482776,0.0
24828000,0.0033625334,0.0077098683,-1.4918119,-0.14952208,0.2842813,-1.0564426,-0.17146464,0.4852442,-3.4875274,-0.011850908,0.03353802,-0.6778144,1.6466802,0.0
24924000,0.003306966,0.007708428,-1.5666013,-0.073870495,0.21330823,-1.0246688,-0.056734003,0.3712261,-3.503726,-0.003926136,0.025689783,-0.6786403,1.6455492,0.0
25020000,0.0032556856,0.007707099,-1.6202674,-0.016313124,0.15722698,-0.974331,-0.02542599,0.33122116,-3.4404757,-0.0017511228,0.022811657,-0.67541546,1.6445924,0.0
25124000,0.0031988805,0.007705627,-1.6926999,0.028457869,0.11117297,-0.9313172,-0.05544918,0.35464558,-3.415372,-0.0038117785,0.02437963,-0.6741355,1.5953104,0.0
25220000,0.0031494696,0.0077043464,-1.7356441,0.082532145,0.057733722,-0.87750125,0.021111317,0.2883321,-3.3628335,0.0014454088,0.019740965,-0.6714568,1.5979176,0.0
25324000,0.0031006415,0.0077030812,-1.8226757,0.17298679,-0.02777236,-0.86461693,0.1667035,0.14716454,-3.2242246,0.011293367,0.009969695,-0.6643897,1.600791,0.0
25420000,0.0030600275,0.007702029,-1.8952345,0.23158146,-0.08526203,-0.8061398,0.18907616,0.118978575,-2.8976622,0.012489535,0.007859197,-0.64773965,1.603348,0.0
25524000,0.0030208586,0.0077010137,-1.9612143,0.27234912,-0.12804344,-0.69330466,0.13683057,0.15584946,-2.6658633,0.008872313,0.010105528,-0.6359212,1.6057242,0.0
25620000,0.0029891606,0.007700193,-2.0084445,0.32159725,-0.17739573,-0.6028789,0.2650529,0.034169722,-3.1884918,0.017908802,0.002308742,-0.66256785,1.607661,0.0
25724000,0.0029596507,0.0076994295,-2.0474322,0.41280225,-0.26379606,-0.5558414,0.50860935,-0.20559536,-3.789649,0.03595314,-0.014533352,-0.69321835,1.6098273,0.0
25828000,0.0029368692,0.0076988405,-2.0752223,0.47730783,-0.32795772,-0.5308364,0.5607898,-0.27104896,-4.164672,0.04073442,-0.019688345,-0.71233916,1.6122463,0.0
25924000,0.0029170185,0.007698328,-2.0997107,0.515429,-0.36923638,-0.5190643,0.48998344,-0.22999495,-0.37526232,0.03618694,-0.016985908,-0.72423327,1.6136224,0.0
26028000,0.00290157,0.007697929,-2.1196675,0.5694726,-0.4247099,-0.5410491,0.6739419,-0.40901357,-0.54610336,0.05058729,-0.03070129,-0.7361051,1.6157408,0.0
26124000,0.0028853696,0.0076975096,-2.1399865,0.6482674,-0.5005366,-0.5826102,0.9256585,-0.64513636,-0.5874394,0.06963676,-0.048533242,-0.73774475,1.6176697,-0.0012647083
26220000,0.0028711706,0.007697142,-2.1578162,0.70689034,-0.5596578,-0.60250556,0.9776609,-0.70849067,-0.4721063,0.07256336,-0.05258517,-0.7278646,1.6176697,-0.0012005334
26324000,0.0028566115,0.0076967645,-2.1761837,0.7477267,-0.60470676,-0.60467565,0.909937,-0.67071474,-0.34059948,0.06657206,-0.049070276,-0.71746683,1.6176697,-0.00048840645
26428000,0.0028439215,0.007696436,-2.1923058,0.7892076,-0.64843565,-0.62139165,1.0126503,-0.752937,-0.38720107,0.07442033,-0.055333834,-0.72069687,1.6176697,-0.00046362338
26524000,0.002830716,0.007696096,-2.2089133,0.84157914,-0.6979416,-0.65998745,1.151661,-0.85967475,-0.52217263,0.08576421,-0.064019985,-0.7303008,1.6176697,-0.00018861338
26620000,0.0028191153,0.0076957946,-2.2234898,0.87512875,-0.73122,-0.67516047,1.1556354,-0.8612053,-0.44698614,0.0853374,-0.06359533,-0.7241657,1.6176697,-0.00017904259
26724000,0.002807206,0.0076954854,-2.2385037,0.89126474,-0.7498969,-0.6701074,1.0807153,-0.79825836,-0.30999908,0.07865675,-0.058098927,-0.7137474,1.6176697,-7.283892e-05
26820000,0.0027968215,0.007695215,-2.2516816,0.89960253,-0.7590046,-0.67933244,1.0832717,-0.7769631,-0.3452897,0.07912669,-0.056752633,-0.71631795,1.6176697,-6.9142865e-05
26924000,0.002786091,0.0076949378,-2.2652543,0.9134237,-0.7675082,-0.72354007,1.1164062,-0.75821054,-0.5473715,0.08322609,-0.05652325,-0.7310651,1.6176697,-2.8129012e-05
27020000,0.0027766153,0.0076946924,-2.2771666,0.9107553,-0.76211673,-0.73728395,1.072401,-0.704855,-0.47477877,0.079322055,-0.052135855,-0.725367,1.6176697,-2.670167e-05
27124000,0.0027668776,0.0076944395,-2.2894351,0.89336765,-0.74437326,-0.7280518,0.99464196,-0.63498765,-0.32729107,0.07246013,-0.046259146,-0.71442044,1.6176697,-1.0862894e-05
27220000,0.0027583765,0.0076942183,-2.3002024,0.866592,-0.71667016,-0.7352076,0.91922665,-0.5380243,-0.36164388,0.06720791,-0.039336864,-0.7170025,1.6176697,-1.0311679e-05
27324000,0.0027495993,0.0076939915,-2.3112915,0.8283325,-0.67379886,-0.78214014,0.82738423,-0.4262079,-0.6087612,0.062032886,-0.031954806,-0.73525333,1.6176697,-4.1950443e-06
27420000,0.0027418714,0.0076937918,-2.3210242,0.7857537,-0.62938714,-0.7956404,0.7630392,-0.35015526,-0.53874815,0.05680399,-0.026067099,-0.7300599,1.6176697,-3.982176e-06
27524000,0.0027339489,0.007693587,-2.3310466,0.7347285,-0.578617,-0.7837146,0.7090123,-0.2963392,-0.38698584,0.05199341,-0.021731198,-0.7191401,1.6176697,-1.6200471e-06
27620000,0.002727002,0.0076934076,-2.3398426,0.67657715,-0.5230025,-0.78746897,0.5949522,-0.19873753,-0.41041207,0.04375081,-0.014614497,-0.72114426,1.6176697,-1.5378412e-06
27724000,0.0027198114,0.0076932213,-2.3489,0.595711,-0.4474555,-0.8305558,0.44236365,-0.053832095,-0.65633994,0.033353552,-0.0040588584,-0.73942727,1.6176697,-6.256316e-07
27820000,0.0027135396,0.0076930583,-2.356849,0.5245168,-0.38217345,-0.83961874,0.38105774,-0.00025977194,-0.5789242,0.028522346,-1.9444049e-05,-0.7340442,1.6176697,-5.938854e-07
27924000,0.002707063,0.0076928907,-2.3650334,0.45339176,-0.31809708,-0.8223162,0.37150592,0.008185212,-0.42344767,0.027395273,0.0006035869,-0.7231417,1.6176697,-2.4160713e-07
28028000,0.0027013728,0.007692743,-2.3722167,0.36915988,-0.24344803,-0.8244306,0.23389588,0.12656689,-0.45815715,0.01731865,0.009371553,-0.7261747,1.6176697,-2.2934731e-07
28124000,0.0026955376,0.007692592,-2.3796127,0.27229387,-0.15830196,-0.8568456,0.08119519,0.25529084,-0.65531564,0.0061346963,0.019288478,-0.7409053,1.6176697,-9.3304116e-08
28220000,0.0026903849,0.007692458,-2.3861039,0.18873328,-0.08570206,-0.8598173,0.04442887,0.27728137,-0.56755483,0.0033299187,0.020782081,-0.73496866,1.6176697,-8.856961e-08
28324000,0.0026851106,0.0076923203,-2.3927867,0.114107974,-0.02189567,-0.83685327,0.09082511,0.23113963,-0.44141287,0.006728853,0.017124172,-0.7264721,1.6176697,-3.6032286e-08
28428000,0.0026804544,0.0076922,-2.3986523,0.028309008,0.052034155,-0.8306938,-0.026166987,0.33224118,-0.47075474,-0.0019463028,0.024712125,-0.7294485,1.6176697,-3.4203907e-08
28524000,0.002675845,0.0076920795,-2.404454,-0.071360804,0.13911672,-0.8517244,-0.1550785,0.45311514,-0.65170693,-0.011754425,0.034344595,-0.74330705,1.6176697,-1.3914989e-08
28620000,0.0026721023,0.0076919827,-2.4091825,-0.14982352,0.20702493,-0.84612083,-0.14741449,0.45054916,-0.56367457,-0.011087914,0.033888463,-0.73763007,1.6176697,-1.3208903e-08
28724000,0.0026684206,0.007691887,-2.4138186,-0.21167107,0.2597807,-0.8169078,-0.050842095,0.35981843,-0.45600235,-0.0037884866,0.026811786,-0.73073334,1.6176697,-5.373706e-09
28820000,0.0026653109,0.007691806,-2.417745,-0.2780382,0.3137694,-0.8009009,-0.12588836,0.4021288,-0.46468586,-0.009401447,0.030031312,-0.73237187,1.6176697,-5.1010294e-09
28924000,0.002662341,0.0076917293,-2.4214985,-0.38362488,0.39709198,-0.81307954,-0.28771397,0.51449597,-0.63552314,-0.021868316,0.039105367,-0.7453637,1.6176697,-2.0752238e-09
29020000,0.002659889,0.0076916656,-2.424584,-0.4523926,0.44941232,-0.80051607,-0.25661847,0.47173136,-0.576739,-0.019394627,0.03565236,-0.74116766,1.6176697,-1.9699211e-09
29124000,0.0026574677,0.007691603,-2.4276376,-0.49831137,0.4816931,-0.7675355,-0.11914482,0.34435993,-0.49565315,-0.008934457,0.025822936,-0.73537976,1.6176697,-8.0141227e-10
29220000,0.0026553816,0.007691549,-2.430269,-0.55046314,0.51833844,-0.7439444,-0.1700976,0.36900893,-0.49936408,-0.012760006,0.027681494,-0.73564464,1.6176697,-7.607463e-10
29324000,0.0026533832,0.007691497,-2.4327826,-0.6446497,0.5872602,-0.73910457,-0.32354733,0.4695374,-0.6073094,-0.024525583,0.03559194,-0.7433498,1.6176697,-3.0949027e-10
29420000,0.002651739,0.0076914546,-2.4348557,-0.69836426,0.62355524,-0.71682537,-0.27967104,0.42083448,-0.5608663,-0.02110506,0.031757798,-0.7400347,1.6176697,-2.9378588e-10
29524000,0.002650082,0.0076914118,-2.4369419,-0.7246882,0.6367913,-0.67905724,-0.11840536,0.27192718,-0.5058044,-0.008887973,0.020411925,-0.73610437,1.6176697,-1.1951931e-10
29628000,0.0026486174,0.0076913736,-2.4387856,-0.76692075,0.662771,-0.6498426,-0.17116353,0.300901,-0.53021705,-0.012878051,0.022639275,-0.737847,1.6176697,-1.13454565e-10
29724000,0.0026472155,0.0076913373,-2.440554,-0.83713746,0.71171975,-0.63564414,-0.28749523,0.37530392,-0.5932159,-0.021762377,0.028409189,-0.74234384,1.6176697,-4.6156103e-11
29828000,0.0026460472,0.007691307,-2.4420261,-0.874948,0.73379415,-0.6068553,-0.2171502,0.31124362,-0.55810875,-0.016382437,0.023481116,-0.7398379,1.6176697,-4.3814015e-11
29924000,0.0026448378,0.0076912763,-2.4435465,-0.8791647,0.72964746,-0.57215124,-0.04993343,0.17033753,-0.52892506,-0.0037560312,0.012812921,-0.7377547,1.6176697,-1.7824615e-11
30020000,0.0026437363,0.0076912483,-2.4449344,-0.8992887,0.7383255,-0.5391433,-0.15660453,0.24620062,-0.47230768,-0.011716421,0.018419582,-0.7337134,1.6176697,-1.6920144e-11
30124000,0.0026426855,0.0076912213,-2.4462607,-0.9727994,0.7891878,-0.5061086,-0.47098044,0.501597,-0.27978194,-0.034577735,0.036825497,-0.7199709,1.6176697,-6.8835306e-12
30220000,0.002641816,0.007691199,-2.4473553,-1.0071537,0.80995715,-0.46735808,-0.4993499,0.52707934,-0.16609254,-0.036247585,0.038260456,-0.7118557,1.6176697,-6.534241e-12
30324000,0.0026409205,0.0076911757,-2.448481,-1.0133929,0.808529,-0.42180535,-0.3957454,0.4355717,-0.1160903,-0.028582077,0.031458467,-0.7082865,1.6176697,-2.6582896e-12
30420000,0.0026401016,0.0076911547,-2.4495125,-1.0298849,0.81620145,-0.380028,-0.44854215,0.46415713,-0.09718479,-0.032333974,0.033459608,-0.7069371,1.6176697,-2.5234003e-12
30524000,0.0026393181,0.007691134,-2.4504995,-1.0868852,0.85570633,-0.3357681,-0.5963318,0.5758533,-0.06622669,-0.042853944,0.041382305,-0.70472723,1.6176697,-1.0265812e-12
30620000,0.00263866,0.007691117,-2.451328,-1.1055154,0.86535233,-0.29647806,-0.5757696,0.5658664,-0.05945481,-0.041347843,0.040636662,-0.7042439,1.6176697,-9.744896e-13
30724000,0.0026379568,0.007691099,-2.4522116,-1.095163,0.8522313,-0.25715616,-0.45090905,0.47131726,-0.08173918,-0.032453947,0.033922818,-0.70583457,1.6176697,-3.9644625e-13
30820000,0.0026372857,0.007691082,-2.4530556,-1.0931602,0.84734344,-0.22234151,-0.46114323,0.4776951,-0.09012027,-0.033219077,0.03441141,-0.70643276,1.6176697,-3.7632947e-13
30924000,0.0026366133,0.0076910644,-2.4539008,-1.1237359,0.86941075,-0.18392697,-0.54981124,0.5501428,-0.05632852,-0.039471027,0.039494827,-0.70402074,1.6176697,-1.5310008e-13
31020000,0.0026360182,0.007691049,-2.454649,-1.1210564,0.8654546,-0.15225764,-0.49606273,0.5166791,-0.06307761,-0.035637155,0.037118237,-0.70450246,1.6176697,-1.4533135e-13
31124000,0.0026353523,0.0076910313,-2.4554873,-1.0910275,0.8399708,-0.12275445,-0.36290616,0.41171113,-0.095924266,-0.026157841,0.029675638,-0.7068471,1.6176697,-5.9124363e-14
31228000,0.0026346876,0.007691014,-2.456326,-1.064244,0.81677854,-0.09335958,-0.32688776,0.37591708,-0.10211701,-0.023576189,0.027112339,-0.7072891,1.6176697,-5.6124227e-14
31324000,0.0026339702,0.007690996,-2.4572275,-1.0672904,0.81654346,-0.06213639,-0.37601042,0.4133284,-0.064954296,-0.0270174,0.029698804,-0.70463645,1.6176697,-2.2832713e-14
31428000,0.0026333015,0.007690979,-2.4580681,-1.0430008,0.7949148,-0.03495192,-0.31699353,0.3703023,-0.076746754,-0.022803873,0.026638795,-0.7054782,1.6176697,-2.1674118e-14
31524000,0.002632533,0.007690959,-2.4590364,-1.0004144,0.7594872,-0.015492449,-0.20014831,0.27450624,-0.114453875,-0.014452615,0.019821966,-0.7081697,1.6176697,-8.817564e-15
31620000,0.0026317644,0.007690939,-2.460005,-0.96323293,0.7302883,0.007335767,-0.15913142,0.25357062,-0.09951877,-0.011473464,0.018282583,-0.70710367,1.6176697,-8.3701365e-15
31724000,0.0026309167,0.0076909172,-2.4610715,-0.9448602,0.7188644,0.040788926,-0.18130507,0.27924594,-0.036554504,-0.0129893515,0.020006193,-0.70260924,1.6176697,-3.4051773e-15
31820000,0.002630111,0.0076908967,-2.4620864,-0.9079858,0.6920583,0.06382878,-0.118504494,0.23797888,-0.044236243,-0.008496655,0.01706285,-0.7031576,1.6176697,-3.232389e-15
31924000,0.0026291874,0.0076908725,-2.4632516,-0.85152006,0.6495599,0.08098483,-0.0008016109,0.15088756,-0.10416657,-5.7818215e-05,0.010883148,-0.7074354,1.6176697,-1.315015e-15
32020000,0.0026282752,0.007690849,-2.4643996,-0.80510414,0.6146737,0.10088476,0.03031149,0.121414945,-0.08016951,0.0021814592,0.008737998,-0.7057225,1.6176697,-1.2482876e-15
32124000,0.0026272656,0.0076908222,-2.4656696,-0.7750733,0.59282327,0.13387656,0.01782373,0.13778,-0.007425666,0.0012731075,0.009841304,-0.70053005,1.6176697,-5.07834e-16
32228000,0.0026263096,0.0076907976,-2.4668727,-0.7284512,0.55741715,0.15552814,0.07527186,0.09657067,-0.02697362,0.0053866114,0.0069107986,-0.7019254,1.6176697,-4.820651e-16
32324000,0.0026252316,0.0076907696,-2.4682283,-0.67447233,0.51593155,0.16669345,0.1612125,0.03302536,-0.0934335,0.011615511,0.0023795078,-0.7066693,1.6176697,-1.9611591e-16
32420000,0.0026241944,0.007690743,-2.469533,-0.62828857,0.48026294,0.18272014,0.17393203,0.006971635,-0.07411194,0.012510485,0.0005014518,-0.7052901,1.6176697,-1.8616443e-16
32524000,0.002623063,0.007690714,-2.4709566,-0.59842753,0.456944,0.21149898,0.14588869,0.025766786,0.0018629283,0.010411383,0.0018388533,-0.699867,1.6176697,-7.573625e-17
32620000,0.0026220093,0.0076906867,-2.4722817,-0.5594871,0.42616326,0.2269447,0.17741778,0.0034254417,-0.025887094,0.012697571,0.0002451546,-0.7018478,1.6176697,-7.189318e-17
32724000,0.0026208481,0.0076906565,-2.4737422,-0.50838095,0.3856476,0.23355818,0.24238989,-0.05520441,-0.09112154,0.01746253,-0.003977099,-0.7065042,1.6176697,-2.9247912e-17
32828000,0.0026197578,0.0076906285,-2.4751139,-0.46703392,0.3520584,0.24778509,0.24716179,-0.060809154,-0.060114592,0.017750172,-0.0043670703,-0.704291,1.6176697,-2.7763788e-17
32924000,0.002618585,0.0076905983,-2.4765885,-0.44328448,0.3316269,0.2715757,0.2194744,-0.045687184,0.015177801,0.015640138,-0.00325575,-0.6989166,1.6176697,-1.1294992e-17
33020000,0.0026175103,0.0076905703,-2.4779403,-0.41094187,0.30448955,0.2841828,0.23336959,-0.066749275,-0.017355785,0.016686216,-0.004772656,-0.7012389,1.6176697,-1.0721853e-17
33124000,0.0026163477,0.00769054,-2.4794025,-0.36900187,0.26985335,0.28743148,0.27646562,-0.09808861,-0.08403647,0.019904312,-0.0070619485,-0.70599854,1.6176697,-4.3619132e-18
33220000,0.0026152763,0.0076905126,-2.4807506,-0.33587202,0.24289882,0.29654932,0.2812876,-0.10317741,-0.06131527,0.020204274,-0.0074110082,-0.7043767,1.6176697,-4.140577e-18
33324000,0.0026141375,0.0076904823,-2.482183,-0.31374657,0.22539435,0.3220446,0.25541654,-0.075459525,0.03665386,0.018162481,-0.005365871,-0.69738364,1.6176697,-1.6844886e-18
33420000,0.0026131063,0.007690455,-2.4834805,-0.28654087,0.20395976,0.33246064,0.26805988,-0.08704589,0.0058245137,0.01912364,-0.0062099346,-0.69958425,1.6176697,-1.5990128e-18
33524000,0.0026120052,0.007690427,-2.4848638,-0.2520315,0.17678544,0.33219767,0.29506713,-0.11175379,-0.07018278,0.021212703,-0.008034104,-0.70500964,1.6176697,-6.505177e-19
33620000,0.0026110047,0.0076904017,-2.4861207,-0.22582908,0.15643741,0.33674908,0.29182705,-0.112853184,-0.06398472,0.020966735,-0.0081081,-0.70456725,1.6176697,-6.175086e-19
33724000,0.002609953,0.007690375,-2.4874427,-0.20997578,0.14487986,0.3552637,0.26392165,-0.08357604,0.020634532,0.018797697,-0.0059526656,-0.6985271,1.6176697,-2.5121767e-19
33820000,0.0026090108,0.0076903515,-2.4886274,-0.1898808,0.12969749,0.35973072,0.26522884,-0.08449142,-0.018418781,0.018969487,-0.006042929,-0.70131475,1.6176697,-2.384702e-19
33924000,0.0026080175,0.007690325,-2.4898756,-0.1641441,0.10992546,0.35394478,0.2861103,-0.099561974,-0.09560465,0.020621432,-0.00717594,-0.70682424,1.6176697,-9.7015536e-20
34020000,0.002607125,0.0076903007,-2.490998,-0.14578547,0.096348345,0.35636854,0.27789018,-0.09149881,-0.0710607,0.01997934,-0.0065784478,-0.7050723,1.6176697,-9.2092706e-20
34124000,0.0026061952,0.0076902765,-2.492167,-0.13736242,0.09149958,0.37735415,0.23939197,-0.056840114,0.044797413,0.017011154,-0.0040390496,-0.6968023,1.6176697,-3.746557e-20
34228000,0.002605369,0.007690255,-2.493205,-0.12356709,0.08192384,0.38335705,0.23656227,-0.05315846,0.008314833,0.016870735,-0.003791062,-0.69940645,1.6176697,-3.5564462e-20
34324000,0.0026045057,0.0076902327,-2.4942894,-0.107501306,0.0701376,0.3778062,0.2490079,-0.0637658,-0.060474783,0.01788355,-0.0045796097,-0.7043167,1.6176697,-1.4468497e-20
34420000,0.002603737,0.0076902136,-2.4952557,-0.095129184,0.06079924,0.3772564,0.23937123,-0.055241823,-0.059082232,0.017188204,-0.0039666747,-0.7042173,1.6176697,-1.3734326e-20
34524000,0.0026029393,0.007690193,-2.4962585,-0.08991835,0.05654097,0.3909359,0.21253614,-0.04231418,0.025103435,0.015130469,-0.0030123508,-0.6982081,1.6176697,-5.5874613e-21
34620000,0.0026022338,0.007690174,-2.4971454,-0.08117757,0.04937369,0.39136338,0.21032307,-0.036522616,-0.010940909,0.015028741,-0.002609742,-0.7007809,1.6176697,-5.303938e-21
34724000,0.0026015,0.0076901554,-2.4980676,-0.06864112,0.0392292,0.38109827,0.22261624,-0.047031604,-0.08708222,0.01603345,-0.003387349,-0.7062159,1.6176697,-2.1577723e-21
34820000,0.0026008491,0.0076901386,-2.4988854,-0.060421616,0.032335777,0.37751675,0.21069212,-0.03807328,-0.07679386,0.015154915,-0.0027385806,-0.7054815,1.6176697,-2.0482807e-21
34924000,0.0026001765,0.0076901205,-2.4997306,-0.05909731,0.030426366,0.38810515,0.18634179,-0.01968375,0.008398302,0.013290259,-0.0014038833,-0.69940054,1.6176697,-8.332909e-22
35020000,0.0025995837,0.007690104,-2.5004747,-0.05425565,0.026034439,0.3860681,0.1846653,-0.018232891,-0.024464153,0.013214919,-0.0013047722,-0.7017462,1.6176697,-7.910074e-22
35124000,0.0025989695,0.0076900874,-2.5012462,-0.04611974,0.019253785,0.37400627,0.19599558,-0.02519624,-0.1029849,0.014134863,-0.0018171094,-0.7073511,1.6176697,-3.218012e-22
35220000,0.002598427,0.007690073,-2.501928,-0.040620115,0.01431291,0.36863136,0.18465663,-0.022971615,-0.09790275,0.013311367,-0.001655958,-0.7069883,1.6176697,-3.054721e-22
35324000,0.0025978673,0.0076900595,-2.5026312,-0.03994435,0.012428481,0.37663436,0.16236763,-0.009864232,-0.020476997,0.011612548,-0.0007054908,-0.7014616,1.6176697,-1.2427355e-22
35420000,0.0025973746,0.0076900474,-2.5032504,-0.03649583,0.008805984,0.37331176,0.16433668,-0.005689036,-0.050704107,0.011788494,-0.00040809618,-0.70361924,1.6176697,-1.1796757e-22
35524000,0.0025968659,0.0076900353,-2.50389,-0.030460054,0.003554823,0.36047506,0.17220594,-0.010264792,-0.12063994,0.012442624,-0.00074167555,-0.7086113,1.6176697,-4.7992104e-23
35620000,0.0025964174,0.007690024,-2.5044541,-0.025481706,-0.00042744237,0.35428643,0.17226471,-0.013014919,-0.110061765,0.012437561,-0.00093968085,-0.70785624,1.6176697,-4.555685e-23
35724000,0.0025959548,0.007690012,-2.5050359,-0.022563374,-0.0025091718,0.3609829,0.16389154,-0.0068821264,-0.035113037,0.011744036,-0.0004931551,-0.70250636,1.6176697,-1.8533643e-23
35828000,0.0025955471,0.007690001,-2.505548,-0.017731514,-0.006031647,0.35616803,0.16807702,-0.003971045,-0.069101565,0.0120819695,-0.0002854527,-0.70493245,1.6176697,-1.7593195e-23
35924000,0.0025951269,0.0076899896,-2.5060763,-0.012054701,-0.01002821,0.3438015,0.17283572,-0.0071031647,-0.1256018,0.012496391,-0.00051357393,-0.7089655,1.6176697,-7.157344e-24
36020000,0.0025947574,0.007689981,-2.5065408,-0.007900212,-0.014722453,0.33787918,0.17068525,-0.01771651,-0.11299064,0.012323918,-0.0012791781,-0.7080653,1.6176697,-6.79416e-24
36124000,0.0025943778,0.0076899715,-2.507018,-0.0066822255,-0.020469865,0.3462217,0.15783198,-0.01952036,-0.029256314,0.011297895,-0.001397302,-0.7020883,1.6176697,-2.7640312e-24
36220000,0.0025940456,0.0076899636,-2.5074358,-0.0042029703,-0.025738351,0.343549,0.15460032,-0.026633501,-0.056644455,0.011100981,-0.0019124023,-0.70404327,1.6176697,-2.6237766e-24
36324000,0.0025937043,0.007689955,-2.5078654,-0.000551261,-0.03126046,0.33152676,0.1573832,-0.02377828,-0.120613426,0.011371081,-0.0017180024,-0.7086094,1.6176697,-1.0674168e-24
36420000,0.002593402,0.0076899473,-2.5082455,0.0025890153,-0.036576975,0.32554054,0.16152927,-0.028892592,-0.11899796,0.011669367,-0.002087289,-0.70849407,1.6176697,-1.0132531e-24
36524000,0.002593089,0.007689939,-2.5086403,0.0050202003,-0.04299542,0.33118606,0.15877444,-0.03746903,-0.051466778,0.011395522,-0.0026892188,-0.7036737,1.6176697,-4.1221626e-25
36620000,0.0025928135,0.007689931,-2.5089858,0.008010966,-0.048130114,0.32633853,0.16160214,-0.041735217,-0.08136485,0.0116300555,-0.003003567,-0.7058078,1.6176697,-3.912993e-25
36724000,0.0025925296,0.0076899226,-2.5093422,0.011742938,-0.052783936,0.3135345,0.1620528,-0.039261818,-0.13591206,0.011726216,-0.002841004,-0.7097014,1.6176697,-1.5919016e-25
36820000,0.0025922807,0.007689915,-2.5096548,0.016081888,-0.056696523,0.3059702,0.16759877,-0.038780358,-0.13424733,0.012127646,-0.0028061927,-0.70958257,1.6176697,-1.5111242e-25
36924000,0.0025920244,0.007689909,-2.5099766,0.022063095,-0.06076797,0.3085997,0.18052684,-0.037770845,-0.07539737,0.01298869,-0.0027175674,-0.7053819,1.6176697,-6.147624e-26
37020000,0.0025917997,0.0076899035,-2.5102594,0.027131477,-0.06347308,0.3026781,0.18262394,-0.034183968,-0.10296974,0.013174229,-0.0024659825,-0.70734996,1.6176697,-5.835676e-26
37124000,0.002591568,0.0076898974,-2.5105495,0.032056235,-0.06540354,0.28917384,0.18254311,-0.03302861,-0.15393157,0.013234677,-0.0023946287,-0.7109876,1.6176697,-2.3740962e-26
37228000,0.0025913648,0.007689892,-2.5108044,0.037871696,-0.06815969,0.28120327,0.1895574,-0.03539697,-0.14021835,0.013722882,-0.00256254,-0.7100088,1.6176697,-2.253628e-26
37324000,0.0025911562,0.0076898863,-2.511067,0.04432717,-0.07204337,0.28179693,0.19702347,-0.03995576,-0.09350126,0.014195384,-0.0028787812,-0.7066741,1.6176697,-9.1683125e-27
37428000,0.002590973,0.007689882,-2.5112972,0.049844276,-0.07470394,0.27429223,0.19888692,-0.034141492,-0.11608767,0.014364873,-0.002465915,-0.70828635,1.6176697,-8.703086e-27
37524000,0.002590784,0.007689877,-2.511534,0.053733267,-0.07587801,0.2622161,0.19643404,-0.03633087,-0.15334794,0.014239103,-0.002633551,-0.71094596,1.6176697,-3.5406292e-27
37620000,0.0025906183,0.0076898737,-2.5117419,0.058877755,-0.07854653,0.2550149,0.20504661,-0.037320834,-0.14525813,0.014853888,-0.002703578,-0.7103685,1.6176697,-3.360968e-27
37724000,0.0025904477,0.00768987,-2.5119557,0.06720454,-0.08459158,0.25785804,0.21483575,-0.04908787,-0.088624224,0.015472737,-0.0035353694,-0.706326,1.6176697,-1.3673243e-27
37820000,0.002590298,0.0076898667,-2.5121436,0.0726579,-0.08792357,0.25297713,0.21709959,-0.05034621,-0.10647201,0.015665568,-0.003632904,-0.7076,1.6176697,-1.2979424e-27
37924000,0.0025901438,0.007689863,-2.512337,0.07643547,-0.08954579,0.24205637,0.20946392,-0.04007568,-0.14947115,0.015179912,-0.0029042957,-0.7106693,1.6176697,-5.280348e-28
38020000,0.0025900088,0.00768986,-2.5125065,0.07970394,-0.09272616,0.23628092,0.20866069,-0.05190552,-0.13704824,0.015101754,-0.003756646,-0.7097825,1.6176697,-5.0124084e-28
38124000,0.0025898698,0.007689858,-2.5126812,0.084233195,-0.10031504,0.23945308,0.21342583,-0.065710515,-0.081227444,0.015360265,-0.0047291885,-0.70579803,1.6176697,-2.0391705e-28
38220000,0.0025897478,0.0076898555,-2.512835,0.0864173,-0.10436283,0.23499393,0.20973763,-0.068898946,-0.10654231,0.015132792,-0.004971132,-0.707605,1.6176697,-1.9356973e-28
38324000,0.002589622,0.007689853,-2.5129924,0.08694207,-0.1061336,0.22445512,0.20239417,-0.05948791,-0.15078664,0.014670143,-0.0043118647,-0.71076316,1.6176697,-7.874892e-29
38428000,0.0025895122,0.007689851,-2.5131307,0.0885814,-0.10943134,0.21916676,0.2012797,-0.06606095,-0.1333443,0.0145624615,-0.0047794688,-0.70951813,1.6176697,-7.475297e-29
38524000,0.0025893988,0.0076898485,-2.513273,0.09191768,-0.11510618,0.22087383,0.2028881,-0.0779144,-0.093915805,0.014621653,-0.005615102,-0.7067037,1.6176697,-3.0411343e-29
38620000,0.0025892989,0.007689846,-2.5133982,0.093041055,-0.11774217,0.21631932,0.20002167,-0.07062865,-0.11309672,0.014441198,-0.0050992593,-0.70807284,1.6176697,-2.8868188e-29
38724000,0.0025891964,0.007689844,-2.513527,0.09219928,-0.11775214,0.20633626,0.18407215,-0.058629747,-0.14972267,0.013341035,-0.00424932,-0.7106872,1.6176697,-1.17442885e-29
38828000,0.0025891063,0.0076898416,-2.5136402,0.09217853,-0.11889636,0.19950771,0.18268715,-0.057539675,-0.14639702,0.013232779,-0.0041678348,-0.7104498,1.6176697,-1.1148351e-29
38924000,0.0025890137,0.007689839,-2.5137563,0.09380116,-0.122291155,0.1982944,0.18489043,-0.066569,-0.11754358,0.013353079,-0.0048077186,-0.70839024,1.6176697,-4.5354232e-30
39020000,0.0025889324,0.007689837,-2.5138583,0.09331455,-0.12281612,0.19220734,0.1809168,-0.06073891,-0.13638681,0.013093678,-0.00439592,-0.7097353,1.6176697,-4.305283e-30
39124000,0.0025888488,0.0076898346,-2.5139635,0.090844765,-0.120695196,0.18175721,0.17079332,-0.047362436,-0.166607,0.0123974085,-0.0034379063,-0.7118924,1.6176697,-1.7514945e-30
39220000,0.0025887755,0.0076898322,-2.5140555,0.09028673,-0.119477145,0.17707372,0.16909246,-0.044371855,-0.14889094,0.012252852,-0.003215293,-0.71062785,1.6176697,-1.6626188e-30
39324000,0.0025887,0.00768983,-2.5141506,0.093676046,-0.12103414,0.18199015,0.17745964,-0.050106302,-0.0835982,0.012774776,-0.0036069993,-0.70596725,1.6176697,-6.763941e-31
39420000,0.0025886337,0.0076898276,-2.514234,0.09407782,-0.119715184,0.18037152,0.1811561,-0.048404697,-0.09418899,0.013057079,-0.0034888359,-0.7067232,1.6176697,-6.42072e-31
39524000,0.002588566,0.0076898253,-2.5143201,0.09224237,-0.115962446,0.17340946,0.1643794,-0.028269626,-0.12577492,0.011883677,-0.00204373,-0.7089778,1.6176697,-2.612106e-31
39628000,0.0025885063,0.007689823,-2.514395,0.09214155,-0.11530638,0.1694324,0.1693485,-0.033930466,-0.12413921,0.012240247,-0.0024524413,-0.70886105,1.6176697,-2.4795603e-31
39724000,0.0025884449,0.0076898215,-2.5144727,0.094860174,-0.11896882,0.17063808,0.18132406,-0.048061844,-0.09422725,0.013066199,-0.0034633325,-0.70672596,1.6176697,-1.0087461e-31
39828000,0.0025883918,0.0076898206,-2.5145407,0.094906114,-0.119481824,0.16628122,0.17694129,-0.054751888,-0.11763755,0.012780336,-0.003954687,-0.708397,1.6176697,-9.5755946e-32
39924000,0.0025883422,0.007689819,-2.5146105,0.09278985,-0.11741613,0.1587236,0.16583264,-0.040324606,-0.14373374,0.012010581,-0.0029205466,-0.71025974,1.6176697,-3.895587e-32
40028000,0.0025882965,0.0076898183,-2.5146716,0.09251855,-0.11669645,0.15386295,0.16743927,-0.04210124,-0.13769868,0.012118536,-0.003047107,-0.7098289,1.6176697,-3.697914e-32
40124000,0.0025882474,0.007689817,-2.5147352,0.09521717,-0.11855403,0.1547172,0.17907779,-0.047467623,-0.10673921,0.0129239075,-0.0034257025,-0.7076191,1.6176697,-1.5044022e-32
40220000,0.002588203,0.007689816,-2.5147908,0.09522406,-0.1174705,0.1510818,0.1775041,-0.038382094,-0.11683806,0.012821071,-0.0027723277,-0.7083399,1.6176697,-1.4280646e-32
40324000,0.0025881573,0.0076898145,-2.514848,0.09272404,-0.11362074,0.14312887,0.16514243,-0.029514536,-0.1423886,0.011960779,-0.0021376505,-0.7101637,1.6176697,-5.8097166e-33
40428000,0.002588117,0.0076898136,-2.5148978,0.0933628,-0.11181019,0.13876963,0.17180455,-0.02635066,-0.13539338,0.012431345,-0.0019066674,-0.7096644,1.6176697,-5.5149155e-33
40524000,0.0025880758,0.007689812,-2.5149496,0.098237135,-0.113361016,0.13901377,0.18603623,-0.03861321,-0.106814,0.013423862,-0.0027862233,-0.7076244,1.6176697,-2.2436029e-33
40620000,0.0025880395,0.0076898113,-2.5149944,0.099756375,-0.112099476,0.13487124,0.18396896,-0.036871705,-0.12159294,0.013294792,-0.0026645886,-0.7086793,1.6176697,-2.1297563e-33
40724000,0.0025880018,0.0076898104,-2.5150409,0.09840347,-0.10813659,0.12666559,0.17245136,-0.0180214,-0.14805028,0.012493569,-0.0013055947,-0.71056783,1.6176697,-8.66437e-34
40828000,0.0025879685,0.0076898104,-2.5150821,0.098814264,-0.10676102,0.12177396,0.17791793,-0.02567951,-0.1434496,0.012883408,-0.0018595067,-0.7102394,1.6176697,-8.224716e-34
40924000,0.0025879347,0.0076898104,-2.5151243,0.10226467,-0.10934594,0.1223464,0.18775743,-0.03392775,-0.10682442,0.013547098,-0.0024479593,-0.70762515,1.6176697,-3.3460167e-34
41020000,0.002587905,0.0076898104,-2.5151613,0.10251869,-0.10875538,0.11909652,0.185754,-0.027118286,-0.112181276,0.013410792,-0.0019578459,-0.7080075,1.6176697,-3.1762307e-34
41124000,0.0025878744,0.0076898104,-2.515199,0.09995844,-0.10518087,0.11274195,0.17034073,-0.011278177,-0.13437217,0.012324386,-0.00081599166,-0.7095915,1.6176697,-1.2921686e-34
41220000,0.0025878476,0.0076898104,-2.5152318,0.09945485,-0.10337803,0.10970664,0.16957255,-0.014338799,-0.12645383,0.0122588575,-0.0010365904,-0.7090263,1.6176697,-1.2266003e-34
41324000,0.00258782,0.0076898104,-2.5152657,0.103875235,-0.10575596,0.11220622,0.19105817,-0.031064298,-0.09531351,0.013769744,-0.0022388333,-0.7068035,1.6176697,-4.9901107e-35
41420000,0.0025877955,0.0076898104,-2.5152953,0.1045702,-0.1047605,0.11045694,0.1915771,-0.022807948,-0.10625064,0.01382338,-0.0016457234,-0.70758414,1.6176697,-4.7368987e-35
41524000,0.002587776,0.0076898104,-2.5153263,0.10242579,-0.10097424,0.1050446,0.1800787,-0.014112765,-0.12774308,0.013020885,-0.0010204465,-0.7091183,1.6176697,-1.9270868e-35
41620000,0.002587776,0.0076898104,-2.5153515,0.1018906,-0.09835491,0.101709604,0.1823655,-0.014159928,-0.12645891,0.013181436,-0.001023484,-0.70902663,1.6176697,-1.829301e-35
41724000,0.002587776,0.0076898104,-2.5153775,0.10555046,-0.09853012,0.10212469,0.19180855,-0.015188524,-0.10279441,0.0138341915,-0.0010954724,-0.70733744,1.6176697,-7.442045e-36
41820000,0.002587776,0.0076898104,-2.5154006,0.105618194,-0.09594437,0.099493265,0.19394535,-0.008431029,-0.11074255,0.014001791,-0.000608674,-0.7079048,1.6176697,-7.064415e-36
41924000,0.002587776,0.0076898104,-2.515425,0.10287526,-0.09091505,0.093660116,0.18201296,-0.0013128018,-0.13005102,0.013164161,-9.494892e-05,-0.70928305,1.6176697,-2.8739773e-36
42020000,0.002587776,0.0076898104,-2.5154467,0.101166226,-0.088622,0.09077573,0.17820522,-0.004190038,-0.12384715,0.012883498,-0.00030292236,-0.7088402,1.6176697,-2.7281436e-36
42124000,0.002587776,0.0076898104,-2.5154693,0.10241516,-0.091397114,0.09310126,0.18736976,-0.022415124,-0.09202409,0.013497237,-0.0016146802,-0.70656866,1.6176697,-1.1098758e-36
42228000,0.002587776,0.0076898104,-2.5154889,0.10044163,-0.09093348,0.091561556,0.1817377,-0.025263939,-0.09916261,0.013103921,-0.001821618,-0.7070782,1.6176697,-1.0535576e-36
42324000,0.002587776,0.0076898104,-2.5155094,0.09643212,-0.08821952,0.087628126,0.17075634,-0.013797859,-0.118526004,0.012337499,-0.0009969238,-0.7084604,1.6176697,-4.286131e-37
42428000,0.002587776,0.0076898104,-2.5155268,0.09401847,-0.08626439,0.08609295,0.16953756,-0.013987659,-0.11226882,0.012241011,-0.0010099419,-0.7080138,1.6176697,-4.068641e-37
42524000,0.002587776,0.0076898104,-2.5155458,0.09462797,-0.08630334,0.08821869,0.17385894,-0.014724153,-0.08491746,0.0125154825,-0.0010599389,-0.7060614,1.6176697,-1.655223e-37
42620000,0.002587776,0.0076898104,-2.515561,0.0926668,-0.083980255,0.087059975,0.17069425,-0.0077998517,-0.09196792,0.01229795,-0.00056195323,-0.70656466,1.6176697,-1.571233e-37
42724000,0.002587776,0.0076898104,-2.5155766,0.088313796,-0.0793575,0.08307886,0.16177616,0.0037126977,-0.11418995,0.011683121,0.00026812294,-0.70815086,1.6176697,-6.392157e-38
42820000,0.002587776,0.0076898104,-2.51559,0.08537021,-0.07663346,0.08128357,0.1582519,-0.0015233825,-0.11316598,0.011428364,-0.000110013025,-0.7080778,1.6176697,-6.067797e-38
42924000,0.002587776,0.0076898104,-2.5156043,0.08520516,-0.07754598,0.08384657,0.16391014,-0.011610052,-0.08792067,0.011802977,-0.0008360261,-0.70627576,1.6176697,-2.4685333e-38
43020000,0.002587776,0.0076898104,-2.515617,0.08271495,-0.0760029,0.082829,0.1632767,-0.0057952562,-0.09372322,0.011766499,-0.00041763388,-0.70668995,1.6176697,-2.3432775e-38
43124000,0.002587776,0.0076898104,-2.5156295,0.07809107,-0.07228211,0.0788548,0.14773509,0.0013845463,-0.115788326,0.010670927,0.000100005986,-0.70826495,1.6176697,-9.533033e-39
43220000,0.002587776,0.0076898104,-2.515641,0.07468713,-0.070394546,0.07710552,0.14638622,0.00094982074,-0.11822009,0.01057804,6.863516e-05,-0.7084386,1.6176697,-9.049235e-39
43324000,0.002587776,0.0076898104,-2.5156531,0.073624596,-0.072053224,0.0796957,0.1501776,-0.012228897,-0.0923145,0.010823501,-0.00088135304,-0.7065894,1.6176697,-3.681503e-39
43420000,0.002587776,0.0076898104,-2.5156634,0.07059898,-0.07118545,0.07891178,0.14745995,-0.010376586,-0.09920976,0.010630078,-0.00074802624,-0.7070816,1.6176697,-3.49475e-39
43524000,0.002587776,0.0076898104,-2.515674,0.065758355,-0.068229884,0.075381994,0.13637482,-0.006371511,-0.11405807,0.0098429695,-0.00045986928,-0.70814145,1.6176697,-1.421734e-39
43620000,0.002587776,0.0076898104,-2.515684,0.06105584,-0.066463016,0.0742414,0.130701,-0.009730451,-0.11172182,0.009435341,-0.0007024439,-0.70797473,1.6176697,-1.349537e-39
43724000,0.002587776,0.0076898104,-2.515694,0.05676504,-0.06728242,0.07756424,0.1269727,-0.0154128615,-0.08491149,0.009139206,-0.0011093826,-0.706061,1.6176697,-5.49018e-40
43828000,0.002587776,0.0076898104,-2.5157025,0.051261663,-0.06570792,0.077085495,0.11811053,-0.0103401635,-0.09314291,0.008507313,-0.00074478536,-0.7066485,1.6176697,-5.21108e-40
43924000,0.002587776,0.0076898104,-2.5157118,0.04540162,-0.0626046,0.073992014,0.11097742,-0.00021706743,-0.11046212,0.008010133,-1.5667503e-05,-0.7078848,1.6176697,-2.12005e-40
44020000,0.002587776,0.0076898104,-2.5157201,0.040141072,-0.059770945,0.07214546,0.10893257,0.0010952216,-0.112246946,0.007864373,7.906939e-05,-0.70801216,1.6176697,-2.01261e-40
44124000,0.002587776,0.0076898104,-2.5157282,0.03588559,-0.058168426,0.07437587,0.11296175,0.001643498,-0.092629135,0.008138779,0.00011841234,-0.7066119,1.6176697,-8.186e-41
44228000,0.002587776,0.0076898104,-2.5157359,0.030988678,-0.054810584,0.07302165,0.10717036,0.009339901,-0.10557368,0.0077346526,0.0006740753,-0.70753586,1.6176697,-7.7684e-41
44324000,0.002587776,0.0076898104,-2.5157437,0.0260349,-0.050536703,0.069449425,0.10131237,0.021108624,-0.12339347,0.0073222993,0.001525615,-0.7088078,1.6176697,-3.1588e-41
44420000,0.002587776,0.0076898104,-2.515751,0.022089567,-0.04757356,0.06797814,0.09818463,0.018249316,-0.11475243,0.0070869145,0.0013172259,-0.70819104,1.6176697,-3.004e-41
44524000,0.002587776,0.0076898104,-2.515758,0.019750502,-0.047336433,0.070593596,0.09896789,0.011965005,-0.09019994,0.0071302517,0.0008620322,-0.7064385,1.6176697,-1.2203e-41
44620000,0.002587776,0.0076898104,-2.5157645,0.016840955,-0.045609996,0.06986427,0.10021736,0.0082786195,-0.100815624,0.0072271936,0.00059701427,-0.70719624,1.6176697,-1.1561e-41
44724000,0.002587776,0.0076898104,-2.5157707,0.013142919,-0.042496983,0.06650734,0.09608133,0.020449368,-0.11301318,0.006938756,0.0014768027,-0.7080669,1.6176697,-4.67e-42
44820000,0.002587776,0.0076898104,-2.5157764,0.010043552,-0.040357642,0.06473184,0.09324965,0.020525495,-0.110227086,0.0067260363,0.0014804906,-0.70786804,1.6176697,-4.379e-42
44924000,0.002587776,0.0076898104,-2.5157826,0.007565814,-0.040123437,0.06635308,0.092967704,0.013297372,-0.09033682,0.0066960067,0.0009577444,-0.70644826,1.6176697,-1.752e-42
45020000,0.002587776,0.0076898104,-2.5157878,0.0048065223,-0.038477413,0.0653069,0.09002131,0.014358936,-0.098176226,0.006490927,0.0010353415,-0.7070078,1.6176697,-1.663e-42
45124000,0.002587776,0.0076898104,-2.5157928,0.0015276,-0.03552415,0.06223917,0.09088841,0.021582436,-0.11462229,0.0065628914,0.0015584297,-0.70818174,1.6176697,-7e-43
45228000,0.002587776,0.0076898104,-2.5157974,-0.0004727851,-0.032717522,0.0612185,0.090457685,0.021192506,-0.10581932,0.0065228087,0.0015281694,-0.7075534,1.6176697,-6.12e-43
45324000,0.002587776,0.0076898104,-2.5158024,-0.00097607105,-0.030742208,0.06320238,0.0933634,0.022640945,-0.091236256,0.0067305327,0.0016321773,-0.70651245,1.6176697,-2.34e-43
45420000,0.002587776,0.0076898104,-2.515807,-0.0020427224,-0.028011523,0.062669516,0.09720674,0.022215577,-0.098378055,0.0070074354,0.0016014756,-0.70702225,1.6176697,-3.5e-43
45524000,0.002587776,0.0076898104,-2.5158117,-0.0036335038,-0.024487142,0.05970788,0.09810682,0.029678235,-0.11646715,0.007088735,0.002144409,-0.7083134,1.6176697,-2.34e-43
45620000,0.002587776,0.0076898104,-2.5158157,-0.004312172,-0.022103064,0.058258533,0.09774078,0.033173908,-0.11147519,0.0070514455,0.0023933104,-0.7079571,1.6176697,-3.5e-43
45724000,0.002587776,0.0076898104,-2.51582,-0.0036116396,-0.021410812,0.06006694,0.09927426,0.028597243,-0.09060184,0.0071558747,0.0020613428,-0.70646715,1.6176697,-2.34e-43
45828000,0.002587776,0.0076898104,-2.5158236,-0.0037842724,-0.019661805,0.059161425,0.1012437,0.02973254,-0.09694557,0.0072977687,0.0021431576,-0.70691997,1.6176697,-3.5e-43
45924000,0.002587776,0.0076898104,-2.5158274,-0.004476202,-0.01742951,0.056519747,0.098941386,0.0348054,-0.110124946,0.0071399696,0.0025116839,-0.7078607,1.6176697,-2.34e-43
46020000,0.002587776,0.0076898104,-2.5158308,-0.00423365,-0.016469214,0.055454493,0.10045186,0.024037596,-0.11085746,0.0072533144,0.0017356796,-0.707913,1.6176697,-3.5e-43
46124000,0.002587776,0.0076898104,-2.5158339,-0.0021177768,-0.01803701,0.057674646,0.10488721,0.016735349,-0.087967806,0.007550372,0.0012047045,-0.70627916,1.6176697,-2.34e-43
46228000,0.002587776,0.0076898104,-2.5158367,-0.0011793735,-0.018328732,0.05683732,0.1076837,0.015450892,-0.09586974,0.007760914,0.0011135673,-0.7068432,1.6176697,-3.5e-43
46324000,0.002587776,0.0076898104,-2.5158398,-0.0011016757,-0.017666193,0.05379057,0.10766744,0.018789029,-0.111807965,0.007773497,0.0013565519,-0.7079809,1.6176697,-2.34e-43
46420000,0.002587776,0.0076898104,-2.5158427,-0.0006137593,-0.01721087,0.051980734,0.10641247,0.018570224,-0.11477055,0.007685737,0.0013412513,-0.70819235,1.6176697,-3.5e-43
46524000,0.002587776,0.0076898104,-2.5158458,0.0009223399,-0.017667642,0.05286312,0.10842567,0.013743106,-0.10590466,0.0078236805,0.0009916625,-0.70755947,1.6176697,-2.34e-43
46620000,0.002587776,0.0076898104,-2.5158484,0.001367122,-0.017173646,0.051778316,0.1035697,0.016525436,-0.1093223,0.007473714,0.0011924955,-0.7078034,1.6176697,-3.5e-43
46724000,0.002587776,0.0076898104,-2.515851,0.0009693854,-0.01584699,0.04905367,0.10234348,0.021598369,-0.11740387,0.0073918356,0.0015599588,-0.7083803,1.6176697,-2.34e-43
46820000,0.002587776,0.0076898104,-2.5158534,0.00097357755,-0.015617196,0.04853487,0.097002655,0.020332154,-0.10934455,0.0070022764,0.0014677057,-0.70780504,1.6176697,-3.5e-43
46924000,0.002587776,0.0076898104,-2.5158558,0.0020949147,-0.017513255,0.0519557,0.099739246,0.006678907,-0.082277104,0.007181004,0.0004808665,-0.70587295,1.6176697,-2.34e-43
