timestamp,data_rate,rate_multiplier,tx_rate_avg,tx_error_rate_avg,tx_message_count,tx_buffer_overruns,rx_rate_avg,rx_message_count,rx_message_lost_count,rx_buffer_overruns,rx_parse_errors,rx_packet_drop_count,rx_message_lost_rate,type,mode,flow_control,forwarding,mavlink_v2,ftp,streams,heartbeat_type_antenna_tracker,heartbeat_type_gcs,heartbeat_type_onboard_controller,heartbeat_type_gimbal,heartbeat_type_adsb,heartbeat_type_camera,heartbeat_type_parachute,heartbeat_type_open_drone_id,heartbeat_component_telemetry_radio,heartbeat_component_log,heartbeat_component_osd,heartbeat_component_obstacle_avoidance,heartbeat_component_vio,heartbeat_component_pairing_manager,heartbeat_component_udp_bridge,heartbeat_component_uart_bridge,avoidance_system_healthy,open_drone_id_system_healthy,parachute_system_healthy
3432000,400000.0,1.0,0.0,0.0,1,0,0.0,0,0,0,0,0,0.0,0,10,0,0,1,1,5,0,0,0,0,0,0,0,0,0,0,0,0,0,0,0,0,0,0,0
4692000,400000.0,1.0,1116.5339,0.0,25,0,0.0,0,0,0,0,0,0.0,0,10,0,0,1,1,5,0,0,0,0,0,0,0,0,0,0,0,0,0,0,0,0,0,0,0
5948000,400000.0,1.0,1566.7332,0.0,59,0,0.0,0,0,0,0,0,0.0,0,10,0,0,1,1,5,0,0,0,0,0,0,0,0,0,0,0,0,0,0,0,0,0,0,0
7204000,400000.0,1.0,1315.737,0.0,86,0,0.0,0,0,0,0,0,0.0,0,10,0,0,1,1,5,0,0,0,0,0,0,0,0,0,0,0,0,0,0,0,0,0,0,0
8204000,400000.0,1.0,1328.6853,0.0,107,0,0.0,0,0,0,0,0,0.0,0,10,0,0,1,1,5,0,0,0,0,0,0,0,0,0,0,0,0,0,0,0,0,0,0,0
8456000,400000.0,1.0,1315.737,0.0,113,0,0.0,0,0,0,0,0,0.0,0,10,0,0,1,1,5,0,0,0,0,0,0,0,0,0,0,0,0,0,0,0,0,0,0,0
9708000,400000.0,1.0,1579.6813,0.0,148,0,0.0,0,0,0,0,0,0.0,0,10,0,0,1,1,5,0,0,0,0,0,0,0,0,0,0,0,0,0,0,0,0,0,0,0
10960000,400000.0,1.0,1315.737,0.0,181,0,0.0,0,0,0,0,0,0.0,0,10,0,0,1,1,5,0,0,0,0,0,0,0,0,0,0,0,0,0,0,0,0,0,0,0
12220000,400000.0,1.0,1506.9722,0.0,207,0,0.0,0,0,0,0,0,0.0,0,10,0,0,1,1,5,0,0,0,0,0,0,0,0,0,0,0,0,0,0,0,0,0,0,0
13220000,400000.0,1.0,1393.4264,0.0,229,0,0.0,0,0,0,0,0,0.0,0,10,0,0,1,1,5,0,0,0,0,0,0,0,0,0,0,0,0,0,0,0,0,0,0,0
13480000,400000.0,1.0,1315.737,0.0,235,0,0.0,0,0,0,0,0,0.0,0,10,0,0,1,1,5,0,0,0,0,0,0,0,0,0,0,0,0,0,0,0,0,0,0,0
14732000,400000.0,1.0,1315.737,0.0,261,0,0.0,0,0,0,0,0,0.0,0,10,0,0,1,1,5,0,0,0,0,0,0,0,0,0,0,0,0,0,0,0,0,0,0,0
15984000,400000.0,1.0,1328.6853,0.0,288,0,0.0,0,0,0,0,0,0.0,0,10,0,0,1,1,5,0,0,0,0,0,0,0,0,0,0,0,0,0,0,0,0,0,0,0
17244000,400000.0,1.0,1315.737,0.0,314,0,0.0,0,0,0,0,0,0.0,0,10,0,0,1,1,5,0,0,0,0,0,0,0,0,0,0,0,0,0,0,0,0,0,0,0
18244000,400000.0,1.0,1315.737,0.0,335,0,0.0,0,0,0,0,0,0.0,0,10,0,0,1,1,5,0,0,0,0,0,0,0,0,0,0,0,0,0,0,0,0,0,0,0
18496000,400000.0,1.0,1328.6853,0.0,342,0,0.0,0,0,0,0,0,0.0,0,10,0,0,1,1,5,0,0,0,0,0,0,0,0,0,0,0,0,0,0,0,0,0,0,0
19756000,400000.0,1.0,1370.518,0.0,370,0,0.0,0,0,0,0,0,0.0,0,10,0,0,1,1,5,0,0,0,0,0,0,0,0,0,0,0,0,0,0,0,0,0,0,0
21012000,400000.0,1.0,1340.6375,0.0,398,0,0.0,0,0,0,0,0,0.0,0,10,0,0,1,1,5,0,0,0,0,0,0,0,0,0,0,0,0,0,0,0,0,0,0,0
22272000,400000.0,1.0,1328.6853,0.0,425,0,0.0,0,0,0,0,0,0.0,0,10,0,0,1,1,5,0,0,0,0,0,0,0,0,0,0,0,0,0,0,0,0,0,0,0
23272000,400000.0,1.0,1315.737,0.0,446,0,0.0,0,0,0,0,0,0.0,0,10,0,0,1,1,5,0,0,0,0,0,0,0,0,0,0,0,0,0,0,0,0,0,0,0
23528000,400000.0,1.0,1315.737,0.0,452,0,0.0,0,0,0,0,0,0.0,0,10,0,0,1,1,5,0,0,0,0,0,0,0,0,0,0,0,0,0,0,0,0,0,0,0
24784000,400000.0,1.0,1328.6853,0.0,479,0,0.0,0,0,0,0,0,0.0,0,10,0,0,1,1,5,0,0,0,0,0,0,0,0,0,0,0,0,0,0,0,0,0,0,0
26040000,400000.0,1.0,1380.4781,0.0,505,0,0.0,0,0,0,0,0,0.0,0,10,0,0,1,1,5,0,0,0,0,0,0,0,0,0,0,0,0,0,0,0,0,0,0,0
27300000,400000.0,1.0,1315.737,0.0,531,0,0.0,0,0,0,0,0,0.0,0,10,0,0,1,1,5,0,0,0,0,0,0,0,0,0,0,0,0,0,0,0,0,0,0,0
28300000,400000.0,1.0,1328.6853,0.0,553,0,0.0,0,0,0,0,0,0.0,0,10,0,0,1,1,5,0,0,0,0,0,0,0,0,0,0,0,0,0,0,0,0,0,0,0
28556000,400000.0,1.0,1315.737,0.0,559,0,0.0,0,0,0,0,0,0.0,0,10,0,0,1,1,5,0,0,0,0,0,0,0,0,0,0,0,0,0,0,0,0,0,0,0
29812000,400000.0,1.0,1315.737,0.0,586,0,0.0,0,0,0,0,0,0.0,0,10,0,0,1,1,5,0,0,0,0,0,0,0,0,0,0,0,0,0,0,0,0,0,0,0
31064000,400000.0,1.0,1328.6853,0.0,613,0,0.0,0,0,0,0,0,0.0,0,10,0,0,1,1,5,0,0,0,0,0,0,0,0,0,0,0,0,0,0,0,0,0,0,0
32320000,400000.0,1.0,1315.737,0.0,639,0,0.0,0,0,0,0,0,0.0,0,10,0,0,1,1,5,0,0,0,0,0,0,0,0,0,0,0,0,0,0,0,0,0,0,0
33320000,400000.0,1.0,1315.737,0.0,660,0,0.0,0,0,0,0,0,0.0,0,10,0,0,1,1,5,0,0,0,0,0,0,0,0,0,0,0,0,0,0,0,0,0,0,0
33580000,400000.0,1.0,1328.6853,0.0,667,0,0.0,0,0,0,0,0,0.0,0,10,0,0,1,1,5,0,0,0,0,0,0,0,0,0,0,0,0,0,0,0,0,0,0,0
34836000,400000.0,1.0,1315.737,0.0,693,0,0.0,0,0,0,0,0,0.0,0,10,0,0,1,1,5,0,0,0,0,0,0,0,0,0,0,0,0,0,0,0,0,0,0,0
36092000,400000.0,1.0,1315.737,0.0,719,0,0.0,0,0,0,0,0,0.0,0,10,0,0,1,1,5,0,0,0,0,0,0,0,0,0,0,0,0,0,0,0,0,0,0,0
37344000,400000.0,1.0,1328.6853,0.0,746,0,0.0,0,0,0,0,0,0.0,0,10,0,0,1,1,5,0,0,0,0,0,0,0,0,0,0,0,0,0,0,0,0,0,0,0
38344000,400000.0,1.0,1380.4781,0.0,767,0,0.0,0,0,0,0,0,0.0,0,10,0,0,1,1,5,0,0,0,0,0,0,0,0,0,0,0,0,0,0,0,0,0,0,0
38596000,400000.0,1.0,1315.737,0.0,773,0,0.0,0,0,0,0,0,0.0,0,10,0,0,1,1,5,0,0,0,0,0,0,0,0,0,0,0,0,0,0,0,0,0,0,0
39852000,400000.0,1.0,1328.6853,0.0,800,0,0.0,0,0,0,0,0,0.0,0,10,0,0,1,1,5,0,0,0,0,0,0,0,0,0,0,0,0,0,0,0,0,0,0,0
41112000,400000.0,1.0,1315.737,0.0,827,0,0.0,0,0,0,0,0,0.0,0,10,0,0,1,1,5,0,0,0,0,0,0,0,0,0,0,0,0,0,0,0,0,0,0,0
42372000,400000.0,1.0,1315.737,0.0,853,0,0.0,0,0,0,0,0,0.0,0,10,0,0,1,1,5,0,0,0,0,0,0,0,0,0,0,0,0,0,0,0,0,0,0,0
43372000,400000.0,1.0,1328.6853,0.0,875,0,0.0,0,0,0,0,0,0.0,0,10,0,0,1,1,5,0,0,0,0,0,0,0,0,0,0,0,0,0,0,0,0,0,0,0
43628000,400000.0,1.0,1315.737,0.0,881,0,0.0,0,0,0,0,0,0.0,0,10,0,0,1,1,5,0,0,0,0,0,0,0,0,0,0,0,0,0,0,0,0,0,0,0
44884000,400000.0,1.0,1315.737,0.0,907,0,0.0,0,0,0,0,0,0.0,0,10,0,0,1,1,5,0,0,0,0,0,0,0,0,0,0,0,0,0,0,0,0,0,0,0
46144000,400000.0,1.0,1328.6853,0.0,934,0,0.0,0,0,0,0,0,0.0,0,10,0,0,1,1,5,0,0,0,0,0,0,0,0,0,0,0,0,0,0,0,0,0,0,0
47400000,400000.0,1.0,1315.737,0.0,960,0,0.0,0,0,0,0,0,0.0,0,10,0,0,1,1,5,0,0,0,0,0,0,0,0,0,0,0,0,0,0,0,0,0,0,0
48400000,400000.0,1.0,1315.737,0.0,981,0,0.0,0,0,0,0,0,0.0,0,10,0,0,1,1,5,0,0,0,0,0,0,0,0,0,0,0,0,0,0,0,0,0,0,0
48660000,400000.0,1.0,1328.6853,0.0,989,0,0.0,0,0,0,0,0,0.0,0,10,0,0,1,1,5,0,0,0,0,0,0,0,0,0,0,0,0,0,0,0,0,0,0,0
49916000,400000.0,1.0,1315.737,0.0,1015,0,0.0,0,0,0,0,0,0.0,0,10,0,0,1,1,5,0,0,0,0,0,0,0,0,0,0,0,0,0,0,0,0,0,0,0
51172000,400000.0,1.0,1380.4781,0.0,1041,0,0.0,0,0,0,0,0,0.0,0,10,0,0,1,1,5,0,0,0,0,0,0,0,0,0,0,0,0,0,0,0,0,0,0,0
52172000,400000.0,1.0,1328.6853,0.0,1063,0,0.0,0,0,0,0,0,0.0,0,10,0,0,1,1,5,0,0,0,0,0,0,0,0,0,0,0,0,0,0,0,0,0,0,0
52428000,400000.0,1.0,1328.6853,0.0,1069,0,0.0,0,0,0,0,0,0.0,0,10,0,0,1,1,5,0,0,0,0,0,0,0,0,0,0,0,0,0,0,0,0,0,0,0
53688000,400000.0,1.0,1315.737,0.0,1095,0,0.0,0,0,0,0,0,0.0,0,10,0,0,1,1,5,0,0,0,0,0,0,0,0,0,0,0,0,0,0,0,0,0,0,0
54944000,400000.0,1.0,1328.6853,0.0,1122,0,0.0,0,0,0,0,0,0.0,0,10,0,0,1,1,5,0,0,0,0,0,0,0,0,0,0,0,0,0,0,0,0,0,0,0
56196000,400000.0,1.0,1315.737,0.0,1148,0,0.0,0,0,0,0,0,0.0,0,10,0,0,1,1,5,0,0,0,0,0,0,0,0,0,0,0,0,0,0,0,0,0,0,0
57196000,400000.0,1.0,1315.737,0.0,1169,0,0.0,0,0,0,0,0,0.0,0,10,0,0,1,1,5,0,0,0,0,0,0,0,0,0,0,0,0,0,0,0,0,0,0,0
57452000,400000.0,1.0,1315.737,0.0,1175,0,0.0,0,0,0,0,0,0.0,0,10,0,0,1,1,5,0,0,0,0,0,0,0,0,0,0,0,0,0,0,0,0,0,0,0
58708000,400000.0,1.0,1315.737,0.0,1202,0,0.0,0,0,0,0,0,0.0,0,10,0,0,1,1,5,0,0,0,0,0,0,0,0,0,0,0,0,0,0,0,0,0,0,0
59960000,400000.0,1.0,1315.737,0.0,1229,0,0.0,0,0,0,0,0,0.0,0,10,0,0,1,1,5,0,0,0,0,0,0,0,0,0,0,0,0,0,0,0,0,0,0,0
61216000,400000.0,1.0,1328.6853,0.0,1256,0,0.0,0,0,0,0,0,0.0,0,10,0,0,1,1,5,0,0,0,0,0,0,0,0,0,0,0,0,0,0,0,0,0,0,0
62216000,400000.0,1.0,1315.737,0.0,1277,0,0.0,0,0,0,0,0,0.0,0,10,0,0,1,1,5,0,0,0,0,0,0,0,0,0,0,0,0,0,0,0,0,0,0,0
62468000,400000.0,1.0,1315.737,0.0,1283,0,0.0,0,0,0,0,0,0.0,0,10,0,0,1,1,5,0,0,0,0,0,0,0,0,0,0,0,0,0,0,0,0,0,0,0
63728000,400000.0,1.0,1328.6853,0.0,1310,0,0.0,0,0,0,0,0,0.0,0,10,0,0,1,1,5,0,0,0,0,0,0,0,0,0,0,0,0,0,0,0,0,0,0,0
64984000,400000.0,1.0,1315.737,0.0,1336,0,0.0,0,0,0,0,0,0.0,0,10,0,0,1,1,5,0,0,0,0,0,0,0,0,0,0,0,0,0,0,0,0,0,0,0
66236000,400000.0,1.0,1315.737,0.0,1363,0,0.0,0,0,0,0,0,0.0,0,10,0,0,1,1,5,0,0,0,0,0,0,0,0,0,0,0,0,0,0,0,0,0,0,0
67236000,400000.0,1.0,1353.5857,0.0,1385,0,0.0,0,0,0,0,0,0.0,0,10,0,0,1,1,5,0,0,0,0,0,0,0,0,0,0,0,0,0,0,0,0,0,0,0
67496000,400000.0,1.0,1353.5857,0.0,1391,0,0.0,0,0,0,0,0,0.0,0,10,0,0,1,1,5,0,0,0,0,0,0,0,0,0,0,0,0,0,0,0,0,0,0,0
68756000,400000.0,1.0,1315.737,0.0,1417,0,0.0,0,0,0,0,0,0.0,0,10,0,0,1,1,5,0,0,0,0,0,0,0,0,0,0,0,0,0,0,0,0,0,0,0
70016000,400000.0,1.0,1328.6853,0.0,1445,0,0.0,0,0,0,0,0,0.0,0,10,0,0,1,1,5,0,0,0,0,0,0,0,0,0,0,0,0,0,0,0,0,0,0,0
71276000,400000.0,1.0,1315.737,0.0,1471,0,0.0,0,0,0,0,0,0.0,0,10,0,0,1,1,5,0,0,0,0,0,0,0,0,0,0,0,0,0,0,0,0,0,0,0
72276000,400000.0,1.0,1315.737,0.0,1492,0,0.0,0,0,0,0,0,0.0,0,10,0,0,1,1,5,0,0,0,0,0,0,0,0,0,0,0,0,0,0,0,0,0,0,0
72532000,400000.0,1.0,1315.737,0.0,1499,0,0.0,0,0,0,0,0,0.0,0,10,0,0,1,1,5,0,0,0,0,0,0,0,0,0,0,0,0,0,0,0,0,0,0,0
73788000,400000.0,1.0,1315.737,0.0,1525,0,0.0,0,0,0,0,0,0.0,0,10,0,0,1,1,5,0,0,0,0,0,0,0,0,0,0,0,0,0,0,0,0,0,0,0
