timestamp,timestamp_sample,gyro_device_id,gyro_bias[0],gyro_bias[1],gyro_bias[2],gyro_bias_limit,gyro_bias_variance[0],gyro_bias_variance[1],gyro_bias_variance[2],accel_device_id,accel_bias[0],accel_bias[1],accel_bias[2],accel_bias_limit,accel_bias_variance[0],accel_bias_variance[1],accel_bias_variance[2],mag_device_id,mag_bias[0],mag_bias[1],mag_bias[2],mag_bias_limit,mag_bias_variance[0],mag_bias_variance[1],mag_bias_variance[2],gyro_bias_valid,gyro_bias_stable,accel_bias_valid,accel_bias_stable,mag_bias_valid,mag_bias_stable
3328000,3324000,1310988,0.0,0.0,0.0,0.15,0.009960121,0.009960121,0.009960038,1310988,0.0,0.0,0.0,0.4,0.039840482,0.039840482,0.039840482,0,0.0,0.0,0.0,0.0,0.0,0.0,0.0,1,0,1,0,0,0
3644000,3564000,1310988,-4.6766516e-05,-0.00045236238,9.488406e-07,0.15,0.0100595765,0.0100630345,0.0036953443,1310988,-0.001205787,0.0018330556,-0.09758096,0.4,0.0406975,0.040700138,0.0044995835,0,0.0,0.0,0.0,0.0,0.0,0.0,0.0,1,0,1,0,0,0
3700000,3620000,1310988,-4.7308775e-05,-0.00045763623,1.1047039e-06,0.15,0.010295481,0.010299034,0.0037507773,1310988,-0.001219844,0.0018544268,-0.09871857,0.4,0.041651953,0.041654646,0.0046051154,0,0.0,0.0,0.0,0.0,0.0,0.0,0.0,1,0,1,0,0,0
3756000,3676000,1310988,-4.7828482e-05,-0.00046266356,1.1168395e-06,0.15,0.010522927,0.010526558,0.0038336392,1310988,-0.0012332445,0.0018747984,-0.09980304,0.4,0.04257212,0.042574875,0.0047068554,0,0.0,0.0,0.0,0.0,0.0,0.0,0.0,1,0,1,0,0,0
3812000,3732000,1310988,-4.8323272e-05,-0.00046744983,1.1283934e-06,0.15,0.010741774,0.010745481,0.0039133686,1310988,-0.0012460025,0.0018941934,-0.10083551,0.4,0.0434575,0.043460313,0.0048047504,0,0.0,0.0,0.0,0.0,0.0,0.0,0.0,1,0,1,0,0,0
3860000,3780000,1310988,-0.00033922188,-0.00054484286,7.181824e-06,0.15,0.009787652,0.00979122,0.0039785756,1310988,-0.0012684787,0.0019375129,-0.10185741,0.4,0.044180095,0.044182964,0.0048518027,0,0.0,0.0,0.0,0.0,0.0,0.0,0.0,1,0,1,0,0,0
3924000,3844000,1310988,-0.00034271326,-0.00055058254,1.0945769e-05,0.15,0.009994563,0.009998302,0.0038383403,1310988,-0.0012818186,0.001957906,-0.10292891,0.4,0.045114506,0.045117434,0.004954424,0,0.0,0.0,0.0,0.0,0.0,0.0,0.0,1,0,1,0,0,0
3988000,3908000,1310988,-0.0003460725,-0.0005559793,1.1053058e-05,0.15,0.010191455,0.010195267,0.0039139558,1310988,-0.0012943828,0.0019770972,-0.10393781,0.4,0.04600326,0.046006247,0.0050520315,0,0.0,0.0,0.0,0.0,0.0,0.0,0.0,1,0,1,0,0,0
4028000,3948000,1310988,-0.00088926835,-0.0016489349,1.6243685e-05,0.15,0.003703578,0.0037052487,0.003955709,1310988,-0.0014077761,0.002041164,-0.10453473,0.4,0.04647328,0.046476267,0.0051104627,0,0.0,0.0,0.0,0.0,0.0,0.0,0.0,1,0,1,0,0,0
4060000,3980000,1310988,-0.00085374917,-0.0018673115,1.404109e-05,0.15,0.003347513,0.0033490255,0.0039906492,1310988,-0.0014554785,0.0020565712,-0.1055412,0.4,0.046879776,0.046882827,0.0050195153,0,0.0,0.0,0.0,0.0,0.0,0.0,0.0,1,0,1,0,0,0
4140000,4060000,1310988,-0.00086291065,-0.0018866425,2.5146558e-06,0.15,0.003417529,0.003419211,0.0035572709,1310988,-0.001470665,0.0020780086,-0.10664291,0.4,0.04786361,0.047866724,0.0051248632,0,0.0,0.0,0.0,0.0,0.0,0.0,0.0,1,0,1,0,0,0
4220000,4140000,1310988,-0.0008711365,-0.0019046296,2.5386205e-06,0.15,0.003482983,0.0034846973,0.0036254013,1310988,-0.0014846047,0.0020977585,-0.107656434,0.4,0.04878031,0.048783485,0.005223004,0,0.0,0.0,0.0,0.0,0.0,0.0,0.0,1,0,1,0,0,0
4236000,4156000,1310988,-0.0009387367,-0.0030157634,-2.2730026e-06,0.15,0.0011635468,0.0011640048,0.0036372642,1310988,-0.0016294444,0.0021100284,-0.10784729,0.4,0.048917357,0.048920542,0.005241764,0,0.0,0.0,0.0,0.0,0.0,0.0,0.0,1,0,1,0,0,0
4268000,4188000,1310988,-0.00093085226,-0.0031203236,-3.1181414e-06,0.15,0.0011034054,0.0011038309,0.0036627352,1310988,-0.0016865557,0.0021370938,-0.109312795,0.4,0.049256377,0.049259666,0.004988594,0,0.0,0.0,0.0,0.0,0.0,0.0,0.0,1,0,1,0,0,0
4364000,4284000,1310988,-0.00093993545,-0.0031508908,-1.7970807e-06,0.15,0.0011247892,0.0011253221,0.0030059668,1310988,-0.001703053,0.0021580062,-0.1103823,0.4,0.050225396,0.050228745,0.0050867256,0,0.0,0.0,0.0,0.0,0.0,0.0,0.0,1,0,1,0,0,0
4468000,4388000,1310988,-0.00091308926,-0.003729308,-5.3250856e-06,0.15,0.0005742429,0.0005744303,0.003062712,1310988,-0.0018405307,0.0021706237,-0.11142922,0.4,0.051150367,0.051153786,0.005183146,0,0.0,0.0,0.0,0.0,0.0,0.0,0.0,1,0,1,0,0,0
4476000,4396000,1310988,-0.00090033736,-0.0037861115,-5.9882495e-06,0.15,0.00054901175,0.00054918544,0.0030668462,1310988,-0.0019049234,0.0021992014,-0.11302641,0.4,0.051215358,0.051218916,0.0047412985,0,0.0,0.0,0.0,0.0,0.0,0.0,0.0,1,0,1,0,0,0
4596000,4516000,1310988,-0.0009088946,-0.0038219283,-7.63355e-06,0.15,0.0005591248,0.0005593749,0.002372197,1310988,-0.001922791,0.0022198933,-0.1140904,0.4,0.052189656,0.05219328,0.0048313783,0,0.0,0.0,0.0,0.0,0.0,0.0,0.0,1,0,1,0,0,0
4684000,4604000,1310988,-0.0008859506,-0.004367768,-1.049973e-05,0.15,0.0003066994,0.0003067851,0.0024012316,1310988,-0.002181929,0.00226326,-0.11666402,0.4,0.05279492,0.052798748,0.004327444,0,0.0,0.0,0.0,0.0,0.0,0.0,0.0,1,0,1,0,0,0
4828000,4748000,1310988,-0.0008938935,-0.0044058017,-1.9797017e-05,0.15,0.00031181113,0.0003119463,0.0018022935,1310988,-0.0022013164,0.0022832819,-0.11769632,0.4,0.0537228,0.0537267,0.0044032154,0,0.0,0.0,0.0,0.0,0.0,0.0,0.0,1,0,1,0,0,0
4892000,4812000,1310988,-0.0010652462,-0.004825903,-1.6379056e-05,0.15,0.00017494732,0.00017496945,0.0018145782,1310988,-0.0024662963,0.0024143173,-0.11997413,0.4,0.054054406,0.0540586,0.003826272,0,0.0,0.0,0.0,0.0,0.0,0.0,0.0,1,0,1,0,0,0
5068000,4988000,1310988,-0.0013637783,-0.005068972,3.1691845e-05,0.15,0.00010548911,0.00010546638,0.0013530311,1310988,-0.002614039,0.0026154937,-0.12095757,0.4,0.05491308,0.0549174,0.0038883071,0,0.0,0.0,0.0,0.0,0.0,0.0,0.0,1,0,1,0,0,0
5100000,5020000,1310988,-0.0013857392,-0.0050758887,3.240307e-05,0.15,0.00010253982,0.00010251193,0.001356555,1310988,-0.0026673614,0.0026634564,-0.12285103,0.4,0.0550538,0.055058446,0.0033114895,0,0.0,0.0,0.0,0.0,0.0,0.0,0.0,1,0,1,0,0,0
5308000,5228000,1310988,-0.0016075977,-0.0052066613,6.1374165e-05,0.15,6.303971e-05,6.29933e-05,0.0010182768,1310988,-0.0027981272,0.0028633147,-0.12525332,0.4,0.055843662,0.055848673,0.0028327387,0,0.0,0.0,0.0,0.0,0.0,0.0,0.0,1,0,1,0,0,0
5516000,5436000,1310988,-0.0017257087,-0.005337313,7.1507966e-05,0.15,4.0969644e-05,4.0925424e-05,0.00077320915,1310988,-0.0029346498,0.0029914551,-0.12725098,0.4,0.056464568,0.056469858,0.0024130144,0,0.0,0.0,0.0,0.0,0.0,0.0,0.0,1,0,1,0,0,0
5724000,5644000,1310988,-0.0016919632,-0.0054150643,6.638224e-05,0.15,2.8065237e-05,2.803085e-05,0.00059573364,1310988,-0.0030293083,0.0029802718,-0.12897325,0.4,0.056950513,0.056956016,0.0020584015,0,0.0,0.0,0.0,0.0,0.0,0.0,0.0,1,0,1,0,0,0
5932000,5852000,1310988,-0.0016269779,-0.0054752305,7.256156e-05,0.15,2.0110181e-05,2.0084706e-05,0.00046606633,1310988,-0.0031094844,0.0029252896,-0.13044089,0.4,0.05732889,0.05733455,0.0017639094,0,0.0,0.0,0.0,0.0,0.0,0.0,0.0,1,0,1,0,0,0
6140000,6060000,1310988,-0.0015993187,-0.005519602,7.737352e-05,0.15,1.4956108e-05,1.4935944e-05,0.00037009243,1310988,-0.0031724018,0.002902392,-0.13166143,0.4,0.05762269,0.057628475,0.0015220816,0,0.0,0.0,0.0,0.0,0.0,0.0,0.0,1,0,1,0,0,0
6348000,6268000,1310988,-0.0015974505,-0.005555485,7.448585e-05,0.15,1.1467557e-05,1.1450844e-05,0.00029802122,1310988,-0.0032268707,0.0029072708,-0.13269699,0.4,0.057850093,0.057855982,0.001323423,0,0.0,0.0,0.0,0.0,0.0,0.0,0.0,1,0,1,0,0,0
6756000,6676000,1310988,-0.0016064614,-0.005527341,8.172869e-05,0.15,7.305704e-06,7.2920698e-06,0.00020064221,1310988,-0.0031853167,0.0029252488,-0.13369866,0.4,0.0581576,0.058163617,0.0011617276,0,0.0,0.0,0.0,0.0,0.0,0.0,0.0,1,0,1,0,0,0
7148000,7068000,1310988,-0.0015642684,-0.005436519,8.809218e-05,0.15,4.9619025e-06,4.9509326e-06,0.00014103283,1310988,-0.0030634494,0.0028662453,-0.1346972,0.4,0.058337536,0.058343716,0.000914278,0,0.0,0.0,0.0,0.0,0.0,0.0,0.0,1,0,1,0,0,0
8148000,8068000,1310988,-0.0013048261,-0.0054404964,6.4542706e-05,0.15,2.658497e-06,2.6558687e-06,6.750477e-05,1310988,-0.0030787867,0.002486608,-0.13543497,0.4,0.058541402,0.05854762,0.00078014424,0,0.0,0.0,0.0,0.0,0.0,0.0,0.0,1,0,1,0,0,0
9148000,9068000,1310988,-0.0012371704,-0.0054176473,4.42173e-06,0.15,1.4964525e-06,1.4946888e-06,3.74386e-05,1310988,-0.0030326727,0.0023041856,-0.13567473,0.4,0.05859321,0.05859937,0.0007809415,0,0.0,0.0,0.0,0.0,0.0,0.0,0.0,1,0,1,0,0,0
10148000,10068000,1310988,-0.0011572844,-0.005500142,-3.1583073e-05,0.15,9.720924e-07,9.714842e-07,2.2966202e-05,1310988,-0.003344447,0.0021288302,-0.13551398,0.4,0.0586049,0.05861137,0.00078116776,0,0.0,0.0,0.0,0.0,0.0,0.0,0.0,1,0,1,0,0,0
11148000,11068000,1310988,-0.0011601816,-0.00551019,-6.072862e-05,0.15,6.967883e-07,6.961232e-07,1.5152754e-05,1310988,-0.003438972,0.002194223,-0.13461912,0.4,0.058606897,0.058613785,0.0007812302,0,0.0,0.0,0.0,0.0,0.0,0.0,0.0,1,0,1,0,0,0
11756000,11676000,1310988,-0.0011977206,-0.0054932614,-7.1278315e-05,0.15,5.9142e-07,5.905089e-07,1.3041441e-05,1310988,-0.0034873628,0.0023432,-0.13356562,0.4,0.058607012,0.05861369,0.00078124285,0,0.0,0.0,0.0,0.0,0.0,0.0,0.0,1,0,1,0,0,0
12380000,12300000,1310988,-0.0012264493,-0.0054619256,-8.446439e-05,0.15,5.122313e-07,5.112635e-07,1.056438e-05,1310988,-0.0035112489,0.002506136,-0.13232623,0.4,0.05860639,0.058612496,0.00078124576,0,0.0,0.0,0.0,0.0,0.0,0.0,0.0,1,0,1,0,0,0
13004000,12924000,1310988,-0.0012266535,-0.005441973,-9.558762e-05,0.15,4.512875e-07,4.5045908e-07,8.691042e-06,1310988,-0.003500272,0.0026238484,-0.13113086,0.4,0.058603752,0.05860942,0.00078124576,0,0.0,0.0,0.0,0.0,0.0,0.0,0.0,1,0,1,0,0,0
13628000,13548000,1310988,-0.0011955563,-0.005444696,-0.00010511006,0.15,4.0345853e-07,4.0289194e-07,7.247173e-06,1310988,-0.0036054184,0.0025249757,-0.1299506,0.4,0.05860086,0.058606416,0.00078124576,0,0.0,0.0,0.0,0.0,0.0,0.0,0.0,1,0,1,0,0,0
14252000,14172000,1310988,-0.0011771363,-0.005460801,-0.00011247539,0.15,3.652516e-07,3.648915e-07,6.1158034e-06,1310988,-0.0038204829,0.002456195,-0.12893707,0.4,0.05859721,0.05860298,0.00078124576,0,0.0,0.0,0.0,0.0,0.0,0.0,0.0,1,0,1,0,0,0
15084000,15004000,1310988,-0.0011861002,-0.0054772426,-0.00012066847,0.15,3.2527888e-07,3.2505716e-07,4.957614e-06,1310988,-0.004092191,0.0026102657,-0.1278864,0.4,0.058592007,0.058598343,0.00078124576,0,0.0,0.0,0.0,0.0,0.0,0.0,0.0,1,0,1,0,0,0
15916000,15836000,1310988,-0.0011853869,-0.0054916367,-0.00012635149,0.15,2.9437214e-07,2.9427505e-07,4.085333e-06,1310988,-0.004339203,0.0026679349,-0.12690498,0.4,0.058586925,0.058594454,0.00078124576,0,0.0,0.0,0.0,0.0,0.0,0.0,0.0,1,0,1,0,0,0
16748000,16668000,1310988,-0.001198305,-0.005495121,-0.0001286501,0.15,2.7002307e-07,2.699912e-07,3.4153663e-06,1310988,-0.0045535197,0.0028348614,-0.12579328,0.4,0.05858298,0.058592033,0.00078124576,0,0.0,0.0,0.0,0.0,0.0,0.0,0.0,1,0,1,0,0,0
17372000,17292000,1310988,-0.0012166059,-0.00549253,-0.00012895171,0.15,2.550044e-07,2.550023e-07,3.011377e-06,1310988,-0.004786226,0.002991839,-0.1246604,0.4,0.058580287,0.058590576,0.00078124576,0,0.0,0.0,0.0,0.0,0.0,0.0,0.0,1,0,1,0,0,0
17996000,17916000,1310988,-0.0012312534,-0.005486598,-0.00012748687,0.15,2.4214725e-07,2.4217655e-07,2.6727498e-06,1310988,-0.0049683945,0.0031805472,-0.12363578,0.4,0.058577217,0.058588687,0.00078124576,0,0.0,0.0,0.0,0.0,0.0,0.0,0.0,1,0,1,0,0,0
18620000,18540000,1310988,-0.0012388205,-0.005486976,-0.00012616593,0.15,2.3105709e-07,2.311295e-07,2.3866965e-06,1310988,-0.005157309,0.0033456245,-0.12264942,0.4,0.05857285,0.05858592,0.00078124576,0,0.0,0.0,0.0,0.0,0.0,0.0,0.0,1,0,1,0,0,0
19244000,19164000,1310988,-0.0012598668,-0.005499321,-0.00012379348,0.15,2.2144945e-07,2.2155707e-07,2.1433054e-06,1310988,-0.005500031,0.0035160785,-0.12153783,0.4,0.05856924,0.058583677,0.00078124576,0,0.0,0.0,0.0,0.0,0.0,0.0,0.0,1,0,1,0,0,0
19868000,19788000,1310988,-0.0012809032,-0.0054994994,-0.00012211334,0.15,2.1308692e-07,2.1320987e-07,1.9348943e-06,1310988,-0.005777745,0.003760371,-0.12050291,0.4,0.058565505,0.058581233,0.00078124576,0,0.0,0.0,0.0,0.0,0.0,0.0,0.0,1,0,1,0,0,0
20252000,20172000,1310988,-0.0012577676,-0.005531636,-0.000121594676,0.15,2.0798466e-07,2.0817065e-07,1.8118105e-06,1310988,-0.004645775,0.0047416813,-0.12019598,0.4,0.058558863,0.058575314,0.00078124576,0,0.0,0.0,0.0,0.0,0.0,0.0,0.0,1,0,1,0,0,0
20284000,20204000,1310988,-0.0012527283,-0.005537384,-0.00012166905,0.15,2.081095e-07,2.0830369e-07,1.8118062e-06,1310988,-0.0054576714,0.0047939504,-0.117030665,0.4,0.058536272,0.05856317,0.00078124576,0,0.0,0.0,0.0,0.0,0.0,0.0,0.0,1,0,1,0,0,0
21284000,21204000,1310988,-0.0012527347,-0.0055375686,-0.00012168598,0.15,2.1610921e-07,2.1630318e-07,1.8198052e-06,1310988,-0.0054576714,0.0047939504,-0.11615058,0.4,0.058536272,0.05856317,0.00078124576,0,0.0,0.0,0.0,0.0,0.0,0.0,0.0,1,0,1,0,0,0
21596000,21516000,1310988,-0.0012526445,-0.005537978,-0.00012172858,0.15,2.1860409e-07,2.1879771e-07,1.8222967e-06,1310988,-0.0054576714,0.0047939504,-0.114703834,0.4,0.058536272,0.05856317,0.00078124576,0,0.0,0.0,0.0,0.0,0.0,0.0,0.0,1,0,1,0,0,0
21996000,21916000,1310988,-0.0012523368,-0.005538906,-0.00012182766,0.15,2.2180079e-07,2.2199383e-07,1.8254837e-06,1310988,-0.0054576714,0.0047939504,-0.11184248,0.4,0.058536272,0.05856317,0.00078124576,0,0.0,0.0,0.0,0.0,0.0,0.0,0.0,1,0,1,0,0,0
22996000,22916000,1310988,-0.0012504514,-0.0055429074,-0.00012222181,0.15,2.2976425e-07,2.2995744e-07,1.8333941e-06,1310988,-0.0054576714,0.0047939504,-0.111091435,0.4,0.058536272,0.05856317,0.00078128144,0,0.0,0.0,0.0,0.0,0.0,0.0,0.0,1,0,1,0,0,0
23812000,23732000,1310988,-0.0012482863,-0.005547299,-0.00012255565,0.15,2.3618838e-07,2.3638574e-07,1.8398058e-06,1310988,-0.0054576714,0.0047939504,-0.11008145,0.4,0.058536272,0.05856317,0.00078124576,0,0.0,0.0,0.0,0.0,0.0,0.0,0.0,1,0,1,0,0,0
24052000,23972000,1310988,-0.0012473795,-0.005549118,-0.00012263542,0.15,2.3806422e-07,2.382632e-07,1.8416818e-06,1310988,-0.0054576714,0.0047939504,-0.10906886,0.4,0.058536272,0.05856317,0.00078124576,0,0.0,0.0,0.0,0.0,0.0,0.0,0.0,1,0,1,0,0,0
24396000,24316000,1310988,-0.0012461389,-0.0055511105,-0.0001226276,0.15,2.4076297e-07,2.4096383e-07,1.8443809e-06,1310988,-0.0054576714,0.0047939504,-0.10767343,0.4,0.058536272,0.05856317,0.00078124576,0,0.0,0.0,0.0,0.0,0.0,0.0,0.0,1,0,1,0,0,0
24796000,24716000,1310988,-0.0012433366,-0.005554001,-0.00012225643,0.15,2.4382788e-07,2.4403502e-07,1.8474497e-06,1310988,-0.0054576714,0.0047939504,-0.105997585,0.4,0.058536272,0.05856317,0.00078124576,0,0.0,0.0,0.0,0.0,0.0,0.0,0.0,1,0,1,0,0,0
25196000,25116000,1310988,-0.0012402183,-0.0055566384,-0.00012167158,0.15,2.4685625e-07,2.4707168e-07,1.8504941e-06,1310988,-0.0054576714,0.0047939504,-0.10458116,0.4,0.058536272,0.05856317,0.00078124576,0,0.0,0.0,0.0,0.0,0.0,0.0,0.0,1,0,1,0,0,0
26196000,26116000,1310988,-0.001233541,-0.005560871,-0.000120223085,0.15,2.5432294e-07,2.5456146e-07,1.8581707e-06,1310988,-0.0054576714,0.0047939504,-0.10379887,0.4,0.058536272,0.05856317,0.00078124984,0,0.0,0.0,0.0,0.0,0.0,0.0,0.0,1,0,1,0,0,0
26396000,26316000,1310988,-0.0012325722,-0.0055613066,-0.00012008642,0.15,2.5580997e-07,2.5605192e-07,1.8597403e-06,1310988,-0.0054576714,0.0047939504,-0.1049115,0.4,0.058536272,0.05856317,0.00078124576,0,0.0,0.0,0.0,0.0,0.0,0.0,0.0,1,0,1,0,0,0
26796000,26716000,1310988,-0.0012312345,-0.0055617834,-0.00011996229,0.15,2.587872e-07,2.5903282e-07,1.8629167e-06,1310988,-0.0054576714,0.0047939504,-0.10731088,0.4,0.058536272,0.05856317,0.00078124576,0,0.0,0.0,0.0,0.0,0.0,0.0,0.0,1,0,1,0,0,0
27196000,27116000,1310988,-0.0012304749,-0.005561932,-0.000120034514,0.15,2.6177204e-07,2.6201633e-07,1.866115e-06,1310988,-0.0054576714,0.0047939504,-0.11112281,0.4,0.058536272,0.05856317,0.00078124576,0,0.0,0.0,0.0,0.0,0.0,0.0,0.0,1,0,1,0,0,0
27596000,27516000,1310988,-0.001230093,-0.005561971,-0.000120204204,0.15,2.647664e-07,2.650039e-07,1.869278e-06,1310988,-0.0054576714,0.0047939504,-0.116433226,0.4,0.058536272,0.05856317,0.00078124576,0,0.0,0.0,0.0,0.0,0.0,0.0,0.0,1,0,1,0,0,0
27996000,27916000,1310988,-0.0012300217,-0.005561926,-0.00012036747,0.15,2.6776905e-07,2.6799484e-07,1.8723491e-06,1310988,-0.0054576714,0.0047939504,-0.12306575,0.4,0.058536272,0.05856317,0.00078124576,0,0.0,0.0,0.0,0.0,0.0,0.0,0.0,1,0,1,0,0,0
28396000,28316000,1310988,-0.0012304165,-0.005561557,-0.00012046102,0.15,2.7077851e-07,2.7098932e-07,1.875305e-06,1310988,-0.0054576714,0.0047939504,-0.13064656,0.4,0.058536272,0.05856317,0.00078124576,0,0.0,0.0,0.0,0.0,0.0,0.0,0.0,1,0,1,0,0,0
28796000,28716000,1310988,-0.0012314419,-0.005560625,-0.00012046554,0.15,2.7379303e-07,2.7398747e-07,1.8781665e-06,1310988,-0.0054576714,0.0047939504,-0.13892698,0.4,0.058536272,0.05856317,0.00078124576,0,0.0,0.0,0.0,0.0,0.0,0.0,0.0,1,0,1,0,0,0
29196000,29116000,1310988,-0.001233434,-0.005558728,-0.00012040098,0.15,2.768107e-07,2.769889e-07,1.8809858e-06,1310988,-0.0054576714,0.0047939504,-0.14740342,0.4,0.058536272,0.05856317,0.00078124576,0,0.0,0.0,0.0,0.0,0.0,0.0,0.0,1,0,1,0,0,0
29596000,29516000,1310988,-0.001233251,-0.0055590365,-0.00012021982,0.15,2.799151e-07,2.8008498e-07,1.8839985e-06,1310988,-0.0054576714,0.0047939504,-0.15521769,0.4,0.058536272,0.05856317,0.00078124576,0,0.0,0.0,0.0,0.0,0.0,0.0,0.0,1,0,1,0,0,0
29996000,29916000,1310988,-0.0012378278,-0.0055544735,-0.00012014966,0.15,2.8293144e-07,2.8308702e-07,1.8868639e-06,1310988,-0.0054576714,0.0047939504,-0.16223346,0.4,0.058536272,0.05856317,0.00078124576,0,0.0,0.0,0.0,0.0,0.0,0.0,0.0,1,0,1,0,0,0
30396000,30316000,1310988,-0.0012433655,-0.005548968,-0.000120109406,0.15,2.859389e-07,2.8608187e-07,1.8898081e-06,1310988,-0.0054576714,0.0047939504,-0.16790138,0.4,0.058536272,0.05856317,0.00078124576,0,0.0,0.0,0.0,0.0,0.0,0.0,0.0,1,0,1,0,0,0
30796000,30716000,1310988,-0.0012493159,-0.0055430606,-0.00012008955,0.15,2.8893032e-07,2.890624e-07,1.8928351e-06,1310988,-0.0054576714,0.0047939504,-0.17212929,0.4,0.058536272,0.05856317,0.00078124576,0,0.0,0.0,0.0,0.0,0.0,0.0,0.0,1,0,1,0,0,0
31196000,31116000,1310988,-0.0012551434,-0.0055372566,-0.00012007055,0.15,2.9189866e-07,2.9202192e-07,1.8959357e-06,1310988,-0.0054576714,0.0047939504,-0.17481506,0.4,0.058536272,0.05856317,0.00078124576,0,0.0,0.0,0.0,0.0,0.0,0.0,0.0,1,0,1,0,0,0
31596000,31516000,1310988,-0.0012603105,-0.0055320393,-0.00012002614,0.15,2.9483633e-07,2.949533e-07,1.8990925e-06,1310988,-0.0054576714,0.0047939504,-0.17599928,0.4,0.058536272,0.05856317,0.00078124576,0,0.0,0.0,0.0,0.0,0.0,0.0,0.0,1,0,1,0,0,0
32092000,32012000,1310988,-0.0012641513,-0.0055280062,-0.00011994697,0.15,2.9850312e-07,2.9861678e-07,1.9030505e-06,1310988,-0.0054576714,0.0047939504,-0.17494167,0.4,0.058536272,0.05856317,0.00078124576,0,0.0,0.0,0.0,0.0,0.0,0.0,0.0,1,0,1,0,0,0
32396000,32316000,1310988,-0.0012667562,-0.0055250735,-0.00011980774,0.15,3.0058845e-07,3.007015e-07,1.9054817e-06,1310988,-0.0054576714,0.0047939504,-0.17296915,0.4,0.058536272,0.05856317,0.00078124576,0,0.0,0.0,0.0,0.0,0.0,0.0,0.0,1,0,1,0,0,0
32692000,32612000,1310988,-0.0012676563,-0.0055239657,-0.000119718716,0.15,3.0276502e-07,3.0287842e-07,1.9078473e-06,1310988,-0.0054576714,0.0047939504,-0.17176008,0.4,0.058536272,0.05856317,0.00078124576,0,0.0,0.0,0.0,0.0,0.0,0.0,0.0,1,0,1,0,0,0
32796000,32716000,1310988,-0.0012680256,-0.0055233403,-0.00011961673,0.15,3.0338748e-07,3.0350242e-07,1.9086729e-06,1310988,-0.0054576714,0.0047939504,-0.16979074,0.4,0.058536272,0.05856317,0.00078124576,0,0.0,0.0,0.0,0.0,0.0,0.0,0.0,1,0,1,0,0,0
32996000,32916000,1310988,-0.0012686118,-0.00552251,-0.000119510216,0.15,3.047665e-07,3.0488286e-07,1.9102624e-06,1310988,-0.0054576714,0.0047939504,-0.16864493,0.4,0.058536272,0.05856317,0.00078124576,0,0.0,0.0,0.0,0.0,0.0,0.0,0.0,1,0,1,0,0,0
33196000,33116000,1310988,-0.0012680895,-0.0055227117,-0.000119379816,0.15,3.0612338e-07,3.0624227e-07,1.911847e-06,1310988,-0.0054576714,0.0047939504,-0.1654056,0.4,0.058536272,0.05856317,0.00078124576,0,0.0,0.0,0.0,0.0,0.0,0.0,0.0,1,0,1,0,0,0
33412000,33332000,1310988,-0.0012683677,-0.0055221617,-0.000119260505,0.15,3.075951e-07,3.0771628e-07,1.9135553e-06,1310988,-0.0054576714,0.0047939504,-0.16412668,0.4,0.058536272,0.05856317,0.00078124576,0,0.0,0.0,0.0,0.0,0.0,0.0,0.0,1,0,1,0,0,0
33596000,33516000,1310988,-0.0012674486,-0.005522745,-0.00011910378,0.15,3.087863e-07,3.089107e-07,1.9150034e-06,1310988,-0.0054576714,0.0047939504,-0.16034311,0.4,0.058536272,0.05856317,0.00078124576,0,0.0,0.0,0.0,0.0,0.0,0.0,0.0,1,0,1,0,0,0
33836000,33756000,1310988,-0.0012675936,-0.00552231,-0.00011897644,0.15,3.1040884e-07,3.1053628e-07,1.9168954e-06,1310988,-0.0054576714,0.0047939504,-0.159085,0.4,0.058536272,0.05856317,0.00078124576,0,0.0,0.0,0.0,0.0,0.0,0.0,0.0,1,0,1,0,0,0
33996000,33916000,1310988,-0.0012666254,-0.0055229566,-0.00011880042,0.15,3.1136486e-07,3.114958e-07,1.9181443e-06,1310988,-0.0054576714,0.0047939504,-0.15514226,0.4,0.058536272,0.05856317,0.00078124576,0,0.0,0.0,0.0,0.0,0.0,0.0,0.0,1,0,1,0,0,0
34180000,34100000,1310988,-0.001266106,-0.0055234665,-0.00011877594,0.15,3.128358e-07,3.1296673e-07,1.9196164e-06,1310988,-0.0054576714,0.0047939504,-0.1537961,0.4,0.058536272,0.05856317,0.00078124576,0,0.0,0.0,0.0,0.0,0.0,0.0,0.0,1,0,1,0,0,0
34364000,34284000,1310988,-0.001266306,-0.005522975,-0.00011864692,0.15,3.1396257e-07,3.1409712e-07,1.9210547e-06,1310988,-0.0054576714,0.0047939504,-0.15275633,0.4,0.058536272,0.05856317,0.00078124576,0,0.0,0.0,0.0,0.0,0.0,0.0,0.0,1,0,1,0,0,0
34396000,34316000,1310988,-0.0012656184,-0.0055233734,-0.000118465534,0.15,3.1384442e-07,3.1398278e-07,1.921275e-06,1310988,-0.0054576714,0.0047939504,-0.14917035,0.4,0.058536272,0.05856317,0.00078124576,0,0.0,0.0,0.0,0.0,0.0,0.0,0.0,1,0,1,0,0,0
34604000,34524000,1310988,-0.0012657087,-0.0055229836,-0.00011833217,0.15,3.151073e-07,3.152498e-07,1.9229017e-06,1310988,-0.0054576714,0.0047939504,-0.14787821,0.4,0.058536272,0.05856317,0.00078124576,0,0.0,0.0,0.0,0.0,0.0,0.0,0.0,1,0,1,0,0,0
34780000,34700000,1310988,-0.0012653891,-0.0055233208,-0.00011830578,0.15,3.165148e-07,3.1665724e-07,1.9243096e-06,1310988,-0.0054576714,0.0047939504,-0.1467439,0.4,0.058536272,0.05856317,0.00078124576,0,0.0,0.0,0.0,0.0,0.0,0.0,0.0,1,0,1,0,0,0
34796000,34716000,1310988,-0.0012643652,-0.0055244104,-0.00011821591,0.15,3.1664106e-07,3.1678326e-07,1.9244378e-06,1310988,-0.0054576714,0.0047939504,-0.14296418,0.4,0.058536272,0.05856317,0.00078124576,0,0.0,0.0,0.0,0.0,0.0,0.0,0.0,1,0,1,0,0,0
35020000,34940000,1310988,-0.0012650286,-0.005523146,-0.000117981566,0.15,3.1753626e-07,3.1768735e-07,1.9261518e-06,1310988,-0.0054576714,0.0047939504,-0.14171638,0.4,0.058536272,0.05856317,0.00078124576,0,0.0,0.0,0.0,0.0,0.0,0.0,0.0,1,0,1,0,0,0
35196000,35116000,1310988,-0.0012640842,-0.0055242395,-0.00011785789,0.15,3.189431e-07,3.1909383e-07,1.9275597e-06,1310988,-0.0054576714,0.0047939504,-0.13698268,0.4,0.058536272,0.05856317,0.00078124576,0,0.0,0.0,0.0,0.0,0.0,0.0,0.0,1,0,1,0,0,0
35380000,35300000,1310988,-0.0012643457,-0.005523701,-0.00011772706,0.15,3.1991434e-07,3.2006974e-07,1.9289919e-06,1310988,-0.0054576714,0.0047939504,-0.13576822,0.4,0.058536272,0.05856317,0.00078124576,0,0.0,0.0,0.0,0.0,0.0,0.0,0.0,1,0,1,0,0,0
35548000,35468000,1310988,-0.0012646596,-0.0055231056,-0.00011760102,0.15,3.2071947e-07,3.2087988e-07,1.9302952e-06,1310988,-0.0054576714,0.0047939504,-0.13470109,0.4,0.058536272,0.05856317,0.00078124576,0,0.0,0.0,0.0,0.0,0.0,0.0,0.0,1,0,1,0,0,0
35596000,35516000,1310988,-0.0012641447,-0.0055238,-0.00011748694,0.15,3.211031e-07,3.2126317e-07,1.9306792e-06,1310988,-0.0054576714,0.0047939504,-0.13065019,0.4,0.058536272,0.05856317,0.00078124576,0,0.0,0.0,0.0,0.0,0.0,0.0,0.0,1,0,1,0,0,0
35788000,35708000,1310988,-0.0012644918,-0.0055231815,-0.00011735842,0.15,3.2205966e-07,3.2222493e-07,1.9321742e-06,1310988,-0.0054576714,0.0047939504,-0.1294584,0.4,0.058536272,0.05856317,0.00078124576,0,0.0,0.0,0.0,0.0,0.0,0.0,0.0,1,0,1,0,0,0
35972000,35892000,1310988,-0.0012648846,-0.005522506,-0.00011723563,0.15,3.2290905e-07,3.2307972e-07,1.933605e-06,1310988,-0.0054576714,0.0047939504,-0.12844555,0.4,0.058536272,0.05856317,0.00078124576,0,0.0,0.0,0.0,0.0,0.0,0.0,0.0,1,0,1,0,0,0
35996000,35916000,1310988,-0.0012646288,-0.005522985,-0.000117114454,0.15,3.2310095e-07,3.232714e-07,1.933797e-06,1310988,-0.0054576714,0.0047939504,-0.124361955,0.4,0.058536272,0.05856317,0.00078124576,0,0.0,0.0,0.0,0.0,0.0,0.0,0.0,1,0,1,0,0,0
36212000,36132000,1310988,-0.0012650598,-0.0055222823,-0.00011698836,0.15,3.2416045e-07,3.243365e-07,1.9354836e-06,1310988,-0.0054576714,0.0047939504,-0.12320406,0.4,0.058536272,0.05856317,0.00078124576,0,0.0,0.0,0.0,0.0,0.0,0.0,0.0,1,0,1,0,0,0
36396000,36316000,1310988,-0.0012655023,-0.0055218143,-0.00011674317,0.15,3.249153e-07,3.2509712e-07,1.936914e-06,1310988,-0.0054576714,0.0047939504,-0.11813957,0.4,0.058536272,0.05856317,0.00078124576,0,0.0,0.0,0.0,0.0,0.0,0.0,0.0,1,0,1,0,0,0
36628000,36548000,1310988,-0.0012660078,-0.0055210283,-0.000116622716,0.15,3.2600275e-07,3.2619073e-07,1.938728e-06,1310988,-0.0054576714,0.0047939504,-0.11710266,0.4,0.058536272,0.05856317,0.00078124576,0,0.0,0.0,0.0,0.0,0.0,0.0,0.0,1,0,1,0,0,0
36796000,36716000,1310988,-0.0012666978,-0.005520298,-0.000116387426,0.15,3.265239e-07,3.2671826e-07,1.9400302e-06,1310988,-0.0054576714,0.0047939504,-0.11241813,0.4,0.058536272,0.05856317,0.00078124576,0,0.0,0.0,0.0,0.0,0.0,0.0,0.0,1,0,1,0,0,0
37052000,36972000,1310988,-0.0012672681,-0.005519441,-0.00011625945,0.15,3.276921e-07,3.2789305e-07,1.9420363e-06,1310988,-0.0054576714,0.0047939504,-0.11116916,0.4,0.058536272,0.05856317,0.00078124576,0,0.0,0.0,0.0,0.0,0.0,0.0,0.0,1,0,1,0,0,0
37196000,37116000,1310988,-0.0012681449,-0.005518479,-0.00011602533,0.15,3.279042e-07,3.2811215e-07,1.9431463e-06,1310988,-0.0054576714,0.0047939504,-0.10666248,0.4,0.058536272,0.05856317,0.00078124576,0,0.0,0.0,0.0,0.0,0.0,0.0,0.0,1,0,1,0,0,0
37460000,37380000,1310988,-0.0012687568,-0.0055175265,-0.00011589753,0.15,3.290136e-07,3.292287e-07,1.9452168e-06,1310988,-0.0054576714,0.0047939504,-0.10554402,0.4,0.058536272,0.05856317,0.00078124576,0,0.0,0.0,0.0,0.0,0.0,0.0,0.0,1,0,1,0,0,0
37596000,37516000,1310988,-0.0012697787,-0.0055163517,-0.00011566515,0.15,3.2903313e-07,3.2925578e-07,1.9462632e-06,1310988,-0.0054576714,0.0047939504,-0.10124267,0.4,0.058536272,0.05856317,0.00078124576,0,0.0,0.0,0.0,0.0,0.0,0.0,0.0,1,0,1,0,0,0
37876000,37796000,1310988,-0.0012704358,-0.0055153016,-0.000115535295,0.15,3.3013652e-07,3.303667e-07,1.9484628e-06,1310988,-0.0054576714,0.0047939504,-0.10017127,0.4,0.058536272,0.05856317,0.00078124576,0,0.0,0.0,0.0,0.0,0.0,0.0,0.0,1,0,1,0,0,0
37996000,37916000,1310988,-0.0012715948,-0.005513933,-0.000115305265,0.15,3.2988825e-07,3.3012637e-07,1.9493823e-06,1310988,-0.0054576714,0.0047939504,-0.09600846,0.4,0.058536272,0.05856317,0.00078124576,0,0.0,0.0,0.0,0.0,0.0,0.0,0.0,1,0,1,0,0,0
38356000,38276000,1310988,-0.0012729065,-0.005511668,-0.000115071816,0.15,3.30129e-07,3.3038265e-07,1.9521842e-06,1310988,-0.0054576714,0.0047939504,-0.09483807,0.4,0.058536272,0.05856317,0.00078124576,0,0.0,0.0,0.0,0.0,0.0,0.0,0.0,1,0,1,0,0,0
38396000,38316000,1310988,-0.0012735641,-0.0055112527,-0.00011495846,0.15,3.3044822e-07,3.3070233e-07,1.9525044e-06,1310988,-0.0054576714,0.0047939504,-0.09122536,0.4,0.058536272,0.05856317,0.00078124576,0,0.0,0.0,0.0,0.0,0.0,0.0,0.0,1,0,1,0,0,0
38780000,38700000,1310988,-0.0012750146,-0.005508765,-0.000114724025,0.15,3.305664e-07,3.308364e-07,1.9555025e-06,1310988,-0.0054576714,0.0047939504,-0.090132624,0.4,0.058536272,0.05856317,0.00078124576,0,0.0,0.0,0.0,0.0,0.0,0.0,0.0,1,0,1,0,0,0
38796000,38716000,1310988,-0.0012757194,-0.005508285,-0.00011461945,0.15,3.3069335e-07,3.3096393e-07,1.9556305e-06,1310988,-0.0054576714,0.0047939504,-0.08671127,0.4,0.058536272,0.05856317,0.00078124576,0,0.0,0.0,0.0,0.0,0.0,0.0,0.0,1,0,1,0,0,0
39196000,39116000,1310988,-0.001278084,-0.0055049807,-0.00011428303,0.15,3.3060687e-07,3.3089384e-07,1.9587626e-06,1310988,-0.0054576714,0.0047939504,-0.08239731,0.4,0.058536272,0.05856317,0.00078124576,0,0.0,0.0,0.0,0.0,0.0,0.0,0.0,1,0,1,0,0,0
39596000,39516000,1310988,-0.0012806165,-0.00550134,-0.00011395004,0.15,3.30175e-07,3.3047797e-07,1.9619006e-06,1310988,-0.0054576714,0.0047939504,-0.078413956,0.4,0.058536272,0.05856317,0.00078124576,0,0.0,0.0,0.0,0.0,0.0,0.0,0.0,1,0,1,0,0,0
39996000,39916000,1310988,-0.0012823914,-0.005499029,-0.000113734815,0.15,3.3142547e-07,3.317366e-07,1.9650722e-06,1310988,-0.0054576714,0.0047939504,-0.074718416,0.4,0.058536272,0.05856317,0.00078124576,0,0.0,0.0,0.0,0.0,0.0,0.0,0.0,1,0,1,0,0,0
40396000,40316000,1310988,-0.0012851546,-0.0054948763,-0.00011340699,0.15,3.3045956e-07,3.3078578e-07,1.9682197e-06,1310988,-0.0054576714,0.0047939504,-0.071174845,0.4,0.058536272,0.05856317,0.00078124576,0,0.0,0.0,0.0,0.0,0.0,0.0,0.0,1,0,1,0,0,0
40796000,40716000,1310988,-0.0012880047,-0.0054904446,-0.00011308517,0.15,3.2913408e-07,3.2947455e-07,1.9713736e-06,1310988,-0.0054576714,0.0047939504,-0.06809718,0.4,0.058536272,0.05856317,0.00078124576,0,0.0,0.0,0.0,0.0,0.0,0.0,0.0,1,0,1,0,0,0
41196000,41116000,1310988,-0.0012910456,-0.005485659,-0.00011276102,0.15,3.274524e-07,3.27806e-07,1.974534e-06,1310988,-0.0054576714,0.0047939504,-0.06510279,0.4,0.058536272,0.05856317,0.00078124576,0,0.0,0.0,0.0,0.0,0.0,0.0,0.0,1,0,1,0,0,0
41596000,41516000,1310988,-0.0012942691,-0.0054805437,-0.00011243906,0.15,3.2542397e-07,3.2578942e-07,1.9776999e-06,1310988,-0.0054576714,0.0047939504,-0.062301613,0.4,0.058536272,0.05856317,0.00078124576,0,0.0,0.0,0.0,0.0,0.0,0.0,0.0,1,0,1,0,0,0
41996000,41916000,1310988,-0.0012977087,-0.0054750913,-0.00011211922,0.15,3.23064e-07,3.234398e-07,1.9808715e-06,1310988,-0.0054576714,0.0047939504,-0.059604134,0.4,0.058536272,0.05856317,0.00078124576,0,0.0,0.0,0.0,0.0,0.0,0.0,0.0,1,0,1,0,0,0
42396000,42316000,1310988,-0.0013013553,-0.0054693487,-0.000111806075,0.15,3.2039378e-07,3.2077818e-07,1.9840481e-06,1310988,-0.0054576714,0.0047939504,-0.05709744,0.4,0.058536272,0.05856317,0.00078124576,0,0.0,0.0,0.0,0.0,0.0,0.0,0.0,1,0,1,0,0,0
42796000,42716000,1310988,-0.0013051993,-0.005463371,-0.00011150378,0.15,3.1743983e-07,3.1783114e-07,1.9872296e-06,1310988,-0.0054576714,0.0047939504,-0.054839488,0.4,0.058536272,0.05856317,0.00078124576,0,0.0,0.0,0.0,0.0,0.0,0.0,0.0,1,0,1,0,0,0
43196000,43116000,1310988,-0.0013092555,-0.005457156,-0.000111209905,0.15,3.142334e-07,3.1462974e-07,1.9904148e-06,1310988,-0.0054576714,0.0047939504,-0.052667357,0.4,0.058536272,0.05856317,0.00078124576,0,0.0,0.0,0.0,0.0,0.0,0.0,0.0,1,0,1,0,0,0
43596000,43516000,1310988,-0.0013134746,-0.0054507637,-0.00011092609,0.15,3.1080967e-07,3.1120916e-07,1.9936033e-06,1310988,-0.0054576714,0.0047939504,-0.050647773,0.4,0.058536272,0.05856317,0.00078124576,0,0.0,0.0,0.0,0.0,0.0,0.0,0.0,1,0,1,0,0,0
43996000,43916000,1310988,-0.0013177958,-0.005444253,-0.00011065294,0.15,3.0720668e-07,3.0760734e-07,1.9967936e-06,1310988,-0.0054576714,0.0047939504,-0.04886278,0.4,0.058536272,0.05856317,0.00078124576,0,0.0,0.0,0.0,0.0,0.0,0.0,0.0,1,0,1,0,0,0
44396000,44316000,1310988,-0.0013221666,-0.005437637,-0.00011038635,0.15,3.0346368e-07,3.03864e-07,1.9999852e-06,1310988,-0.0054576714,0.0047939504,-0.04709985,0.4,0.058536272,0.05856317,0.00078124576,0,0.0,0.0,0.0,0.0,0.0,0.0,0.0,1,0,1,0,0,0
44796000,44716000,1310988,-0.0013264547,-0.0054309843,-0.000110125104,0.15,2.996209e-07,3.0001922e-07,2.0031775e-06,1310988,-0.0054576714,0.0047939504,-0.04550465,0.4,0.058536272,0.05856317,0.00078124576,0,0.0,0.0,0.0,0.0,0.0,0.0,0.0,1,0,1,0,0,0
45196000,45116000,1310988,-0.0013286198,-0.0054275906,-0.000109993336,0.15,2.9927415e-07,2.996711e-07,2.0063735e-06,1310988,-0.0054576714,0.0047939504,-0.043961756,0.4,0.058536272,0.05856317,0.00078124576,0,0.0,0.0,0.0,0.0,0.0,0.0,0.0,1,0,1,0,0,0
45596000,45516000,1310988,-0.0013326176,-0.0054210015,-0.00010974082,0.15,2.953546e-07,2.957482e-07,2.0095658e-06,1310988,-0.0054576714,0.0047939504,-0.04252271,0.4,0.058536272,0.05856317,0.00078124576,0,0.0,0.0,0.0,0.0,0.0,0.0,0.0,1,0,1,0,0,0
45996000,45916000,1310988,-0.0013363584,-0.005414517,-0.00010949497,0.15,2.9143038e-07,2.9181973e-07,2.0127575e-06,1310988,-0.0054576714,0.0047939504,-0.041106574,0.4,0.058536272,0.05856317,0.00078124576,0,0.0,0.0,0.0,0.0,0.0,0.0,0.0,1,0,1,0,0,0
46396000,46316000,1310988,-0.0013397991,-0.0054082116,-0.00010925894,0.15,2.8753513e-07,2.879197e-07,2.0159487e-06,1310988,-0.0054576714,0.0047939504,-0.03992921,0.4,0.058536272,0.05856317,0.00078124576,0,0.0,0.0,0.0,0.0,0.0,0.0,0.0,1,0,1,0,0,0
46796000,46716000,1310988,-0.0013429638,-0.005402108,-0.00010903513,0.15,2.836996e-07,2.8407896e-07,2.019139e-06,1310988,-0.0054576714,0.0047939504,-0.038649045,0.4,0.058536272,0.05856317,0.00078124576,0,0.0,0.0,0.0,0.0,0.0,0.0,0.0,1,0,1,0,0,0
47196000,47116000,1310988,-0.0013458688,-0.005396231,-0.00010882535,0.15,2.7995065e-07,2.803244e-07,2.0223297e-06,1310988,-0.0054576714,0.0047939504,-0.037557032,0.4,0.058536272,0.05856317,0.00078124576,0,0.0,0.0,0.0,0.0,0.0,0.0,0.0,1,0,1,0,0,0
47596000,47516000,1310988,-0.0013485431,-0.0053905705,-0.00010863015,0.15,2.763116e-07,2.766791e-07,2.0255197e-06,1310988,-0.0054576714,0.0047939504,-0.036505327,0.4,0.058536272,0.05856317,0.00078124576,0,0.0,0.0,0.0,0.0,0.0,0.0,0.0,1,0,1,0,0,0
47996000,47916000,1310988,-0.0013510025,-0.0053851204,-0.000108449494,0.15,2.7280169e-07,2.7316233e-07,2.0287098e-06,1310988,-0.0054576714,0.0047939504,-0.035444655,0.4,0.058536272,0.05856317,0.00078124576,0,0.0,0.0,0.0,0.0,0.0,0.0,0.0,1,0,1,0,0,0
48796000,48716000,1310988,-0.0013553577,-0.0053748162,-0.000108131055,0.15,2.6622695e-07,2.6657202e-07,2.035087e-06,1310988,-0.0054576714,0.0047939504,-0.033691395,0.4,0.058536272,0.05856317,0.00078124576,0,0.0,0.0,0.0,0.0,0.0,0.0,0.0,1,0,1,0,0,0
49596000,49516000,1310988,-0.0013590713,-0.005365238,-0.00010786828,0.15,2.6030642e-07,2.6063336e-07,2.041462e-06,1310988,-0.0054576714,0.0047939504,-0.03193357,0.4,0.058536272,0.05856317,0.00078124576,0,0.0,0.0,0.0,0.0,0.0,0.0,0.0,1,0,1,0,0,0
50396000,50316000,1310988,-0.0013613947,-0.0053585703,-0.000107707594,0.15,2.5791533e-07,2.5822746e-07,2.0478415e-06,1310988,-0.0054576714,0.0047939504,-0.029899102,0.4,0.058536272,0.05856317,0.00078124576,0,0.0,0.0,0.0,0.0,0.0,0.0,0.0,1,1,1,0,0,0
50796000,50716000,1310988,-0.0013622689,-0.0053547802,-0.00010762135,0.15,2.554688e-07,2.5577302e-07,2.0510297e-06,1310988,-0.0054576714,0.0047939504,-0.02835297,0.4,0.058536272,0.05856317,0.00078124576,0,0.0,0.0,0.0,0.0,0.0,0.0,0.0,1,1,1,0,0,0
51196000,51116000,1310988,-0.0013622174,-0.005351882,-0.000107555265,0.15,2.5318977e-07,2.534899e-07,2.0542193e-06,1310988,-0.0054576714,0.0047939504,-0.025978215,0.4,0.058536272,0.05856317,0.00078124576,0,0.0,0.0,0.0,0.0,0.0,0.0,0.0,1,1,1,0,0,0
51596000,51516000,1310988,-0.0013611577,-0.0053499294,-0.00010750705,0.15,2.510743e-07,2.513743e-07,2.0574098e-06,1310988,-0.0054576714,0.0047939504,-0.022500476,0.4,0.058536272,0.05856317,0.00078124576,0,0.0,0.0,0.0,0.0,0.0,0.0,0.0,1,1,1,0,0,0
51996000,51916000,1310988,-0.0013589342,-0.0053490526,-0.000107473905,0.15,2.4911756e-07,2.4942224e-07,2.0605978e-06,1310988,-0.0054576714,0.0047939504,-0.017931093,0.4,0.058536272,0.05856317,0.00078124576,0,0.0,0.0,0.0,0.0,0.0,0.0,0.0,1,1,1,0,0,0
52300000,52220000,1310988,-0.0013559527,-0.0053488626,-0.00010745563,0.15,2.4654636e-07,2.468621e-07,2.0630087e-06,1310988,-0.0054576714,0.0047939504,-0.016908593,0.4,0.058536272,0.05856317,0.00078124576,0,0.0,0.0,0.0,0.0,0.0,0.0,0.0,1,1,1,0,0,0
52396000,52316000,1310988,-0.0013552126,-0.0053495597,-0.000107453336,0.15,2.473137e-07,2.4762946e-07,2.0637767e-06,1310988,-0.0054576714,0.0047939504,-0.012322137,0.4,0.058536272,0.05856317,0.00078124576,0,0.0,0.0,0.0,0.0,0.0,0.0,0.0,1,1,1,0,0,0
52660000,52580000,1310988,-0.001353085,-0.005350058,-0.00010744953,0.15,2.4697925e-07,2.4730363e-07,2.0658713e-06,1310988,-0.0054576714,0.0047939504,-0.01131051,0.4,0.058536272,0.05856317,0.00078124576,0,0.0,0.0,0.0,0.0,0.0,0.0,0.0,1,1,1,0,0,0
52796000,52716000,1310988,-0.0013495764,-0.0053518363,-0.000107442116,0.15,2.4565549e-07,2.4599103e-07,2.0669345e-06,1310988,-0.0054576714,0.0047939504,-0.0059264265,0.4,0.058536272,0.05856317,0.00078124576,0,0.0,0.0,0.0,0.0,0.0,0.0,0.0,1,1,1,0,0,0
53084000,53004000,1310988,-0.00134653,-0.0053531835,-0.000107445405,0.15,2.4558318e-07,2.459325e-07,2.0692028e-06,1310988,-0.0054576714,0.0047939504,-0.0048497887,0.4,0.058536272,0.05856317,0.00078124576,0,0.0,0.0,0.0,0.0,0.0,0.0,0.0,1,1,1,0,0,0
53196000,53116000,1310988,-0.0013417549,-0.005356117,-0.00010743736,0.15,2.441351e-07,2.4450134e-07,2.0700486e-06,1310988,-0.0054576714,0.0047939504,0.0007067041,0.4,0.058536272,0.05856317,0.00078124576,0,0.0,0.0,0.0,0.0,0.0,0.0,0.0,1,1,1,0,0,0
53444000,53364000,1310988,-0.0013376949,-0.00535839,-0.00010744704,0.15,2.438088e-07,2.441948e-07,2.071965e-06,1310988,-0.0054576714,0.0047939504,0.0018108622,0.4,0.058536272,0.05856317,0.00078124576,0,0.0,0.0,0.0,0.0,0.0,0.0,0.0,1,1,1,0,0,0
53596000,53516000,1310988,-0.0013315708,-0.00536254,-0.00010743583,0.15,2.4274377e-07,2.4315298e-07,2.073091e-06,1310988,-0.0054576714,0.0047939504,0.007562298,0.4,0.058536272,0.05856317,0.00078124576,0,0.0,0.0,0.0,0.0,0.0,0.0,0.0,1,1,1,0,0,0
53860000,53780000,1310988,-0.0013265011,-0.0053657186,-0.00010745068,0.15,2.4260717e-07,2.4304236e-07,2.0750886e-06,1310988,-0.0054576714,0.0047939504,0.008602456,0.4,0.058536272,0.05856317,0.00078124576,0,0.0,0.0,0.0,0.0,0.0,0.0,0.0,1,1,1,0,0,0
53996000,53916000,1310988,-0.0013193326,-0.0053707696,-0.00010743892,0.15,2.4147317e-07,2.419378e-07,2.0760353e-06,1310988,-0.0054576714,0.0047939504,0.013942535,0.4,0.058536272,0.05856317,0.00078124576,0,0.0,0.0,0.0,0.0,0.0,0.0,0.0,1,1,1,0,0,0
54396000,54316000,1310988,-0.0013056922,-0.0053801374,-0.00010745292,0.15,2.4031561e-07,2.4084642e-07,2.078872e-06,1310988,-0.0054576714,0.0047939504,0.019189728,0.4,0.058536272,0.05856317,0.00078124576,0,0.0,0.0,0.0,0.0,0.0,0.0,0.0,1,1,1,0,0,0
54796000,54716000,1310988,-0.001291341,-0.0053899526,-0.000107482825,0.15,2.3926268e-07,2.3986738e-07,2.0816192e-06,1310988,-0.0054576714,0.0047939504,0.02311945,0.4,0.058536272,0.05856317,0.00078124576,0,0.0,0.0,0.0,0.0,0.0,0.0,0.0,1,1,1,0,0,0
55196000,55116000,1310988,-0.0012771905,-0.005399343,-0.00010753472,0.15,2.3830682e-07,2.389884e-07,2.0843256e-06,1310988,-0.0054576714,0.0047939504,0.025162067,0.4,0.058536272,0.05856317,0.00078124576,0,0.0,0.0,0.0,0.0,0.0,0.0,0.0,1,1,1,0,0,0
55844000,55764000,1310988,-0.00125787,-0.0054112193,-0.00010764405,0.15,2.3742216e-07,2.3821144e-07,2.0888501e-06,1310988,-0.0054576714,0.0047939504,0.024145069,0.4,0.058536272,0.05856317,0.00078124576,0,0.0,0.0,0.0,0.0,0.0,0.0,0.0,1,1,1,0,0,0
55996000,55916000,1310988,-0.001258077,-0.005411094,-0.00010763973,0.15,2.3863726e-07,2.3942715e-07,2.0900661e-06,1310988,-0.0054576714,0.0047939504,0.023006853,0.4,0.058536272,0.05856317,0.00078124576,0,0.0,0.0,0.0,0.0,0.0,0.0,0.0,1,1,1,0,0,0
56204000,56124000,1310988,-0.0012522741,-0.0054143444,-0.000107675536,0.15,2.3831835e-07,2.391388e-07,2.0915656e-06,1310988,-0.0054576714,0.0047939504,0.021856356,0.4,0.058536272,0.05856317,0.00078124576,0,0.0,0.0,0.0,0.0,0.0,0.0,0.0,1,1,1,0,0,0
56380000,56300000,1310988,-0.0012468684,-0.005417148,-0.00010771318,0.15,2.3776131e-07,2.386085e-07,2.092846e-06,1310988,-0.0054576714,0.0047939504,0.020729547,0.4,0.058536272,0.05856317,0.00078124576,0,0.0,0.0,0.0,0.0,0.0,0.0,0.0,1,1,1,0,0,0
56396000,56316000,1310988,-0.0012469478,-0.005417208,-0.00010768948,0.15,2.3788931e-07,2.3873648e-07,2.0929742e-06,1310988,-0.0054576714,0.0047939504,0.018720368,0.4,0.058536272,0.05856317,0.00078124576,0,0.0,0.0,0.0,0.0,0.0,0.0,0.0,1,1,1,0,0,0
56564000,56484000,1310988,-0.001242041,-0.005419467,-0.00010773002,0.15,2.3728511e-07,2.3815444e-07,2.0942277e-06,1310988,-0.0054576714,0.0047939504,0.01759647,0.4,0.058536272,0.05856317,0.00078124576,0,0.0,0.0,0.0,0.0,0.0,0.0,0.0,1,1,1,0,0,0
56740000,56660000,1310988,-0.001237719,-0.005421133,-0.00010777068,0.15,2.3676098e-07,2.376472e-07,2.095579e-06,1310988,-0.0054576714,0.0047939504,0.016151603,0.4,0.058536272,0.05856317,0.00078124576,0,0.0,0.0,0.0,0.0,0.0,0.0,0.0,1,1,1,0,0,0
56796000,56716000,1310988,-0.0012373333,-0.0054217344,-0.00010769836,0.15,2.3720868e-07,2.3809443e-07,2.096027e-06,1310988,-0.0054576714,0.0047939504,0.012713411,0.4,0.058536272,0.05856317,0.00078124576,0,0.0,0.0,0.0,0.0,0.0,0.0,0.0,1,1,1,0,0,0
56924000,56844000,1310988,-0.0012336926,-0.005422682,-0.00010774556,0.15,2.3631567e-07,2.3721248e-07,2.0970206e-06,1310988,-0.0054576714,0.0047939504,0.011337904,0.4,0.058536272,0.05856317,0.00078124576,0,0.0,0.0,0.0,0.0,0.0,0.0,0.0,1,1,1,0,0,0
57100000,57020000,1310988,-0.0012307712,-0.005422908,-0.00010779892,0.15,2.3582112e-07,2.3672241e-07,2.0984126e-06,1310988,-0.0054576714,0.0047939504,0.009826295,0.4,0.058536272,0.05856317,0.00078124576,0,0.0,0.0,0.0,0.0,0.0,0.0,0.0,1,1,1,0,0,0
57196000,57116000,1310988,-0.0012293989,-0.005424552,-0.00010763823,0.15,2.3658724e-07,2.374877e-07,2.0991804e-06,1310988,-0.0054576714,0.0047939504,0.0047128336,0.4,0.058536272,0.05856317,0.00078124576,0,0.0,0.0,0.0,0.0,0.0,0.0,0.0,1,1,1,0,0,0
57340000,57260000,1310988,-0.0012272944,-0.0054239375,-0.00010770075,0.15,2.3585034e-07,2.3674838e-07,2.1003154e-06,1310988,-0.0054576714,0.0047939504,0.0032827186,0.4,0.058536272,0.05856317,0.00078124576,0,0.0,0.0,0.0,0.0,0.0,0.0,0.0,1,1,1,0,0,0
57452000,57372000,1310988,-0.0012269163,-0.005424365,-0.00010766113,0.15,2.3674583e-07,2.3764373e-07,2.1012115e-06,1310988,-0.0054576714,0.0047939504,0.0022403821,0.4,0.058536272,0.05856317,0.00078124576,0,0.0,0.0,0.0,0.0,0.0,0.0,0.0,1,1,1,0,0,0
57572000,57492000,1310988,-0.0012257183,-0.005422834,-0.00010774462,0.15,2.3583006e-07,2.3671826e-07,2.1021342e-06,1310988,-0.0054576714,0.0047939504,0.0010140648,0.4,0.058536272,0.05856317,0.00078124576,0,0.0,0.0,0.0,0.0,0.0,0.0,0.0,1,1,1,0,0,0
57596000,57516000,1310988,-0.0012234355,-0.0054253475,-0.00010751252,0.15,2.3601783e-07,2.369051e-07,2.102326e-06,1310988,-0.0054576714,0.0047939504,-0.004403988,0.4,0.058536272,0.05856317,0.00078124576,0,0.0,0.0,0.0,0.0,0.0,0.0,0.0,1,1,1,0,0,0
57748000,57668000,1310988,-0.0012230844,-0.005422973,-0.00010760015,0.15,2.3537055e-07,2.3624057e-07,2.1034648e-06,1310988,-0.0054576714,0.0047939504,-0.00589607,0.4,0.058536272,0.05856317,0.00078124576,0,0.0,0.0,0.0,0.0,0.0,0.0,0.0,1,1,1,0,0,0
57868000,57788000,1310988,-0.0012224858,-0.005423615,-0.00010754166,0.15,2.363295e-07,2.3719934e-07,2.104425e-06,1310988,-0.0054576714,0.0047939504,-0.0070669656,0.4,0.058536272,0.05856317,0.00078124576,0,0.0,0.0,0.0,0.0,0.0,0.0,0.0,1,1,1,0,0,0
57988000,57908000,1310988,-0.0012231729,-0.0054201963,-0.000107663,0.15,2.3543848e-07,2.3628334e-07,2.1052454e-06,1310988,-0.0054576714,0.0047939504,-0.008267449,0.4,0.058536272,0.05856317,0.00078124576,0,0.0,0.0,0.0,0.0,0.0,0.0,0.0,1,1,1,0,0,0
57996000,57916000,1310988,-0.0012198439,-0.005423724,-0.00010733586,0.15,2.3549515e-07,2.3633909e-07,2.1053092e-06,1310988,-0.0054576714,0.0047939504,-0.014265758,0.4,0.058536272,0.05856317,0.00078124576,0,0.0,0.0,0.0,0.0,0.0,0.0,0.0,1,1,1,0,0,0
58100000,58020000,1310988,-0.0012192376,-0.005424364,-0.00010727721,0.15,2.3632592e-07,2.3716976e-07,2.1061412e-06,1310988,-0.0054576714,0.0047939504,-0.015306317,0.4,0.058536272,0.05856317,0.00078124576,0,0.0,0.0,0.0,0.0,0.0,0.0,0.0,1,1,1,0,0,0
58220000,58140000,1310988,-0.0012209833,-0.0054198746,-0.00010742335,0.15,2.3544705e-07,2.3625822e-07,2.1068784e-06,1310988,-0.0054576714,0.0047939504,-0.016405825,0.4,0.058536272,0.05856317,0.00078124576,0,0.0,0.0,0.0,0.0,0.0,0.0,0.0,1,1,1,0,0,0
58324000,58244000,1310988,-0.0012236366,-0.00541449,-0.00010759763,0.15,2.3445159e-07,2.3522243e-07,2.1073847e-06,1310988,-0.0054576714,0.0047939504,-0.017573388,0.4,0.058536272,0.05856317,0.00078124576,0,0.0,0.0,0.0,0.0,0.0,0.0,0.0,1,1,1,0,0,0
58396000,58316000,1310988,-0.0012191524,-0.005419149,-0.0001071507,0.15,2.3501627e-07,2.3578623e-07,2.1079604e-06,1310988,-0.0054576714,0.0047939504,-0.024365261,0.4,0.058536272,0.05856317,0.00078124576,0,0.0,0.0,0.0,0.0,0.0,0.0,0.0,1,1,1,0,0,0
58564000,58484000,1310988,-0.0012225702,-0.0054129995,-0.00010732709,0.15,2.3454383e-07,2.3526609e-07,2.1088606e-06,1310988,-0.0054576714,0.0047939504,-0.025856553,0.4,0.058536272,0.05856317,0.00078124576,0,0.0,0.0,0.0,0.0,0.0,0.0,0.0,1,1,1,0,0,0
58676000,58596000,1310988,-0.0012218175,-0.0054137763,-0.000107251115,0.15,2.354378e-07,2.3615993e-07,2.1097567e-06,1310988,-0.0054576714,0.0047939504,-0.026911765,0.4,0.058536272,0.05856317,0.00078124576,0,0.0,0.0,0.0,0.0,0.0,0.0,0.0,1,1,1,0,0,0
58796000,58716000,1310988,-0.001221838,-0.0054111453,-0.00010701749,0.15,2.3458028e-07,2.3524701e-07,2.1101425e-06,1310988,-0.0054576714,0.0047939504,-0.034205113,0.4,0.058536272,0.05856317,0.00078124576,0,0.0,0.0,0.0,0.0,0.0,0.0,0.0,1,1,1,0,0,0
58972000,58892000,1310988,-0.0012270606,-0.005403188,-0.00010725736,0.15,2.3419412e-07,2.3479967e-07,2.1108415e-06,1310988,-0.0054576714,0.0047939504,-0.03560568,0.4,0.058536272,0.05856317,0.00078124576,0,0.0,0.0,0.0,0.0,0.0,0.0,0.0,1,1,1,0,0,0
59140000,59060000,1310988,-0.0012259436,-0.0054043317,-0.00010713903,0.15,2.3553449e-07,2.3613987e-07,2.1121857e-06,1310988,-0.0054576714,0.0047939504,-0.037070412,0.4,0.058536272,0.05856317,0.00078124576,0,0.0,0.0,0.0,0.0,0.0,0.0,0.0,1,1,1,0,0,0
59196000,59116000,1310988,-0.0012285705,-0.005399046,-0.00010704472,0.15,2.341884e-07,2.347263e-07,2.11179e-06,1310988,-0.0054576714,0.0047939504,-0.042871054,0.4,0.058536272,0.05856317,0.00078124576,0,0.0,0.0,0.0,0.0,0.0,0.0,0.0,1,1,1,0,0,0
59324000,59244000,1310988,-0.001227736,-0.0053998977,-0.00010695351,0.15,2.3520931e-07,2.357471e-07,2.112814e-06,1310988,-0.0054576714,0.0047939504,-0.04396524,0.4,0.058536272,0.05856317,0.00078124576,0,0.0,0.0,0.0,0.0,0.0,0.0,0.0,1,1,1,0,0,0
59500000,59420000,1310988,-0.0012345515,-0.005390348,-0.00010726362,0.15,2.348446e-07,2.353103e-07,2.1132525e-06,1310988,-0.0054576714,0.0047939504,-0.04520836,0.4,0.058536272,0.05856317,0.00078124576,0,0.0,0.0,0.0,0.0,0.0,0.0,0.0,1,1,1,0,0,0
59596000,59516000,1310988,-0.0012388041,-0.0053834273,-0.00010723987,0.15,2.3383916e-07,2.3422814e-07,2.1129392e-06,1310988,-0.0054576714,0.0047939504,-0.050668806,0.4,0.058536272,0.05856317,0.00078124576,0,0.0,0.0,0.0,0.0,0.0,0.0,0.0,1,1,1,0,0,0
59804000,59724000,1310988,-0.0012467708,-0.0053727604,-0.00010761344,0.15,2.337505e-07,2.3405995e-07,2.113432e-06,1310988,-0.0054576714,0.0047939504,-0.05180105,0.4,0.058536272,0.05856317,0.00078124576,0,0.0,0.0,0.0,0.0,0.0,0.0,0.0,1,1,1,0,0,0
59996000,59916000,1310988,-0.0012525367,-0.0053643472,-0.00010768877,0.15,2.3353311e-07,2.3376066e-07,2.1137337e-06,1310988,-0.0054576714,0.0047939504,-0.0566738,0.4,0.058536272,0.05856317,0.00078124576,0,0.0,0.0,0.0,0.0,0.0,0.0,0.0,1,1,1,0,0,0
60332000,60252000,1310988,-0.0012611429,-0.0053531164,-0.00010810354,0.15,2.344864e-07,2.3463105e-07,2.1151534e-06,1310988,-0.0054576714,0.0047939504,-0.05777511,0.4,0.058536272,0.05856317,0.00078124576,0,0.0,0.0,0.0,0.0,0.0,0.0,0.0,1,1,1,0,0,0
60396000,60316000,1310988,-0.0012687957,-0.005342883,-0.00010837812,0.15,2.33268e-07,2.3332923e-07,2.114378e-06,1310988,-0.0054576714,0.0047939504,-0.060795452,0.4,0.058536272,0.05856317,0.00078124576,0,0.0,0.0,0.0,0.0,0.0,0.0,0.0,1,1,1,0,0,0
60796000,60716000,1310988,-0.0012770774,-0.005332068,-0.00010872813,0.15,2.3474614e-07,2.3472437e-07,2.1162964e-06,1310988,-0.0054576714,0.0047939504,-0.06317122,0.4,0.058536272,0.05856317,0.00078124576,0,0.0,0.0,0.0,0.0,0.0,0.0,0.0,1,1,1,0,0,0
61196000,61116000,1310988,-0.0012951843,-0.005309142,-0.00010971247,0.15,2.3453825e-07,2.3435463e-07,2.1170679e-06,1310988,-0.0054576714,0.0047939504,-0.06419412,0.4,0.058536272,0.05856317,0.00078124576,0,0.0,0.0,0.0,0.0,0.0,0.0,0.0,1,1,1,0,0,0
61940000,61860000,1310988,-0.0013270648,-0.005268548,-0.0001116348,0.15,2.3375462e-07,2.3329139e-07,2.119377e-06,1310988,-0.0054576714,0.0047939504,-0.063140035,0.4,0.058536272,0.05856317,0.00078124576,0,0.0,0.0,0.0,0.0,0.0,0.0,0.0,1,1,1,0,0,0
62108000,62028000,1310988,-0.0013334082,-0.0052602133,-0.00011205449,0.15,2.3342596e-07,2.3290615e-07,2.1201272e-06,1310988,-0.0054576714,0.0047939504,-0.062044095,0.4,0.058536272,0.05856317,0.00078124576,0,0.0,0.0,0.0,0.0,0.0,0.0,0.0,1,1,1,0,0,0
62396000,62316000,1310988,-0.0013387728,-0.005252941,-0.00011242934,0.15,2.3405978e-07,2.3348915e-07,2.1219573e-06,1310988,-0.0054576714,0.0047939504,-0.060131714,0.4,0.058536272,0.05856317,0.00078124576,0,0.0,0.0,0.0,0.0,0.0,0.0,0.0,1,1,1,0,0,0
62708000,62628000,1310988,-0.0013476835,-0.005240259,-0.00011300213,0.15,2.3322409e-07,2.3257081e-07,2.1238145e-06,1310988,-0.0054576714,0.0047939504,-0.059120845,0.4,0.058536272,0.05856317,0.00078124576,0,0.0,0.0,0.0,0.0,0.0,0.0,0.0,1,1,1,0,0,0
62796000,62716000,1310988,-0.0013470936,-0.005240923,-0.00011299402,0.15,2.3392595e-07,2.3327209e-07,2.1245187e-06,1310988,-0.0054576714,0.0047939504,-0.05705056,0.4,0.058536272,0.05856317,0.00078124576,0,0.0,0.0,0.0,0.0,0.0,0.0,0.0,1,1,1,0,0,0
63068000,62988000,1310988,-0.0013502887,-0.005235926,-0.00011320321,0.15,2.3443857e-07,2.3375229e-07,2.126499e-06,1310988,-0.0054576714,0.0047939504,-0.056036904,0.4,0.058536272,0.05856317,0.00078124576,0,0.0,0.0,0.0,0.0,0.0,0.0,0.0,1,1,1,0,0,0
63196000,63116000,1310988,-0.0013520943,-0.0052324194,-0.00011332906,0.15,2.3379798e-07,2.3308442e-07,2.12739e-06,1310988,-0.0054576714,0.0047939504,-0.05320371,0.4,0.058536272,0.05856317,0.00078124576,0,0.0,0.0,0.0,0.0,0.0,0.0,0.0,1,1,1,0,0,0
63484000,63404000,1310988,-0.0013538874,-0.0052289087,-0.00011343879,0.15,2.3444149e-07,2.3370644e-07,2.1296087e-06,1310988,-0.0054576714,0.0047939504,-0.052032843,0.4,0.058536272,0.05856317,0.00078124576,0,0.0,0.0,0.0,0.0,0.0,0.0,0.0,1,1,1,0,0,0
63596000,63516000,1310988,-0.0013542935,-0.0052268812,-0.00011344732,0.15,2.3367501e-07,2.3292306e-07,2.130454e-06,1310988,-0.0054576714,0.0047939504,-0.049046163,0.4,0.058536272,0.05856317,0.00078124576,0,0.0,0.0,0.0,0.0,0.0,0.0,0.0,1,1,1,0,0,0
63836000,63756000,1310988,-0.0013549714,-0.0052245646,-0.000113473296,0.15,2.3393717e-07,2.3317338e-07,2.1323476e-06,1310988,-0.0054576714,0.0047939504,-0.04787255,0.4,0.058536272,0.05856317,0.00078124576,0,0.0,0.0,0.0,0.0,0.0,0.0,0.0,1,1,1,0,0,0
63996000,63916000,1310988,-0.0013540483,-0.005223959,-0.00011336099,0.15,2.3355636e-07,2.3278442e-07,2.1336164e-06,1310988,-0.0054576714,0.0047939504,-0.044269256,0.4,0.058536272,0.05856317,0.00078124576,0,0.0,0.0,0.0,0.0,0.0,0.0,0.0,1,1,1,0,0,0
64180000,64100000,1310988,-0.0013539132,-0.0052225287,-0.00011332331,0.15,2.3337333e-07,2.3259764e-07,2.1350852e-06,1310988,-0.0054576714,0.0047939504,-0.043259956,0.4,0.058536272,0.05856317,0.00078124576,0,0.0,0.0,0.0,0.0,0.0,0.0,0.0,1,1,1,0,0,0
64396000,64316000,1310988,-0.0013519918,-0.0052230177,-0.00011310601,0.15,2.3344253e-07,2.326659e-07,2.1368126e-06,1310988,-0.0054576714,0.0047939504,-0.039139923,0.4,0.058536272,0.05856317,0.00078124576,0,0.0,0.0,0.0,0.0,0.0,0.0,0.0,1,1,1,0,0,0
64660000,64580000,1310988,-0.0013510962,-0.005222447,-0.0001130022,0.15,2.3390122e-07,2.331273e-07,2.1389226e-06,1310988,-0.0054576714,0.0047939504,-0.037919726,0.4,0.058536272,0.05856317,0.00078124576,0,0.0,0.0,0.0,0.0,0.0,0.0,0.0,1,1,1,0,0,0
64796000,64716000,1310988,-0.0013487508,-0.0052234707,-0.0001127296,0.15,2.3333338e-07,2.3256433e-07,2.1400044e-06,1310988,-0.0054576714,0.0047939504,-0.033929475,0.4,0.058536272,0.05856317,0.00078124576,0,0.0,0.0,0.0,0.0,0.0,0.0,0.0,1,1,1,0,0,0
65020000,64940000,1310988,-0.0013474612,-0.005223418,-0.00011259426,0.15,2.3347432e-07,2.327131e-07,2.1417848e-06,1310988,-0.0054576714,0.0047939504,-0.03287229,0.4,0.058536272,0.05856317,0.00078124576,0,0.0,0.0,0.0,0.0,0.0,0.0,0.0,1,1,1,0,0,0
65196000,65116000,1310988,-0.0013447754,-0.005224957,-0.00011226976,0.15,2.3322877e-07,2.3247686e-07,2.1431745e-06,1310988,-0.0054576714,0.0047939504,-0.028652359,0.4,0.058536272,0.05856317,0.00078124576,0,0.0,0.0,0.0,0.0,0.0,0.0,0.0,1,1,1,0,0,0
65444000,65364000,1310988,-0.001343142,-0.005225423,-0.000112101094,0.15,2.3356277e-07,2.3282256e-07,2.1451328e-06,1310988,-0.0054576714,0.0047939504,-0.027464869,0.4,0.058536272,0.05856317,0.00078124576,0,0.0,0.0,0.0,0.0,0.0,0.0,0.0,1,1,1,0,0,0
65604000,65524000,1310988,-0.0013404266,-0.0052272053,-0.0001117589,0.15,2.3319107e-07,2.3246355e-07,2.1463802e-06,1310988,-0.0054576714,0.0047939504,-0.023310777,0.4,0.058536272,0.05856317,0.00078124576,0,0.0,0.0,0.0,0.0,0.0,0.0,0.0,1,1,1,0,0,0
65860000,65780000,1310988,-0.0013386538,-0.0052280063,-0.00011157899,0.15,2.3358984e-07,2.3287707e-07,2.1483884e-06,1310988,-0.0054576714,0.0047939504,-0.02219363,0.4,0.058536272,0.05856317,0.00078124576,0,0.0,0.0,0.0,0.0,0.0,0.0,0.0,1,1,1,0,0,0
65996000,65916000,1310988,-0.0013374737,-0.005229411,-0.00011135078,0.15,2.3467558e-07,2.3396188e-07,2.1494761e-06,1310988,-0.0054576714,0.0047939504,-0.018016513,0.4,0.058536272,0.05856317,0.00078124576,0,0.0,0.0,0.0,0.0,0.0,0.0,0.0,1,1,1,0,0,0
66284000,66204000,1310988,-0.0013341255,-0.0052310503,-0.00011103889,0.15,2.336823e-07,2.3300177e-07,2.1516812e-06,1310988,-0.0054576714,0.0047939504,-0.016877903,0.4,0.058536272,0.05856317,0.00078124576,0,0.0,0.0,0.0,0.0,0.0,0.0,0.0,1,1,1,0,0,0
66396000,66316000,1310988,-0.0013332389,-0.0052321763,-0.00011083115,0.15,2.3457697e-07,2.3389562e-07,2.152577e-06,1310988,-0.0054576714,0.0047939504,-0.012928679,0.4,0.058536272,0.05856317,0.00078124576,0,0.0,0.0,0.0,0.0,0.0,0.0,0.0,1,1,1,0,0,0
66628000,66548000,1310988,-0.0013314123,-0.005233312,-0.00011064652,0.15,2.3478417e-07,2.341206e-07,2.154375e-06,1310988,-0.0054576714,0.0047939504,-0.01187763,0.4,0.058536272,0.05856317,0.00078124576,0,0.0,0.0,0.0,0.0,0.0,0.0,0.0,1,1,1,0,0,0
66796000,66716000,1310988,-0.0013290177,-0.005235286,-0.000110301706,0.15,2.344797e-07,2.338342e-07,2.1556561e-06,1310988,-0.0054576714,0.0047939504,-0.0076374197,0.4,0.058536272,0.05856317,0.00078124576,0,0.0,0.0,0.0,0.0,0.0,0.0,0.0,1,1,1,0,0,0
67108000,67028000,1310988,-0.0013254279,-0.00523775,-0.00010997634,0.15,2.3368621e-07,2.3307956e-07,2.158015e-06,1310988,-0.0054576714,0.0047939504,-0.0065222397,0.4,0.058536272,0.05856317,0.00078124576,0,0.0,0.0,0.0,0.0,0.0,0.0,0.0,1,1,1,0,0,0
67196000,67116000,1310988,-0.0013249541,-0.0052384594,-0.000109795175,0.15,2.3438982e-07,2.3378267e-07,2.1587189e-06,1310988,-0.0054576714,0.0047939504,-0.0026382767,0.4,0.058536272,0.05856317,0.00078124576,0,0.0,0.0,0.0,0.0,0.0,0.0,0.0,1,1,1,0,0,0
67532000,67452000,1310988,-0.0013213586,-0.0052411673,-0.00010947522,0.15,2.3379324e-07,2.3322626e-07,2.1612589e-06,1310988,-0.0054576714,0.0047939504,-0.0015914113,0.4,0.058536272,0.05856317,0.00078124576,0,0.0,0.0,0.0,0.0,0.0,0.0,0.0,1,1,1,0,0,0
67596000,67516000,1310988,-0.0013210723,-0.005241683,-0.00010931556,0.15,2.3430509e-07,2.3373775e-07,2.1617707e-06,1310988,-0.0054576714,0.0047939504,0.0021151826,0.4,0.058536272,0.05856317,0.00078124576,0,0.0,0.0,0.0,0.0,0.0,0.0,0.0,1,1,1,0,0,0
67996000,67916000,1310988,-0.0013173961,-0.005244962,-0.00010887195,0.15,2.342215e-07,2.336949e-07,2.1648154e-06,1310988,-0.0054576714,0.0047939504,0.006484938,0.4,0.058536272,0.05856317,0.00078124576,0,0.0,0.0,0.0,0.0,0.0,0.0,0.0,1,1,1,0,0,0
68396000,68316000,1310988,-0.0013139264,-0.0052483557,-0.00010845427,0.15,2.3413641e-07,2.3365088e-07,2.167855e-06,1310988,-0.0054576714,0.0047939504,0.01076305,0.4,0.058536272,0.05856317,0.00078124576,0,0.0,0.0,0.0,0.0,0.0,0.0,0.0,1,1,1,0,0,0
68796000,68716000,1310988,-0.0013106865,-0.005251867,-0.00010806856,0.15,2.3404776e-07,2.3360344e-07,2.1708925e-06,1310988,-0.0054576714,0.0047939504,0.014811577,0.4,0.058536272,0.05856317,0.00078124576,0,0.0,0.0,0.0,0.0,0.0,0.0,0.0,1,1,1,0,0,0
69196000,69116000,1310988,-0.0013076764,-0.0052555036,-0.0001077239,0.15,2.3395381e-07,2.335503e-07,2.1739297e-06,1310988,-0.0054576714,0.0047939504,0.018300962,0.4,0.058536272,0.05856317,0.00078124576,0,0.0,0.0,0.0,0.0,0.0,0.0,0.0,1,1,1,0,0,0
69596000,69516000,1310988,-0.0013049108,-0.0052592866,-0.00010740881,0.15,2.3385311e-07,2.3348966e-07,2.1769679e-06,1310988,-0.0054576714,0.0047939504,0.02151132,0.4,0.058536272,0.05856317,0.00078124576,0,0.0,0.0,0.0,0.0,0.0,0.0,0.0,1,1,1,0,0,0
69996000,69916000,1310988,-0.0013023856,-0.005263226,-0.00010712316,0.15,2.3374437e-07,2.3342001e-07,2.180008e-06,1310988,-0.0054576714,0.0047939504,0.024319839,0.4,0.058536272,0.05856317,0.00078124576,0,0.0,0.0,0.0,0.0,0.0,0.0,0.0,1,1,1,0,0,0
70396000,70316000,1310988,-0.0013001229,-0.0052673193,-0.00010685901,0.15,2.3362692e-07,2.333404e-07,2.183051e-06,1310988,-0.0054576714,0.0047939504,0.026923032,0.4,0.058536272,0.05856317,0.00078124576,0,0.0,0.0,0.0,0.0,0.0,0.0,0.0,1,1,1,0,0,0
71396000,71316000,1310988,-0.0012972001,-0.005275822,-0.000106265106,0.15,2.3496729e-07,2.3475083e-07,2.1907524e-06,1310988,-0.0054576714,0.0047939504,0.027109122,0.4,0.058536272,0.05856317,0.0007812847,0,0.0,0.0,0.0,0.0,0.0,0.0,0.0,1,1,1,0,0,0
71996000,71916000,1310988,-0.001296882,-0.0052825487,-0.00010571707,0.15,2.3475411e-07,2.3458473e-07,2.1953404e-06,1310988,-0.0054576714,0.0047939504,0.028518058,0.4,0.058536272,0.05856317,0.00078124576,0,0.0,0.0,0.0,0.0,0.0,0.0,0.0,1,1,1,0,0,0
72396000,72316000,1310988,-0.0012969144,-0.0052869176,-0.000105385465,0.15,2.3461088e-07,2.3446913e-07,2.1984113e-06,1310988,-0.0054576714,0.0047939504,0.030273478,0.4,0.058536272,0.05856317,0.00078124576,0,0.0,0.0,0.0,0.0,0.0,0.0,0.0,1,1,1,0,0,0
73396000,73316000,1310988,-0.0012972967,-0.005296481,-0.000104656705,0.15,2.3425389e-07,2.3416591e-07,2.206161e-06,1310988,-0.0054576714,0.0047939504,0.030911334,0.4,0.058536272,0.05856317,0.00078126363,0,0.0,0.0,0.0,0.0,0.0,0.0,0.0,1,1,1,0,0,0
74396000,74316000,1310988,-0.001297777,-0.005304267,-0.00010393438,0.15,2.3386175e-07,2.3381129e-07,2.2139966e-06,1310988,-0.0054576714,0.0047939504,0.03262312,0.4,0.058536272,0.05856317,0.00078124576,0,0.0,0.0,0.0,0.0,0.0,0.0,0.0,1,1,1,0,0,0
74796000,74716000,1310988,-0.0012978159,-0.00530694,-0.00010370262,0.15,2.3369518e-07,2.3365503e-07,2.2171505e-06,1310988,-0.0054576714,0.0047939504,0.034353703,0.4,0.058536272,0.05856317,0.00078124576,0,0.0,0.0,0.0,0.0,0.0,0.0,0.0,1,1,1,0,0,0
