timestamp,unallocated_torque[0],unallocated_torque[1],unallocated_torque[2],unallocated_thrust[0],unallocated_thrust[1],unallocated_thrust[2],handled_motor_failure_mask,torque_setpoint_achieved,thrust_setpoint_achieved,actuator_saturation[0],actuator_saturation[1],actuator_saturation[2],actuator_saturation[3],actuator_saturation[4],actuator_saturation[5],actuator_saturation[6],actuator_saturation[7],actuator_saturation[8],actuator_saturation[9],actuator_saturation[10],actuator_saturation[11],actuator_saturation[12],actuator_saturation[13],actuator_saturation[14],actuator_saturation[15]
3428000,0.00033708796,0.0005385029,-8.707112e-05,0.0,0.0,0.0,0,1,1,-2,-2,-2,-2,2,2,2,2,2,2,2,2,2,2,2,2
3436000,0.00074641855,0.001023985,-0.00011424429,0.0,0.0,0.0,0,0,1,-2,-2,-2,-2,2,2,2,2,2,2,2,2,2,2,2,2
3628000,-0.00010719588,-0.0006213038,-0.00031272022,0.0,0.0,7.275958e-12,0,1,1,-2,-2,-2,-2,2,2,2,2,2,2,2,2,2,2,2,2
3828000,0.019362275,0.021977112,0.00013199744,0.0,0.0,5.820766e-10,0,0,1,0,-2,0,-2,2,2,2,2,2,2,2,2,2,2,2,2
4028000,0.020208465,0.023603495,4.904888e-05,0.0,0.0,1.1641532e-10,0,0,1,0,-2,0,-2,2,2,2,2,2,2,2,2,2,2,2,2
4228000,0.01923114,0.02372339,0.0005905212,0.0,0.0,1.1641532e-10,0,0,1,0,-2,0,-2,2,2,2,2,2,2,2,2,2,2,2,2
4428000,0.019489255,0.022330074,0.000305295,0.0,0.0,1.1641532e-10,0,0,1,0,-2,0,-2,2,2,2,2,2,2,2,2,2,2,2,2
4628000,0.018744212,0.021072485,0.00030878047,0.0,0.0,1.1641532e-10,0,0,1,0,-2,0,-2,2,2,2,2,2,2,2,2,2,2,2,2
4828000,0.019034939,0.020912861,-0.0003373683,0.0,0.0,1.1641532e-10,0,0,1,0,-2,0,-2,2,2,2,2,2,2,2,2,2,2,2,2
5028000,0.01973938,0.018918475,0.00088727823,0.0,0.0,1.1641532e-10,0,0,1,0,-2,0,-2,2,2,2,2,2,2,2,2,2,2,2,2
5228000,0.017364714,0.01948799,0.00086291897,0.0,0.0,-2.3283064e-10,0,0,1,0,-2,0,-2,2,2,2,2,2,2,2,2,2,2,2,2
5428000,0.018156882,0.018630784,0.000787992,0.0,0.0,5.820766e-10,0,0,1,0,-2,0,-2,2,2,2,2,2,2,2,2,2,2,2,2
5628000,0.016866863,0.018868446,0.00064972526,0.0,0.0,-2.3283064e-10,0,0,1,0,-2,0,-2,2,2,2,2,2,2,2,2,2,2,2,2
5820000,0.018918274,0.018502107,0.00071472797,0.0,0.0,-2.3283064e-10,0,0,1,0,-2,0,-2,2,2,2,2,2,2,2,2,2,2,2,2
6028000,0.01728833,0.020336933,0.00061356096,0.0,0.0,-2.3283064e-10,0,0,1,0,-2,0,-2,2,2,2,2,2,2,2,2,2,2,2,2
6228000,0.017996354,0.019873703,-1.6526144e-05,0.0,0.0,-2.3283064e-10,0,0,1,0,-2,0,-2,2,2,2,2,2,2,2,2,2,2,2,2
6428000,0.01674408,0.018290695,0.0006958398,0.0,0.0,1.1641532e-10,0,0,1,0,-2,0,-2,2,2,2,2,2,2,2,2,2,2,2,2
6628000,0.017358804,0.018414455,0.00072219933,0.0,0.0,1.1641532e-10,0,0,1,0,-2,0,-2,2,2,2,2,2,2,2,2,2,2,2,2
6828000,0.017895442,0.018467294,-0.00010480541,0.0,0.0,1.1641532e-10,0,0,1,0,-2,0,-2,2,2,2,2,2,2,2,2,2,2,2,2
7028000,0.016820816,0.019137708,0.00021731209,0.0,0.0,1.1641532e-10,0,0,1,0,-2,0,-2,2,2,2,2,2,2,2,2,2,2,2,2
7228000,0.01690129,0.017954012,0.00035679413,0.0,0.0,1.1641532e-10,0,0,1,0,-2,0,-2,2,2,2,2,2,2,2,2,2,2,2,2
7420000,0.017623339,0.018866856,0.00030881978,0.0,0.0,1.1641532e-10,0,0,1,0,-2,0,-2,2,2,2,2,2,2,2,2,2,2,2,2
7628000,0.017169766,0.01829622,0.00031968628,0.0,0.0,5.820766e-10,0,0,1,0,-2,0,-2,2,2,2,2,2,2,2,2,2,2,2,2
7828000,0.017407475,0.019274104,0.0005009017,0.0,0.0,1.1641532e-10,0,0,1,0,-2,0,-2,2,2,2,2,2,2,2,2,2,2,2,2
8028000,0.016912602,0.018339928,0.00031352518,0.0,0.0,1.1641532e-10,0,0,1,0,-2,0,-2,2,2,2,2,2,2,2,2,2,2,2,2
8228000,0.017645972,0.018379765,0.0006642816,0.0,0.0,1.1641532e-10,0,0,1,0,-2,0,-2,2,2,2,2,2,2,2,2,2,2,2,2
8428000,0.01751238,0.018627647,0.00016130529,0.0,0.0,1.1641532e-10,0,0,1,0,-2,0,-2,2,2,2,2,2,2,2,2,2,2,2,2
8620000,0.01802094,0.018791575,0.0006531764,0.0,0.0,1.1641532e-10,0,0,1,0,-2,0,-2,2,2,2,2,2,2,2,2,2,2,2,2
8820000,0.017577333,0.0197047,0.00047548767,0.0,0.0,3.4924597e-10,0,0,1,0,-2,0,-2,2,2,2,2,2,2,2,2,2,2,2,2
9028000,0.017979112,0.017461026,0.0009097201,0.0,0.0,1.1641532e-10,0,0,1,0,-2,0,-2,2,2,2,2,2,2,2,2,2,2,2,2
9228000,0.016872354,0.019353071,0.00017962781,0.0,0.0,-2.3283064e-10,0,0,1,0,-2,0,-2,2,2,2,2,2,2,2,2,2,2,2,2
9428000,0.016275864,0.01988352,0.0004986345,0.0,0.0,1.2805685e-09,0,0,1,0,-2,0,-2,2,2,2,2,2,2,2,2,2,2,2,2
9628000,0.017220294,0.018772963,0.00025604173,0.0,0.0,1.1641532e-10,0,0,1,0,-2,0,-2,2,2,2,2,2,2,2,2,2,2,2,2
9828000,0.018119369,0.017380113,0.0007313847,0.0,0.0,1.1641532e-10,0,0,1,0,-2,0,-2,2,2,2,2,2,2,2,2,2,2,2,2
10020000,0.016375499,0.01894264,0.00048520928,0.0,0.0,1.1641532e-10,0,0,1,0,-2,0,-2,2,2,2,2,2,2,2,2,2,2,2,2
10228000,0.017063292,0.01742387,0.00069784553,0.0,0.0,1.1641532e-10,0,0,1,0,-2,0,-2,2,2,2,2,2,2,2,2,2,2,2,2
10428000,0.016548531,0.018002957,0.0005789596,0.0,0.0,1.1641532e-10,0,0,1,0,-2,0,-2,2,2,2,2,2,2,2,2,2,2,2,2
10628000,0.017041689,0.017857349,0.00015645353,0.0,0.0,1.1641532e-10,0,0,1,0,-2,0,-2,2,2,2,2,2,2,2,2,2,2,2,2
10828000,0.016669855,0.018839356,0.0004869352,0.0,0.0,4.656613e-10,0,0,1,0,-2,0,-2,2,2,2,2,2,2,2,2,2,2,2,2
11028000,0.01655168,0.017204,0.00020425471,0.0,0.0,5.820766e-10,0,0,1,0,-2,0,-2,2,2,2,2,2,2,2,2,2,2,2,2
11228000,0.016932104,0.018567322,0.0001913307,0.0,0.0,5.820766e-10,0,0,1,0,-2,0,-2,2,2,2,2,2,2,2,2,2,2,2,2
11428000,0.016948014,0.017890682,0.00025760126,0.0,0.0,1.1641532e-10,0,0,1,0,-2,0,-2,2,2,2,2,2,2,2,2,2,2,2,2
11628000,0.017066468,0.017854055,-6.306972e-05,0.0,0.0,1.1641532e-10,0,0,1,0,-2,0,-2,2,2,2,2,2,2,2,2,2,2,2,2
11828000,0.017695751,0.019104887,0.00024034227,0.0,0.0,-1.1641532e-10,0,0,1,0,-2,0,-2,2,2,2,2,2,2,2,2,2,2,2,2
12028000,0.016678277,0.018451901,0.0002641744,0.0,0.0,1.1641532e-10,0,0,1,0,-2,0,-2,2,2,2,2,2,2,2,2,2,2,2,2
12220000,0.016170286,0.017583566,0.00047393003,0.0,0.0,1.1641532e-10,0,0,1,0,-2,0,-2,2,2,2,2,2,2,2,2,2,2,2,2
12428000,0.016207503,0.017572146,0.00036348935,0.0,0.0,4.656613e-10,0,0,1,0,-2,0,-2,2,2,2,2,2,2,2,2,2,2,2,2
12628000,0.016457655,0.017546091,0.00031888476,0.0,0.0,3.4924597e-10,0,0,1,0,-2,0,-2,2,2,2,2,2,2,2,2,2,2,2,2
12828000,0.017267507,0.018193195,0.00012366765,0.0,0.0,1.1641532e-10,0,0,1,0,-2,0,-2,2,2,2,2,2,2,2,2,2,2,2,2
13020000,0.01644474,0.016345933,0.00043035037,0.0,0.0,1.1641532e-10,0,0,1,0,-2,0,-2,2,2,2,2,2,2,2,2,2,2,2,2
13220000,0.017786283,0.017632298,-4.541208e-05,0.0,0.0,6.9849193e-10,0,0,1,0,-2,0,-2,2,2,2,2,2,2,2,2,2,2,2,2
13420000,0.016793922,0.017433427,0.0004153418,0.0,0.0,5.820766e-10,0,0,1,0,-2,0,-2,2,2,2,2,2,2,2,2,2,2,2,2
13620000,0.018112864,0.017900279,0.000959918,0.0,0.0,-2.3283064e-10,0,0,1,0,-2,0,-2,2,2,2,2,2,2,2,2,2,2,2,2
13828000,0.016451648,0.017891124,-5.880816e-05,0.0,0.0,3.4924597e-10,0,0,1,0,-2,0,-2,2,2,2,2,2,2,2,2,2,2,2,2
14028000,0.016246988,0.017559813,0.00040942585,0.0,0.0,1.1641532e-10,0,0,1,0,-2,0,-2,2,2,2,2,2,2,2,2,2,2,2,2
14228000,0.016215991,0.016925026,-0.00010165603,0.0,0.0,-3.4924597e-10,0,0,1,0,-2,0,-2,2,2,2,2,2,2,2,2,2,2,2,2
14428000,0.017593589,0.01795893,0.00045491575,0.0,0.0,1.1641532e-10,0,0,1,0,-2,0,-2,2,2,2,2,2,2,2,2,2,2,2,2
14620000,0.016283613,0.016964765,0.00032075078,0.0,0.0,-2.3283064e-10,0,0,1,0,-2,0,-2,2,2,2,2,2,2,2,2,2,2,2,2
14828000,0.015994983,0.017113205,-0.000121988254,0.0,0.0,3.4924597e-10,0,0,1,0,-2,0,-2,2,2,2,2,2,2,2,2,2,2,2,2
15028000,0.015432208,0.016454443,0.00026921678,0.0,0.0,-2.3283064e-10,0,0,1,0,-2,0,-2,2,2,2,2,2,2,2,2,2,2,2,2
15220000,0.016715132,0.016829206,0.0002823522,0.0,0.0,-3.4924597e-10,0,0,1,0,-2,0,-2,2,2,2,2,2,2,2,2,2,2,2,2
15428000,0.015707852,0.017519828,0.00037231142,0.0,0.0,5.820766e-10,0,0,1,0,-2,0,-2,2,2,2,2,2,2,2,2,2,2,2,2
15628000,0.016338868,0.016449597,0.00027409405,0.0,0.0,1.1641532e-10,0,0,1,0,-2,0,-2,2,2,2,2,2,2,2,2,2,2,2,2
15828000,0.016015997,0.015639331,0.00044413473,0.0,0.0,6.9849193e-10,0,0,1,0,-2,0,-2,2,2,2,2,2,2,2,2,2,2,2,2
16020000,0.015882563,0.01564903,-0.00018075062,0.0,0.0,-2.3283064e-10,0,0,1,0,-2,0,-2,2,2,2,2,2,2,2,2,2,2,2,2
16228000,0.01629593,0.015275922,0.00033725868,0.0,0.0,5.820766e-10,0,0,1,0,-2,0,-2,2,2,2,2,2,2,2,2,2,2,2,2
16428000,0.015449208,0.016197462,0.0006335811,0.0,0.0,-2.3283064e-10,0,0,1,0,-2,0,-2,2,2,2,2,2,2,2,2,2,2,2,2
16620000,0.016365152,0.015244009,-4.0458657e-05,0.0,0.0,-2.3283064e-10,0,0,1,0,-2,0,-2,2,2,2,2,2,2,2,2,2,2,2,2
16828000,0.016805014,0.016670067,7.2257026e-05,0.0,0.0,-2.3283064e-10,0,0,1,0,-2,0,-2,2,2,2,2,2,2,2,2,2,2,2,2
17028000,0.017509533,0.01634384,0.00048648258,0.0,0.0,-2.3283064e-10,0,0,1,0,-2,0,-2,2,2,2,2,2,2,2,2,2,2,2,2
17220000,0.01627413,0.015591727,0.00038313877,0.0,0.0,1.1641532e-10,0,0,1,0,-2,0,-2,2,2,2,2,2,2,2,2,2,2,2,2
17428000,0.015472481,0.015543875,0.00022023478,0.0,0.0,-2.3283064e-10,0,0,1,0,-2,0,-2,2,2,2,2,2,2,2,2,2,2,2,2
17628000,0.015856331,0.014676652,0.0007789372,0.0,0.0,1.1641532e-10,0,0,1,0,-2,0,-2,2,2,2,2,2,2,2,2,2,2,2,2
17828000,0.016077317,0.014587987,0.00054540165,0.0,0.0,-2.3283064e-10,0,0,1,0,-2,0,-2,2,2,2,2,2,2,2,2,2,2,2,2
18020000,0.016108397,0.014488073,0.00016049594,0.0,0.0,-2.3283064e-10,0,0,1,0,-2,0,-2,2,2,2,2,2,2,2,2,2,2,2,2
18228000,0.014599246,0.014729516,-6.7978406e-05,0.0,0.0,1.1641532e-10,0,0,1,0,-2,0,-2,2,2,2,2,2,2,2,2,2,2,2,2
18420000,0.014342746,0.015525092,0.00024910583,0.0,0.0,5.820766e-10,0,0,1,0,-2,0,-2,2,2,2,2,2,2,2,2,2,2,2,2
18628000,0.015663035,0.014630028,-0.00020738924,0.0,0.0,1.1641532e-10,0,0,1,0,-2,0,-2,2,2,2,2,2,2,2,2,2,2,2,2
18828000,0.015253429,0.01463694,-6.658904e-05,0.0,0.0,1.1641532e-10,0,0,1,0,-2,0,-2,2,2,2,2,2,2,2,2,2,2,2,2
19028000,0.01550744,0.014020648,0.00011641754,0.0,0.0,-2.3283064e-10,0,0,1,0,-2,0,-2,2,2,2,2,2,2,2,2,2,2,2,2
19228000,0.015502284,0.016002288,-0.00012930707,0.0,0.0,-8.1490725e-10,0,0,1,0,-2,0,-2,2,2,2,2,2,2,2,2,2,2,2,2
19428000,0.014542388,0.014544395,0.0005488997,0.0,0.0,1.1641532e-10,0,0,1,0,-2,0,-2,2,2,2,2,2,2,2,2,2,2,2,2
19628000,-3.7252903e-09,-1.8626451e-09,3.9744918e-10,0.0,0.0,-1.8626451e-09,0,1,1,0,0,0,0,2,2,2,2,2,2,2,2,2,2,2,2
19828000,-3.7252903e-09,1.8626451e-09,-4.2200554e-10,0.0,0.0,0.0,0,1,1,0,0,0,0,2,2,2,2,2,2,2,2,2,2,2,2
20028000,-3.7252903e-09,-1.8626451e-09,2.1245796e-09,0.0,0.0,0.0,0,1,1,0,0,0,0,2,2,2,2,2,2,2,2,2,2,2,2
20220000,-5.5879354e-09,-7.450581e-09,-1.5716068e-09,0.0,0.0,-1.4901161e-08,0,1,1,0,0,0,0,2,2,2,2,2,2,2,2,2,2,2,2
20428000,4.0978193e-08,-1.4901161e-08,-1.990702e-08,0.0,0.0,-1.4901161e-08,0,1,1,0,0,0,0,2,2,2,2,2,2,2,2,2,2,2,2
20628000,1.4901161e-08,0.0,-2.165325e-08,0.0,0.0,0.0,0,1,1,0,0,0,0,2,2,2,2,2,2,2,2,2,2,2,2
20820000,7.450581e-09,1.4901161e-08,1.816079e-08,0.0,0.0,-2.9802322e-08,0,1,1,0,0,0,0,2,2,2,2,2,2,2,2,2,2,2,2
21028000,7.4505806e-08,1.4901161e-08,-3.4924597e-08,0.0,0.0,-2.9802322e-08,0,1,1,0,0,0,0,2,2,2,2,2,2,2,2,2,2,2,2
21220000,1.4901161e-08,0.0,1.0244548e-08,0.0,0.0,0.0,0,1,1,0,0,0,0,2,2,2,2,2,2,2,2,2,2,2,2
21420000,1.4901161e-08,-2.9802322e-08,4.004687e-08,0.0,0.0,-5.9604645e-08,0,1,1,0,0,0,0,2,2,2,2,2,2,2,2,2,2,2,2
21628000,2.9802322e-08,-2.9802322e-08,-2.8871e-08,0.0,0.0,-5.9604645e-08,0,1,1,0,0,0,0,2,2,2,2,2,2,2,2,2,2,2,2
21828000,4.4703484e-08,-1.4901161e-08,-4.284084e-08,0.0,0.0,0.0,0,1,1,0,0,0,0,2,2,2,2,2,2,2,2,2,2,2,2
22028000,1.4901161e-08,1.4901161e-08,-3.7252903e-09,0.0,0.0,-5.9604645e-08,0,1,1,0,0,0,0,2,2,2,2,2,2,2,2,2,2,2,2
22220000,3.7252903e-08,-1.1175871e-08,1.1175871e-08,0.0,0.0,0.0,0,1,1,0,0,0,0,2,2,2,2,2,2,2,2,2,2,2,2
22428000,-2.7008355e-08,8.381903e-09,1.071021e-08,0.0,0.0,-5.9604645e-08,0,1,1,0,0,0,0,2,2,2,2,2,2,2,2,2,2,2,2
22628000,-3.8184226e-08,1.3038516e-08,-5.122274e-09,0.0,0.0,-5.9604645e-08,0,1,1,0,0,0,0,2,2,2,2,2,2,2,2,2,2,2,2
22820000,6.9849193e-10,3.0733645e-08,-1.7229468e-08,0.0,0.0,0.0,0,1,1,0,0,0,0,2,2,2,2,2,2,2,2,2,2,2,2
23028000,-3.7020072e-08,-1.6763806e-08,3.085006e-09,0.0,0.0,-5.9604645e-08,0,1,1,0,0,0,0,2,2,2,2,2,2,2,2,2,2,2,2
23228000,1.0652002e-07,-2.7939677e-08,2.3457687e-08,0.0,0.0,-5.9604645e-08,0,1,1,0,0,0,0,2,2,2,2,2,2,2,2,2,2,2,2
23428000,5.797483e-08,-1.8626451e-09,1.6982085e-08,0.0,0.0,0.0,0,1,1,0,0,0,0,2,2,2,2,2,2,2,2,2,2,2,2
23628000,-6.868504e-08,5.5879354e-09,9.487849e-09,0.0,0.0,-5.9604645e-08,0,1,1,0,0,0,0,2,2,2,2,2,2,2,2,2,2,2,2
23828000,-3.0355295e-08,5.122274e-09,2.7615897e-08,0.0,0.0,-5.9604645e-08,0,1,1,0,0,0,0,2,2,2,2,2,2,2,2,2,2,2,2
24028000,2.6542693e-08,6.519258e-09,2.4068868e-08,0.0,0.0,0.0,0,1,1,0,0,0,0,2,2,2,2,2,2,2,2,2,2,2,2
24220000,-4.656613e-10,-1.0157237e-08,1.1990778e-08,0.0,0.0,0.0,0,1,1,0,0,0,0,2,2,2,2,2,2,2,2,2,2,2,2
24420000,4.1909516e-08,1.7695129e-08,-8.96398e-09,0.0,0.0,-5.9604645e-08,0,1,1,0,0,0,0,2,2,2,2,2,2,2,2,2,2,2,2
24628000,-4.8428774e-08,-7.916242e-09,-1.9499566e-09,0.0,0.0,0.0,0,1,1,0,0,0,0,2,2,2,2,2,2,2,2,2,2,2,2
24828000,-5.5646524e-08,-1.5366822e-08,-1.1466909e-08,0.0,0.0,-5.9604645e-08,0,1,1,0,0,0,0,2,2,2,2,2,2,2,2,2,2,2,2
25028000,-1.3504177e-08,6.9849193e-09,-8.6729415e-09,0.0,0.0,-5.9604645e-08,0,1,1,0,0,0,0,2,2,2,2,2,2,2,2,2,2,2,2
25220000,2.4680048e-08,-1.5832484e-08,2.0954758e-09,0.0,0.0,0.0,0,1,1,0,0,0,0,2,2,2,2,2,2,2,2,2,2,2,2
25420000,-1.4901161e-08,-1.1874363e-08,-1.5163096e-08,0.0,0.0,-5.9604645e-08,0,1,1,0,0,0,0,2,2,2,2,2,2,2,2,2,2,2,2
25628000,0.0,-1.8626451e-09,3.5681296e-08,0.0,0.0,-1.1920929e-07,0,1,1,0,0,0,0,2,2,2,2,2,2,2,2,2,2,2,2
25828000,-2.3283064e-08,-3.678724e-08,-2.4214387e-08,0.0,0.0,-5.9604645e-08,0,1,1,0,0,0,0,2,2,2,2,2,2,2,2,2,2,2,2
26028000,3.9115548e-08,-2.7939677e-08,1.8655555e-08,0.0,0.0,-5.9604645e-08,0,1,1,0,0,0,0,2,2,2,2,2,2,2,2,2,2,2,2
26228000,1.7695129e-08,8.381903e-09,3.4924597e-09,0.0,0.0,0.0,0,1,1,0,0,0,0,2,2,2,2,2,2,2,2,2,2,2,2
26428000,-2.7939677e-08,1.3969839e-08,3.7252903e-09,0.0,0.0,0.0,0,1,1,0,0,0,0,2,2,2,2,2,2,2,2,2,2,2,2
26620000,-8.1025064e-08,-1.0099029e-08,-2.712477e-08,0.0,0.0,-5.9604645e-08,0,1,1,0,0,0,0,2,2,2,2,2,2,2,2,2,2,2,2
26828000,-5.5879354e-08,-1.071021e-08,-1.2456439e-08,0.0,0.0,-5.9604645e-08,0,1,1,0,0,0,0,2,2,2,2,2,2,2,2,2,2,2,2
27028000,7.0314854e-08,3.259629e-09,2.8521754e-09,0.0,0.0,-5.9604645e-08,0,1,1,0,0,0,0,2,2,2,2,2,2,2,2,2,2,2,2
27228000,7.9962774e-08,3.213063e-08,1.7695129e-08,0.0,0.0,-5.9604645e-08,0,1,1,0,0,0,0,2,2,2,2,2,2,2,2,2,2,2,2
27428000,-2.6542693e-08,1.1175871e-08,-6.7520887e-09,0.0,0.0,5.9604645e-08,0,1,1,0,0,0,0,2,2,2,2,2,2,2,2,2,2,2,2
27628000,-3.0733645e-08,4.656613e-10,1.7462298e-09,0.0,0.0,0.0,0,1,1,0,0,0,0,2,2,2,2,2,2,2,2,2,2,2,2
27820000,6.798655e-08,1.7695129e-08,-1.7076673e-08,0.0,0.0,-5.9604645e-08,0,1,1,0,0,0,0,2,2,2,2,2,2,2,2,2,2,2,2
28028000,-4.2375177e-08,-1.4872057e-08,1.8102583e-08,0.0,0.0,0.0,0,1,1,0,0,0,0,2,2,2,2,2,2,2,2,2,2,2,2
28228000,3.3527613e-08,-3.9115548e-08,-2.1362212e-08,0.0,0.0,-1.1920929e-07,0,1,1,0,0,0,0,2,2,2,2,2,2,2,2,2,2,2,2
28428000,-1.9557774e-08,3.3294782e-08,2.2235326e-08,0.0,0.0,-5.9604645e-08,0,1,1,0,0,0,0,2,2,2,2,2,2,2,2,2,2,2,2
28628000,-4.004687e-08,-2.7939677e-08,-7.603376e-09,0.0,0.0,-5.9604645e-08,0,1,1,0,0,0,0,2,2,2,2,2,2,2,2,2,2,2,2
28828000,-5.5879354e-09,-1.21071935e-08,2.3137545e-09,0.0,0.0,0.0,0,1,1,0,0,0,0,2,2,2,2,2,2,2,2,2,2,2,2
29028000,-6.3329935e-08,3.632158e-08,-5.9371814e-09,0.0,0.0,-5.9604645e-08,0,1,1,0,0,0,0,2,2,2,2,2,2,2,2,2,2,2,2
29228000,3.5390258e-08,2.6077032e-08,2.158049e-08,0.0,0.0,0.0,0,1,1,0,0,0,0,2,2,2,2,2,2,2,2,2,2,2,2
29420000,-1.1175871e-08,-2.8871e-08,-1.4406396e-08,0.0,0.0,0.0,0,1,1,0,0,0,0,2,2,2,2,2,2,2,2,2,2,2,2
29620000,-2.3283064e-08,-1.3853423e-08,2.3283064e-09,0.0,0.0,-5.9604645e-08,0,1,1,0,0,0,0,2,2,2,2,2,2,2,2,2,2,2,2
29828000,-1.7695129e-08,-2.8871e-08,1.2576493e-08,0.0,0.0,0.0,0,1,1,0,0,0,0,2,2,2,2,2,2,2,2,2,2,2,2
30028000,-4.656613e-08,-2.7939677e-09,-2.4738256e-09,0.0,0.0,-5.9604645e-08,0,1,1,0,0,0,0,2,2,2,2,2,2,2,2,2,2,2,2
30220000,-5.5879354e-08,-3.7252903e-09,3.6379788e-10,0.0,0.0,-5.9604645e-08,0,1,1,0,0,0,0,2,2,2,2,2,2,2,2,2,2,2,2
30428000,-4.004687e-08,2.3406756e-08,-2.3210305e-08,0.0,0.0,-5.9604645e-08,0,1,1,0,0,0,0,2,2,2,2,2,2,2,2,2,2,2,2
30628000,-4.5169145e-08,-2.3283064e-08,-1.2922101e-08,0.0,0.0,-5.9604645e-08,0,1,1,0,0,0,0,2,2,2,2,2,2,2,2,2,2,2,2
30828000,-3.7252903e-09,-2.1769665e-08,1.2398232e-08,0.0,0.0,-5.9604645e-08,0,1,1,0,0,0,0,2,2,2,2,2,2,2,2,2,2,2,2
31028000,-7.450581e-09,9.313226e-09,4.656613e-10,0.0,0.0,-5.9604645e-08,0,1,1,0,0,0,0,2,2,2,2,2,2,2,2,2,2,2,2
31228000,-1.7229468e-08,-3.1432137e-09,5.1004463e-08,0.0,0.0,-5.9604645e-08,0,1,1,0,0,0,0,2,2,2,2,2,2,2,2,2,2,2,2
31428000,-2.7008355e-08,0.0,3.0428055e-08,0.0,0.0,-5.9604645e-08,0,1,1,0,0,0,0,2,2,2,2,2,2,2,2,2,2,2,2
31628000,-4.4237822e-08,1.3504177e-08,1.8044375e-09,0.0,0.0,0.0,0,1,1,0,0,0,0,2,2,2,2,2,2,2,2,2,2,2,2
31828000,-3.5390258e-08,-1.071021e-08,6.9849193e-09,0.0,0.0,-5.9604645e-08,0,1,1,0,0,0,0,2,2,2,2,2,2,2,2,2,2,2,2
32028000,-3.4924597e-08,2.3283064e-09,-1.6298145e-09,0.0,0.0,-5.9604645e-08,0,1,1,0,0,0,0,2,2,2,2,2,2,2,2,2,2,2,2
32228000,-1.6356353e-08,1.071021e-08,3.085006e-09,0.0,0.0,-5.9604645e-08,0,1,1,0,0,0,0,2,2,2,2,2,2,2,2,2,2,2,2
32428000,1.1269003e-07,3.1723175e-09,-9.138603e-09,0.0,0.0,0.0,0,1,1,0,0,0,0,2,2,2,2,2,2,2,2,2,2,2,2
32628000,-1.4610123e-08,3.0267984e-08,-3.760215e-08,0.0,0.0,-5.9604645e-08,0,1,1,0,0,0,0,2,2,2,2,2,2,2,2,2,2,2,2
32828000,3.4924597e-08,-7.799827e-09,-9.888026e-09,0.0,0.0,0.0,0,1,1,0,0,0,0,2,2,2,2,2,2,2,2,2,2,2,2
33020000,-4.6682544e-08,-1.4202669e-08,2.0227162e-08,0.0,0.0,0.0,0,1,1,0,0,0,0,2,2,2,2,2,2,2,2,2,2,2,2
33228000,-4.1909516e-09,-3.1897798e-08,1.4930265e-08,0.0,0.0,-1.1920929e-07,0,1,1,0,0,0,0,2,2,2,2,2,2,2,2,2,2,2,2
33420000,5.2939868e-08,-6.2864274e-09,-2.4505425e-08,0.0,0.0,0.0,0,1,1,0,0,0,0,2,2,2,2,2,2,2,2,2,2,2,2
33628000,-2.0954758e-08,-9.313226e-09,1.6443664e-09,0.0,0.0,-5.9604645e-08,0,1,1,0,0,0,0,2,2,2,2,2,2,2,2,2,2,2,2
33820000,1.169974e-08,2.8871e-08,4.3961336e-08,0.0,0.0,0.0,0,1,1,0,0,0,0,2,2,2,2,2,2,2,2,2,2,2,2
34028000,5.5180863e-08,3.4924597e-08,2.0954758e-09,0.0,0.0,0.0,0,1,1,0,0,0,0,2,2,2,2,2,2,2,2,2,2,2,2
34220000,1.8568244e-08,2.514571e-08,-3.5506673e-09,0.0,0.0,-5.9604645e-08,0,1,1,0,0,0,0,2,2,2,2,2,2,2,2,2,2,2,2
34428000,-5.3900294e-08,4.5867637e-08,2.6033376e-08,0.0,0.0,-5.9604645e-08,0,1,1,0,0,0,0,2,2,2,2,2,2,2,2,2,2,2,2
34628000,5.4817065e-08,3.0733645e-08,-3.434252e-09,0.0,0.0,0.0,0,1,1,0,0,0,0,2,2,2,2,2,2,2,2,2,2,2,2
34828000,5.9138983e-08,-1.6298145e-08,2.8521754e-09,0.0,0.0,-5.9604645e-08,0,1,1,0,0,0,0,2,2,2,2,2,2,2,2,2,2,2,2
35028000,3.0442607e-08,-2.4680048e-08,1.8218998e-08,0.0,0.0,-5.9604645e-08,0,1,1,0,0,0,0,2,2,2,2,2,2,2,2,2,2,2,2
35228000,-8.381903e-09,-6.519258e-09,-3.198511e-08,0.0,0.0,-5.9604645e-08,0,1,1,0,0,0,0,2,2,2,2,2,2,2,2,2,2,2,2
35428000,1.1641532e-10,3.632158e-08,7.072231e-09,0.0,0.0,0.0,0,1,1,0,0,0,0,2,2,2,2,2,2,2,2,2,2,2,2
35628000,7.962808e-08,6.519258e-09,2.1827873e-08,0.0,0.0,-5.9604645e-08,0,1,1,0,0,0,0,2,2,2,2,2,2,2,2,2,2,2,2
35828000,3.3760443e-09,-5.355105e-09,-7.894414e-09,0.0,0.0,-5.9604645e-08,0,1,1,0,0,0,0,2,2,2,2,2,2,2,2,2,2,2,2
36020000,-1.2587407e-08,-2.7008355e-08,3.085006e-09,0.0,0.0,-5.9604645e-08,0,1,1,0,0,0,0,2,2,2,2,2,2,2,2,2,2,2,2
36228000,-1.9266736e-08,2.6077032e-08,-1.1903467e-08,0.0,0.0,-5.9604645e-08,0,1,1,0,0,0,0,2,2,2,2,2,2,2,2,2,2,2,2
36420000,9.0221874e-10,2.9336661e-08,1.5264959e-08,0.0,0.0,0.0,0,1,1,0,0,0,0,2,2,2,2,2,2,2,2,2,2,2,2
36628000,-2.7241185e-08,2.2817403e-08,1.1619704e-08,0.0,0.0,0.0,0,1,1,0,0,0,0,2,2,2,2,2,2,2,2,2,2,2,2
36828000,2.8827344e-08,3.0267984e-09,-8.818461e-09,0.0,0.0,0.0,0,1,1,0,0,0,0,2,2,2,2,2,2,2,2,2,2,2,2
37020000,1.8517312e-08,-1.1175871e-08,1.4551915e-09,0.0,0.0,-5.9604645e-08,0,1,1,0,0,0,0,2,2,2,2,2,2,2,2,2,2,2,2
37228000,5.2241376e-08,-3.958121e-08,-9.313226e-09,0.0,0.0,0.0,0,1,1,0,0,0,0,2,2,2,2,2,2,2,2,2,2,2,2
37428000,-9.313226e-09,2.2584572e-08,4.0599843e-09,0.0,0.0,0.0,0,1,1,0,0,0,0,2,2,2,2,2,2,2,2,2,2,2,2
37628000,3.480818e-08,-4.1909516e-09,3.288733e-08,0.0,0.0,0.0,0,1,1,0,0,0,0,2,2,2,2,2,2,2,2,2,2,2,2
37820000,7.9744495e-09,-1.1641532e-08,1.542503e-08,0.0,0.0,-5.9604645e-08,0,1,1,0,0,0,0,2,2,2,2,2,2,2,2,2,2,2,2
38028000,-4.7002686e-09,-2.0023435e-08,2.7401256e-08,0.0,0.0,0.0,0,1,1,0,0,0,0,2,2,2,2,2,2,2,2,2,2,2,2
38228000,5.2008545e-08,1.3969839e-09,-1.5608748e-08,0.0,0.0,-5.9604645e-08,0,1,1,0,0,0,0,2,2,2,2,2,2,2,2,2,2,2,2
38428000,3.5215635e-09,-1.7695129e-08,1.2892997e-08,0.0,0.0,0.0,0,1,1,0,0,0,0,2,2,2,2,2,2,2,2,2,2,2,2
38628000,2.9598596e-08,3.562309e-08,4.132744e-09,0.0,0.0,0.0,0,1,1,0,0,0,0,2,2,2,2,2,2,2,2,2,2,2,2
38828000,-2.5844201e-08,-1.7229468e-08,2.4782679e-08,0.0,0.0,-5.9604645e-08,0,1,1,0,0,0,0,2,2,2,2,2,2,2,2,2,2,2,2
39020000,1.1961674e-08,1.2572855e-08,-4.438334e-09,0.0,0.0,-5.9604645e-08,0,1,1,0,0,0,0,2,2,2,2,2,2,2,2,2,2,2,2
39228000,3.7020072e-08,-7.0314854e-08,-2.3857865e-08,0.0,0.0,-5.9604645e-08,0,1,1,0,0,0,0,2,2,2,2,2,2,2,2,2,2,2,2
39420000,9.080395e-09,-3.306195e-08,1.4260877e-08,0.0,0.0,-5.9604645e-08,0,1,1,0,0,0,0,2,2,2,2,2,2,2,2,2,2,2,2
39628000,-3.306195e-08,-3.4924597e-08,-2.0692823e-08,0.0,0.0,0.0,0,1,1,0,0,0,0,2,2,2,2,2,2,2,2,2,2,2,2
39828000,-3.760215e-08,2.3283064e-09,-3.976311e-09,0.0,0.0,-5.9604645e-08,0,1,1,0,0,0,0,2,2,2,2,2,2,2,2,2,2,2,2
40028000,2.0198058e-08,3.7252903e-08,-5.9517333e-09,0.0,0.0,-5.9604645e-08,0,1,1,0,0,0,0,2,2,2,2,2,2,2,2,2,2,2,2
40228000,3.8417056e-09,-5.820766e-09,-2.3603207e-08,0.0,0.0,-5.9604645e-08,0,1,1,0,0,0,0,2,2,2,2,2,2,2,2,2,2,2,2
40420000,1.0061194e-07,-2.4680048e-08,-6.199116e-09,0.0,0.0,-5.9604645e-08,0,1,1,0,0,0,0,2,2,2,2,2,2,2,2,2,2,2,2
40628000,-1.4726538e-08,-3.0733645e-08,-7.581548e-09,0.0,0.0,0.0,0,1,1,0,0,0,0,2,2,2,2,2,2,2,2,2,2,2,2
40828000,-4.6915375e-08,-1.9092113e-08,-3.434252e-09,0.0,0.0,0.0,0,1,1,0,0,0,0,2,2,2,2,2,2,2,2,2,2,2,2
41028000,3.2101525e-08,-1.3271347e-08,-3.7893187e-08,0.0,0.0,-5.9604645e-08,0,1,1,0,0,0,0,2,2,2,2,2,2,2,2,2,2,2,2
41220000,-5.896436e-08,6.519258e-09,-1.6632839e-08,0.0,0.0,0.0,0,1,1,0,0,0,0,2,2,2,2,2,2,2,2,2,2,2,2
41420000,-4.976755e-08,-2.0954758e-09,-1.36788e-08,0.0,0.0,-5.9604645e-08,0,1,1,0,0,0,0,2,2,2,2,2,2,2,2,2,2,2,2
41628000,-6.047776e-08,-9.313226e-10,3.4051482e-09,0.0,0.0,0.0,0,1,1,0,0,0,0,2,2,2,2,2,2,2,2,2,2,2,2
41820000,-1.2747478e-08,-4.4703484e-08,9.407813e-09,0.0,0.0,0.0,0,1,1,0,0,0,0,2,2,2,2,2,2,2,2,2,2,2,2
42028000,-3.486639e-08,1.0244548e-08,-1.1888915e-08,0.0,0.0,-5.9604645e-08,0,1,1,0,0,0,0,2,2,2,2,2,2,2,2,2,2,2,2
42228000,1.1756583e-08,-2.9569492e-08,-2.73576e-08,0.0,0.0,-5.9604645e-08,0,1,1,0,0,0,0,2,2,2,2,2,2,2,2,2,2,2,2
42428000,-9.610085e-08,-1.7229468e-08,3.8853614e-09,0.0,0.0,-5.9604645e-08,0,1,1,0,0,0,0,2,2,2,2,2,2,2,2,2,2,2,2
42628000,-1.6356353e-08,-6.0535967e-09,-1.5548721e-08,0.0,0.0,-5.9604645e-08,0,1,1,0,0,0,0,2,2,2,2,2,2,2,2,2,2,2,2
42820000,1.27911335e-08,3.7252903e-09,2.0459993e-08,0.0,0.0,-5.9604645e-08,0,1,1,0,0,0,0,2,2,2,2,2,2,2,2,2,2,2,2
43020000,-6.9034286e-08,1.6996637e-08,3.1111995e-08,0.0,0.0,-1.1920929e-07,0,1,1,0,0,0,0,2,2,2,2,2,2,2,2,2,2,2,2
43228000,3.7020072e-08,-2.3283064e-09,-1.1903467e-08,0.0,0.0,0.0,0,1,1,0,0,0,0,2,2,2,2,2,2,2,2,2,2,2,2
43428000,1.6822014e-08,-7.450581e-09,-1.8335413e-08,0.0,0.0,0.0,0,1,1,0,0,0,0,2,2,2,2,2,2,2,2,2,2,2,2
43628000,-3.4924597e-09,-3.259629e-08,1.8568244e-08,0.0,0.0,-5.9604645e-08,0,1,1,0,0,0,0,2,2,2,2,2,2,2,2,2,2,2,2
43828000,-6.722985e-09,9.778887e-09,-1.0011718e-08,0.0,0.0,0.0,0,1,1,0,0,0,0,2,2,2,2,2,2,2,2,2,2,2,2
44020000,2.7634087e-08,9.313226e-09,-1.7997081e-08,0.0,0.0,-5.9604645e-08,0,1,1,0,0,0,0,2,2,2,2,2,2,2,2,2,2,2,2
44228000,2.4883775e-08,-3.7020072e-08,-2.401066e-09,0.0,0.0,-5.9604645e-08,0,1,1,0,0,0,0,2,2,2,2,2,2,2,2,2,2,2,2
44428000,4.9476512e-08,1.1175871e-08,2.6775524e-09,0.0,0.0,-5.9604645e-08,0,1,1,0,0,0,0,2,2,2,2,2,2,2,2,2,2,2,2
44628000,1.7389539e-09,-1.44355e-08,1.1692464e-08,0.0,0.0,-5.9604645e-08,0,1,1,0,0,0,0,2,2,2,2,2,2,2,2,2,2,2,2
44828000,1.0244548e-08,1.7229468e-08,-1.8626451e-09,0.0,0.0,-5.9604645e-08,0,1,1,0,0,0,0,2,2,2,2,2,2,2,2,2,2,2,2
45028000,-2.0954758e-08,-3.213063e-08,1.9499566e-08,0.0,0.0,0.0,0,1,1,0,0,0,0,2,2,2,2,2,2,2,2,2,2,2,2
45228000,-1.9615982e-08,-1.4901161e-08,-6.4392225e-09,0.0,0.0,0.0,0,1,1,0,0,0,0,2,2,2,2,2,2,2,2,2,2,2,2
45428000,2.8376235e-08,-3.1199306e-08,1.6087142e-08,0.0,0.0,-5.9604645e-08,0,1,1,0,0,0,0,2,2,2,2,2,2,2,2,2,2,2,2
45628000,-1.1568773e-09,-4.1909516e-09,-2.12749e-08,0.0,0.0,0.0,0,1,1,0,0,0,0,2,2,2,2,2,2,2,2,2,2,2,2
45820000,-6.0361344e-08,-2.0489097e-08,1.891749e-08,0.0,0.0,0.0,0,1,1,0,0,0,0,2,2,2,2,2,2,2,2,2,2,2,2
46028000,-8.934876e-09,-3.0733645e-08,-1.0521035e-08,0.0,0.0,0.0,0,1,1,0,0,0,0,2,2,2,2,2,2,2,2,2,2,2,2
46228000,-4.6769856e-08,-1.5832484e-08,1.3096724e-09,0.0,0.0,-5.9604645e-08,0,1,1,0,0,0,0,2,2,2,2,2,2,2,2,2,2,2,2
46428000,-5.812035e-08,-1.6298145e-08,-1.9121217e-08,0.0,0.0,-5.9604645e-08,0,1,1,0,0,0,0,2,2,2,2,2,2,2,2,2,2,2,2
46620000,5.820766e-09,7.450581e-09,-2.0794687e-08,0.0,0.0,-5.9604645e-08,0,1,1,0,0,0,0,2,2,2,2,2,2,2,2,2,2,2,2
46828000,-1.7309503e-08,1.3969839e-08,-3.106834e-08,0.0,0.0,-5.9604645e-08,0,1,1,0,0,0,0,2,2,2,2,2,2,2,2,2,2,2,2
47028000,-3.6146957e-08,-1.0477379e-08,3.1504896e-08,0.0,0.0,-5.9604645e-08,0,1,1,0,0,0,0,2,2,2,2,2,2,2,2,2,2,2,2
47228000,1.0244548e-08,-1.8859282e-08,-5.9662852e-09,0.0,0.0,0.0,0,1,1,0,0,0,0,2,2,2,2,2,2,2,2,2,2,2,2
47428000,-4.3422915e-08,1.3504177e-08,-1.3969839e-09,0.0,0.0,0.0,0,1,1,0,0,0,0,2,2,2,2,2,2,2,2,2,2,2,2
47628000,-3.3003744e-08,2.2817403e-08,-1.1990778e-08,0.0,0.0,-5.9604645e-08,0,1,1,0,0,0,0,2,2,2,2,2,2,2,2,2,2,2,2
47828000,3.9712177e-08,-4.2142347e-08,1.4828402e-08,0.0,0.0,-1.1920929e-07,0,1,1,0,0,0,0,2,2,2,2,2,2,2,2,2,2,2,2
48028000,6.129267e-08,3.4924597e-09,1.9921572e-08,0.0,0.0,-5.9604645e-08,0,1,1,0,0,0,0,2,2,2,2,2,2,2,2,2,2,2,2
48228000,-3.9464794e-08,-7.916242e-09,-1.0920303e-08,0.0,0.0,0.0,0,1,1,0,0,0,0,2,2,2,2,2,2,2,2,2,2,2,2
48428000,1.0069925e-08,-2.6775524e-08,1.4551915e-09,0.0,0.0,0.0,0,1,1,0,0,0,0,2,2,2,2,2,2,2,2,2,2,2,2
48620000,-9.0309186e-08,-1.1641532e-09,2.9162038e-08,0.0,0.0,-5.9604645e-08,0,1,1,0,0,0,0,2,2,2,2,2,2,2,2,2,2,2,2
48820000,2.5087502e-08,2.7939677e-09,-1.8335413e-08,0.0,0.0,-5.9604645e-08,0,1,1,0,0,0,0,2,2,2,2,2,2,2,2,2,2,2,2
49028000,2.2148015e-08,-1.2572855e-08,-2.0372681e-09,0.0,0.0,0.0,0,1,1,0,0,0,0,2,2,2,2,2,2,2,2,2,2,2,2
49228000,-1.0477379e-08,-2.7474016e-08,2.7641363e-08,0.0,0.0,-5.9604645e-08,0,1,1,0,0,0,0,2,2,2,2,2,2,2,2,2,2,2,2
49420000,1.5774276e-08,7.450581e-09,3.3232936e-08,0.0,0.0,-5.9604645e-08,0,1,1,0,0,0,0,2,2,2,2,2,2,2,2,2,2,2,2
49628000,3.259629e-08,3.1199306e-08,1.7986167e-08,0.0,0.0,0.0,0,1,1,0,0,0,0,2,2,2,2,2,2,2,2,2,2,2,2
49828000,6.0128514e-08,-3.213063e-08,-9.640644e-10,0.0,0.0,-5.9604645e-08,0,1,1,0,0,0,0,2,2,2,2,2,2,2,2,2,2,2,2
50028000,4.656613e-08,-8.381903e-09,1.3533281e-08,0.0,0.0,-5.9604645e-08,0,1,1,0,0,0,0,2,2,2,2,2,2,2,2,2,2,2,2
50220000,6.449409e-08,6.9849193e-10,4.831236e-09,0.0,0.0,0.0,0,1,1,0,0,0,0,2,2,2,2,2,2,2,2,2,2,2,2
50428000,-2.0023435e-08,2.188608e-08,9.800715e-09,0.0,0.0,0.0,0,1,1,0,0,0,0,2,2,2,2,2,2,2,2,2,2,2,2
50628000,-3.3760443e-09,-2.0489097e-08,-4.057074e-08,0.0,0.0,-5.9604645e-08,0,1,1,0,0,0,0,2,2,2,2,2,2,2,2,2,2,2,2
50820000,4.656613e-08,3.5273843e-08,5.6243152e-09,0.0,0.0,0.0,0,1,1,0,0,0,0,2,2,2,2,2,2,2,2,2,2,2,2
51028000,1.0477379e-09,-1.071021e-08,1.1466909e-08,0.0,0.0,0.0,0,1,1,0,0,0,0,2,2,2,2,2,2,2,2,2,2,2,2
51228000,-4.5634806e-08,-1.3096724e-08,9.255018e-09,0.0,0.0,0.0,0,1,1,0,0,0,0,2,2,2,2,2,2,2,2,2,2,2,2
51428000,-5.9604645e-08,4.284084e-08,3.853347e-08,0.0,0.0,-5.9604645e-08,0,1,1,0,0,0,0,2,2,2,2,2,2,2,2,2,2,2,2
51620000,-3.562309e-08,1.1641532e-09,3.5797711e-09,0.0,0.0,-1.1920929e-07,0,1,1,0,0,0,0,2,2,2,2,2,2,2,2,2,2,2,2
51828000,-2.7939677e-08,3.5390258e-08,-3.434252e-09,0.0,0.0,0.0,0,1,1,0,0,0,0,2,2,2,2,2,2,2,2,2,2,2,2
52028000,1.7229468e-08,1.1175871e-08,-5.675247e-09,0.0,0.0,-5.9604645e-08,0,1,1,0,0,0,0,2,2,2,2,2,2,2,2,2,2,2,2
52228000,1.14087015e-08,-2.8871e-08,-3.1432137e-09,0.0,0.0,-5.9604645e-08,0,1,1,0,0,0,0,2,2,2,2,2,2,2,2,2,2,2,2
52428000,4.1909516e-08,1.2223609e-08,-9.371433e-09,0.0,0.0,-5.9604645e-08,0,1,1,0,0,0,0,2,2,2,2,2,2,2,2,2,2,2,2
52620000,-7.287599e-08,1.816079e-08,-1.8044375e-08,0.0,0.0,0.0,0,1,1,0,0,0,0,2,2,2,2,2,2,2,2,2,2,2,2
52820000,1.5133992e-09,-2.3283064e-10,-1.3184035e-08,0.0,0.0,-5.9604645e-08,0,1,1,0,0,0,0,2,2,2,2,2,2,2,2,2,2,2,2
53028000,4.4703484e-08,1.6763806e-08,2.8667273e-09,0.0,0.0,-5.9604645e-08,0,1,1,0,0,0,0,2,2,2,2,2,2,2,2,2,2,2,2
53228000,-4.2375177e-08,1.9324943e-08,-2.0132575e-08,0.0,0.0,0.0,0,1,1,0,0,0,0,2,2,2,2,2,2,2,2,2,2,2,2
53428000,-1.14087015e-08,8.614734e-09,-8.920324e-09,0.0,0.0,0.0,0,1,1,0,0,0,0,2,2,2,2,2,2,2,2,2,2,2,2
53628000,-7.194467e-08,-2.3283064e-09,-9.429641e-09,0.0,0.0,0.0,0,1,1,0,0,0,0,2,2,2,2,2,2,2,2,2,2,2,2
53820000,-1.1420343e-07,3.5506673e-08,-3.2159733e-09,0.0,0.0,-5.9604645e-08,0,1,1,0,0,0,0,2,2,2,2,2,2,2,2,2,2,2,2
54028000,3.4924597e-08,-3.1897798e-08,-2.0372681e-09,0.0,0.0,-5.9604645e-08,0,1,1,0,0,0,0,2,2,2,2,2,2,2,2,2,2,2,2
54228000,-1.5366822e-08,-2.188608e-08,-1.6822014e-08,0.0,0.0,0.0,0,1,1,0,0,0,0,2,2,2,2,2,2,2,2,2,2,2,2
54428000,5.005859e-09,-2.8871e-08,2.2060703e-08,0.0,0.0,-5.9604645e-08,0,1,1,0,0,0,0,2,2,2,2,2,2,2,2,2,2,2,2
54628000,3.1664968e-08,-2.2817403e-08,6.9558155e-09,0.0,0.0,-5.9604645e-08,0,1,1,0,0,0,0,2,2,2,2,2,2,2,2,2,2,2,2
54828000,-2.7474016e-08,4.656613e-09,5.4096745e-09,0.0,0.0,-5.9604645e-08,0,1,1,0,0,0,0,2,2,2,2,2,2,2,2,2,2,2,2
55028000,-5.820766e-08,1.1990778e-08,-1.23122845e-08,0.0,0.0,0.0,0,1,1,0,0,0,0,2,2,2,2,2,2,2,2,2,2,2,2
55228000,-2.0954758e-08,-1.8626451e-08,-5.8906153e-08,0.0,0.0,0.0,0,1,1,0,0,0,0,2,2,2,2,2,2,2,2,2,2,2,2
55428000,8.381903e-09,-2.561137e-08,-3.8417056e-09,0.0,0.0,0.0,0,1,1,0,0,0,0,2,2,2,2,2,2,2,2,2,2,2,2
55628000,3.585592e-08,1.3969839e-08,-8.345523e-09,0.0,0.0,0.0,0,1,1,0,0,0,0,2,2,2,2,2,2,2,2,2,2,2,2
55828000,-2.0489097e-08,1.14087015e-08,-1.4144462e-08,0.0,0.0,-5.9604645e-08,0,1,1,0,0,0,0,2,2,2,2,2,2,2,2,2,2,2,2
56028000,-5.2154064e-08,-1.3969839e-08,-2.3384928e-08,0.0,0.0,0.0,0,1,1,0,0,0,0,2,2,2,2,2,2,2,2,2,2,2,2
56228000,4.656613e-09,-1.6530976e-08,-1.603621e-08,0.0,0.0,-1.1920929e-07,0,1,1,0,0,0,0,2,2,2,2,2,2,2,2,2,2,2,2
56428000,8.381903e-09,-3.5390258e-08,1.0622898e-08,0.0,0.0,0.0,0,1,1,0,0,0,0,2,2,2,2,2,2,2,2,2,2,2,2
56620000,-6.519258e-09,3.2305252e-09,5.296897e-09,0.0,0.0,-5.9604645e-08,0,1,1,0,0,0,0,2,2,2,2,2,2,2,2,2,2,2,2
56820000,-9.313226e-09,-2.7008355e-08,-3.0064257e-08,0.0,0.0,-5.9604645e-08,0,1,1,0,0,0,0,2,2,2,2,2,2,2,2,2,2,2,2
57028000,-4.0512532e-08,-1.0244548e-08,-1.1874363e-08,0.0,0.0,0.0,0,1,1,0,0,0,0,2,2,2,2,2,2,2,2,2,2,2,2
57228000,1.3038516e-08,-9.313226e-09,2.2613676e-08,0.0,0.0,-5.9604645e-08,0,1,1,0,0,0,0,2,2,2,2,2,2,2,2,2,2,2,2
57420000,-3.632158e-08,1.816079e-08,7.916242e-09,0.0,0.0,-5.9604645e-08,0,1,1,0,0,0,0,2,2,2,2,2,2,2,2,2,2,2,2
57628000,5.5879354e-09,-1.8626451e-09,2.3501343e-09,0.0,0.0,0.0,0,1,1,0,0,0,0,2,2,2,2,2,2,2,2,2,2,2,2
57820000,-1.1641532e-08,3.259629e-09,-1.3533281e-08,0.0,0.0,-5.9604645e-08,0,1,1,0,0,0,0,2,2,2,2,2,2,2,2,2,2,2,2
58028000,-7.450581e-09,-2.8871e-08,1.8553692e-09,0.0,0.0,0.0,0,1,1,0,0,0,0,2,2,2,2,2,2,2,2,2,2,2,2
58228000,-1.3504177e-08,-1.46683306e-08,1.3969839e-09,0.0,0.0,-5.9604645e-08,0,1,1,0,0,0,0,2,2,2,2,2,2,2,2,2,2,2,2
58420000,6.542541e-08,2.8405339e-08,-8.0035534e-10,0.0,0.0,-5.9604645e-08,0,1,1,0,0,0,0,2,2,2,2,2,2,2,2,2,2,2,2
58620000,-1.44355e-08,-2.4214387e-08,-2.8521754e-09,0.0,0.0,-5.9604645e-08,0,1,1,0,0,0,0,2,2,2,2,2,2,2,2,2,2,2,2
58828000,2.0256266e-08,1.9092113e-08,-2.4650944e-08,0.0,0.0,-5.9604645e-08,0,1,1,0,0,0,0,2,2,2,2,2,2,2,2,2,2,2,2
59028000,-9.383075e-08,-5.8673322e-08,7.858034e-09,0.0,0.0,0.0,0,1,1,0,0,0,0,2,2,2,2,2,2,2,2,2,2,2,2
59228000,8.166535e-08,-2.9802322e-08,1.740409e-08,0.0,0.0,0.0,0,1,1,0,0,0,0,2,2,2,2,2,2,2,2,2,2,2,2
59428000,-3.0500814e-08,-1.21071935e-08,4.8894435e-09,0.0,0.0,-5.9604645e-08,0,1,1,0,0,0,0,2,2,2,2,2,2,2,2,2,2,2,2
59628000,4.2608008e-08,-1.17579475e-08,1.14232535e-08,0.0,0.0,0.0,0,1,1,0,0,0,0,2,2,2,2,2,2,2,2,2,2,2,2
59828000,-1.3969839e-09,1.8626451e-09,-5.2095857e-09,0.0,0.0,-5.9604645e-08,0,1,1,0,0,0,0,2,2,2,2,2,2,2,2,2,2,2,2
60028000,4.8428774e-08,-2.142042e-08,2.2933818e-08,0.0,0.0,-5.9604645e-08,0,1,1,0,0,0,0,2,2,2,2,2,2,2,2,2,2,2,2
60228000,-1.8626451e-08,2.9802322e-08,-2.4272595e-08,0.0,0.0,-5.9604645e-08,0,1,1,0,0,0,0,2,2,2,2,2,2,2,2,2,2,2,2
60428000,4.004687e-08,6.0535967e-09,1.3533281e-08,0.0,0.0,-5.9604645e-08,0,1,1,0,0,0,0,2,2,2,2,2,2,2,2,2,2,2,2
60628000,-2.142042e-08,-9.313226e-10,-4.9330993e-09,0.0,0.0,-5.9604645e-08,0,1,1,0,0,0,0,2,2,2,2,2,2,2,2,2,2,2,2
60828000,-1.3969839e-08,-1.46683306e-08,1.1605152e-08,0.0,0.0,-5.9604645e-08,0,1,1,0,0,0,0,2,2,2,2,2,2,2,2,2,2,2,2
61028000,6.6589564e-08,1.8626451e-09,1.0652002e-08,0.0,0.0,-5.9604645e-08,0,1,1,0,0,0,0,2,2,2,2,2,2,2,2,2,2,2,2
61228000,-4.1676685e-08,2.5844201e-08,9.051291e-09,0.0,0.0,-5.9604645e-08,0,1,1,0,0,0,0,2,2,2,2,2,2,2,2,2,2,2,2
61428000,4.1443855e-08,-1.9092113e-08,1.99434e-08,0.0,0.0,-5.9604645e-08,0,1,1,0,0,0,0,2,2,2,2,2,2,2,2,2,2,2,2
61628000,1.0244548e-08,-3.0070623e-08,2.2118911e-09,0.0,0.0,-5.9604645e-08,0,1,1,0,0,0,0,2,2,2,2,2,2,2,2,2,2,2,2
61828000,-3.0267984e-08,3.4924597e-08,-2.4738256e-08,0.0,0.0,-5.9604645e-08,0,1,1,0,0,0,0,2,2,2,2,2,2,2,2,2,2,2,2
62028000,-4.307367e-08,2.7474016e-08,-1.8218998e-08,0.0,0.0,0.0,0,1,1,0,0,0,0,2,2,2,2,2,2,2,2,2,2,2,2
62228000,-9.895302e-09,1.5366822e-08,6.5774657e-09,0.0,0.0,0.0,0,1,1,0,0,0,0,2,2,2,2,2,2,2,2,2,2,2,2
62420000,4.307367e-09,-1.3387762e-08,1.1874363e-08,0.0,0.0,-5.9604645e-08,0,1,1,0,0,0,0,2,2,2,2,2,2,2,2,2,2,2,2
62628000,2.8172508e-08,-2.9569492e-08,-5.1688403e-08,0.0,0.0,0.0,0,1,1,0,0,0,0,2,2,2,2,2,2,2,2,2,2,2,2
62828000,3.1199306e-08,1.33004505e-08,-6.7448127e-09,0.0,0.0,-5.9604645e-08,0,1,1,0,0,0,0,2,2,2,2,2,2,2,2,2,2,2,2
63028000,-1.0593794e-08,-1.21071935e-08,-2.424349e-08,0.0,0.0,-5.9604645e-08,0,1,1,0,0,0,0,2,2,2,2,2,2,2,2,2,2,2,2
63228000,-8.195639e-08,8.96398e-09,1.4551915e-11,0.0,0.0,0.0,0,1,1,0,0,0,0,2,2,2,2,2,2,2,2,2,2,2,2
63428000,-2.3748726e-08,5.5879354e-09,-1.679291e-08,0.0,0.0,-5.9604645e-08,0,1,1,0,0,0,0,2,2,2,2,2,2,2,2,2,2,2,2
63620000,-5.005859e-09,1.8626451e-09,7.4214768e-09,0.0,0.0,0.0,0,1,1,0,0,0,0,2,2,2,2,2,2,2,2,2,2,2,2
63820000,-1.268927e-08,-3.4924597e-08,1.10649125e-08,0.0,0.0,0.0,0,1,1,0,0,0,0,2,2,2,2,2,2,2,2,2,2,2,2
64028000,4.1909516e-08,8.8475645e-09,-2.7139322e-09,0.0,0.0,-5.9604645e-08,0,1,1,0,0,0,0,2,2,2,2,2,2,2,2,2,2,2,2
64228000,-6.9849193e-10,7.450581e-09,-2.0831067e-08,0.0,0.0,-5.9604645e-08,0,1,1,0,0,0,0,2,2,2,2,2,2,2,2,2,2,2,2
64428000,1.1059456e-08,1.5133992e-08,-2.1536835e-09,0.0,0.0,-1.1920929e-07,0,1,1,0,0,0,0,2,2,2,2,2,2,2,2,2,2,2,2
64628000,3.387686e-08,6.519258e-09,-1.4522811e-08,0.0,0.0,-5.9604645e-08,0,1,1,0,0,0,0,2,2,2,2,2,2,2,2,2,2,2,2
64820000,-1.3969839e-09,-4.1734893e-08,-3.525929e-08,0.0,0.0,0.0,0,1,1,0,0,0,0,2,2,2,2,2,2,2,2,2,2,2,2
65028000,2.0525476e-08,8.8475645e-09,-3.662717e-08,0.0,0.0,-5.9604645e-08,0,1,1,0,0,0,0,2,2,2,2,2,2,2,2,2,2,2,2
65220000,5.005859e-08,-1.3038516e-08,2.6775524e-09,0.0,0.0,0.0,0,1,1,0,0,0,0,2,2,2,2,2,2,2,2,2,2,2,2
65420000,-6.069058e-08,1.6298145e-09,2.8463546e-08,0.0,0.0,5.9604645e-08,0,1,1,0,0,0,0,2,2,2,2,2,2,2,2,2,2,2,2
65620000,-2.5902409e-08,-2.5844201e-08,-2.1129381e-08,0.0,0.0,-5.9604645e-08,0,1,1,0,0,0,0,2,2,2,2,2,2,2,2,2,2,2,2
65828000,3.3178367e-08,2.9569492e-08,3.9035513e-09,0.0,0.0,-5.9604645e-08,0,1,1,0,0,0,0,2,2,2,2,2,2,2,2,2,2,2,2
66028000,-6.6822395e-08,-1.7229468e-08,4.147296e-09,0.0,0.0,0.0,0,1,1,0,0,0,0,2,2,2,2,2,2,2,2,2,2,2,2
66220000,9.080395e-09,2.3283064e-09,1.3969839e-08,0.0,0.0,0.0,0,1,1,0,0,0,0,2,2,2,2,2,2,2,2,2,2,2,2
66428000,2.7939677e-08,-1.5250407e-08,-5.7043508e-09,0.0,0.0,-5.9604645e-08,0,1,1,0,0,0,0,2,2,2,2,2,2,2,2,2,2,2,2
66628000,2.6309863e-08,8.614734e-09,-4.129106e-09,0.0,0.0,0.0,0,1,1,0,0,0,0,2,2,2,2,2,2,2,2,2,2,2,2
66820000,5.005859e-09,2.8288923e-08,-9.8661985e-09,0.0,0.0,-1.1920929e-07,0,1,1,0,0,0,0,2,2,2,2,2,2,2,2,2,2,2,2
67028000,3.2159733e-09,-9.313226e-09,1.661465e-08,0.0,0.0,-5.9604645e-08,0,1,1,0,0,0,0,2,2,2,2,2,2,2,2,2,2,2,2
67228000,-9.19681e-09,-1.2572855e-08,-2.5283953e-09,0.0,0.0,-5.9604645e-08,0,1,1,0,0,0,0,2,2,2,2,2,2,2,2,2,2,2,2
67428000,1.952867e-08,4.703179e-08,-1.1088559e-08,0.0,0.0,0.0,0,1,1,0,0,0,0,2,2,2,2,2,2,2,2,2,2,2,2
67628000,-1.0477379e-08,-2.2351742e-08,-2.0925654e-08,0.0,0.0,0.0,0,1,1,0,0,0,0,2,2,2,2,2,2,2,2,2,2,2,2
67828000,4.400499e-08,3.7252903e-09,-2.226443e-09,0.0,0.0,0.0,0,1,1,0,0,0,0,2,2,2,2,2,2,2,2,2,2,2,2
68028000,1.1641532e-08,2.188608e-08,2.2089807e-08,0.0,0.0,0.0,0,1,1,0,0,0,0,2,2,2,2,2,2,2,2,2,2,2,2
68228000,-5.4380507e-08,2.3283064e-08,-1.36788e-08,0.0,0.0,-5.9604645e-08,0,1,1,0,0,0,0,2,2,2,2,2,2,2,2,2,2,2,2
68428000,2.7794158e-09,-2.6077032e-08,-1.0477379e-09,0.0,0.0,0.0,0,1,1,0,0,0,0,2,2,2,2,2,2,2,2,2,2,2,2
68628000,5.2386895e-09,1.6763806e-08,-1.9790605e-09,0.0,0.0,-5.9604645e-08,0,1,1,0,0,0,0,2,2,2,2,2,2,2,2,2,2,2,2
68828000,-4.3888576e-08,-2.9802322e-08,1.355329e-08,0.0,0.0,0.0,0,1,1,0,0,0,0,2,2,2,2,2,2,2,2,2,2,2,2
69028000,1.3154931e-08,1.9092113e-08,2.1187589e-08,0.0,0.0,-5.9604645e-08,0,1,1,0,0,0,0,2,2,2,2,2,2,2,2,2,2,2,2
69228000,5.995389e-08,-2.3748726e-08,1.891749e-09,0.0,0.0,0.0,0,1,1,0,0,0,0,2,2,2,2,2,2,2,2,2,2,2,2
69428000,-5.7625584e-08,-2.7939677e-09,-3.72238e-08,0.0,0.0,0.0,0,1,1,0,0,0,0,2,2,2,2,2,2,2,2,2,2,2,2
69628000,-2.4912879e-08,-1.0244548e-08,-4.598405e-09,0.0,0.0,-5.9604645e-08,0,1,1,0,0,0,0,2,2,2,2,2,2,2,2,2,2,2,2
69828000,4.377216e-08,-1.8859282e-08,1.7462298e-10,0.0,0.0,0.0,0,1,1,0,0,0,0,2,2,2,2,2,2,2,2,2,2,2,2
70028000,7.4040145e-08,1.44355e-08,-1.02227204e-08,0.0,0.0,0.0,0,1,1,0,0,0,0,2,2,2,2,2,2,2,2,2,2,2,2
70228000,3.4226105e-08,-3.0733645e-08,-1.2398232e-08,0.0,0.0,0.0,0,1,1,0,0,0,0,2,2,2,2,2,2,2,2,2,2,2,2
70428000,-3.3527613e-08,-2.8871e-08,-3.282912e-08,0.0,0.0,0.0,0,1,1,0,0,0,0,2,2,2,2,2,2,2,2,2,2,2,2
70628000,-4.656613e-10,-2.7939677e-09,1.268927e-08,0.0,0.0,0.0,0,1,1,0,0,0,0,2,2,2,2,2,2,2,2,2,2,2,2
70828000,-2.3283064e-08,2.142042e-08,-7.697963e-09,0.0,0.0,0.0,0,1,1,0,0,0,0,2,2,2,2,2,2,2,2,2,2,2,2
71028000,1.9266736e-08,-1.839362e-08,-2.3283064e-09,0.0,0.0,-5.9604645e-08,0,1,1,0,0,0,0,2,2,2,2,2,2,2,2,2,2,2,2
71228000,3.684545e-08,-2.6542693e-08,-1.1728844e-08,0.0,0.0,-5.9604645e-08,0,1,1,0,0,0,0,2,2,2,2,2,2,2,2,2,2,2,2
71428000,3.608875e-09,2.8871e-08,-2.465822e-08,0.0,0.0,-5.9604645e-08,0,1,1,0,0,0,0,2,2,2,2,2,2,2,2,2,2,2,2
71628000,5.296897e-08,6.519258e-09,2.9220246e-08,0.0,0.0,0.0,0,1,1,0,0,0,0,2,2,2,2,2,2,2,2,2,2,2,2
71828000,6.388291e-08,1.4202669e-08,-1.5672413e-08,0.0,0.0,-5.9604645e-08,0,1,1,0,0,0,0,2,2,2,2,2,2,2,2,2,2,2,2
72028000,-2.5029294e-08,-1.7695129e-08,1.7913408e-08,0.0,0.0,-5.9604645e-08,0,1,1,0,0,0,0,2,2,2,2,2,2,2,2,2,2,2,2
72228000,2.5203917e-08,-9.546056e-09,7.2759576e-09,0.0,0.0,0.0,0,1,1,0,0,0,0,2,2,2,2,2,2,2,2,2,2,2,2
72428000,1.4784746e-08,2.0954758e-08,-4.5838533e-09,0.0,0.0,-5.9604645e-08,0,1,1,0,0,0,0,2,2,2,2,2,2,2,2,2,2,2,2
72628000,-4.976755e-08,3.7252903e-09,-4.656613e-09,0.0,0.0,-5.9604645e-08,0,1,1,0,0,0,0,2,2,2,2,2,2,2,2,2,2,2,2
72828000,5.5879354e-08,-1.6763806e-08,-1.3154931e-08,0.0,0.0,-5.9604645e-08,0,1,1,0,0,0,0,2,2,2,2,2,2,2,2,2,2,2,2
73028000,0.0,1.6763806e-08,-8.8475645e-09,0.0,0.0,0.0,0,1,1,0,0,0,0,2,2,2,2,2,2,2,2,2,2,2,2
73228000,-7.916242e-09,1.4901161e-08,6.0535967e-09,0.0,0.0,-2.9802322e-08,0,1,1,0,0,0,0,2,2,2,2,2,2,2,2,2,2,2,2
73428000,1.7229468e-08,1.4901161e-08,9.895302e-09,0.0,0.0,0.0,0,1,1,0,0,0,0,2,2,2,2,2,2,2,2,2,2,2,2
73628000,-1.5133992e-09,0.0,8.731149e-09,0.0,0.0,0.0,0,1,1,0,0,0,0,2,2,2,2,2,2,2,2,2,2,2,2
73828000,-1.344597e-08,-7.450581e-09,-1.2223609e-08,0.0,0.0,0.0,0,1,1,0,0,0,0,2,2,2,2,2,2,2,2,2,2,2,2
74028000,-2.561137e-09,3.7252903e-09,4.773028e-09,0.0,0.0,-1.4901161e-08,0,1,1,0,0,0,0,2,2,2,2,2,2,2,2,2,2,2,2
74228000,1.8626451e-09,7.450581e-09,-2.3283064e-10,0.0,0.0,-7.450581e-09,0,1,1,0,0,0,0,2,2,2,2,2,2,2,2,2,2,2,2
74428000,6.519258e-09,-3.7252903e-09,2.7939677e-09,0.0,0.0,0.0,0,1,1,0,0,0,0,2,2,2,2,2,2,2,2,2,2,2,2
74628000,-4.656613e-09,-3.7252903e-09,1.2572855e-08,0.0,0.0,-7.450581e-09,0,1,1,0,0,0,0,2,2,2,2,2,2,2,2,2,2,2,2
74820000,-3.7252903e-09,0.0,6.2864274e-09,0.0,0.0,-7.450581e-09,0,1,1,0,0,0,0,2,2,2,2,2,2,2,2,2,2,2,2
