timestamp,timestamp_sample,gps_hvel[0],gps_hvel[1],gps_vvel,gps_hpos[0],gps_hpos[1],gps_vpos,ev_hvel[0],ev_hvel[1],ev_vvel,ev_hpos[0],ev_hpos[1],ev_vpos,rng_vpos,baro_vpos,aux_hvel[0],aux_hvel[1],aux_vvel,flow[0],flow[1],terr_flow[0],terr_flow[1],heading,mag_field[0],mag_field[1],mag_field[2],gravity[0],gravity[1],gravity[2],drag[0],drag[1],airspeed,beta,hagl,hagl_rate
3428000,3348000,0.0,0.0,0.0,0.0,0.0,0.0,0.0,0.0,0.0,0.0,0.0,0.0,0.0,0.0,0.0,0.0,nan,0.0,0.0,0.0,0.0,0.0,-0.0077647674,0.21514224,-0.43165603,0.0026303176,-0.037702147,-0.0008626951,0.0,0.0,0.0,0.0,0.0,0.0
3436000,3356000,0.0,0.0,0.0,0.0,0.0,0.0,0.0,0.0,0.0,0.0,0.0,0.0,0.0,-6.9490634e-06,0.0,0.0,nan,0.0,0.0,0.0,0.0,0.0,-0.0077647674,0.21514224,-0.43165603,-0.023560788,0.0148349255,0.00077118573,0.0,0.0,0.0,0.0,0.0,0.0
3444000,3364000,0.0,0.0,0.0,0.0,0.0,0.0,0.0,0.0,0.0,0.0,0.0,0.0,0.0,-6.9490634e-06,0.0,0.0,nan,0.0,0.0,0.0,0.0,0.0,-0.0077647674,0.21514224,-0.43165603,0.009174189,-0.0047530164,-0.00030441157,0.0,0.0,0.0,0.0,0.0,0.0
3452000,3372000,0.0,0.0,0.0,0.0,0.0,0.0,0.0,0.0,0.0,0.0,0.0,0.0,0.0,-6.9490634e-06,0.0,0.0,nan,0.0,0.0,0.0,0.0,0.0,-0.008032996,0.2149184,-0.42801005,0.0126827955,0.0061976016,-0.00017356873,0.0,0.0,0.0,0.0,0.0,0.0
3460000,3380000,0.0,0.0,0.0,0.0,0.0,0.0,0.0,0.0,0.0,0.0,0.0,0.0,0.0,-6.9490634e-06,0.0,0.0,nan,0.0,0.0,0.0,0.0,0.0,-0.008032996,0.2149184,-0.42801005,-0.017292101,0.012389228,0.0006041527,0.0,0.0,0.0,0.0,0.0,0.0
3468000,3388000,0.0,0.0,0.0,0.0,0.0,0.0,0.0,0.0,0.0,0.0,0.0,0.0,0.0,-6.9490634e-06,0.0,0.0,nan,0.0,0.0,0.0,0.0,0.0,-0.008032996,0.2149184,-0.42801005,-0.004886506,0.003333345,0.00017213821,0.0,0.0,0.0,0.0,0.0,0.0
3476000,3396000,0.0,0.0,0.0,0.0,0.0,0.0,0.0,0.0,0.0,0.0,0.0,0.0,0.0,-6.9490634e-06,0.0,0.0,nan,0.0,0.0,0.0,0.0,0.0,-0.008032996,0.2149184,-0.42801005,-0.018618282,0.007869512,0.00054979324,0.0,0.0,0.0,0.0,0.0,0.0
3484000,3404000,0.0,0.0,0.0,0.0,0.0,0.0,0.0,0.0,0.0,0.0,0.0,0.0,0.0,-6.9490634e-06,0.0,0.0,nan,0.0,0.0,0.0,0.0,0.0,-0.008032996,0.2149184,-0.42801005,-0.02766116,0.018986091,0.0009331703,0.0,0.0,0.0,0.0,0.0,0.0
3492000,3412000,0.0,0.0,0.0,0.0,0.0,0.0,0.0,0.0,0.0,0.0,0.0,0.0,0.0,-6.9490634e-06,0.0,0.0,nan,0.0,0.0,0.0,0.0,0.0,-0.008032996,0.2149184,-0.42801005,-0.03980755,0.034398228,0.0014276505,0.0,0.0,0.0,0.0,0.0,0.0
3500000,3420000,0.0,0.0,0.0,0.0,0.0,0.0,0.0,0.0,0.0,0.0,0.0,0.0,0.0,0.03803264,0.0,0.0,nan,0.0,0.0,0.0,0.0,0.0,-0.008032996,0.2149184,-0.42801005,-0.031621825,0.0101401955,0.0008573532,0.0,0.0,0.0,0.0,0.0,0.0
3508000,3428000,0.0,0.0,0.0,0.0,0.0,0.0,0.0,0.0,0.0,0.0,0.0,0.0,0.0,0.03803264,0.0,0.0,nan,0.0,0.0,0.0,0.0,0.0,-0.008032996,0.2149184,-0.42801005,-0.043385025,0.0017158091,0.0009198189,0.0,0.0,0.0,0.0,0.0,0.0
3516000,3436000,0.0,0.0,0.0,0.0,0.0,0.0,0.0,0.0,0.0,0.0,0.0,0.0,0.0,0.03803264,0.0,0.0,nan,0.0,0.0,0.0,0.0,0.0,-0.008032996,0.2149184,-0.42801005,-0.009148613,-0.0019403696,0.00016498566,0.0,0.0,0.0,0.0,0.0,0.0
3524000,3444000,0.0,0.0,0.0,0.0,0.0,0.0,0.0,0.0,0.0,0.0,0.0,0.0,0.0,0.03803264,0.0,0.0,nan,0.0,0.0,0.0,0.0,0.0,-0.00072422717,-0.0010508448,0.008693606,-0.0030385982,-0.008762747,-0.00010728836,0.0,0.0,0.0,0.0,0.0,0.0
3532000,3452000,0.0,0.0,0.0,0.0,0.0,0.0,0.0,0.0,0.0,0.0,0.0,0.0,0.0,0.03803264,0.0,0.0,nan,0.0,0.0,0.0,0.0,0.0,-0.00072422717,-0.0010508448,0.008693606,-0.019583737,0.029068738,0.0009531975,0.0,0.0,0.0,0.0,0.0,0.0
3540000,3460000,0.0,0.0,0.0,0.0,0.0,0.0,0.0,0.0,0.0,0.0,0.0,0.0,0.0,0.03803264,0.0,0.0,nan,0.0,0.0,0.0,0.0,0.0,-0.00072422717,-0.0010508448,0.008693606,-0.027346596,-0.010154888,0.00038051605,0.0,0.0,0.0,0.0,0.0,0.0
3548000,3468000,0.0,0.0,0.0,0.0,0.0,0.0,0.0,0.0,0.0,0.0,0.0,0.0,0.0,0.03803264,0.0,0.0,nan,0.0,0.0,0.0,0.0,0.0,-0.00072422717,-0.0010508448,0.008693606,-0.024250634,0.0036198646,0.0005955696,0.0,0.0,0.0,0.0,0.0,0.0
3556000,3476000,0.0,0.0,0.0,0.0,0.0,0.0,0.0,0.0,0.0,0.0,0.0,0.0,0.0,-0.029137865,0.0,0.0,nan,0.0,0.0,0.0,0.0,0.0,-0.00072422717,-0.0010508448,0.008693606,-0.011802284,0.023880616,0.0007019043,0.0,0.0,0.0,0.0,0.0,0.0
3564000,3484000,0.0,0.0,0.0,0.0,0.0,0.0,0.0,0.0,0.0,0.0,0.0,0.0,0.0,-0.029137865,0.0,0.0,nan,0.0,0.0,0.0,0.0,0.0,-0.00072422717,-0.0010508448,0.008693606,-0.010395272,0.020588025,0.0006160736,0.0,0.0,0.0,0.0,0.0,0.0
3572000,3492000,0.0,0.0,0.0,0.0,0.0,0.0,0.0,0.0,0.0,0.0,0.0,0.0,0.0,-0.029137865,0.0,0.0,nan,0.0,0.0,0.0,0.0,0.0,-0.00072422717,-0.0010508448,0.008693606,-0.011154655,-0.011634812,1.4781952e-05,0.0,0.0,0.0,0.0,0.0,0.0
3580000,3500000,0.0,0.0,0.0,0.0,0.0,0.0,0.0,0.0,0.0,0.0,0.0,0.0,0.0,-0.029137865,0.0,0.0,nan,0.0,0.0,0.0,0.0,0.0,-0.00072422717,-0.0010508448,0.008693606,-0.010360995,-0.021914035,-0.00021982193,0.0,0.0,0.0,0.0,0.0,0.0
3588000,3508000,0.0,0.0,0.0,0.0,0.0,0.0,0.0,0.0,0.0,0.0,0.0,0.0,0.0,-0.029137865,0.0,0.0,nan,0.0,0.0,0.0,0.0,0.0,-0.00072422717,-0.0010508448,0.008693606,-0.012927819,0.013709262,0.00054883957,0.0,0.0,0.0,0.0,0.0,0.0
3596000,3516000,0.0006205262,0.002725474,-0.041395213,-1.7963743e-05,0.00017858134,488.10358,0.0,0.0,0.0,0.0,0.0,0.0,0.0,-0.029137865,0.0,0.0,nan,0.0,0.0,0.0,0.0,0.0,-0.0027796673,0.002218753,0.0025437176,-0.0070995297,-0.005306691,5.4359436e-05,0.0,0.0,0.0,0.0,0.0,0.0
3604000,3524000,0.0006205262,0.002725474,-0.041395213,-1.7963743e-05,0.00017858134,488.10358,0.0,0.0,0.0,0.0,0.0,0.0,0.0,-0.029137865,0.0,0.0,nan,0.0,0.0,0.0,0.0,0.0,-0.0027796673,0.002218753,0.0025437176,-0.023152327,0.00014084578,0.00051164627,0.0,0.0,0.0,0.0,0.0,0.0
3612000,3532000,0.0006205262,0.002725474,-0.041395213,-1.7963743e-05,0.00017858134,488.10358,0.0,0.0,0.0,0.0,0.0,0.0,0.0,-0.029137865,0.0,0.0,nan,0.0,0.0,0.0,0.0,0.0,-0.0027796673,0.002218753,0.0025437176,-0.03637288,-0.046478808,-0.00024938583,0.0,0.0,0.0,0.0,0.0,0.0
3620000,3540000,0.0006205262,0.002725474,-0.041395213,-1.7963743e-05,0.00017858134,488.10358,0.0,0.0,0.0,0.0,0.0,0.0,0.0,0.037136484,0.0,0.0,nan,0.0,0.0,0.0,0.0,0.0,-0.0027796673,0.002218753,0.0025437176,-0.016701851,0.012777865,0.0006175041,0.0,0.0,0.0,0.0,0.0,0.0
3628000,3548000,0.0006205262,0.002725474,-0.041395213,-1.7963743e-05,0.00017858134,488.10358,0.0,0.0,0.0,0.0,0.0,0.0,0.0,0.037136484,0.0,0.0,nan,0.0,0.0,0.0,0.0,0.0,-0.0027796673,0.002218753,0.0025437176,-0.011194326,-0.00015835464,0.00025177002,0.0,0.0,0.0,0.0,0.0,0.0
3636000,3556000,0.0006205262,0.002725474,-0.041395213,-1.7963743e-05,0.00017858134,488.10358,0.0,0.0,0.0,0.0,0.0,0.0,0.0,0.037136484,0.0,0.0,nan,0.0,0.0,0.0,0.0,0.0,-0.0027796673,0.002218753,0.0025437176,-0.03698775,-0.03744319,-1.8119812e-05,0.0,0.0,0.0,0.0,0.0,0.0
3644000,3564000,0.0006205262,0.002725474,-0.041395213,-1.7963743e-05,0.00017858134,488.10358,0.0,0.0,0.0,0.0,0.0,0.0,0.0,0.037136484,0.0,0.0,nan,0.0,0.0,0.0,0.0,0.0,-0.0027796673,0.002218753,0.0025437176,-0.042891942,-0.013516203,0.0006327629,0.0,0.0,0.0,0.0,0.0,0.0
3652000,3572000,0.0006205262,0.002725474,-0.041395213,-1.7963743e-05,0.00017858134,488.10358,0.0,0.0,0.0,0.0,0.0,0.0,0.0,0.037136484,0.0,0.0,nan,0.0,0.0,0.0,0.0,0.0,-0.0027796673,0.002218753,0.0025437176,-0.0036295066,0.029765487,0.0006227493,0.0,0.0,0.0,0.0,0.0,0.0
3660000,3580000,0.0006205262,0.002725474,-0.041395213,-1.7963743e-05,0.00017858134,488.10358,0.0,0.0,0.0,0.0,0.0,0.0,0.0,0.037136484,0.0,0.0,nan,0.0,0.0,0.0,0.0,0.0,-0.0027796673,0.002218753,0.0025437176,0.010887642,0.012543902,-9.536743e-07,0.0,0.0,0.0,0.0,0.0,0.0
3668000,3588000,0.0006205262,0.002725474,-0.041395213,-1.7963743e-05,0.00017858134,488.10358,0.0,0.0,0.0,0.0,0.0,0.0,0.0,0.037136484,0.0,0.0,nan,0.0,0.0,0.0,0.0,-0.001996398,-0.00029399246,0.0005682558,-0.00010946393,0.008047188,0.0019030273,-0.00014066696,0.0,0.0,0.0,0.0,0.0,0.0
3676000,3596000,0.0006205262,0.002725474,-0.041395213,-1.7963743e-05,0.00017858134,488.10358,0.0,0.0,0.0,0.0,0.0,0.0,0.0,0.033461325,0.0,0.0,nan,0.0,0.0,0.0,0.0,-0.001996398,-0.00029399246,0.0005682558,-0.00010946393,0.018414138,0.011461541,-0.00019598007,0.0,0.0,0.0,0.0,0.0,0.0
3684000,3604000,0.0006205262,0.002725474,-0.041395213,-1.7963743e-05,0.00017858134,488.10358,0.0,0.0,0.0,0.0,0.0,0.0,0.0,0.033461325,0.0,0.0,nan,0.0,0.0,0.0,0.0,-0.001996398,-0.00029399246,0.0005682558,-0.00010946393,0.0076225754,0.026043832,0.0003142357,0.0,0.0,0.0,0.0,0.0,0.0
3692000,3612000,0.0006205262,0.002725474,-0.041395213,-1.7963743e-05,0.00017858134,488.10358,0.0,0.0,0.0,0.0,0.0,0.0,0.0,0.033461325,0.0,0.0,nan,0.0,0.0,0.0,0.0,-0.001996398,-0.00029399246,0.0005682558,-0.00010946393,0.010531731,0.004528314,-0.00014591217,0.0,0.0,0.0,0.0,0.0,0.0
3700000,3620000,0.0006205262,0.002725474,-0.041395213,-1.7963743e-05,0.00017858134,488.10358,0.0,0.0,0.0,0.0,0.0,0.0,0.0,0.033461325,0.0,0.0,nan,0.0,0.0,0.0,0.0,-0.001996398,-0.00029399246,0.0005682558,-0.00010946393,0.0044170935,0.023405954,0.00033950806,0.0,0.0,0.0,0.0,0.0,0.0
3708000,3628000,0.0006205262,0.002725474,-0.041395213,-1.7963743e-05,0.00017858134,488.10358,0.0,0.0,0.0,0.0,0.0,0.0,0.0,0.033461325,0.0,0.0,nan,0.0,0.0,0.0,0.0,-0.001996398,-0.00029399246,0.0005682558,-0.00010946393,-0.019839576,0.01639603,0.00072336197,0.0,0.0,0.0,0.0,0.0,0.0
3716000,3636000,0.0006205262,0.002725474,-0.041395213,-1.7963743e-05,0.00017858134,488.10358,0.0,0.0,0.0,0.0,0.0,0.0,0.0,0.033461325,0.0,0.0,nan,0.0,0.0,0.0,0.0,-0.001996398,-0.00029399246,0.0005682558,-0.00010946393,-0.010697383,0.006026864,0.00034427643,0.0,0.0,0.0,0.0,0.0,0.0
3724000,3644000,0.0006205262,0.002725474,-0.041395213,-1.7963743e-05,0.00017858134,488.10358,0.0,0.0,0.0,0.0,0.0,0.0,0.0,0.033461325,0.0,0.0,nan,0.0,0.0,0.0,0.0,-0.001996398,-0.00029399246,0.0005682558,-0.00010946393,0.00823961,0.0006053448,-0.00017118454,0.0,0.0,0.0,0.0,0.0,0.0
3732000,3652000,0.0006205262,0.002725474,-0.041395213,-1.7963743e-05,0.00017858134,488.10358,0.0,0.0,0.0,0.0,0.0,0.0,0.0,0.033461325,0.0,0.0,nan,0.0,0.0,0.0,0.0,-0.001996398,-0.00029399246,0.0005682558,-0.00010946393,-0.012330789,-0.016011149,-7.009506e-05,0.0,0.0,0.0,0.0,0.0,0.0
3740000,3660000,0.0006205262,0.002725474,-0.041395213,-1.7963743e-05,0.00017858134,488.10358,0.0,0.0,0.0,0.0,0.0,0.0,0.0,-0.13044938,0.0,0.0,nan,0.0,0.0,0.0,0.0,0.0052878857,-0.0010485128,-0.0013543367,0.0020869374,-0.025568532,-0.013270304,0.00025367737,0.0,0.0,0.0,0.0,0.0,0.0
3748000,3668000,0.0006205262,0.002725474,-0.041395213,-1.7963743e-05,0.00017858134,488.10358,0.0,0.0,0.0,0.0,0.0,0.0,0.0,-0.13044938,0.0,0.0,nan,0.0,0.0,0.0,0.0,0.0052878857,-0.0010485128,-0.0013543367,0.0020869374,-0.014686059,-0.0059915036,0.00018882751,0.0,0.0,0.0,0.0,0.0,0.0
3756000,3676000,0.0006205262,0.002725474,-0.041395213,-1.7963743e-05,0.00017858134,488.10358,0.0,0.0,0.0,0.0,0.0,0.0,0.0,-0.13044938,0.0,0.0,nan,0.0,0.0,0.0,0.0,0.0052878857,-0.0010485128,-0.0013543367,0.0020869374,0.0007035006,0.012971044,0.00023412704,0.0,0.0,0.0,0.0,0.0,0.0
3764000,3684000,0.0006205262,0.002725474,-0.041395213,-1.7963743e-05,0.00017858134,488.10358,0.0,0.0,0.0,0.0,0.0,0.0,0.0,-0.13044938,0.0,0.0,nan,0.0,0.0,0.0,0.0,0.0052878857,-0.0010485128,-0.0013543367,0.0020869374,-0.0036220644,-0.0115899,-0.00016117096,0.0,0.0,0.0,0.0,0.0,0.0
3772000,3692000,0.0006205262,0.002725474,-0.041395213,-1.7963743e-05,0.00017858134,488.10358,0.0,0.0,0.0,0.0,0.0,0.0,0.0,-0.13044938,0.0,0.0,nan,0.0,0.0,0.0,0.0,0.0052878857,-0.0010485128,-0.0013543367,0.0020869374,0.013807198,0.006496206,-0.00018787384,0.0,0.0,0.0,0.0,0.0,0.0
3780000,3700000,0.0006205262,0.002725474,-0.041395213,-1.7963743e-05,0.00017858134,488.10358,0.0,0.0,0.0,0.0,0.0,0.0,0.0,-0.13044938,0.0,0.0,nan,0.0,0.0,0.0,0.0,0.0052878857,-0.0010485128,-0.0013543367,0.0020869374,0.011439409,-0.00023907423,-0.0002655983,0.0,0.0,0.0,0.0,0.0,0.0
3788000,3708000,0.0006205262,0.002725474,-0.041395213,-1.7963743e-05,0.00017858134,488.10358,0.0,0.0,0.0,0.0,0.0,0.0,0.0,-0.13044938,0.0,0.0,nan,0.0,0.0,0.0,0.0,0.0052878857,-0.0010485128,-0.0013543367,0.0020869374,0.00062256865,0.011116266,0.00020122528,0.0,0.0,0.0,0.0,0.0,0.0
3796000,3716000,0.0006205262,0.002725474,-0.041395213,-1.7963743e-05,0.00017858134,488.10358,0.0,0.0,0.0,0.0,0.0,0.0,0.0,0.013583766,0.0,0.0,nan,0.0,0.0,0.0,0.0,0.0052878857,-0.0010485128,-0.0013543367,0.0020869374,-0.022316009,-0.003788948,0.00039291382,0.0,0.0,0.0,0.0,0.0,0.0
3804000,3724000,0.0006205262,0.002725474,-0.041395213,-1.7963743e-05,0.00017858134,488.10358,0.0,0.0,0.0,0.0,0.0,0.0,0.0,0.013583766,0.0,0.0,nan,0.0,0.0,0.0,0.0,-0.0027621984,0.0005902685,0.004021108,-0.0005890429,-0.014656676,0.025282204,0.000787735,0.0,0.0,0.0,0.0,0.0,0.0
3812000,3732000,0.0006205262,0.002725474,-0.041395213,-1.7963743e-05,0.00017858134,488.10358,0.0,0.0,0.0,0.0,0.0,0.0,0.0,0.013583766,0.0,0.0,nan,0.0,0.0,0.0,0.0,-0.0027621984,0.0005902685,0.004021108,-0.0005890429,-0.011351766,-0.0087476075,6.6280365e-05,0.0,0.0,0.0,0.0,0.0,0.0
3820000,3740000,0.0006205262,0.002725474,-0.041395213,-1.7963743e-05,0.00017858134,488.10358,0.0,0.0,0.0,0.0,0.0,0.0,0.0,0.013583766,0.0,0.0,nan,0.0,0.0,0.0,0.0,-0.0027621984,0.0005902685,0.004021108,-0.0005890429,-0.014015017,-0.0050303787,0.0002002716,0.0,0.0,0.0,0.0,0.0,0.0
3828000,3748000,0.0006205262,0.002725474,-0.041395213,-1.7963743e-05,0.00017858134,488.10358,0.0,0.0,0.0,0.0,0.0,0.0,0.0,0.013583766,0.0,0.0,nan,0.0,0.0,0.0,0.0,-0.0027621984,0.0005902685,0.004021108,-0.0005890429,-0.013465637,0.025678515,0.0007724762,0.0,0.0,0.0,0.0,0.0,0.0
3836000,3756000,0.0006205262,0.002725474,-0.041395213,-1.7963743e-05,0.00017858134,488.10358,0.0,0.0,0.0,0.0,0.0,0.0,0.0,0.013583766,0.0,0.0,nan,0.0,0.0,0.0,0.0,-0.0027621984,0.0005902685,0.004021108,-0.0005890429,-0.027267743,0.01783526,0.00091171265,0.0,0.0,0.0,0.0,0.0,0.0
3844000,3764000,0.0006205262,0.002725474,-0.041395213,-1.7963743e-05,0.00017858134,488.10358,0.0,0.0,0.0,0.0,0.0,0.0,0.0,0.013583766,0.0,0.0,nan,0.0,0.0,0.0,0.0,-0.0027621984,0.0005902685,0.004021108,-0.0005890429,-0.004405653,0.0090444535,0.00027418137,0.0,0.0,0.0,0.0,0.0,0.0
3852000,3772000,0.0006205262,0.002725474,-0.041395213,-1.7963743e-05,0.00017858134,488.10358,0.0,0.0,0.0,0.0,0.0,0.0,0.0,0.013583766,0.0,0.0,nan,0.0,0.0,0.0,0.0,-0.0027621984,0.0005902685,0.004021108,-0.0005890429,0.030255534,0.026052624,-0.00023794174,0.0,0.0,0.0,0.0,0.0,0.0
3860000,3780000,0.0006205262,0.002725474,-0.041395213,-1.7963743e-05,0.00017858134,488.10358,0.0,0.0,0.0,0.0,0.0,0.0,0.0,0.007992707,0.0,0.0,nan,0.0,0.0,0.0,0.0,-0.0027621984,0.0005902685,0.004021108,-0.0005890429,0.008302923,-0.011584446,-0.00042915344,0.0,0.0,0.0,0.0,0.0,0.0
3868000,3788000,0.0006205262,0.002725474,-0.041395213,-1.7963743e-05,0.00017858134,488.10358,0.0,0.0,0.0,0.0,0.0,0.0,0.0,0.007992707,0.0,0.0,nan,0.0,0.0,0.0,0.0,-0.0027621984,0.0005902685,0.004021108,-0.0005890429,-0.0033962484,-0.021861643,-0.0003862381,0.0,0.0,0.0,0.0,0.0,0.0
3876000,3796000,0.0006205262,0.002725474,-0.041395213,-1.7963743e-05,0.00017858134,488.10358,0.0,0.0,0.0,0.0,0.0,0.0,0.0,0.007992707,0.0,0.0,nan,0.0,0.0,0.0,0.0,0.010151267,-0.0020818487,0.001278922,0.001049608,-0.0028983876,-0.0087570995,-0.00011444092,0.0,0.0,0.0,0.0,0.0,0.0
3884000,3804000,0.0006205262,0.002725474,-0.041395213,-1.7963743e-05,0.00017858134,488.10358,0.0,0.0,0.0,0.0,0.0,0.0,0.0,0.007992707,0.0,0.0,nan,0.0,0.0,0.0,0.0,0.010151267,-0.0020818487,0.001278922,0.001049608,-0.005430229,-0.008160979,-4.673004e-05,0.0,0.0,0.0,0.0,0.0,0.0
3892000,3812000,0.0006205262,0.002725474,-0.041395213,-1.7963743e-05,0.00017858134,488.10358,0.0,0.0,0.0,0.0,0.0,0.0,0.0,0.007992707,0.0,0.0,nan,0.0,0.0,0.0,0.0,0.010151267,-0.0020818487,0.001278922,0.001049608,-0.00032976456,-0.021252096,-0.00044345856,0.0,0.0,0.0,0.0,0.0,0.0
3900000,3820000,0.0006205262,0.002725474,-0.041395213,-1.7963743e-05,0.00017858134,488.10358,0.0,0.0,0.0,0.0,0.0,0.0,0.0,0.007992707,0.0,0.0,nan,0.0,0.0,0.0,0.0,0.010151267,-0.0020818487,0.001278922,0.001049608,-0.020335328,-0.016096458,0.00010538101,0.0,0.0,0.0,0.0,0.0,0.0
3908000,3828000,0.0006205262,0.002725474,-0.041395213,-1.7963743e-05,0.00017858134,488.10358,0.0,0.0,0.0,0.0,0.0,0.0,0.0,0.007992707,0.0,0.0,nan,0.0,0.0,0.0,0.0,0.010151267,-0.0020818487,0.001278922,0.001049608,-0.0083165,0.010938451,0.00039815903,0.0,0.0,0.0,0.0,0.0,0.0
3916000,3836000,0.0006205262,0.002725474,-0.041395213,-1.7963743e-05,0.00017858134,488.10358,0.0,0.0,0.0,0.0,0.0,0.0,0.0,0.024121106,0.0,0.0,nan,0.0,0.0,0.0,0.0,0.010151267,-0.0020818487,0.001278922,0.001049608,-0.033100653,-0.009090126,0.00051259995,0.0,0.0,0.0,0.0,0.0,0.0
3924000,3844000,0.0006205262,0.002725474,-0.041395213,-1.7963743e-05,0.00017858134,488.10358,0.0,0.0,0.0,0.0,0.0,0.0,0.0,0.024121106,0.0,0.0,nan,0.0,0.0,0.0,0.0,0.010151267,-0.0020818487,0.001278922,0.001049608,-0.019369125,0.01077424,0.0006341934,0.0,0.0,0.0,0.0,0.0,0.0
3932000,3852000,0.0006205262,0.002725474,-0.041395213,-1.7963743e-05,0.00017858134,488.10358,0.0,0.0,0.0,0.0,0.0,0.0,0.0,0.024121106,0.0,0.0,nan,0.0,0.0,0.0,0.0,0.010151267,-0.0020818487,0.001278922,0.001049608,-0.013199143,0.021410942,0.00069856644,0.0,0.0,0.0,0.0,0.0,0.0
3940000,3860000,0.0006205262,0.002725474,-0.041395213,-1.7963743e-05,0.00017858134,488.10358,0.0,0.0,0.0,0.0,0.0,0.0,0.0,0.024121106,0.0,0.0,nan,0.0,0.0,0.0,0.0,-0.014748931,0.0031450908,0.0016715974,0.0026431978,-0.021374406,0.022377029,0.0008916855,0.0,0.0,0.0,0.0,0.0,0.0
3948000,3868000,0.0006205262,0.002725474,-0.041395213,-1.7963743e-05,0.00017858134,488.10358,0.0,0.0,0.0,0.0,0.0,0.0,0.0,0.024121106,0.0,0.0,nan,0.0,0.0,0.0,0.0,-0.014748931,0.0031450908,0.0016715974,0.0026431978,0.0037558693,0.016958743,0.00023841858,0.0,0.0,0.0,0.0,0.0,0.0
3956000,3876000,0.0006205262,0.002725474,-0.041395213,-1.7963743e-05,0.00017858134,488.10358,0.0,0.0,0.0,0.0,0.0,0.0,0.0,0.024121106,0.0,0.0,nan,0.0,0.0,0.0,0.0,-0.014748931,0.0031450908,0.0016715974,0.0026431978,-0.0054968297,0.009046584,0.00030326843,0.0,0.0,0.0,0.0,0.0,0.0
3964000,3884000,0.0006205262,0.002725474,-0.041395213,-1.7963743e-05,0.00017858134,488.10358,0.0,0.0,0.0,0.0,0.0,0.0,0.0,0.024121106,0.0,0.0,nan,0.0,0.0,0.0,0.0,-0.014748931,0.0031450908,0.0016715974,0.0026431978,-0.035745528,0.0065525323,0.0008907318,0.0,0.0,0.0,0.0,0.0,0.0
3972000,3892000,0.0006205262,0.002725474,-0.041395213,-1.7963743e-05,0.00017858134,488.10358,0.0,0.0,0.0,0.0,0.0,0.0,0.0,-0.14309075,0.0,0.0,nan,0.0,0.0,0.0,0.0,-0.014748931,0.0031450908,0.0016715974,0.0026431978,-0.0048893355,0.0111427605,0.00032901764,0.0,0.0,0.0,0.0,0.0,0.0
3980000,3900000,0.0006205262,0.002725474,-0.041395213,-1.7963743e-05,0.00017858134,488.10358,0.0,0.0,0.0,0.0,0.0,0.0,0.0,-0.14309075,0.0,0.0,nan,0.0,0.0,0.0,0.0,-0.014748931,0.0031450908,0.0016715974,0.0026431978,0.0069173966,-0.005802572,-0.00028133392,0.0,0.0,0.0,0.0,0.0,0.0
3988000,3908000,0.0006205262,0.002725474,-0.041395213,-1.7963743e-05,0.00017858134,488.10358,0.0,0.0,0.0,0.0,0.0,0.0,0.0,-0.14309075,0.0,0.0,nan,0.0,0.0,0.0,0.0,-0.014748931,0.0031450908,0.0016715974,0.0026431978,-0.024453277,8.122623e-05,0.00053977966,0.0,0.0,0.0,0.0,0.0,0.0
3996000,3916000,0.00095869147,0.012248449,-0.018552246,0.0002185659,0.00018838227,488.10904,0.0,0.0,0.0,0.0,0.0,0.0,0.0,-0.14309075,0.0,0.0,nan,0.0,0.0,0.0,0.0,-0.014748931,0.0031450908,0.0016715974,0.0026431978,-0.022548454,-0.027421147,-8.916855e-05,0.0,0.0,0.0,0.0,0.0,0.0
4004000,3924000,0.00095869147,0.012248449,-0.018552246,0.0002185659,0.00018838227,488.10904,0.0,0.0,0.0,0.0,0.0,0.0,0.0,-0.14309075,0.0,0.0,nan,0.0,0.0,0.0,0.0,-0.014748931,0.0031450908,0.0016715974,0.0026431978,-0.024457922,0.0030590743,0.00060129166,0.0,0.0,0.0,0.0,0.0,0.0
4012000,3932000,0.00095869147,0.012248449,-0.018552246,0.0002185659,0.00018838227,488.10904,0.0,0.0,0.0,0.0,0.0,0.0,0.0,-0.14309075,0.0,0.0,nan,0.0,0.0,0.0,0.0,0.0063797235,-0.0013104705,0.0015252233,0.0004274249,-0.020336865,0.008958057,0.00062942505,0.0,0.0,0.0,0.0,0.0,0.0
4020000,3940000,0.00095869147,0.012248449,-0.018552246,0.0002185659,0.00018838227,488.10904,0.0,0.0,0.0,0.0,0.0,0.0,0.0,-0.14309075,0.0,0.0,nan,0.0,0.0,0.0,0.0,0.0063797235,-0.0013104705,0.0015252233,0.0004274249,-0.0060890466,-0.018751696,-0.00025463104,0.0,0.0,0.0,0.0,0.0,0.0
4028000,3948000,0.00095869147,0.012248449,-0.018552246,0.0002185659,0.00018838227,488.10904,0.0,0.0,0.0,0.0,0.0,0.0,0.0,-0.03581754,0.0,0.0,nan,0.0,0.0,0.0,0.0,0.0063797235,-0.0013104705,0.0015252233,0.0004274249,-0.027619425,0.0026178062,0.00065898895,0.0,0.0,0.0,0.0,0.0,0.0
4036000,3956000,0.00095869147,0.012248449,-0.018552246,0.0002185659,0.00018838227,488.10904,0.0,0.0,0.0,0.0,0.0,0.0,0.0,-0.03581754,0.0,0.0,nan,0.0,0.0,0.0,0.0,0.0063797235,-0.0013104705,0.0015252233,0.0004274249,-0.007868178,-0.008060098,1.5258789e-05,0.0,0.0,0.0,0.0,0.0,0.0
4044000,3964000,0.00095869147,0.012248449,-0.018552246,0.0002185659,0.00018838227,488.10904,0.0,0.0,0.0,0.0,0.0,0.0,0.0,-0.03581754,0.0,0.0,nan,0.0,0.0,0.0,0.0,0.0063797235,-0.0013104705,0.0015252233,0.0004274249,-0.029765913,0.022613615,0.0010681152,0.0,0.0,0.0,0.0,0.0,0.0
4052000,3972000,0.00095869147,0.012248449,-0.018552246,0.0002185659,0.00018838227,488.10904,0.0,0.0,0.0,0.0,0.0,0.0,0.0,-0.03581754,0.0,0.0,nan,0.0,0.0,0.0,0.0,0.0063797235,-0.0013104705,0.0015252233,0.0004274249,-0.01792126,-0.0060341954,0.00027799606,0.0,0.0,0.0,0.0,0.0,0.0
4060000,3980000,0.00095869147,0.012248449,-0.018552246,0.0002185659,0.00018838227,488.10904,0.0,0.0,0.0,0.0,0.0,0.0,0.0,-0.03581754,0.0,0.0,nan,0.0,0.0,0.0,0.0,0.0063797235,-0.0013104705,0.0015252233,0.0004274249,-0.028288556,-0.009064645,0.00043344498,0.0,0.0,0.0,0.0,0.0,0.0
4068000,3988000,0.00095869147,0.012248449,-0.018552246,0.0002185659,0.00018838227,488.10904,0.0,0.0,0.0,0.0,0.0,0.0,0.0,-0.03581754,0.0,0.0,nan,0.0,0.0,0.0,0.0,0.0063797235,-0.0013104705,0.0015252233,0.0004274249,-0.014074421,0.00991258,0.0005097389,0.0,0.0,0.0,0.0,0.0,0.0
4076000,3996000,0.00095869147,0.012248449,-0.018552246,0.0002185659,0.00018838227,488.10904,0.0,0.0,0.0,0.0,0.0,0.0,0.0,-0.03581754,0.0,0.0,nan,0.0,0.0,0.0,0.0,0.0063797235,-0.0013104705,0.0015252233,0.0004274249,0.003979057,0.013687596,0.00016927719,0.0,0.0,0.0,0.0,0.0,0.0
4084000,4004000,0.00095869147,0.012248449,-0.018552246,0.0002185659,0.00018838227,488.10904,0.0,0.0,0.0,0.0,0.0,0.0,0.0,0.05794072,0.0,0.0,nan,0.0,0.0,0.0,0.0,0.012106299,-0.0025396012,-0.00058963895,-0.0017139614,-0.027160713,0.018680021,0.0009508133,0.0,0.0,0.0,0.0,0.0,0.0
4092000,4012000,0.00095869147,0.012248449,-0.018552246,0.0002185659,0.00018838227,488.10904,0.0,0.0,0.0,0.0,0.0,0.0,0.0,0.05794072,0.0,0.0,nan,0.0,0.0,0.0,0.0,0.012106299,-0.0025396012,-0.00058963895,-0.0017139614,-0.00045865402,0.020951092,0.0004067421,0.0,0.0,0.0,0.0,0.0,0.0
4100000,4020000,0.00095869147,0.012248449,-0.018552246,0.0002185659,0.00018838227,488.10904,0.0,0.0,0.0,0.0,0.0,0.0,0.0,0.05794072,0.0,0.0,nan,0.0,0.0,0.0,0.0,0.012106299,-0.0025396012,-0.00058963895,-0.0017139614,0.0031079277,0.010841981,0.00013542175,0.0,0.0,0.0,0.0,0.0,0.0
4108000,4028000,0.00095869147,0.012248449,-0.018552246,0.0002185659,0.00018838227,488.10904,0.0,0.0,0.0,0.0,0.0,0.0,0.0,0.05794072,0.0,0.0,nan,0.0,0.0,0.0,0.0,0.012106299,-0.0025396012,-0.00058963895,-0.0017139614,-0.04474161,0.011643365,0.0011725426,0.0,0.0,0.0,0.0,0.0,0.0
4116000,4036000,0.00095869147,0.012248449,-0.018552246,0.0002185659,0.00018838227,488.10904,0.0,0.0,0.0,0.0,0.0,0.0,0.0,0.05794072,0.0,0.0,nan,0.0,0.0,0.0,0.0,0.012106299,-0.0025396012,-0.00058963895,-0.0017139614,-0.04443215,-0.00684765,0.00080156326,0.0,0.0,0.0,0.0,0.0,0.0
4124000,4044000,0.00095869147,0.012248449,-0.018552246,0.0002185659,0.00018838227,488.10904,0.0,0.0,0.0,0.0,0.0,0.0,0.0,0.05794072,0.0,0.0,nan,0.0,0.0,0.0,0.0,0.012106299,-0.0025396012,-0.00058963895,-0.0017139614,-0.047742162,-0.012187377,0.00075531006,0.0,0.0,0.0,0.0,0.0,0.0
4132000,4052000,0.00095869147,0.012248449,-0.018552246,0.0002185659,0.00018838227,488.10904,0.0,0.0,0.0,0.0,0.0,0.0,0.0,0.05794072,0.0,0.0,nan,0.0,0.0,0.0,0.0,0.012106299,-0.0025396012,-0.00058963895,-0.0017139614,-0.013456916,0.0012036711,0.00033140182,0.0,0.0,0.0,0.0,0.0,0.0
4140000,4060000,0.00095869147,0.012248449,-0.018552246,0.0002185659,0.00018838227,488.10904,0.0,0.0,0.0,0.0,0.0,0.0,0.0,0.05794072,0.0,0.0,nan,0.0,0.0,0.0,0.0,0.012106299,-0.0025396012,-0.00058963895,-0.0017139614,0.009318082,0.020988435,0.00017309189,0.0,0.0,0.0,0.0,0.0,0.0
4148000,4068000,0.00095869147,0.012248449,-0.018552246,0.0002185659,0.00018838227,488.10904,0.0,0.0,0.0,0.0,0.0,0.0,0.0,0.04697598,0.0,0.0,nan,0.0,0.0,0.0,0.0,0.012106299,-0.0025396012,-0.00058963895,-0.0017139614,-0.025505837,0.005289942,0.0006737709,0.0,0.0,0.0,0.0,0.0,0.0
4156000,4076000,0.00095869147,0.012248449,-0.018552246,0.0002185659,0.00018838227,488.10904,0.0,0.0,0.0,0.0,0.0,0.0,0.0,0.04697598,0.0,0.0,nan,0.0,0.0,0.0,0.0,0.015490651,-0.0031843074,0.00036378205,0.0010078251,-0.056229006,-0.0056803524,0.0010547638,0.0,0.0,0.0,0.0,0.0,0.0
4164000,4084000,0.00095869147,0.012248449,-0.018552246,0.0002185659,0.00018838227,488.10904,0.0,0.0,0.0,0.0,0.0,0.0,0.0,0.04697598,0.0,0.0,nan,0.0,0.0,0.0,0.0,0.015490651,-0.0031843074,0.00036378205,0.0010078251,-0.02019473,0.017217234,0.000787735,0.0,0.0,0.0,0.0,0.0,0.0
4172000,4092000,0.00095869147,0.012248449,-0.018552246,0.0002185659,0.00018838227,488.10904,0.0,0.0,0.0,0.0,0.0,0.0,0.0,0.04697598,0.0,0.0,nan,0.0,0.0,0.0,0.0,0.015490651,-0.0031843074,0.00036378205,0.0010078251,-0.034310177,0.021582723,0.0011615753,0.0,0.0,0.0,0.0,0.0,0.0
4180000,4100000,0.00095869147,0.012248449,-0.018552246,0.0002185659,0.00018838227,488.10904,0.0,0.0,0.0,0.0,0.0,0.0,0.0,0.04697598,0.0,0.0,nan,0.0,0.0,0.0,0.0,0.015490651,-0.0031843074,0.00036378205,0.0010078251,-0.02533208,0.011206582,0.0007863045,0.0,0.0,0.0,0.0,0.0,0.0
4188000,4108000,0.00095869147,0.012248449,-0.018552246,0.0002185659,0.00018838227,488.10904,0.0,0.0,0.0,0.0,0.0,0.0,0.0,0.04697598,0.0,0.0,nan,0.0,0.0,0.0,0.0,0.015490651,-0.0031843074,0.00036378205,0.0010078251,-0.0192903,-0.018554091,4.9591064e-05,0.0,0.0,0.0,0.0,0.0,0.0
4196000,4116000,0.00095869147,0.012248449,-0.018552246,0.0002185659,0.00018838227,488.10904,0.0,0.0,0.0,0.0,0.0,0.0,0.0,0.04697598,0.0,0.0,nan,0.0,0.0,0.0,0.0,0.015490651,-0.0031843074,0.00036378205,0.0010078251,-0.010312004,-0.036967874,-0.00056934357,0.0,0.0,0.0,0.0,0.0,0.0
4204000,4124000,0.00095869147,0.012248449,-0.018552246,0.0002185659,0.00018838227,488.10904,0.0,0.0,0.0,0.0,0.0,0.0,0.0,0.10401212,0.0,0.0,nan,0.0,0.0,0.0,0.0,0.015490651,-0.0031843074,0.00036378205,0.0010078251,-0.0018330608,0.0058838427,0.00015830994,0.0,0.0,0.0,0.0,0.0,0.0
4212000,4132000,0.00095869147,0.012248449,-0.018552246,0.0002185659,0.00018838227,488.10904,0.0,0.0,0.0,0.0,0.0,0.0,0.0,0.10401212,0.0,0.0,nan,0.0,0.0,0.0,0.0,0.015490651,-0.0031843074,0.00036378205,0.0010078251,-0.026342785,0.02326414,0.0010323524,0.0,0.0,0.0,0.0,0.0,0.0
4220000,4140000,0.00095869147,0.012248449,-0.018552246,0.0002185659,0.00018838227,488.10904,0.0,0.0,0.0,0.0,0.0,0.0,0.0,0.10401212,0.0,0.0,nan,0.0,0.0,0.0,0.0,0.033027768,-0.0068725348,0.001264736,-9.995699e-05,-0.007878108,-0.0015419871,0.00015354156,0.0,0.0,0.0,0.0,0.0,0.0
4228000,4148000,0.00095869147,0.012248449,-0.018552246,0.0002185659,0.00018838227,488.10904,0.0,0.0,0.0,0.0,0.0,0.0,0.0,0.10401212,0.0,0.0,nan,0.0,0.0,0.0,0.0,0.033027768,-0.0068725348,0.001264736,-9.995699e-05,-0.011540355,-0.0135727525,-1.1444092e-05,0.0,0.0,0.0,0.0,0.0,0.0
4236000,4156000,0.00095869147,0.012248449,-0.018552246,0.0002185659,0.00018838227,488.10904,0.0,0.0,0.0,0.0,0.0,0.0,0.0,0.10401212,0.0,0.0,nan,0.0,0.0,0.0,0.0,0.033027768,-0.0068725348,0.001264736,-9.995699e-05,-0.0131108,0.0074590743,0.0004529953,0.0,0.0,0.0,0.0,0.0,0.0
4244000,4164000,0.00095869147,0.012248449,-0.018552246,0.0002185659,0.00018838227,488.10904,0.0,0.0,0.0,0.0,0.0,0.0,0.0,0.10401212,0.0,0.0,nan,0.0,0.0,0.0,0.0,0.033027768,-0.0068725348,0.001264736,-9.995699e-05,-0.014496144,-0.0028737038,0.00026798248,0.0,0.0,0.0,0.0,0.0,0.0
4252000,4172000,0.00095869147,0.012248449,-0.018552246,0.0002185659,0.00018838227,488.10904,0.0,0.0,0.0,0.0,0.0,0.0,0.0,-0.06982502,0.0,0.0,nan,0.0,0.0,0.0,0.0,0.033027768,-0.0068725348,0.001264736,-9.995699e-05,-0.005183585,0.0025717467,0.00016975403,0.0,0.0,0.0,0.0,0.0,0.0
4260000,4180000,0.00095869147,0.012248449,-0.018552246,0.0002185659,0.00018838227,488.10904,0.0,0.0,0.0,0.0,0.0,0.0,0.0,-0.06982502,0.0,0.0,nan,0.0,0.0,0.0,0.0,0.033027768,-0.0068725348,0.001264736,-9.995699e-05,-0.009865472,-0.0067149103,8.8214874e-05,0.0,0.0,0.0,0.0,0.0,0.0
4268000,4188000,0.00095869147,0.012248449,-0.018552246,0.0002185659,0.00018838227,488.10904,0.0,0.0,0.0,0.0,0.0,0.0,0.0,-0.06982502,0.0,0.0,nan,0.0,0.0,0.0,0.0,0.033027768,-0.0068725348,0.001264736,-9.995699e-05,-0.022825696,-0.009547859,0.00031089783,0.0,0.0,0.0,0.0,0.0,0.0
4276000,4196000,0.00095869147,0.012248449,-0.018552246,0.0002185659,0.00018838227,488.10904,0.0,0.0,0.0,0.0,0.0,0.0,0.0,-0.06982502,0.0,0.0,nan,0.0,0.0,0.0,0.0,0.033027768,-0.0068725348,0.001264736,-9.995699e-05,-0.00573262,-0.019559547,-0.0002770424,0.0,0.0,0.0,0.0,0.0,0.0
4284000,4204000,0.00095869147,0.012248449,-0.018552246,0.0002185659,0.00018838227,488.10904,0.0,0.0,0.0,0.0,0.0,0.0,0.0,-0.06982502,0.0,0.0,nan,0.0,0.0,0.0,0.0,0.033027768,-0.0068725348,0.001264736,-9.995699e-05,-0.0047411583,0.021748409,0.00051546097,0.0,0.0,0.0,0.0,0.0,0.0
4292000,4212000,0.00095869147,0.012248449,-0.018552246,0.0002185659,0.00018838227,488.10904,0.0,0.0,0.0,0.0,0.0,0.0,0.0,-0.06982502,0.0,0.0,nan,0.0,0.0,0.0,0.0,0.008686185,-0.0017622113,0.00052553415,0.0016618669,0.0010964479,0.0068217665,0.00010728836,0.0,0.0,0.0,0.0,0.0,0.0
4300000,4220000,0.00095869147,0.012248449,-0.018552246,0.0002185659,0.00018838227,488.10904,0.0,0.0,0.0,0.0,0.0,0.0,0.0,-0.06982502,0.0,0.0,nan,0.0,0.0,0.0,0.0,0.008686185,-0.0017622113,0.00052553415,0.0016618669,0.0005492233,0.011553854,0.00020980835,0.0,0.0,0.0,0.0,0.0,0.0
4308000,4228000,0.00095869147,0.012248449,-0.018552246,0.0002185659,0.00018838227,488.10904,0.0,0.0,0.0,0.0,0.0,0.0,0.0,-0.06982502,0.0,0.0,nan,0.0,0.0,0.0,0.0,0.008686185,-0.0017622113,0.00052553415,0.0016618669,-0.013011031,-0.00067070127,0.00027894974,0.0,0.0,0.0,0.0,0.0,0.0
4316000,4236000,0.00095869147,0.012248449,-0.018552246,0.0002185659,0.00018838227,488.10904,0.0,0.0,0.0,0.0,0.0,0.0,0.0,0.015209738,0.0,0.0,nan,0.0,0.0,0.0,0.0,0.008686185,-0.0017622113,0.00052553415,0.0016618669,-0.0053704735,-0.017100543,-0.00023174286,0.0,0.0,0.0,0.0,0.0,0.0
4324000,4244000,0.00095869147,0.012248449,-0.018552246,0.0002185659,0.00018838227,488.10904,0.0,0.0,0.0,0.0,0.0,0.0,0.0,0.015209738,0.0,0.0,nan,0.0,0.0,0.0,0.0,0.008686185,-0.0017622113,0.00052553415,0.0016618669,-0.006922504,0.020145014,0.00053977966,0.0,0.0,0.0,0.0,0.0,0.0
4332000,4252000,0.00095869147,0.012248449,-0.018552246,0.0002185659,0.00018838227,488.10904,0.0,0.0,0.0,0.0,0.0,0.0,0.0,0.015209738,0.0,0.0,nan,0.0,0.0,0.0,0.0,0.008686185,-0.0017622113,0.00052553415,0.0016618669,-0.0008798167,0.010304421,0.00021982193,0.0,0.0,0.0,0.0,0.0,0.0
4340000,4260000,0.00095869147,0.012248449,-0.018552246,0.0002185659,0.00018838227,488.10904,0.0,0.0,0.0,0.0,0.0,0.0,0.0,0.015209738,0.0,0.0,nan,0.0,0.0,0.0,0.0,0.008686185,-0.0017622113,0.00052553415,0.0016618669,0.0031404048,0.0024833828,-2.527237e-05,0.0,0.0,0.0,0.0,0.0,0.0
4348000,4268000,0.00095869147,0.012248449,-0.018552246,0.0002185659,0.00018838227,488.10904,0.0,0.0,0.0,0.0,0.0,0.0,0.0,0.015209738,0.0,0.0,nan,0.0,0.0,0.0,0.0,0.008686185,-0.0017622113,0.00052553415,0.0016618669,-0.0052403435,-0.015178129,-0.00019550323,0.0,0.0,0.0,0.0,0.0,0.0
4356000,4276000,0.00095869147,0.012248449,-0.018552246,0.0002185659,0.00018838227,488.10904,0.0,0.0,0.0,0.0,0.0,0.0,0.0,0.015209738,0.0,0.0,nan,0.0,0.0,0.0,0.0,-0.010169864,0.0021078158,0.0035006702,-0.0013957322,-0.027253304,0.010598168,0.0008029938,0.0,0.0,0.0,0.0,0.0,0.0
4364000,4284000,0.00095869147,0.012248449,-0.018552246,0.0002185659,0.00018838227,488.10904,0.0,0.0,0.0,0.0,0.0,0.0,0.0,0.015209738,0.0,0.0,nan,0.0,0.0,0.0,0.0,-0.010169864,0.0021078158,0.0035006702,-0.0013957322,-0.007020684,0.020547494,0.00054979324,0.0,0.0,0.0,0.0,0.0,0.0
4372000,4292000,0.00095869147,0.012248449,-0.018552246,0.0002185659,0.00018838227,488.10904,0.0,0.0,0.0,0.0,0.0,0.0,0.0,0.06272047,0.0,0.0,nan,0.0,0.0,0.0,0.0,-0.010169864,0.0021078158,0.0035006702,-0.0013957322,-0.031109488,0.01840508,0.0010290146,0.0,0.0,0.0,0.0,0.0,0.0
4380000,4300000,0.00095869147,0.012248449,-0.018552246,0.0002185659,0.00018838227,488.10904,0.0,0.0,0.0,0.0,0.0,0.0,0.0,0.06272047,0.0,0.0,nan,0.0,0.0,0.0,0.0,-0.010169864,0.0021078158,0.0035006702,-0.0013957322,-0.0076847076,0.014013946,0.0004477501,0.0,0.0,0.0,0.0,0.0,0.0
4388000,4308000,0.00095869147,0.012248449,-0.018552246,0.0002185659,0.00018838227,488.10904,0.0,0.0,0.0,0.0,0.0,0.0,0.0,0.06272047,0.0,0.0,nan,0.0,0.0,0.0,0.0,-0.010169864,0.0021078158,0.0035006702,-0.0013957322,-0.023949271,-0.038538173,-0.00031805038,0.0,0.0,0.0,0.0,0.0,0.0
4396000,4316000,-3.1248084e-05,-0.006148665,-0.0245671,2.2860111e-05,0.0005051138,-0.000100418925,0.0,0.0,0.0,0.0,0.0,0.0,0.0,0.06272047,0.0,0.0,nan,0.0,0.0,0.0,0.0,-0.010169864,0.0021078158,0.0035006702,-0.0013957322,-0.027944203,-0.027319402,2.9563904e-05,0.0,0.0,0.0,0.0,0.0,0.0
4404000,4324000,-3.1248084e-05,-0.006148665,-0.0245671,2.2860111e-05,0.0005051138,-0.000100418925,0.0,0.0,0.0,0.0,0.0,0.0,0.0,0.06272047,0.0,0.0,nan,0.0,0.0,0.0,0.0,-0.010169864,0.0021078158,0.0035006702,-0.0013957322,-0.0074547715,-0.015606627,-0.00015354156,0.0,0.0,0.0,0.0,0.0,0.0
4412000,4332000,-3.1248084e-05,-0.006148665,-0.0245671,2.2860111e-05,0.0005051138,-0.000100418925,0.0,0.0,0.0,0.0,0.0,0.0,0.0,0.06272047,0.0,0.0,nan,0.0,0.0,0.0,0.0,-0.010169864,0.0021078158,0.0035006702,-0.0013957322,-0.027601166,-0.004032582,0.0005259514,0.0,0.0,0.0,0.0,0.0,0.0
4420000,4340000,-3.1248084e-05,-0.006148665,-0.0245671,2.2860111e-05,0.0005051138,-0.000100418925,0.0,0.0,0.0,0.0,0.0,0.0,0.0,0.06272047,0.0,0.0,nan,0.0,0.0,0.0,0.0,-0.010169864,0.0021078158,0.0035006702,-0.0013957322,-0.03342832,0.011776298,0.0009570122,0.0,0.0,0.0,0.0,0.0,0.0
4428000,4348000,-3.1248084e-05,-0.006148665,-0.0245671,2.2860111e-05,0.0005051138,-0.000100418925,0.0,0.0,0.0,0.0,0.0,0.0,0.0,0.06272047,0.0,0.0,nan,0.0,0.0,0.0,0.0,-0.0014914274,0.000358087,0.0014881045,0.0019420981,-0.03278533,0.0070604086,0.0008535385,0.0,0.0,0.0,0.0,0.0,0.0
4436000,4356000,-3.1248084e-05,-0.006148665,-0.0245671,2.2860111e-05,0.0005051138,-0.000100418925,0.0,0.0,0.0,0.0,0.0,0.0,0.0,-0.17500752,0.0,0.0,nan,0.0,0.0,0.0,0.0,-0.0014914274,0.000358087,0.0014881045,0.0019420981,0.010041591,-0.0132205635,-0.00051641464,0.0,0.0,0.0,0.0,0.0,0.0
4444000,4364000,-3.1248084e-05,-0.006148665,-0.0245671,2.2860111e-05,0.0005051138,-0.000100418925,0.0,0.0,0.0,0.0,0.0,0.0,0.0,-0.17500752,0.0,0.0,nan,0.0,0.0,0.0,0.0,-0.0014914274,0.000358087,0.0014881045,0.0019420981,-0.0010112002,-0.0056449324,-9.202957e-05,0.0,0.0,0.0,0.0,0.0,0.0
4452000,4372000,-3.1248084e-05,-0.006148665,-0.0245671,2.2860111e-05,0.0005051138,-0.000100418925,0.0,0.0,0.0,0.0,0.0,0.0,0.0,-0.17500752,0.0,0.0,nan,0.0,0.0,0.0,0.0,-0.0014914274,0.000358087,0.0014881045,0.0019420981,0.014326895,-0.0047656745,-0.00042963028,0.0,0.0,0.0,0.0,0.0,0.0
4460000,4380000,-3.1248084e-05,-0.006148665,-0.0245671,2.2860111e-05,0.0005051138,-0.000100418925,0.0,0.0,0.0,0.0,0.0,0.0,0.0,-0.17500752,0.0,0.0,nan,0.0,0.0,0.0,0.0,-0.0014914274,0.000358087,0.0014881045,0.0019420981,-0.025885144,-0.021928042,8.4877014e-05,0.0,0.0,0.0,0.0,0.0,0.0
4468000,4388000,-3.1248084e-05,-0.006148665,-0.0245671,2.2860111e-05,0.0005051138,-0.000100418925,0.0,0.0,0.0,0.0,0.0,0.0,0.0,-0.17500752,0.0,0.0,nan,0.0,0.0,0.0,0.0,-0.0014914274,0.000358087,0.0014881045,0.0019420981,-0.021314587,0.0063568056,0.0005812645,0.0,0.0,0.0,0.0,0.0,0.0
4476000,4396000,-3.1248084e-05,-0.006148665,-0.0245671,2.2860111e-05,0.0005051138,-0.000100418925,0.0,0.0,0.0,0.0,0.0,0.0,0.0,-0.17500752,0.0,0.0,nan,0.0,0.0,0.0,0.0,-0.0014914274,0.000358087,0.0014881045,0.0019420981,-0.018993795,0.016683787,0.0007286072,0.0,0.0,0.0,0.0,0.0,0.0
4484000,4404000,-3.1248084e-05,-0.006148665,-0.0245671,2.2860111e-05,0.0005051138,-0.000100418925,0.0,0.0,0.0,0.0,0.0,0.0,0.0,-0.17500752,0.0,0.0,nan,0.0,0.0,0.0,0.0,-0.0014914274,0.000358087,0.0014881045,0.0019420981,-0.02441245,0.00837335,0.00067949295,0.0,0.0,0.0,0.0,0.0,0.0
4492000,4412000,-3.1248084e-05,-0.006148665,-0.0245671,2.2860111e-05,0.0005051138,-0.000100418925,0.0,0.0,0.0,0.0,0.0,0.0,0.0,0.015791994,0.0,0.0,nan,0.0,0.0,0.0,0.0,-0.0014914274,0.000358087,0.0014881045,0.0019420981,-0.023917666,-0.0076198727,0.00034809113,0.0,0.0,0.0,0.0,0.0,0.0
4500000,4420000,-3.1248084e-05,-0.006148665,-0.0245671,2.2860111e-05,0.0005051138,-0.000100418925,0.0,0.0,0.0,0.0,0.0,0.0,0.0,0.015791994,0.0,0.0,nan,0.0,0.0,0.0,0.0,0.006573081,-0.0013856106,0.003784597,-0.00024554133,-0.023472182,0.007974401,0.0006532669,0.0,0.0,0.0,0.0,0.0,0.0
4508000,4428000,-3.1248084e-05,-0.006148665,-0.0245671,2.2860111e-05,0.0005051138,-0.000100418925,0.0,0.0,0.0,0.0,0.0,0.0,0.0,0.015791994,0.0,0.0,nan,0.0,0.0,0.0,0.0,0.006573081,-0.0013856106,0.003784597,-0.00024554133,-0.012437133,0.023652464,0.0007138252,0.0,0.0,0.0,0.0,0.0,0.0
4516000,4436000,-3.1248084e-05,-0.006148665,-0.0245671,2.2860111e-05,0.0005051138,-0.000100418925,0.0,0.0,0.0,0.0,0.0,0.0,0.0,0.015791994,0.0,0.0,nan,0.0,0.0,0.0,0.0,0.006573081,-0.0013856106,0.003784597,-0.00024554133,-0.0005970504,0.02601774,0.00049829483,0.0,0.0,0.0,0.0,0.0,0.0
4524000,4444000,-3.1248084e-05,-0.006148665,-0.0245671,2.2860111e-05,0.0005051138,-0.000100418925,0.0,0.0,0.0,0.0,0.0,0.0,0.0,0.015791994,0.0,0.0,nan,0.0,0.0,0.0,0.0,0.006573081,-0.0013856106,0.003784597,-0.00024554133,-0.015732337,0.00459446,0.00043010712,0.0,0.0,0.0,0.0,0.0,0.0
4532000,4452000,-3.1248084e-05,-0.006148665,-0.0245671,2.2860111e-05,0.0005051138,-0.000100418925,0.0,0.0,0.0,0.0,0.0,0.0,0.0,0.015791994,0.0,0.0,nan,0.0,0.0,0.0,0.0,0.006573081,-0.0013856106,0.003784597,-0.00024554133,-0.022744635,-0.015754819,0.00015306473,0.0,0.0,0.0,0.0,0.0,0.0
4540000,4460000,-3.1248084e-05,-0.006148665,-0.0245671,2.2860111e-05,0.0005051138,-0.000100418925,0.0,0.0,0.0,0.0,0.0,0.0,0.0,0.015791994,0.0,0.0,nan,0.0,0.0,0.0,0.0,0.006573081,-0.0013856106,0.003784597,-0.00024554133,0.0067066327,-0.024309218,-0.0006709099,0.0,0.0,0.0,0.0,0.0,0.0
4548000,4468000,-3.1248084e-05,-0.006148665,-0.0245671,2.2860111e-05,0.0005051138,-0.000100418925,0.0,0.0,0.0,0.0,0.0,0.0,0.0,0.015791994,0.0,0.0,nan,0.0,0.0,0.0,0.0,0.006573081,-0.0013856106,0.003784597,-0.00024554133,-0.0071805194,-0.0009961128,0.00013780594,0.0,0.0,0.0,0.0,0.0,0.0
4556000,4476000,-3.1248084e-05,-0.006148665,-0.0245671,2.2860111e-05,0.0005051138,-0.000100418925,0.0,0.0,0.0,0.0,0.0,0.0,0.0,0.069104694,0.0,0.0,nan,0.0,0.0,0.0,0.0,0.006573081,-0.0013856106,0.003784597,-0.00024554133,-0.012123689,0.0013032705,0.00029039383,0.0,0.0,0.0,0.0,0.0,0.0
4564000,4484000,-3.1248084e-05,-0.006148665,-0.0245671,2.2860111e-05,0.0005051138,-0.000100418925,0.0,0.0,0.0,0.0,0.0,0.0,0.0,0.069104694,0.0,0.0,nan,0.0,0.0,0.0,0.0,0.006573081,-0.0013856106,0.003784597,-0.00024554133,-0.013816921,0.019434646,0.00066900253,0.0,0.0,0.0,0.0,0.0,0.0
4572000,4492000,-3.1248084e-05,-0.006148665,-0.0245671,2.2860111e-05,0.0005051138,-0.000100418925,0.0,0.0,0.0,0.0,0.0,0.0,0.0,0.069104694,0.0,0.0,nan,0.0,0.0,0.0,0.0,0.0050109625,-0.0010091728,0.00052161515,0.0013180375,0.0026494563,0.008636758,0.00010871887,0.0,0.0,0.0,0.0,0.0,0.0
4580000,4500000,-3.1248084e-05,-0.006148665,-0.0245671,2.2860111e-05,0.0005051138,-0.000100418925,0.0,0.0,0.0,0.0,0.0,0.0,0.0,0.069104694,0.0,0.0,nan,0.0,0.0,0.0,0.0,0.0050109625,-0.0010091728,0.00052161515,0.0013180375,-0.008355465,-0.0061424077,5.8174133e-05,0.0,0.0,0.0,0.0,0.0,0.0
4588000,4508000,-3.1248084e-05,-0.006148665,-0.0245671,2.2860111e-05,0.0005051138,-0.000100418925,0.0,0.0,0.0,0.0,0.0,0.0,0.0,0.069104694,0.0,0.0,nan,0.0,0.0,0.0,0.0,0.0050109625,-0.0010091728,0.00052161515,0.0013180375,0.016604379,-0.006908804,-0.0005297661,0.0,0.0,0.0,0.0,0.0,0.0
4596000,4516000,-3.1248084e-05,-0.006148665,-0.0245671,2.2860111e-05,0.0005051138,-0.000100418925,0.0,0.0,0.0,0.0,0.0,0.0,0.0,0.069104694,0.0,0.0,nan,0.0,0.0,0.0,0.0,0.0050109625,-0.0010091728,0.00052161515,0.0013180375,0.027545873,0.023196548,-0.00022411346,0.0,0.0,0.0,0.0,0.0,0.0
4604000,4524000,-3.1248084e-05,-0.006148665,-0.0245671,2.2860111e-05,0.0005051138,-0.000100418925,0.0,0.0,0.0,0.0,0.0,0.0,0.0,0.069104694,0.0,0.0,nan,0.0,0.0,0.0,0.0,0.0050109625,-0.0010091728,0.00052161515,0.0013180375,-0.013044739,-0.001914084,0.00024604797,0.0,0.0,0.0,0.0,0.0,0.0
4612000,4532000,-3.1248084e-05,-0.006148665,-0.0245671,2.2860111e-05,0.0005051138,-0.000100418925,0.0,0.0,0.0,0.0,0.0,0.0,0.0,0.0037687123,0.0,0.0,nan,0.0,0.0,0.0,0.0,0.0050109625,-0.0010091728,0.00052161515,0.0013180375,-0.008557977,0.01842697,0.0005393028,0.0,0.0,0.0,0.0,0.0,0.0
4620000,4540000,-3.1248084e-05,-0.006148665,-0.0245671,2.2860111e-05,0.0005051138,-0.000100418925,0.0,0.0,0.0,0.0,0.0,0.0,0.0,0.0037687123,0.0,0.0,nan,0.0,0.0,0.0,0.0,0.0050109625,-0.0010091728,0.00052161515,0.0013180375,-0.0046697427,0.018376395,0.00045347214,0.0,0.0,0.0,0.0,0.0,0.0
4628000,4548000,-3.1248084e-05,-0.006148665,-0.0245671,2.2860111e-05,0.0005051138,-0.000100418925,0.0,0.0,0.0,0.0,0.0,0.0,0.0,0.0037687123,0.0,0.0,nan,0.0,0.0,0.0,0.0,0.0050109625,-0.0010091728,0.00052161515,0.0013180375,-0.0017019622,0.010535538,0.00024461746,0.0,0.0,0.0,0.0,0.0,0.0
4636000,4556000,-3.1248084e-05,-0.006148665,-0.0245671,2.2860111e-05,0.0005051138,-0.000100418925,0.0,0.0,0.0,0.0,0.0,0.0,0.0,0.0037687123,0.0,0.0,nan,0.0,0.0,0.0,0.0,0.00894177,-0.0018297182,-0.0031155199,-0.000341326,-0.03636018,0.00082430243,0.0007715225,0.0,0.0,0.0,0.0,0.0,0.0
4644000,4564000,-3.1248084e-05,-0.006148665,-0.0245671,2.2860111e-05,0.0005051138,-0.000100418925,0.0,0.0,0.0,0.0,0.0,0.0,0.0,0.0037687123,0.0,0.0,nan,0.0,0.0,0.0,0.0,0.00894177,-0.0018297182,-0.0031155199,-0.000341326,-0.017817274,0.0006187558,0.00039863586,0.0,0.0,0.0,0.0,0.0,0.0
4652000,4572000,-3.1248084e-05,-0.006148665,-0.0245671,2.2860111e-05,0.0005051138,-0.000100418925,0.0,0.0,0.0,0.0,0.0,0.0,0.0,0.0037687123,0.0,0.0,nan,0.0,0.0,0.0,0.0,0.00894177,-0.0018297182,-0.0031155199,-0.000341326,-0.008088859,0.026795462,0.0006775856,0.0,0.0,0.0,0.0,0.0,0.0
4660000,4580000,-3.1248084e-05,-0.006148665,-0.0245671,2.2860111e-05,0.0005051138,-0.000100418925,0.0,0.0,0.0,0.0,0.0,0.0,0.0,-0.09130714,0.0,0.0,nan,0.0,0.0,0.0,0.0,0.00894177,-0.0018297182,-0.0031155199,-0.000341326,-0.039399374,-0.01237756,0.00052547455,0.0,0.0,0.0,0.0,0.0,0.0
4668000,4588000,-3.1248084e-05,-0.006148665,-0.0245671,2.2860111e-05,0.0005051138,-0.000100418925,0.0,0.0,0.0,0.0,0.0,0.0,0.0,-0.09130714,0.0,0.0,nan,0.0,0.0,0.0,0.0,0.00894177,-0.0018297182,-0.0031155199,-0.000341326,-0.029574398,0.007372245,0.00074481964,0.0,0.0,0.0,0.0,0.0,0.0
4676000,4596000,-3.1248084e-05,-0.006148665,-0.0245671,2.2860111e-05,0.0005051138,-0.000100418925,0.0,0.0,0.0,0.0,0.0,0.0,0.0,-0.09130714,0.0,0.0,nan,0.0,0.0,0.0,0.0,0.00894177,-0.0018297182,-0.0031155199,-0.000341326,-0.0005247118,0.01447697,0.00029087067,0.0,0.0,0.0,0.0,0.0,0.0
4684000,4604000,-3.1248084e-05,-0.006148665,-0.0245671,2.2860111e-05,0.0005051138,-0.000100418925,0.0,0.0,0.0,0.0,0.0,0.0,0.0,-0.09130714,0.0,0.0,nan,0.0,0.0,0.0,0.0,0.00894177,-0.0018297182,-0.0031155199,-0.000341326,-0.012187291,-0.008940041,7.390976e-05,0.0,0.0,0.0,0.0,0.0,0.0
4692000,4612000,-3.1248084e-05,-0.006148665,-0.0245671,2.2860111e-05,0.0005051138,-0.000100418925,0.0,0.0,0.0,0.0,0.0,0.0,0.0,-0.09130714,0.0,0.0,nan,0.0,0.0,0.0,0.0,0.00894177,-0.0018297182,-0.0031155199,-0.000341326,0.010338059,0.018656358,0.00012493134,0.0,0.0,0.0,0.0,0.0,0.0
4700000,4620000,-3.1248084e-05,-0.006148665,-0.0245671,2.2860111e-05,0.0005051138,-0.000100418925,0.0,0.0,0.0,0.0,0.0,0.0,0.0,-0.09130714,0.0,0.0,nan,0.0,0.0,0.0,0.0,0.00894177,-0.0018297182,-0.0031155199,-0.000341326,-0.0074775266,0.01775302,0.000497818,0.0,0.0,0.0,0.0,0.0,0.0
4708000,4628000,-3.1248084e-05,-0.006148665,-0.0245671,2.2860111e-05,0.0005051138,-0.000100418925,0.0,0.0,0.0,0.0,0.0,0.0,0.0,-0.09130714,0.0,0.0,nan,0.0,0.0,0.0,0.0,0.00045454502,-3.3183023e-05,0.0012636185,0.0028495193,-0.011327519,0.010047972,0.00043582916,0.0,0.0,0.0,0.0,0.0,0.0
4716000,4636000,-3.1248084e-05,-0.006148665,-0.0245671,2.2860111e-05,0.0005051138,-0.000100418925,0.0,0.0,0.0,0.0,0.0,0.0,0.0,-0.09130714,0.0,0.0,nan,0.0,0.0,0.0,0.0,0.00045454502,-3.3183023e-05,0.0012636185,0.0028495193,-0.0048614973,0.035699785,0.0007534027,0.0,0.0,0.0,0.0,0.0,0.0
4724000,4644000,-3.1248084e-05,-0.006148665,-0.0245671,2.2860111e-05,0.0005051138,-0.000100418925,0.0,0.0,0.0,0.0,0.0,0.0,0.0,-0.007832602,0.0,0.0,nan,0.0,0.0,0.0,0.0,0.00045454502,-3.3183023e-05,0.0012636185,0.0028495193,-0.0041126907,-0.009613514,-0.00010871887,0.0,0.0,0.0,0.0,0.0,0.0
4732000,4652000,-3.1248084e-05,-0.006148665,-0.0245671,2.2860111e-05,0.0005051138,-0.000100418925,0.0,0.0,0.0,0.0,0.0,0.0,0.0,-0.007832602,0.0,0.0,nan,0.0,0.0,0.0,0.0,0.00045454502,-3.3183023e-05,0.0012636185,0.0028495193,0.011816189,-0.0063014477,-0.00039434433,0.0,0.0,0.0,0.0,0.0,0.0
4740000,4660000,-3.1248084e-05,-0.006148665,-0.0245671,2.2860111e-05,0.0005051138,-0.000100418925,0.0,0.0,0.0,0.0,0.0,0.0,0.0,-0.007832602,0.0,0.0,nan,0.0,0.0,0.0,0.0,0.00045454502,-3.3183023e-05,0.0012636185,0.0028495193,0.01475367,0.025448337,0.00014448166,0.0,0.0,0.0,0.0,0.0,0.0
4748000,4668000,-3.1248084e-05,-0.006148665,-0.0245671,2.2860111e-05,0.0005051138,-0.000100418925,0.0,0.0,0.0,0.0,0.0,0.0,0.0,-0.007832602,0.0,0.0,nan,0.0,0.0,0.0,0.0,0.00045454502,-3.3183023e-05,0.0012636185,0.0028495193,0.019212022,0.0008946806,-0.00041913986,0.0,0.0,0.0,0.0,0.0,0.0
4756000,4676000,-3.1248084e-05,-0.006148665,-0.0245671,2.2860111e-05,0.0005051138,-0.000100418925,0.0,0.0,0.0,0.0,0.0,0.0,0.0,-0.007832602,0.0,0.0,nan,0.0,0.0,0.0,0.0,0.00045454502,-3.3183023e-05,0.0012636185,0.0028495193,0.018641856,0.004479319,-0.00033569336,0.0,0.0,0.0,0.0,0.0,0.0
4764000,4684000,-3.1248084e-05,-0.006148665,-0.0245671,2.2860111e-05,0.0005051138,-0.000100418925,0.0,0.0,0.0,0.0,0.0,0.0,0.0,-0.007832602,0.0,0.0,nan,0.0,0.0,0.0,0.0,0.00045454502,-3.3183023e-05,0.0012636185,0.0028495193,0.0021701334,-0.015987024,-0.0003809929,0.0,0.0,0.0,0.0,0.0,0.0
4772000,4692000,-3.1248084e-05,-0.006148665,-0.0245671,2.2860111e-05,0.0005051138,-0.000100418925,0.0,0.0,0.0,0.0,0.0,0.0,0.0,-0.007832602,0.0,0.0,nan,0.0,0.0,0.0,0.0,0.00045454502,-3.3183023e-05,0.0012636185,0.0028495193,0.0074117975,0.012347475,7.534027e-05,0.0,0.0,0.0,0.0,0.0,0.0
4780000,4700000,-3.1248084e-05,-0.006148665,-0.0245671,2.2860111e-05,0.0005051138,-0.000100418925,0.0,0.0,0.0,0.0,0.0,0.0,0.0,-0.09720809,0.0,0.0,nan,0.0,0.0,0.0,0.0,0.0012010336,-0.000102143735,-5.2273273e-05,0.00673151,-0.0049971985,0.030208528,0.0006656647,0.0,0.0,0.0,0.0,0.0,0.0
4788000,4708000,-3.1248084e-05,-0.006148665,-0.0245671,2.2860111e-05,0.0005051138,-0.000100418925,0.0,0.0,0.0,0.0,0.0,0.0,0.0,-0.09720809,0.0,0.0,nan,0.0,0.0,0.0,0.0,0.0012010336,-0.000102143735,-5.2273273e-05,0.00673151,-0.0028272355,0.039451227,0.000770092,0.0,0.0,0.0,0.0,0.0,0.0
4796000,4716000,-0.007917205,0.0010238603,0.014271958,0.0001493776,-0.0073035047,0.030294135,0.0,0.0,0.0,0.0,0.0,0.0,0.0,-0.09720809,0.0,0.0,nan,0.0,0.0,0.0,0.0,0.0012010336,-0.000102143735,-5.2273273e-05,0.00673151,0.0067902263,0.024470627,0.00030899048,0.0,0.0,0.0,0.0,0.0,0.0
4804000,4724000,-0.007917205,0.0010238603,0.014271958,0.0001493776,-0.0073035047,0.030294135,0.0,0.0,0.0,0.0,0.0,0.0,0.0,-0.09720809,0.0,0.0,nan,0.0,0.0,0.0,0.0,0.0012010336,-0.000102143735,-5.2273273e-05,0.00673151,-0.00010206923,-0.010486573,-0.00021505356,0.0,0.0,0.0,0.0,0.0,0.0
4812000,4732000,-0.007917205,0.0010238603,0.014271958,0.0001493776,-0.0073035047,0.030294135,0.0,0.0,0.0,0.0,0.0,0.0,0.0,-0.09720809,0.0,0.0,nan,0.0,0.0,0.0,0.0,0.0012010336,-0.000102143735,-5.2273273e-05,0.00673151,0.006320128,0.008209646,2.1457672e-05,0.0,0.0,0.0,0.0,0.0,0.0
4820000,4740000,-0.007917205,0.0010238603,0.014271958,0.0001493776,-0.0073035047,0.030294135,0.0,0.0,0.0,0.0,0.0,0.0,0.0,-0.09720809,0.0,0.0,nan,0.0,0.0,0.0,0.0,0.0012010336,-0.000102143735,-5.2273273e-05,0.00673151,-0.0030504838,0.04797171,0.00090932846,0.0,0.0,0.0,0.0,0.0,0.0
4828000,4748000,-0.007917205,0.0010238603,0.014271958,0.0001493776,-0.0073035047,0.030294135,0.0,0.0,0.0,0.0,0.0,0.0,0.0,-0.09720809,0.0,0.0,nan,0.0,0.0,0.0,0.0,0.0012010336,-0.000102143735,-5.2273273e-05,0.00673151,-0.003635225,0.021831572,0.0004916191,0.0,0.0,0.0,0.0,0.0,0.0
4836000,4756000,-0.007917205,0.0010238603,0.014271958,0.0001493776,-0.0073035047,0.030294135,0.0,0.0,0.0,0.0,0.0,0.0,0.0,-0.09720809,0.0,0.0,nan,0.0,0.0,0.0,0.0,0.0012010336,-0.000102143735,-5.2273273e-05,0.00673151,-0.0051434105,0.031731173,0.0006952286,0.0,0.0,0.0,0.0,0.0,0.0
4844000,4764000,-0.007917205,0.0010238603,0.014271958,0.0001493776,-0.0073035047,0.030294135,0.0,0.0,0.0,0.0,0.0,0.0,0.0,-0.034100574,0.0,0.0,nan,0.0,0.0,0.0,0.0,0.0012010336,-0.000102143735,-5.2273273e-05,0.00673151,-0.013280158,-0.004530385,0.00018596649,0.0,0.0,0.0,0.0,0.0,0.0
4852000,4772000,-0.007917205,0.0010238603,0.014271958,0.0001493776,-0.0073035047,0.030294135,0.0,0.0,0.0,0.0,0.0,0.0,0.0,-0.034100574,0.0,0.0,nan,0.0,0.0,0.0,0.0,0.007983327,-0.0016797744,0.00112997,-0.0008701384,-0.041905254,-0.024750173,0.00029611588,0.0,0.0,0.0,0.0,0.0,0.0
4860000,4780000,-0.007917205,0.0010238603,0.014271958,0.0001493776,-0.0073035047,0.030294135,0.0,0.0,0.0,0.0,0.0,0.0,0.0,-0.034100574,0.0,0.0,nan,0.0,0.0,0.0,0.0,0.007983327,-0.0016797744,0.00112997,-0.0008701384,-0.0010687234,0.0132315755,0.00028038025,0.0,0.0,0.0,0.0,0.0,0.0
4868000,4788000,-0.007917205,0.0010238603,0.014271958,0.0001493776,-0.0073035047,0.030294135,0.0,0.0,0.0,0.0,0.0,0.0,0.0,-0.034100574,0.0,0.0,nan,0.0,0.0,0.0,0.0,0.007983327,-0.0016797744,0.00112997,-0.0008701384,-0.0019382192,0.023740932,0.00047922134,0.0,0.0,0.0,0.0,0.0,0.0
4876000,4796000,-0.007917205,0.0010238603,0.014271958,0.0001493776,-0.0073035047,0.030294135,0.0,0.0,0.0,0.0,0.0,0.0,0.0,-0.034100574,0.0,0.0,nan,0.0,0.0,0.0,0.0,0.007983327,-0.0016797744,0.00112997,-0.0008701384,-0.0008609444,0.016185835,0.00032281876,0.0,0.0,0.0,0.0,0.0,0.0
4884000,4804000,-0.007917205,0.0010238603,0.014271958,0.0001493776,-0.0073035047,0.030294135,0.0,0.0,0.0,0.0,0.0,0.0,0.0,-0.034100574,0.0,0.0,nan,0.0,0.0,0.0,0.0,0.007983327,-0.0016797744,0.00112997,-0.0008701384,0.0054192906,0.040099993,0.00059223175,0.0,0.0,0.0,0.0,0.0,0.0
4892000,4812000,-0.007917205,0.0010238603,0.014271958,0.0001493776,-0.0073035047,0.030294135,0.0,0.0,0.0,0.0,0.0,0.0,0.0,-0.034100574,0.0,0.0,nan,0.0,0.0,0.0,0.0,0.007983327,-0.0016797744,0.00112997,-0.0008701384,-0.0074973274,0.033180326,0.00075674057,0.0,0.0,0.0,0.0,0.0,0.0
4900000,4820000,-0.007917205,0.0010238603,0.014271958,0.0001493776,-0.0073035047,0.030294135,0.0,0.0,0.0,0.0,0.0,0.0,0.0,0.03888929,0.0,0.0,nan,0.0,0.0,0.0,0.0,0.007983327,-0.0016797744,0.00112997,-0.0008701384,0.029633576,0.008052394,-0.00052547455,0.0,0.0,0.0,0.0,0.0,0.0
4908000,4828000,-0.007917205,0.0010238603,0.014271958,0.0001493776,-0.0073035047,0.030294135,0.0,0.0,0.0,0.0,0.0,0.0,0.0,0.03888929,0.0,0.0,nan,0.0,0.0,0.0,0.0,0.007983327,-0.0016797744,0.00112997,-0.0008701384,0.033258338,0.001984626,-0.00073194504,0.0,0.0,0.0,0.0,0.0,0.0
4916000,4836000,-0.007917205,0.0010238603,0.014271958,0.0001493776,-0.0073035047,0.030294135,0.0,0.0,0.0,0.0,0.0,0.0,0.0,0.03888929,0.0,0.0,nan,0.0,0.0,0.0,0.0,0.007983327,-0.0016797744,0.00112997,-0.0008701384,0.008417733,0.021686852,0.00021600723,0.0,0.0,0.0,0.0,0.0,0.0
4924000,4844000,-0.007917205,0.0010238603,0.014271958,0.0001493776,-0.0073035047,0.030294135,0.0,0.0,0.0,0.0,0.0,0.0,0.0,0.03888929,0.0,0.0,nan,0.0,0.0,0.0,0.0,0.040176988,-0.008110726,-0.0034377426,0.0029289722,0.0055231964,0.004169643,-3.8146973e-05,0.0,0.0,0.0,0.0,0.0,0.0
4932000,4852000,-0.007917205,0.0010238603,0.014271958,0.0001493776,-0.0073035047,0.030294135,0.0,0.0,0.0,0.0,0.0,0.0,0.0,0.03888929,0.0,0.0,nan,0.0,0.0,0.0,0.0,0.040176988,-0.008110726,-0.0034377426,0.0029289722,0.009564864,0.014577299,6.580353e-05,0.0,0.0,0.0,0.0,0.0,0.0
4940000,4860000,-0.007917205,0.0010238603,0.014271958,0.0001493776,-0.0073035047,0.030294135,0.0,0.0,0.0,0.0,0.0,0.0,0.0,0.03888929,0.0,0.0,nan,0.0,0.0,0.0,0.0,0.040176988,-0.008110726,-0.0034377426,0.0029289722,0.012035537,-0.013566226,-0.000541687,0.0,0.0,0.0,0.0,0.0,0.0
4948000,4868000,-0.007917205,0.0010238603,0.014271958,0.0001493776,-0.0073035047,0.030294135,0.0,0.0,0.0,0.0,0.0,0.0,0.0,0.03888929,0.0,0.0,nan,0.0,0.0,0.0,0.0,0.040176988,-0.008110726,-0.0034377426,0.0029289722,0.009341591,0.020256534,0.00017261505,0.0,0.0,0.0,0.0,0.0,0.0
4956000,4876000,-0.007917205,0.0010238603,0.014271958,0.0001493776,-0.0073035047,0.030294135,0.0,0.0,0.0,0.0,0.0,0.0,0.0,0.03888929,0.0,0.0,nan,0.0,0.0,0.0,0.0,0.040176988,-0.008110726,-0.0034377426,0.0029289722,-0.011085894,0.030845404,0.00079107285,0.0,0.0,0.0,0.0,0.0,0.0
4964000,4884000,-0.007917205,0.0010238603,0.014271958,0.0001493776,-0.0073035047,0.030294135,0.0,0.0,0.0,0.0,0.0,0.0,0.0,0.021205723,0.0,0.0,nan,0.0,0.0,0.0,0.0,0.040176988,-0.008110726,-0.0034377426,0.0029289722,-0.016753692,0.010853812,0.0005531311,0.0,0.0,0.0,0.0,0.0,0.0
4972000,4892000,-0.007917205,0.0010238603,0.014271958,0.0001493776,-0.0073035047,0.030294135,0.0,0.0,0.0,0.0,0.0,0.0,0.0,0.021205723,0.0,0.0,nan,0.0,0.0,0.0,0.0,0.040176988,-0.008110726,-0.0034377426,0.0029289722,-0.0159028,0.003465414,0.00039672852,0.0,0.0,0.0,0.0,0.0,0.0
4980000,4900000,-0.007917205,0.0010238603,0.014271958,0.0001493776,-0.0073035047,0.030294135,0.0,0.0,0.0,0.0,0.0,0.0,0.0,0.021205723,0.0,0.0,nan,0.0,0.0,0.0,0.0,0.040176988,-0.008110726,-0.0034377426,0.0029289722,0.001365561,0.037173614,0.0006313324,0.0,0.0,0.0,0.0,0.0,0.0
4988000,4908000,-0.007917205,0.0010238603,0.014271958,0.0001493776,-0.0073035047,0.030294135,0.0,0.0,0.0,0.0,0.0,0.0,0.0,0.021205723,0.0,0.0,nan,0.0,0.0,0.0,0.0,0.040176988,-0.008110726,-0.0034377426,0.0029289722,0.03073295,0.033319354,-0.00010585785,0.0,0.0,0.0,0.0,0.0,0.0
4996000,4916000,-0.007917205,0.0010238603,0.014271958,0.0001493776,-0.0073035047,0.030294135,0.0,0.0,0.0,0.0,0.0,0.0,0.0,0.021205723,0.0,0.0,nan,0.0,0.0,0.0,0.0,0.00053191185,-9.2327595e-05,0.0008016825,0.0010012984,0.0048493464,0.010808691,0.0001001358,0.0,0.0,0.0,0.0,0.0,0.0
5004000,4924000,-0.007917205,0.0010238603,0.014271958,0.0001493776,-0.0073035047,0.030294135,0.0,0.0,0.0,0.0,0.0,0.0,0.0,0.021205723,0.0,0.0,nan,0.0,0.0,0.0,0.0,0.00053191185,-9.2327595e-05,0.0008016825,0.0010012984,-0.00791108,0.023515135,0.0006008148,0.0,0.0,0.0,0.0,0.0,0.0
5012000,4932000,-0.007917205,0.0010238603,0.014271958,0.0001493776,-0.0073035047,0.030294135,0.0,0.0,0.0,0.0,0.0,0.0,0.0,0.021205723,0.0,0.0,nan,0.0,0.0,0.0,0.0,0.00053191185,-9.2327595e-05,0.0008016825,0.0010012984,0.024672903,0.027060077,-6.341934e-05,0.0,0.0,0.0,0.0,0.0,0.0
5020000,4940000,-0.007917205,0.0010238603,0.014271958,0.0001493776,-0.0073035047,0.030294135,0.0,0.0,0.0,0.0,0.0,0.0,0.0,-0.11716108,0.0,0.0,nan,0.0,0.0,0.0,0.0,0.00053191185,-9.2327595e-05,0.0008016825,0.0010012984,0.00014317688,0.0031821728,5.9127808e-05,0.0,0.0,0.0,0.0,0.0,0.0
5028000,4948000,-0.007917205,0.0010238603,0.014271958,0.0001493776,-0.0073035047,0.030294135,0.0,0.0,0.0,0.0,0.0,0.0,0.0,-0.11716108,0.0,0.0,nan,0.0,0.0,0.0,0.0,0.00053191185,-9.2327595e-05,0.0008016825,0.0010012984,0.032626286,-0.018840998,-0.0011410713,0.0,0.0,0.0,0.0,0.0,0.0
5036000,4956000,-0.007917205,0.0010238603,0.014271958,0.0001493776,-0.0073035047,0.030294135,0.0,0.0,0.0,0.0,0.0,0.0,0.0,-0.11716108,0.0,0.0,nan,0.0,0.0,0.0,0.0,0.00053191185,-9.2327595e-05,0.0008016825,0.0010012984,0.0062913187,-0.011991993,-0.0003809929,0.0,0.0,0.0,0.0,0.0,0.0
5044000,4964000,-0.007917205,0.0010238603,0.014271958,0.0001493776,-0.0073035047,0.030294135,0.0,0.0,0.0,0.0,0.0,0.0,0.0,-0.11716108,0.0,0.0,nan,0.0,0.0,0.0,0.0,0.00053191185,-9.2327595e-05,0.0008016825,0.0010012984,0.014888357,-0.005574748,-0.00043964386,0.0,0.0,0.0,0.0,0.0,0.0
5052000,4972000,-0.007917205,0.0010238603,0.014271958,0.0001493776,-0.0073035047,0.030294135,0.0,0.0,0.0,0.0,0.0,0.0,0.0,-0.11716108,0.0,0.0,nan,0.0,0.0,0.0,0.0,0.00053191185,-9.2327595e-05,0.0008016825,0.0010012984,0.007684877,-0.003962308,-0.00024604797,0.0,0.0,0.0,0.0,0.0,0.0
5060000,4980000,-0.007917205,0.0010238603,0.014271958,0.0001493776,-0.0073035047,0.030294135,0.0,0.0,0.0,0.0,0.0,0.0,0.0,-0.11716108,0.0,0.0,nan,0.0,0.0,0.0,0.0,0.00053191185,-9.2327595e-05,0.0008016825,0.0010012984,-0.03507622,-0.0030928254,0.0006260872,0.0,0.0,0.0,0.0,0.0,0.0
5068000,4988000,-0.007917205,0.0010238603,0.014271958,0.0001493776,-0.0073035047,0.030294135,0.0,0.0,0.0,0.0,0.0,0.0,0.0,-0.11716108,0.0,0.0,nan,0.0,0.0,0.0,0.0,-0.04314816,0.0086484505,-0.0015279204,-0.009945035,-0.011641907,0.025136784,0.00070381165,0.0,0.0,0.0,0.0,0.0,0.0
5076000,4996000,-0.007917205,0.0010238603,0.014271958,0.0001493776,-0.0073035047,0.030294135,0.0,0.0,0.0,0.0,0.0,0.0,0.0,-0.11716108,0.0,0.0,nan,0.0,0.0,0.0,0.0,-0.04314816,0.0086484505,-0.0015279204,-0.009945035,0.025781175,0.001567781,-0.0005559921,0.0,0.0,0.0,0.0,0.0,0.0
5084000,5004000,-0.007917205,0.0010238603,0.014271958,0.0001493776,-0.0073035047,0.030294135,0.0,0.0,0.0,0.0,0.0,0.0,0.0,0.04393325,0.0,0.0,nan,0.0,0.0,0.0,0.0,-0.04314816,0.0086484505,-0.0015279204,-0.009945035,0.05405955,0.012938872,-0.0010676384,0.0,0.0,0.0,0.0,0.0,0.0
5092000,5012000,-0.007917205,0.0010238603,0.014271958,0.0001493776,-0.0073035047,0.030294135,0.0,0.0,0.0,0.0,0.0,0.0,0.0,0.04393325,0.0,0.0,nan,0.0,0.0,0.0,0.0,-0.04314816,0.0086484505,-0.0015279204,-0.009945035,0.027164795,-0.034087226,-0.0013284683,0.0,0.0,0.0,0.0,0.0,0.0
5100000,5020000,-0.007917205,0.0010238603,0.014271958,0.0001493776,-0.0073035047,0.030294135,0.0,0.0,0.0,0.0,0.0,0.0,0.0,0.04393325,0.0,0.0,nan,0.0,0.0,0.0,0.0,-0.04314816,0.0086484505,-0.0015279204,-0.009945035,0.0042080786,-0.010188982,-0.00029039383,0.0,0.0,0.0,0.0,0.0,0.0
5108000,5028000,-0.007917205,0.0010238603,0.014271958,0.0001493776,-0.0073035047,0.030294135,0.0,0.0,0.0,0.0,0.0,0.0,0.0,0.04393325,0.0,0.0,nan,0.0,0.0,0.0,0.0,-0.04314816,0.0086484505,-0.0015279204,-0.009945035,-0.0040893536,0.01991877,0.00044345856,0.0,0.0,0.0,0.0,0.0,0.0
5116000,5036000,-0.007917205,0.0010238603,0.014271958,0.0001493776,-0.0073035047,0.030294135,0.0,0.0,0.0,0.0,0.0,0.0,0.0,0.04393325,0.0,0.0,nan,0.0,0.0,0.0,0.0,-0.04314816,0.0086484505,-0.0015279204,-0.009945035,-0.019647818,-0.015356809,9.6321106e-05,0.0,0.0,0.0,0.0,0.0,0.0
5124000,5044000,-0.007917205,0.0010238603,0.014271958,0.0001493776,-0.0073035047,0.030294135,0.0,0.0,0.0,0.0,0.0,0.0,0.0,0.04393325,0.0,0.0,nan,0.0,0.0,0.0,0.0,-0.04314816,0.0086484505,-0.0015279204,-0.009945035,-0.008880617,-0.008199379,2.4795532e-05,0.0,0.0,0.0,0.0,0.0,0.0
5132000,5052000,-0.007917205,0.0010238603,0.014271958,0.0001493776,-0.0073035047,0.030294135,0.0,0.0,0.0,0.0,0.0,0.0,0.0,0.04393325,0.0,0.0,nan,0.0,0.0,0.0,0.0,-0.04314816,0.0086484505,-0.0015279204,-0.009945035,0.002055224,0.010698542,0.00015306473,0.0,0.0,0.0,0.0,0.0,0.0
5140000,5060000,-0.007917205,0.0010238603,0.014271958,0.0001493776,-0.0073035047,0.030294135,0.0,0.0,0.0,0.0,0.0,0.0,0.0,0.04182835,0.0,0.0,nan,0.0,0.0,0.0,0.0,-0.006217599,0.0013818312,0.0017614961,0.00409925,-0.0060436167,0.016767323,0.00043010712,0.0,0.0,0.0,0.0,0.0,0.0
5148000,5068000,-0.007917205,0.0010238603,0.014271958,0.0001493776,-0.0073035047,0.030294135,0.0,0.0,0.0,0.0,0.0,0.0,0.0,0.04182835,0.0,0.0,nan,0.0,0.0,0.0,0.0,-0.006217599,0.0013818312,0.0017614961,0.00409925,0.016303958,0.021196797,1.6212463e-05,0.0,0.0,0.0,0.0,0.0,0.0
5156000,5076000,-0.007917205,0.0010238603,0.014271958,0.0001493776,-0.0073035047,0.030294135,0.0,0.0,0.0,0.0,0.0,0.0,0.0,0.04182835,0.0,0.0,nan,0.0,0.0,0.0,0.0,-0.006217599,0.0013818312,0.0017614961,0.00409925,-0.008503482,0.012412921,0.00040483475,0.0,0.0,0.0,0.0,0.0,0.0
5164000,5084000,-0.007917205,0.0010238603,0.014271958,0.0001493776,-0.0073035047,0.030294135,0.0,0.0,0.0,0.0,0.0,0.0,0.0,0.04182835,0.0,0.0,nan,0.0,0.0,0.0,0.0,-0.006217599,0.0013818312,0.0017614961,0.00409925,0.010184079,-0.0068251044,-0.00035572052,0.0,0.0,0.0,0.0,0.0,0.0
5172000,5092000,-0.007917205,0.0010238603,0.014271958,0.0001493776,-0.0073035047,0.030294135,0.0,0.0,0.0,0.0,0.0,0.0,0.0,0.04182835,0.0,0.0,nan,0.0,0.0,0.0,0.0,-0.006217599,0.0013818312,0.0017614961,0.00409925,0.008223087,-0.010771915,-0.00038957596,0.0,0.0,0.0,0.0,0.0,0.0
