timestamp,timestamp_sample,lat,lon,alt,alt_ellipsoid,delta_alt,eph,epv,terrain_alt,lat_lon_reset_counter,alt_reset_counter,terrain_alt_valid,dead_reckoning
8796000,8796000,47.397750801257885,8.545607398132793,488.0993,488.10202,0.033320636,1.7320508,1.4142135,nan,2,2,0,0
8804000,8804000,47.39775080137446,8.545607398250619,488.09937,488.10208,0.033320636,1.7320541,1.387278,nan,2,2,0,0
8812000,8812000,47.397750801474665,8.545607398369347,488.0994,488.1021,0.033320636,1.7320641,1.3872913,nan,2,2,0,0
8820000,8820000,47.39775080157234,8.545607398490667,488.09946,488.10217,0.033320636,1.7320807,1.387314,nan,2,2,0,0
8828000,8828000,47.39775080166389,8.54560739861669,488.09952,488.10223,0.033320636,1.7321041,1.387346,nan,2,2,0,0
8836000,8836000,47.39775080175851,8.545607398758044,488.09958,488.1023,0.033320636,1.732134,1.3873873,nan,2,2,0,0
8844000,8844000,47.397750801856546,8.545607398897015,488.09964,488.10236,0.033320636,1.7321706,1.387438,nan,2,2,0,0
8852000,8852000,47.39775080196044,8.545607399033283,488.0997,488.10242,0.033320636,1.7322139,1.387498,nan,2,2,0,0
8860000,8860000,47.39775080205604,8.545607399171246,488.0997,488.10242,0.033320636,1.7322638,1.3639499,nan,2,2,0,0
8868000,8868000,47.397750802131306,8.545607399325108,488.09973,488.10245,0.033320636,1.7323204,1.3640246,nan,2,2,0,0
8876000,8876000,47.3977508022042,8.545607399492699,488.09973,488.10245,0.033320636,1.7323836,1.364109,nan,2,2,0,0
8884000,8884000,47.39775080228009,8.545607399654578,488.09976,488.10248,0.033320636,1.7324536,1.3642027,nan,2,2,0,0
8892000,8892000,47.39775080236419,8.545607399812669,488.09976,488.10248,0.033320636,1.73253,1.3643061,nan,2,2,0,0
8900000,8900000,47.39775080245131,8.545607399968114,488.0998,488.1025,0.033320636,1.7326132,1.364419,nan,2,2,0,0
8908000,8908000,47.39775080251884,8.5456074001319,488.0998,488.1025,0.033320636,1.7327031,1.3645413,nan,2,2,0,0
8916000,8916000,47.397750802567685,8.545607400302961,488.09982,488.10254,0.033320636,1.7327996,1.364673,nan,2,2,0,0
8924000,8924000,47.39775080261013,8.545607400485995,488.09998,488.1027,0.033320636,1.7329028,1.3438629,nan,2,2,0,0
8932000,8932000,47.39775080264728,8.545607400666151,488.10016,488.10287,0.033320636,1.7330127,1.3440062,nan,2,2,0,0
8940000,8940000,47.397750802680676,8.545607400833605,488.1003,488.10303,0.033320636,1.7331291,1.3441592,nan,2,2,0,0
8948000,8948000,47.397750802715095,8.545607401013948,488.10046,488.10318,0.033320636,1.7332523,1.3443218,nan,2,2,0,0
8956000,8956000,47.397750802738614,8.5456074012121,488.10062,488.10333,0.033320636,1.7333821,1.3444942,nan,2,2,0,0
8964000,8964000,47.39775080274789,8.545607401414143,488.10077,488.1035,0.033320636,1.7335185,1.3446761,nan,2,2,0,0
8972000,8972000,47.397750802750586,8.545607401631036,488.10092,488.10364,0.033320636,1.7336617,1.3448677,nan,2,2,0,0
8980000,8980000,47.39775080275382,8.545607401877193,488.10077,488.1035,0.033320636,1.7338114,1.326303,nan,2,2,0,0
8988000,8988000,47.397750802751965,8.54560740214536,488.1006,488.1033,0.033320636,1.7339678,1.3265038,nan,2,2,0,0
8996000,8996000,47.39775080272913,8.545607402415236,488.10043,488.10315,0.033320636,1.7341309,1.3267144,nan,2,2,0,0
9004000,9004000,47.397750802687796,8.54560740269293,488.10028,488.103,0.033320636,1.7343006,1.3269347,nan,2,2,0,0
9012000,9012000,47.39775080263604,8.545607402974648,488.10013,488.10284,0.033320636,1.7344769,1.3271646,nan,2,2,0,0
9020000,9020000,47.39775080257052,8.545607403255431,488.1,488.10272,0.033320636,1.7346599,1.3274045,nan,2,2,0,0
9028000,9028000,47.397750802495906,8.545607403536355,488.09988,488.1026,0.033320636,1.7348496,1.327654,nan,2,2,0,0
9036000,9036000,47.39775080241648,8.545607403814031,488.09973,488.10245,0.033320636,1.7350459,1.3279132,nan,2,2,0,0
9044000,9044000,47.39775080233432,8.545607404077781,488.09967,488.1024,0.033320636,1.7352488,1.3111914,nan,2,2,0,0
9052000,9052000,47.39775080223604,8.545607404338055,488.0996,488.10233,0.033320636,1.7354585,1.3114574,nan,2,2,0,0
9060000,9060000,47.39775080212106,8.545607404590546,488.09955,488.10226,0.033320636,1.7356747,1.3117332,nan,2,2,0,0
9068000,9068000,47.39775080198947,8.54560740484196,488.09952,488.10223,0.033320636,1.7358977,1.3120189,nan,2,2,0,0
9076000,9076000,47.39775080185265,8.545607405100291,488.09946,488.10217,0.033320636,1.7361273,1.3123144,nan,2,2,0,0
9084000,9084000,47.3977508017228,8.545607405349404,488.09943,488.10214,0.033320636,1.7363634,1.3126197,nan,2,2,0,0
9092000,9092000,47.39775080159988,8.545607405597194,488.09937,488.10208,0.033320636,1.7366062,1.3129348,nan,2,2,0,0
9100000,9100000,47.3977508014697,8.545607405843942,488.09927,488.102,0.033320636,1.7368556,1.297765,nan,2,2,0,0
9108000,9108000,47.39775080133095,8.54560740608886,488.09918,488.1019,0.033320636,1.7371118,1.2980851,nan,2,2,0,0
9116000,9116000,47.39775080119519,8.545607406357064,488.09912,488.10184,0.033320636,1.7373745,1.2984151,nan,2,2,0,0
9124000,9124000,47.397750801068135,8.545607406656785,488.09903,488.10175,0.033320636,1.737644,1.2987549,nan,2,2,0,0
9132000,9132000,47.39775080092862,8.545607406961258,488.09894,488.10165,0.033320636,1.7379199,1.2991046,nan,2,2,0,0
9140000,9140000,47.39775080077227,8.545607407275787,488.09888,488.1016,0.033320636,1.7382026,1.2994641,nan,2,2,0,0
9148000,9148000,47.39775080061654,8.545607407602542,488.0988,488.1015,0.033320636,1.7384918,1.2998337,nan,2,2,0,0
9156000,9156000,47.397750800459534,8.54560740792477,488.09872,488.10144,0.033320636,1.7387877,1.300213,nan,2,2,0,0
9164000,9164000,47.397750800295,8.545607408257688,488.0988,488.1015,0.033320636,1.7390902,1.2863234,nan,2,2,0,0
9172000,9172000,47.39775080011239,8.545607408606232,488.09882,488.10153,0.033320636,1.7393993,1.2867056,nan,2,2,0,0
9180000,9180000,47.39775079992493,8.54560740897116,488.09888,488.1016,0.033320636,1.7397151,1.2870977,nan,2,2,0,0
9188000,9188000,47.39775079972678,8.545607409337213,488.0989,488.10162,0.033320636,1.7400374,1.2874998,nan,2,2,0,0
9196000,9196000,47.39775079975117,8.545607409438501,488.09906,488.10196,0.033320636,1.4167635,1.1802763,nan,2,2,0,0
9204000,9204000,47.397750799784234,8.545607409538986,488.09918,488.10208,0.033320636,1.4168671,1.1804171,nan,2,2,0,0
9212000,9212000,47.39775079981562,8.545607409640112,488.09933,488.10223,0.033320636,1.416975,1.1805634,nan,2,2,0,0
9220000,9220000,47.397750799837624,8.54560740973879,488.0995,488.1024,0.033320636,1.4170867,1.1755052,nan,2,2,0,0
9228000,9228000,47.39775079986011,8.545607409833632,488.09964,488.10254,0.033320636,1.4172027,1.1756582,nan,2,2,0,0
9236000,9236000,47.39775079988577,8.545607409934599,488.0998,488.1027,0.033320636,1.4173226,1.1758168,nan,2,2,0,0
9244000,9244000,47.397750799907975,8.545607410069419,488.0999,488.1028,0.033320636,1.4174466,1.1759807,nan,2,2,0,0
9252000,9252000,47.3977507999289,8.545607410210438,488.10007,488.10297,0.033320636,1.4175748,1.1761501,nan,2,2,0,0
9260000,9260000,47.39775079995699,8.545607410336967,488.10022,488.10312,0.033320636,1.4177068,1.176325,nan,2,2,0,0
9268000,9268000,47.39775079997689,8.545607410468818,488.1004,488.1033,0.033320636,1.4178431,1.1715335,nan,2,2,0,0
9276000,9276000,47.39775079998111,8.545607410611211,488.1006,488.1035,0.033320636,1.4179834,1.1717144,nan,2,2,0,0
9284000,9284000,47.3977507999668,8.545607410762958,488.10077,488.10367,0.033320636,1.4181277,1.1719009,nan,2,2,0,0
9292000,9292000,47.397750799947545,8.545607410909248,488.10092,488.10382,0.033320636,1.4182761,1.1720927,nan,2,2,0,0
9300000,9300000,47.39775079992646,8.545607411055117,488.1011,488.104,0.033320636,1.4184285,1.17229,nan,2,2,0,0
9308000,9308000,47.397750799904166,8.54560741119704,488.10126,488.10416,0.033320636,1.4185851,1.1724927,nan,2,2,0,0
9316000,9316000,47.39775079986781,8.545607411353192,488.10144,488.10434,0.033320636,1.4187456,1.172701,nan,2,2,0,0
9324000,9324000,47.397750799809586,8.545607411526667,488.1016,488.1045,0.033320636,1.4189104,1.1729146,nan,2,2,0,0
9332000,9332000,47.39775079971963,8.54560741169222,488.1018,488.1047,0.033320636,1.4190791,1.168349,nan,2,2,0,0
9340000,9340000,47.397750799607486,8.545607411853199,488.10202,488.10492,0.033320636,1.4192519,1.1685679,nan,2,2,0,0
9348000,9348000,47.397750799486396,8.545607412020587,488.10223,488.10513,0.033320636,1.4194288,1.1687922,nan,2,2,0,0
9356000,9356000,47.397750799370314,8.545607412192204,488.10245,488.10535,0.033320636,1.4196098,1.1690221,nan,2,2,0,0
9364000,9364000,47.39775079925747,8.54560741238091,488.10266,488.10556,0.033320636,1.4197948,1.1692573,nan,2,2,0,0
9372000,9372000,47.397750799136624,8.545607412589538,488.10287,488.10577,0.033320636,1.4199839,1.169498,nan,2,2,0,0
9380000,9380000,47.39775079900191,8.54560741278104,488.103,488.1059,0.033320636,1.4201771,1.1651437,nan,2,2,0,0
9388000,9388000,47.39775079886937,8.545607412967495,488.10315,488.10605,0.033320636,1.4203744,1.1653891,nan,2,2,0,0
9396000,9396000,47.39775079874112,8.545607413170837,488.1033,488.1062,0.033320636,1.4205757,1.1656399,nan,2,2,0,0
9404000,9404000,47.39775079862503,8.545607413359878,488.10342,488.10632,0.033320636,1.4207811,1.165896,nan,2,2,0,0
9412000,9412000,47.3977507985187,8.545607413550155,488.10358,488.10648,0.033320636,1.4209906,1.1661578,nan,2,2,0,0
9420000,9420000,47.397750798407834,8.545607413746632,488.1037,488.1066,0.033320636,1.4212042,1.166425,nan,2,2,0,0
9428000,9428000,47.3977507982817,8.54560741392351,488.10385,488.10675,0.033320636,1.4214219,1.1666976,nan,2,2,0,0
9436000,9436000,47.39775079815798,8.545607414091428,488.10394,488.10684,0.033320636,1.4216436,1.1625233,nan,2,2,0,0
9444000,9444000,47.39775079804656,8.545607414287781,488.10403,488.10693,0.033320636,1.4218695,1.1627998,nan,2,2,0,0
9452000,9452000,47.397750797927976,8.545607414500516,488.10413,488.10703,0.033320636,1.4220994,1.1630818,nan,2,2,0,0
9460000,9460000,47.39775079780215,8.545607414717654,488.10422,488.10712,0.033320636,1.4223334,1.1633693,nan,2,2,0,0
9468000,9468000,47.39775079768059,8.545607414951252,488.1043,488.1072,0.033320636,1.4225714,1.1636622,nan,2,2,0,0
9476000,9476000,47.397750797561784,8.545607415199115,488.10437,488.10727,0.033320636,1.4228135,1.1639606,nan,2,2,0,0
9484000,9484000,47.397750797424635,8.545607415440198,488.10446,488.10736,0.033320636,1.4230597,1.1642643,nan,2,2,0,0
9492000,9492000,47.397750797267506,8.545607415693604,488.10455,488.10745,0.033320636,1.4233102,1.1645737,nan,2,2,0,0
9500000,9500000,47.39775079709313,8.54560741595697,488.10458,488.10748,0.033320636,1.4235644,1.160546,nan,2,2,0,0
9508000,9508000,47.397750796909364,8.545607416215265,488.10458,488.10748,0.033320636,1.423823,1.1608584,nan,2,2,0,0
9516000,9516000,47.39775079672703,8.545607416455951,488.10458,488.10748,0.033320636,1.4240855,1.1611761,nan,2,2,0,0
9524000,9524000,47.397750796535206,8.545607416702577,488.10458,488.10748,0.033320636,1.4243522,1.1614994,nan,2,2,0,0
9532000,9532000,47.39775079633431,8.545607416938587,488.1046,488.1075,0.033320636,1.424623,1.161828,nan,2,2,0,0
9540000,9540000,47.39775079611462,8.545607417165192,488.1046,488.1075,0.033320636,1.4248979,1.1621622,nan,2,2,0,0
9548000,9548000,47.3977507958743,8.545607417397973,488.10464,488.10754,0.033320636,1.4251767,1.1625018,nan,2,2,0,0
9556000,9556000,47.39775079562595,8.545607417636196,488.10464,488.10754,0.033320636,1.4254599,1.1586107,nan,2,2,0,0
9564000,9564000,47.397750795382166,8.545607417862048,488.10464,488.10754,0.033320636,1.4257469,1.1589527,nan,2,2,0,0
9572000,9572000,47.39775079512586,8.545607418085213,488.10464,488.10754,0.033320636,1.4260381,1.1593001,nan,2,2,0,0
9580000,9580000,47.39775079485291,8.545607418332803,488.10464,488.10754,0.033320636,1.4263335,1.159653,nan,2,2,0,0
9588000,9588000,47.397750794571074,8.545607418617898,488.10468,488.10757,0.033320636,1.426633,1.1600112,nan,2,2,0,0
9596000,9596000,47.39775079458433,8.54560741684164,488.1046,488.10724,0.033320636,1.2957767,1.1189895,nan,2,2,0,0
9604000,9604000,47.397750794601016,8.5456074150566,488.10458,488.1072,0.033320636,1.2959256,1.1191814,nan,2,2,0,0
9612000,9612000,47.39775079462544,8.54560741326016,488.10452,488.10715,0.033320636,1.2960775,1.119377,nan,2,2,0,0
9620000,9620000,47.397750794653405,8.545607411477333,488.1045,488.10712,0.033320636,1.2962323,1.1172822,nan,2,2,0,0
9628000,9628000,47.39775079468149,8.545607409715814,488.10443,488.10706,0.033320636,1.2963902,1.1174816,nan,2,2,0,0
9636000,9636000,47.397750794694076,8.545607407975451,488.1044,488.10703,0.033320636,1.296551,1.1176848,nan,2,2,0,0
9644000,9644000,47.39775079468938,8.545607406258549,488.10434,488.10696,0.033320636,1.2967148,1.1178919,nan,2,2,0,0
9652000,9652000,47.39775079468054,8.545607404563782,488.1043,488.10693,0.033320636,1.2968816,1.1181027,nan,2,2,0,0
9660000,9660000,47.39775079466245,8.545607402879916,488.10425,488.10687,0.033320636,1.2970513,1.1183171,nan,2,2,0,0
9668000,9668000,47.39775079464437,8.545607401214328,488.10422,488.10684,0.033320636,1.2972242,1.1185353,nan,2,2,0,0
9676000,9676000,47.39775079462546,8.545607399561815,488.1042,488.1068,0.033320636,1.2973999,1.1164943,nan,2,2,0,0
9684000,9684000,47.39775079461191,8.545607397943122,488.10416,488.10678,0.033320636,1.2975787,1.116716,nan,2,2,0,0
9692000,9692000,47.397750794586486,8.545607396341662,488.1041,488.10672,0.033320636,1.2977605,1.1169415,nan,2,2,0,0
9700000,9700000,47.397750794541764,8.545607394763039,488.10406,488.1067,0.033320636,1.2979451,1.1171707,nan,2,2,0,0
9708000,9708000,47.39775079449384,8.545607393202356,488.10403,488.10666,0.033320636,1.298133,1.1174035,nan,2,2,0,0
9716000,9716000,47.39775079444962,8.545607391655203,488.104,488.10663,0.033320636,1.2983238,1.1176403,nan,2,2,0,0
9724000,9724000,47.39775079439977,8.545607390139146,488.10397,488.1066,0.033320636,1.2985176,1.1178807,nan,2,2,0,0
9732000,9732000,47.39775079433153,8.545607388658977,488.10397,488.1066,0.033320636,1.2987144,1.1181247,nan,2,2,0,0
9740000,9740000,47.39775079426081,8.545607387198798,488.10385,488.10648,0.033320636,1.2989142,1.1161244,nan,2,2,0,0
9748000,9748000,47.39775079419035,8.545607385747557,488.10376,488.10638,0.033320636,1.299117,1.1163715,nan,2,2,0,0
9756000,9756000,47.397750794108255,8.545607384294678,488.10367,488.1063,0.033320636,1.2993228,1.1166224,nan,2,2,0,0
9764000,9764000,47.39775079401851,8.54560738285375,488.10358,488.1062,0.033320636,1.2995318,1.1168771,nan,2,2,0,0
9772000,9772000,47.39775079391395,8.545607381426084,488.1035,488.1061,0.033320636,1.2997437,1.1171354,nan,2,2,0,0
9780000,9780000,47.397750793786095,8.545607380003053,488.1034,488.10602,0.033320636,1.2999586,1.1173974,nan,2,2,0,0
9788000,9788000,47.39775079364483,8.545607378601808,488.1033,488.10593,0.033320636,1.3001766,1.1176633,nan,2,2,0,0
9796000,9796000,47.39775079349832,8.545607377234285,488.1032,488.10583,0.033320636,1.3003975,1.1157013,nan,2,2,0,0
9804000,9804000,47.39775079333398,8.545607375892594,488.1031,488.1057,0.033320636,1.3006216,1.1159697,nan,2,2,0,0
9812000,9812000,47.39775079314897,8.545607374564344,488.103,488.10562,0.033320636,1.3008487,1.1162418,nan,2,2,0,0
9820000,9820000,47.39775079294675,8.54560737325196,488.1029,488.10553,0.033320636,1.3010788,1.1165178,nan,2,2,0,0
9828000,9828000,47.39775079273066,8.54560737195965,488.10284,488.10547,0.033320636,1.3013121,1.1167973,nan,2,2,0,0
9836000,9836000,47.397750792507566,8.545607370690934,488.10275,488.10538,0.033320636,1.3015482,1.1170807,nan,2,2,0,0
9844000,9844000,47.397750792270806,8.545607369446818,488.10266,488.1053,0.033320636,1.3017875,1.1173677,nan,2,2,0,0
9852000,9852000,47.397750792019465,8.545607368241386,488.1026,488.10522,0.033320636,1.3020298,1.1176585,nan,2,2,0,0
9860000,9860000,47.39775079176258,8.545607367069035,488.10248,488.1051,0.033320636,1.3022752,1.1157209,nan,2,2,0,0
9868000,9868000,47.39775079150393,8.545607365912604,488.10236,488.10498,0.033320636,1.3025236,1.1160138,nan,2,2,0,0
9876000,9876000,47.39775079124587,8.545607364757277,488.10226,488.1049,0.033320636,1.3027751,1.1163104,nan,2,2,0,0
9884000,9884000,47.397750790973795,8.545607363617735,488.10214,488.10477,0.033320636,1.3030298,1.1166108,nan,2,2,0,0
9892000,9892000,47.397750790681286,8.545607362499977,488.10205,488.10468,0.033320636,1.3032874,1.1169147,nan,2,2,0,0
9900000,9900000,47.39775079038359,8.545607361407539,488.10196,488.10458,0.033320636,1.3035481,1.1172225,nan,2,2,0,0
9908000,9908000,47.397750790084096,8.54560736033999,488.10187,488.1045,0.033320636,1.3038119,1.117534,nan,2,2,0,0
9916000,9916000,47.39775078977411,8.54560735929441,488.1017,488.10434,0.033320636,1.3040788,1.1156212,nan,2,2,0,0
9924000,9924000,47.39775078946556,8.545607358284112,488.1016,488.10422,0.033320636,1.3043487,1.1159344,nan,2,2,0,0
9932000,9932000,47.39775078916503,8.545607357302666,488.10147,488.1041,0.033320636,1.3046218,1.1162513,nan,2,2,0,0
9940000,9940000,47.39775078886011,8.545607356341002,488.10135,488.10397,0.033320636,1.3048979,1.1165719,nan,2,2,0,0
9948000,9948000,47.39775078856396,8.545607355390109,488.10123,488.10385,0.033320636,1.3051772,1.1168963,nan,2,2,0,0
9956000,9956000,47.39775078826328,8.545607354447297,488.1011,488.10373,0.033320636,1.3054595,1.1172243,nan,2,2,0,0
9964000,9964000,47.397750787947984,8.545607353523131,488.10098,488.1036,0.033320636,1.305745,1.117556,nan,2,2,0,0
9972000,9972000,47.397750787630486,8.545607352624684,488.1009,488.10352,0.033320636,1.3060335,1.1178914,nan,2,2,0,0
9980000,9980000,47.39775078730809,8.54560735176496,488.10077,488.1034,0.033320636,1.3063252,1.1159884,nan,2,2,0,0
9988000,9988000,47.397750786974946,8.545607350947131,488.10065,488.10327,0.033320636,1.3066199,1.1163251,nan,2,2,0,0
9996000,9996000,47.397750786500985,8.545607350870766,488.1005,488.10275,0.033320636,1.2321504,1.0920334,nan,2,2,0,0
10004000,10004000,47.397750786024496,8.545607350787709,488.10037,488.10263,0.033320636,1.2323257,1.0922477,nan,2,2,0,0
10012000,10012000,47.39775078555159,8.54560735067609,488.10022,488.10248,0.033320636,1.2325034,1.092465,nan,2,2,0,0
10020000,10020000,47.39775078507323,8.545607350537063,488.1001,488.10236,0.033320636,1.2326835,1.0926852,nan,2,2,0,0
10028000,10028000,47.39775078460396,8.545607350375736,488.09998,488.10223,0.033320636,1.232866,1.0929081,nan,2,2,0,0
10036000,10036000,47.39775078414016,8.545607350193798,488.09985,488.1021,0.033320636,1.233051,1.0917385,nan,2,2,0,0
10044000,10044000,47.39775078367567,8.54560735000819,488.09976,488.10202,0.033320636,1.2332383,1.0919638,nan,2,2,0,0
10052000,10052000,47.397750783204955,8.54560734980915,488.09964,488.1019,0.033320636,1.2334282,1.0921919,nan,2,2,0,0
10060000,10060000,47.397750782730704,8.545607349613977,488.09955,488.1018,0.033320636,1.2336205,1.0924228,nan,2,2,0,0
10068000,10068000,47.39775078224928,8.545607349432302,488.09946,488.1017,0.033320636,1.2338152,1.0926566,nan,2,2,0,0
10076000,10076000,47.39775078175359,8.54560734923534,488.09937,488.10162,0.033320636,1.2340124,1.0928931,nan,2,2,0,0
10084000,10084000,47.397750781252135,8.545607349009677,488.09927,488.10153,0.033320636,1.2342119,1.0931325,nan,2,2,0,0
10092000,10092000,47.3977507807444,8.545607348769522,488.09918,488.10144,0.033320636,1.2344141,1.0933747,nan,2,2,0,0
10100000,10100000,47.39775078022712,8.545607348530586,488.09897,488.10123,0.033320636,1.2346187,1.09221,nan,2,2,0,0
10108000,10108000,47.397750779699734,8.545607348302177,488.09875,488.101,0.033320636,1.2348256,1.0924542,nan,2,2,0,0
10116000,10116000,47.39775077917119,8.545607348089542,488.09857,488.10083,0.033320636,1.2350351,1.0927013,nan,2,2,0,0
10124000,10124000,47.397750778642155,8.545607347871996,488.0984,488.10065,0.033320636,1.2352471,1.0929512,nan,2,2,0,0
10132000,10132000,47.39775077811345,8.545607347653538,488.0982,488.10046,0.033320636,1.2354616,1.0932039,nan,2,2,0,0
10140000,10140000,47.39775077759284,8.545607347438851,488.09802,488.10028,0.033320636,1.2356784,1.0934594,nan,2,2,0,0
10148000,10148000,47.39775077707405,8.545607347227152,488.09784,488.1001,0.033320636,1.2358979,1.0937176,nan,2,2,0,0
10156000,10156000,47.3977507765497,8.545607347003958,488.09766,488.0999,0.033320636,1.2361199,1.0925584,nan,2,2,0,0
10164000,10164000,47.397750776014135,8.545607346778825,488.0975,488.09976,0.033320636,1.2363442,1.0928185,nan,2,2,0,0
10172000,10172000,47.397750775461745,8.545607346547584,488.09732,488.09958,0.033320636,1.2365712,1.0930814,nan,2,2,0,0
10180000,10180000,47.39775077490172,8.545607346310014,488.09717,488.09943,0.033320636,1.2368007,1.0933471,nan,2,2,0,0
10188000,10188000,47.39775077432461,8.545607346068048,488.09702,488.09927,0.033320636,1.2370327,1.0936157,nan,2,2,0,0
10196000,10196000,47.39775077373244,8.545607345838404,488.09686,488.09912,0.033320636,1.2372671,1.093887,nan,2,2,0,0
10204000,10204000,47.39775077313315,8.545607345613218,488.09668,488.09894,0.033320636,1.2375042,1.094161,nan,2,2,0,0
10212000,10212000,47.39775077251596,8.54560734538286,488.09653,488.0988,0.033320636,1.2377437,1.094438,nan,2,2,0,0
10220000,10220000,47.397750771891914,8.545607345157421,488.09647,488.09872,0.033320636,1.2379858,1.0932752,nan,2,2,0,0
10228000,10228000,47.39775077127721,8.545607344949934,488.0964,488.09866,0.033320636,1.2382305,1.0935535,nan,2,2,0,0
10236000,10236000,47.397750770658824,8.54560734474604,488.0963,488.09857,0.033320636,1.2384776,1.0938348,nan,2,2,0,0
10244000,10244000,47.3977507700346,8.54560734452823,488.09625,488.0985,0.033320636,1.2387273,1.0941188,nan,2,2,0,0
10252000,10252000,47.39775076939723,8.545607344326234,488.0962,488.09845,0.033320636,1.2389797,1.0944057,nan,2,2,0,0
10260000,10260000,47.39775076875742,8.545607344139421,488.09613,488.0984,0.033320636,1.2392346,1.0946952,nan,2,2,0,0
10268000,10268000,47.39775076812292,8.545607343947077,488.09607,488.09833,0.033320636,1.239492,1.0949876,nan,2,2,0,0
10276000,10276000,47.3977507674885,8.545607343759,488.09598,488.09824,0.033320636,1.239752,1.0938232,nan,2,2,0,0
10284000,10284000,47.39775076685609,8.54560734357766,488.09592,488.09818,0.033320636,1.2400147,1.0941168,nan,2,2,0,0
10292000,10292000,47.39775076623497,8.545607343408859,488.09583,488.09808,0.033320636,1.2402798,1.0944133,nan,2,2,0,0
10300000,10300000,47.39775076562208,8.545607343249932,488.09573,488.098,0.033320636,1.2405475,1.0947125,nan,2,2,0,0
10308000,10308000,47.39775076501864,8.545607343085626,488.09567,488.09793,0.033320636,1.240818,1.0950145,nan,2,2,0,0
10316000,10316000,47.39775076441534,8.545607342901217,488.0956,488.09787,0.033320636,1.241091,1.0953193,nan,2,2,0,0
10324000,10324000,47.39775076380547,8.545607342696895,488.09552,488.09778,0.033320636,1.2413666,1.0956268,nan,2,2,0,0
10332000,10332000,47.397750763196,8.54560734248869,488.09546,488.09772,0.033320636,1.241645,1.0959371,nan,2,2,0,0
10340000,10340000,47.39775076258953,8.545607342293774,488.09546,488.09772,0.033320636,1.2419258,1.0947611,nan,2,2,0,0
10348000,10348000,47.39775076198806,8.545607342089404,488.09543,488.0977,0.033320636,1.2422093,1.0950725,nan,2,2,0,0
10356000,10356000,47.39775076139047,8.545607341872996,488.09543,488.0977,0.033320636,1.2424954,1.0953865,nan,2,2,0,0
10364000,10364000,47.39775076079099,8.54560734167027,488.09543,488.0977,0.033320636,1.2427843,1.0957032,nan,2,2,0,0
10372000,10372000,47.39775076019079,8.54560734148537,488.0954,488.09766,0.033320636,1.2430757,1.0960228,nan,2,2,0,0
10380000,10380000,47.39775075959252,8.54560734130727,488.0954,488.09766,0.033320636,1.2433698,1.0963452,nan,2,2,0,0
10388000,10388000,47.39775075899395,8.54560734112393,488.0954,488.09766,0.033320636,1.2436665,1.0966704,nan,2,2,0,0
10396000,10396000,47.3977507585686,8.54560734293556,488.09537,488.0974,0.033320636,1.1934705,1.0776093,nan,2,2,0,0
10404000,10404000,47.39775075813616,8.545607344699006,488.09537,488.0974,0.033320636,1.1936641,1.0778333,nan,2,2,0,0
10412000,10412000,47.397750757693906,8.54560734641452,488.09537,488.0974,0.033320636,1.1938598,1.0780594,nan,2,2,0,0
10420000,10420000,47.39775075725198,8.545607348090034,488.09534,488.09738,0.033320636,1.1940576,1.078288,nan,2,2,0,0
10428000,10428000,47.39775075680321,8.545607349729394,488.09534,488.09738,0.033320636,1.1942576,1.0785186,nan,2,2,0,0
10436000,10436000,47.39775075634887,8.545607351339456,488.0953,488.09735,0.033320636,1.1944598,1.0787516,nan,2,2,0,0
10444000,10444000,47.397750755890996,8.545607352908187,488.0953,488.09735,0.033320636,1.1946641,1.0789868,nan,2,2,0,0
10452000,10452000,47.3977507554264,8.545607354423677,488.0953,488.09735,0.033320636,1.1948706,1.0792241,nan,2,2,0,0
10460000,10460000,47.39775075495215,8.545607355913582,488.09525,488.0973,0.033320636,1.1950792,1.0784469,nan,2,2,0,0
10468000,10468000,47.397750754476675,8.545607357392422,488.0952,488.09726,0.033320636,1.19529,1.0786858,nan,2,2,0,0
10476000,10476000,47.39775075400107,8.545607358868322,488.09515,488.0972,0.033320636,1.195503,1.0789268,nan,2,2,0,0
10484000,10484000,47.39775075352499,8.545607360329027,488.09512,488.09717,0.033320636,1.1957182,1.0791701,nan,2,2,0,0
10492000,10492000,47.3977507530447,8.5456073617796,488.0951,488.09714,0.033320636,1.1959356,1.0794158,nan,2,2,0,0
10500000,10500000,47.397750752563006,8.545607363233078,488.09506,488.0971,0.033320636,1.1961551,1.0796635,nan,2,2,0,0
10508000,10508000,47.397750752078956,8.545607364663704,488.09503,488.09708,0.033320636,1.1963769,1.0799136,nan,2,2,0,0
10516000,10516000,47.39775075158878,8.545607366068582,488.09497,488.09702,0.033320636,1.1966009,1.079131,nan,2,2,0,0
10524000,10524000,47.39775075109038,8.545607367435991,488.09494,488.097,0.033320636,1.1968272,1.0793824,nan,2,2,0,0
10532000,10532000,47.39775075058225,8.545607368772835,488.0949,488.09695,0.033320636,1.1970556,1.079636,nan,2,2,0,0
10540000,10540000,47.39775075007194,8.545607370085246,488.09488,488.09692,0.033320636,1.1972862,1.0798918,nan,2,2,0,0
10548000,10548000,47.39775074955938,8.545607371356892,488.09482,488.09686,0.033320636,1.1975192,1.0801498,nan,2,2,0,0
10556000,10556000,47.39775074903406,8.545607372588364,488.0948,488.09683,0.033320636,1.1977544,1.08041,nan,2,2,0,0
10564000,10564000,47.39775074850316,8.54560737379964,488.09476,488.0968,0.033320636,1.1979918,1.0806725,nan,2,2,0,0
10572000,10572000,47.39775074797122,8.545607375008888,488.09473,488.09677,0.033320636,1.1982317,1.0809371,nan,2,2,0,0
10580000,10580000,47.39775074743988,8.545607376210887,488.0947,488.09674,0.033320636,1.1984736,1.0801425,nan,2,2,0,0
10588000,10588000,47.39775074690513,8.545607377383094,488.09467,488.0967,0.033320636,1.198718,1.0804083,nan,2,2,0,0
10596000,10596000,47.397750746360835,8.54560737853003,488.09467,488.0967,0.033320636,1.1989645,1.0806763,nan,2,2,0,0
10604000,10604000,47.39775074582042,8.545607379658225,488.09464,488.09668,0.033320636,1.1992134,1.0809466,nan,2,2,0,0
10612000,10612000,47.397750745278984,8.545607380766898,488.0946,488.09665,0.033320636,1.1994646,1.081219,nan,2,2,0,0
10620000,10620000,47.397750744735276,8.545607381834323,488.0946,488.09665,0.033320636,1.1997181,1.0814936,nan,2,2,0,0
10628000,10628000,47.39775074419311,8.5456073828595,488.09457,488.09662,0.033320636,1.199974,1.0817705,nan,2,2,0,0
10636000,10636000,47.39775074363499,8.545607383859414,488.09454,488.0966,0.033320636,1.2002321,1.080966,nan,2,2,0,0
10644000,10644000,47.39775074307071,8.545607384821443,488.0945,488.09656,0.033320636,1.2004926,1.0812438,nan,2,2,0,0
10652000,10652000,47.39775074250384,8.545607385743777,488.09448,488.09653,0.033320636,1.2007555,1.0815238,nan,2,2,0,0
10660000,10660000,47.397750741921286,8.545607386656263,488.09445,488.0965,0.033320636,1.2010207,1.081806,nan,2,2,0,0
10668000,10668000,47.39775074133225,8.545607387547392,488.09442,488.09647,0.033320636,1.2012883,1.0820904,nan,2,2,0,0
10676000,10676000,47.39775074073654,8.545607388423859,488.09436,488.0964,0.033320636,1.2015584,1.0823771,nan,2,2,0,0
10684000,10684000,47.39775074013826,8.545607389307719,488.09433,488.09637,0.033320636,1.2018307,1.0826659,nan,2,2,0,0
10692000,10692000,47.397750739538694,8.54560739020368,488.0943,488.09634,0.033320636,1.2021055,1.0829569,nan,2,2,0,0
10700000,10700000,47.397750738936594,8.545607391084081,488.09427,488.0963,0.033320636,1.2023827,1.0821351,nan,2,2,0,0
10708000,10708000,47.39775073832924,8.545607391952238,488.0942,488.09625,0.033320636,1.2026623,1.0824267,nan,2,2,0,0
10716000,10716000,47.39775073770985,8.545607392808042,488.09415,488.0962,0.033320636,1.2029443,1.0827206,nan,2,2,0,0
10724000,10724000,47.39775073708882,8.54560739363652,488.09412,488.09616,0.033320636,1.2032287,1.0830168,nan,2,2,0,0
10732000,10732000,47.397750736475146,8.545607394452547,488.09406,488.0961,0.033320636,1.2035156,1.0833151,nan,2,2,0,0
10740000,10740000,47.39775073586877,8.545607395269363,488.09402,488.09607,0.033320636,1.203805,1.0836157,nan,2,2,0,0
10748000,10748000,47.39775073526758,8.545607396072677,488.09396,488.096,0.033320636,1.2040968,1.0839185,nan,2,2,0,0
10756000,10756000,47.39775073466488,8.545607396882755,488.09393,488.09598,0.033320636,1.204391,1.0830822,nan,2,2,0,0
10764000,10764000,47.39775073404576,8.54560739769214,488.09393,488.09598,0.033320636,1.2046878,1.0833853,nan,2,2,0,0
10772000,10772000,47.39775073341404,8.545607398497163,488.0939,488.09595,0.033320636,1.204987,1.0836908,nan,2,2,0,0
10780000,10780000,47.397750732770064,8.545607399294724,488.09387,488.09592,0.033320636,1.2052888,1.0839984,nan,2,2,0,0
10788000,10788000,47.39775073211801,8.545607400082462,488.09384,488.0959,0.033320636,1.2055931,1.0843083,nan,2,2,0,0
10796000,10796000,47.39775073237386,8.54560740058907,488.09393,488.09604,0.033320636,1.1679364,1.0698187,nan,2,2,0,0
10804000,10804000,47.39775073260349,8.545607401085855,488.094,488.0961,0.033320636,1.1681453,1.0700479,nan,2,2,0,0
10812000,10812000,47.39775073282777,8.54560740158285,488.0941,488.0962,0.033320636,1.1683562,1.0702788,nan,2,2,0,0
10820000,10820000,47.39775073303924,8.54560740210068,488.0942,488.0963,0.033320636,1.1685691,1.0697103,nan,2,2,0,0
10828000,10828000,47.39775073322812,8.545607402636398,488.0943,488.0964,0.033320636,1.168784,1.0699422,nan,2,2,0,0
10836000,10836000,47.39775073339644,8.54560740317436,488.0944,488.0965,0.033320636,1.169001,1.0701761,nan,2,2,0,0
10844000,10844000,47.39775073354168,8.545607403724002,488.09448,488.0966,0.033320636,1.16922,1.0704118,nan,2,2,0,0
10852000,10852000,47.39775073367966,8.545607404266118,488.09457,488.09668,0.033320636,1.1694411,1.0706493,nan,2,2,0,0
10860000,10860000,47.39775073382531,8.545607404805347,488.09467,488.09677,0.033320636,1.1696643,1.0708886,nan,2,2,0,0
10868000,10868000,47.3977507339723,8.545607405350616,488.09476,488.09686,0.033320636,1.1698896,1.0711298,nan,2,2,0,0
10876000,10876000,47.39775073412161,8.54560740591749,488.09482,488.09692,0.033320636,1.1701169,1.070552,nan,2,2,0,0
10884000,10884000,47.39775073426968,8.545607406482283,488.09488,488.097,0.033320636,1.1703463,1.0707942,nan,2,2,0,0
10892000,10892000,47.39775073440075,8.545607407041881,488.0949,488.09702,0.033320636,1.1705779,1.0710382,nan,2,2,0,0
10900000,10900000,47.39775073450599,8.54560740761561,488.09497,488.09708,0.033320636,1.1708115,1.071284,nan,2,2,0,0
10908000,10908000,47.39775073459508,8.54560740818268,488.09503,488.09714,0.033320636,1.1710473,1.0715317,nan,2,2,0,0
10916000,10916000,47.39775073467965,8.54560740873729,488.09506,488.09717,0.033320636,1.1712853,1.0717812,nan,2,2,0,0
10924000,10924000,47.39775073476832,8.54560740930556,488.09512,488.09723,0.033320636,1.1715254,1.0720325,nan,2,2,0,0
10932000,10932000,47.397750734868,8.545607409875007,488.09515,488.09726,0.033320636,1.1717676,1.0722857,nan,2,2,0,0
10940000,10940000,47.397750734963175,8.545607410443008,488.09518,488.0973,0.033320636,1.172012,1.071693,nan,2,2,0,0
10948000,10948000,47.397750735036546,8.54560741102541,488.0952,488.09732,0.033320636,1.1722586,1.0719469,nan,2,2,0,0
10956000,10956000,47.39775073509708,8.545607411608888,488.0952,488.09732,0.033320636,1.1725074,1.0722027,nan,2,2,0,0
10964000,10964000,47.39775073513822,8.545607412181191,488.09525,488.09735,0.033320636,1.1727585,1.0724603,nan,2,2,0,0
10972000,10972000,47.397750735165644,8.545607412748634,488.09525,488.09735,0.033320636,1.1730117,1.0727197,nan,2,2,0,0
10980000,10980000,47.39775073517828,8.545607413312117,488.09528,488.09738,0.033320636,1.1732671,1.072981,nan,2,2,0,0
10988000,10988000,47.39775073517295,8.545607413878681,488.09528,488.09738,0.033320636,1.1735249,1.0732442,nan,2,2,0,0
10996000,10996000,47.39775073515143,8.54560741445101,488.0953,488.0974,0.033320636,1.1737847,1.0726389,nan,2,2,0,0
11004000,11004000,47.3977507351334,8.54560741503038,488.0953,488.0974,0.033320636,1.174047,1.0729026,nan,2,2,0,0
11012000,11012000,47.39775073510832,8.545607415623063,488.0953,488.0974,0.033320636,1.1743114,1.0731682,nan,2,2,0,0
11020000,11020000,47.397750735067085,8.545607416214363,488.0953,488.0974,0.033320636,1.1745782,1.0734357,nan,2,2,0,0
11028000,11028000,47.39775073500476,8.545607416787371,488.09528,488.09738,0.033320636,1.1748472,1.0737048,nan,2,2,0,0
11036000,11036000,47.39775073491722,8.545607417349604,488.09528,488.09738,0.033320636,1.1751186,1.0739759,nan,2,2,0,0
11044000,11044000,47.397750734823134,8.545607417893462,488.09528,488.09738,0.033320636,1.1753923,1.0742489,nan,2,2,0,0
11052000,11052000,47.397750734739816,8.545607418426247,488.09528,488.09738,0.033320636,1.1756682,1.0745237,nan,2,2,0,0
11060000,11060000,47.397750734634364,8.545607418958562,488.09534,488.09744,0.033320636,1.1759466,1.0738993,nan,2,2,0,0
11068000,11068000,47.39775073450691,8.545607419486533,488.09543,488.09753,0.033320636,1.1762272,1.0741745,nan,2,2,0,0
11076000,11076000,47.39775073437567,8.545607420015951,488.09552,488.09763,0.033320636,1.1765103,1.0744516,nan,2,2,0,0
11084000,11084000,47.39775073425065,8.54560742054062,488.09558,488.0977,0.033320636,1.1767957,1.0747305,nan,2,2,0,0
11092000,11092000,47.39775073412707,8.545607421057701,488.09567,488.09778,0.033320636,1.1770835,1.0750111,nan,2,2,0,0
11100000,11100000,47.39775073400224,8.545607421554529,488.09573,488.09784,0.033320636,1.1773738,1.0752938,nan,2,2,0,0
11108000,11108000,47.397750733877714,8.545607422044515,488.0958,488.0979,0.033320636,1.1776663,1.0755781,nan,2,2,0,0
11116000,11116000,47.39775073374299,8.545607422535488,488.0959,488.098,0.033320636,1.1779615,1.0749378,nan,2,2,0,0
11124000,11124000,47.39775073360034,8.545607423016465,488.09595,488.09805,0.033320636,1.1782589,1.0752224,nan,2,2,0,0
11132000,11132000,47.39775073344383,8.545607423488534,488.096,488.0981,0.033320636,1.1785588,1.075509,nan,2,2,0,0
11140000,11140000,47.39775073328337,8.54560742394584,488.0961,488.0982,0.033320636,1.1788613,1.0757973,nan,2,2,0,0
11148000,11148000,47.39775073312845,8.545607424386196,488.09616,488.09827,0.033320636,1.1791662,1.0760874,nan,2,2,0,0
11156000,11156000,47.39775073297286,8.54560742482242,488.09622,488.09833,0.033320636,1.1794735,1.0763794,nan,2,2,0,0
11164000,11164000,47.39775073280692,8.54560742525441,488.09625,488.09836,0.033320636,1.1797833,1.0766733,nan,2,2,0,0
11172000,11172000,47.39775073263429,8.545607425673063,488.0963,488.09842,0.033320636,1.1800958,1.0769689,nan,2,2,0,0
11180000,11180000,47.39775073247266,8.545607426086086,488.0964,488.0985,0.033320636,1.1804107,1.0763055,nan,2,2,0,0
11188000,11188000,47.39775073229864,8.545607426515291,488.09647,488.09857,0.033320636,1.1807282,1.0766013,nan,2,2,0,0
11196000,11196000,47.39775073340342,8.545607424688813,488.0965,488.09854,0.033320636,1.1502082,1.0642177,nan,2,2,0,0
11204000,11204000,47.39775073448033,8.545607422877785,488.0965,488.09854,0.033320636,1.150432,1.064445,nan,2,2,0,0
11212000,11212000,47.39775073554187,8.545607421067501,488.09653,488.09857,0.033320636,1.1506579,1.0646739,nan,2,2,0,0
11220000,11220000,47.39775073658134,8.545607419262376,488.09653,488.09857,0.033320636,1.1508857,1.0649043,nan,2,2,0,0
11228000,11228000,47.3977507375922,8.545607417471594,488.09656,488.0986,0.033320636,1.1511157,1.0651364,nan,2,2,0,0
11236000,11236000,47.39775073857551,8.545607415710629,488.09653,488.09857,0.033320636,1.1513475,1.0646812,nan,2,2,0,0
11244000,11244000,47.39775073954018,8.545607413964714,488.09653,488.09857,0.033320636,1.1515816,1.0649139,nan,2,2,0,0
11252000,11252000,47.397750740484604,8.545607412244433,488.0965,488.09854,0.033320636,1.1518178,1.0651481,nan,2,2,0,0
11260000,11260000,47.39775074140881,8.54560741055318,488.09647,488.0985,0.033320636,1.152056,1.065384,nan,2,2,0,0
11268000,11268000,47.39775074230693,8.545607408870378,488.09647,488.0985,0.033320636,1.1522964,1.0656214,nan,2,2,0,0
11276000,11276000,47.39775074318027,8.545607407206768,488.09644,488.09848,0.033320636,1.1525389,1.0658604,nan,2,2,0,0
11284000,11284000,47.39775074403527,8.545607405571914,488.0964,488.09845,0.033320636,1.1527835,1.0661008,nan,2,2,0,0
11292000,11292000,47.39775074487699,8.545607403996984,488.0964,488.09845,0.033320636,1.1530303,1.066343,nan,2,2,0,0
11300000,11300000,47.39775074568221,8.545607402481787,488.09634,488.0984,0.033320636,1.1532793,1.0658721,nan,2,2,0,0
11308000,11308000,47.397750746454435,8.545607401017374,488.09628,488.09833,0.033320636,1.1535305,1.0661148,nan,2,2,0,0
11316000,11316000,47.39775074720988,8.54560739961027,488.09622,488.09827,0.033320636,1.1537837,1.0663589,nan,2,2,0,0
11324000,11324000,47.39775074794653,8.545607398241232,488.09616,488.0982,0.033320636,1.1540393,1.0666047,nan,2,2,0,0
11332000,11332000,47.397750748668315,8.545607396894017,488.0961,488.09814,0.033320636,1.154297,1.0668521,nan,2,2,0,0
11340000,11340000,47.39775074937004,8.545607395548561,488.09604,488.09808,0.033320636,1.154557,1.0671009,nan,2,2,0,0
11348000,11348000,47.397750750048,8.545607394194452,488.09595,488.098,0.033320636,1.1548193,1.0673513,nan,2,2,0,0
11356000,11356000,47.397750750710394,8.545607392849586,488.09592,488.09796,0.033320636,1.1550838,1.0668671,nan,2,2,0,0
11364000,11364000,47.39775075135388,8.545607391518399,488.09586,488.0979,0.033320636,1.1553506,1.0671179,nan,2,2,0,0
11372000,11372000,47.39775075198673,8.545607390193608,488.0958,488.09784,0.033320636,1.1556196,1.0673704,nan,2,2,0,0
11380000,11380000,47.39775075260537,8.545607388861553,488.09576,488.0978,0.033320636,1.155891,1.0676246,nan,2,2,0,0
11388000,11388000,47.39775075321759,8.545607387530398,488.0957,488.09775,0.033320636,1.1561646,1.06788,nan,2,2,0,0
11396000,11396000,47.397750753815515,8.54560738621996,488.09564,488.0977,0.033320636,1.1564406,1.0681373,nan,2,2,0,0
11404000,11404000,47.397750754390685,8.545607384929944,488.09558,488.09763,0.033320636,1.156719,1.068396,nan,2,2,0,0
11412000,11412000,47.39775075494982,8.545607383660252,488.09552,488.09756,0.033320636,1.1569997,1.0686562,nan,2,2,0,0
11420000,11420000,47.39775075549895,8.545607382423864,488.09543,488.09747,0.033320636,1.1572828,1.0681531,nan,2,2,0,0
11428000,11428000,47.397750756046364,8.545607381206443,488.0953,488.09735,0.033320636,1.1575682,1.0684136,nan,2,2,0,0
11436000,11436000,47.3977507565852,8.545607380008294,488.0952,488.09726,0.033320636,1.1578561,1.0686759,nan,2,2,0,0
11444000,11444000,47.39775075710944,8.5456073788147,488.09512,488.09717,0.033320636,1.1581464,1.0689396,nan,2,2,0,0
11452000,11452000,47.39775075761618,8.54560737763945,488.09503,488.09708,0.033320636,1.1584392,1.0692049,nan,2,2,0,0
11460000,11460000,47.39775075812084,8.545607376484833,488.0949,488.09695,0.033320636,1.1587343,1.0694717,nan,2,2,0,0
11468000,11468000,47.397750758617974,8.545607375351196,488.09482,488.09686,0.033320636,1.159032,1.0697402,nan,2,2,0,0
11476000,11476000,47.397750759105065,8.545607374238672,488.0947,488.09674,0.033320636,1.159332,1.0692208,nan,2,2,0,0
11484000,11484000,47.39775075957033,8.545607373135539,488.0946,488.09665,0.033320636,1.1596347,1.0694895,nan,2,2,0,0
11492000,11492000,47.397750760020905,8.545607372038164,488.09448,488.09653,0.033320636,1.1599399,1.0697596,nan,2,2,0,0
11500000,11500000,47.39775076047389,8.545607370961811,488.09436,488.0964,0.033320636,1.1602474,1.0700314,nan,2,2,0,0
11508000,11508000,47.397750760927664,8.545607369893194,488.09424,488.09628,0.033320636,1.1605576,1.0703046,nan,2,2,0,0
11516000,11516000,47.39775076138093,8.545607368828607,488.09412,488.09616,0.033320636,1.1608704,1.0705795,nan,2,2,0,0
11524000,11524000,47.39775076183481,8.5456073677717,488.09402,488.09607,0.033320636,1.1611857,1.070856,nan,2,2,0,0
11532000,11532000,47.39775076228227,8.545607366705976,488.0939,488.09595,0.033320636,1.1615037,1.071134,nan,2,2,0,0
11540000,11540000,47.39775076271677,8.545607365630088,488.0938,488.09586,0.033320636,1.1618242,1.0705925,nan,2,2,0,0
11548000,11548000,47.39775076315214,8.545607364562564,488.09372,488.09576,0.033320636,1.1621473,1.0708705,nan,2,2,0,0
11556000,11556000,47.397750763586274,8.545607363531154,488.09366,488.0957,0.033320636,1.1624731,1.0711502,nan,2,2,0,0
11564000,11564000,47.39775076399892,8.545607362550014,488.09357,488.0956,0.033320636,1.1628015,1.0714313,nan,2,2,0,0
11572000,11572000,47.39775076439459,8.545607361595334,488.09348,488.09552,0.033320636,1.1631327,1.071714,nan,2,2,0,0
11580000,11580000,47.39775076477556,8.545607360671243,488.09338,488.09543,0.033320636,1.1634665,1.0719984,nan,2,2,0,0
11588000,11588000,47.39775076513168,8.545607359782421,488.0933,488.09534,0.033320636,1.1638029,1.0722842,nan,2,2,0,0
11596000,11596000,47.39775076631404,8.545607359414914,488.0932,488.09598,0.033320636,1.1375176,1.0604361,nan,2,2,0,0
11604000,11604000,47.39775076747768,8.545607359030406,488.0931,488.0959,0.033320636,1.1377574,1.0606594,nan,2,2,0,0
11612000,11612000,47.39775076863236,8.545607358645256,488.09302,488.0958,0.033320636,1.1379993,1.0608841,nan,2,2,0,0
11620000,11620000,47.39775076978189,8.545607358262993,488.09293,488.0957,0.033320636,1.1382434,1.0611101,nan,2,2,0,0
11628000,11628000,47.397750770908985,8.545607357878007,488.0928,488.09558,0.033320636,1.1384897,1.0613374,nan,2,2,0,0
11636000,11636000,47.397750772018675,8.545607357497985,488.0927,488.0955,0.033320636,1.138738,1.0615661,nan,2,2,0,0
11644000,11644000,47.39775077311554,8.545607357125299,488.09262,488.0954,0.033320636,1.1389887,1.0617962,nan,2,2,0,0
11652000,11652000,47.39775077418848,8.545607356746284,488.0925,488.09528,0.033320636,1.1392415,1.0620276,nan,2,2,0,0
11660000,11660000,47.39775077523244,8.545607356380621,488.09238,488.09515,0.033320636,1.1394966,1.0616356,nan,2,2,0,0
11668000,11668000,47.39775077625497,8.5456073560291,488.09225,488.09503,0.033320636,1.1397538,1.0618675,nan,2,2,0,0
11676000,11676000,47.39775077725818,8.545607355687917,488.0921,488.09488,0.033320636,1.1400133,1.0621006,nan,2,2,0,0
11684000,11684000,47.39775077823526,8.54560735534877,488.09198,488.09476,0.033320636,1.1402751,1.0623353,nan,2,2,0,0
11692000,11692000,47.39775077920461,8.545607355028356,488.09183,488.0946,0.033320636,1.1405392,1.0625712,nan,2,2,0,0
11700000,11700000,47.3977507801693,8.545607354717944,488.0917,488.09448,0.033320636,1.1408056,1.0628084,nan,2,2,0,0
11708000,11708000,47.397750781125644,8.545607354397116,488.09155,488.09433,0.033320636,1.1410743,1.063047,nan,2,2,0,0
11716000,11716000,47.397750782072904,8.545607354066638,488.09143,488.0942,0.033320636,1.1413453,1.0626417,nan,2,2,0,0
11724000,11724000,47.39775078301236,8.545607353733274,488.09128,488.09406,0.033320636,1.1416187,1.0628806,nan,2,2,0,0
11732000,11732000,47.3977507839491,8.545607353402188,488.09113,488.0939,0.033320636,1.1418943,1.063121,nan,2,2,0,0
11740000,11740000,47.397750784884074,8.54560735305819,488.09097,488.09375,0.033320636,1.1421725,1.0633627,nan,2,2,0,0
11748000,11748000,47.39775078580216,8.545607352714681,488.09082,488.0936,0.033320636,1.1424531,1.0636058,nan,2,2,0,0
11756000,11756000,47.3977507867048,8.545607352367428,488.09067,488.09344,0.033320636,1.142736,1.0638502,nan,2,2,0,0
11764000,11764000,47.397750787607215,8.545607352008625,488.0905,488.0933,0.033320636,1.1430212,1.0640961,nan,2,2,0,0
11772000,11772000,47.397750788505085,8.545607351634384,488.09036,488.09314,0.033320636,1.1433091,1.0643432,nan,2,2,0,0
11780000,11780000,47.397750789387175,8.545607351259465,488.0902,488.093,0.033320636,1.1435993,1.0639197,nan,2,2,0,0
11788000,11788000,47.39775079024943,8.545607350888924,488.09006,488.09283,0.033320636,1.143892,1.064167,nan,2,2,0,0
11796000,11796000,47.39775079108722,8.545607350501303,488.0899,488.09268,0.033320636,1.1441873,1.0644158,nan,2,2,0,0
11804000,11804000,47.39775079190939,8.54560735008962,488.08978,488.09256,0.033320636,1.144485,1.0646659,nan,2,2,0,0
11812000,11812000,47.39775079271584,8.545607349675375,488.08963,488.0924,0.033320636,1.1447853,1.0649174,nan,2,2,0,0
11820000,11820000,47.39775079349987,8.545607349264333,488.08948,488.09225,0.033320636,1.1450881,1.0651703,nan,2,2,0,0
11828000,11828000,47.397750794266756,8.54560734886388,488.08932,488.0921,0.033320636,1.1453935,1.0654246,nan,2,2,0,0
11836000,11836000,47.39775079502037,8.545607348472391,488.08917,488.09195,0.033320636,1.1457014,1.0649854,nan,2,2,0,0
11844000,11844000,47.39775079576094,8.545607348091123,488.08902,488.0918,0.033320636,1.146012,1.0652397,nan,2,2,0,0
11852000,11852000,47.39775079649021,8.545607347704083,488.08887,488.09164,0.033320636,1.1463252,1.0654954,nan,2,2,0,0
11860000,11860000,47.39775079720361,8.545607347297352,488.0887,488.0915,0.033320636,1.1466409,1.0657525,nan,2,2,0,0
11868000,11868000,47.39775079789197,8.545607346871938,488.08856,488.09134,0.033320636,1.1469594,1.0660111,nan,2,2,0,0
11876000,11876000,47.39775079856353,8.545607346424125,488.0884,488.0912,0.033320636,1.1472806,1.0662708,nan,2,2,0,0
11884000,11884000,47.39775079922027,8.545607345978123,488.08826,488.09103,0.033320636,1.1476045,1.066532,nan,2,2,0,0
11892000,11892000,47.397750799869875,8.54560734552936,488.0881,488.09088,0.033320636,1.1479311,1.0667946,nan,2,2,0,0
11900000,11900000,47.39775080050926,8.545607345069762,488.08798,488.09076,0.033320636,1.1482604,1.0663345,nan,2,2,0,0
11908000,11908000,47.397750801145655,8.545607344608495,488.08783,488.0906,0.033320636,1.1485924,1.0665971,nan,2,2,0,0
11916000,11916000,47.39775080177951,8.545607344134266,488.0877,488.09048,0.033320636,1.1489271,1.0668612,nan,2,2,0,0
11924000,11924000,47.39775080241241,8.54560734365943,488.08755,488.09033,0.033320636,1.1492647,1.0671265,nan,2,2,0,0
11932000,11932000,47.397750803035095,8.54560734318249,488.08743,488.0902,0.033320636,1.149605,1.0673932,nan,2,2,0,0
11940000,11940000,47.397750803644406,8.545607342690294,488.08728,488.09006,0.033320636,1.1499482,1.0676613,nan,2,2,0,0
11948000,11948000,47.39775080423666,8.545607342189825,488.08713,488.0899,0.033320636,1.1502943,1.0679308,nan,2,2,0,0
11956000,11956000,47.397750804819665,8.54560734170674,488.087,488.08978,0.033320636,1.1506432,1.0674528,nan,2,2,0,0
11964000,11964000,47.39775080538731,8.545607341244043,488.08685,488.08963,0.033320636,1.150995,1.0677222,nan,2,2,0,0
11972000,11972000,47.397750805948576,8.545607340783771,488.08673,488.0895,0.033320636,1.1513497,1.0679929,nan,2,2,0,0
11980000,11980000,47.3977508064995,8.545607340317817,488.08658,488.08936,0.033320636,1.1517073,1.0682651,nan,2,2,0,0
11988000,11988000,47.39775080703576,8.545607339858437,488.08646,488.08923,0.033320636,1.1520678,1.0685387,nan,2,2,0,0
11996000,11996000,47.39775080825892,8.545607341005551,488.08646,488.09006,0.033320636,1.12828,1.0583003,nan,2,2,0,0
12004000,12004000,47.39775080946958,8.545607342131408,488.0865,488.0901,0.033320636,1.1285373,1.0585203,nan,2,2,0,0
12012000,12012000,47.39775081066984,8.545607343230014,488.08652,488.09012,0.033320636,1.1287969,1.0587416,nan,2,2,0,0
12020000,12020000,47.39775081186639,8.54560734427815,488.08655,488.09015,0.033320636,1.1290587,1.0584036,nan,2,2,0,0
12028000,12028000,47.39775081305699,8.545607345276016,488.08658,488.09018,0.033320636,1.129323,1.0586252,nan,2,2,0,0
12036000,12036000,47.397750814241355,8.545607346229902,488.0866,488.0902,0.033320636,1.1295896,1.0588481,nan,2,2,0,0
12044000,12044000,47.397750815409886,8.545607347171002,488.08664,488.09024,0.033320636,1.1298585,1.0590721,nan,2,2,0,0
12052000,12052000,47.39775081654964,8.54560734808281,488.08667,488.09027,0.033320636,1.1301297,1.0592973,nan,2,2,0,0
12060000,12060000,47.39775081765726,8.545607348962903,488.08667,488.09027,0.033320636,1.1304033,1.0595238,nan,2,2,0,0
12068000,12068000,47.39775081873695,8.545607349826817,488.0867,488.0903,0.033320636,1.1306794,1.0597514,nan,2,2,0,0
12076000,12076000,47.397750819793806,8.545607350662575,488.0867,488.0903,0.033320636,1.1309578,1.0594006,nan,2,2,0,0
12084000,12084000,47.39775082083395,8.545607351465234,488.0867,488.0903,0.033320636,1.1312387,1.0596285,nan,2,2,0,0
12092000,12092000,47.39775082184932,8.545607352249398,488.0867,488.0903,0.033320636,1.1315222,1.0598576,nan,2,2,0,0
12100000,12100000,47.39775082284725,8.545607353011054,488.08673,488.09033,0.033320636,1.1318079,1.0600879,nan,2,2,0,0
12108000,12108000,47.39775082383067,8.54560735375635,488.0867,488.0903,0.033320636,1.1320963,1.0603195,nan,2,2,0,0
12116000,12116000,47.39775082480032,8.545607354491006,488.0867,488.0903,0.033320636,1.1323872,1.0605524,nan,2,2,0,0
12124000,12124000,47.397750825767886,8.54560735521979,488.0867,488.0903,0.033320636,1.1326805,1.0607864,nan,2,2,0,0
12132000,12132000,47.39775082673747,8.545607355924892,488.0867,488.0903,0.033320636,1.1329764,1.0610216,nan,2,2,0,0
12140000,12140000,47.3977508277161,8.545607356592372,488.08667,488.09027,0.033320636,1.1332749,1.0606534,nan,2,2,0,0
12148000,12148000,47.39775082869787,8.545607357229038,488.08664,488.09024,0.033320636,1.133576,1.0608888,nan,2,2,0,0
12156000,12156000,47.39775082967507,8.545607357828992,488.0866,488.0902,0.033320636,1.1338798,1.0611254,nan,2,2,0,0
12164000,12164000,47.39775083064335,8.545607358401648,488.08655,488.09015,0.033320636,1.134186,1.0613633,nan,2,2,0,0
12172000,12172000,47.39775083160079,8.545607358962997,488.08652,488.09012,0.033320636,1.134495,1.0616024,nan,2,2,0,0
12180000,12180000,47.39775083254405,8.54560735950764,488.08646,488.09006,0.033320636,1.1348068,1.0618427,nan,2,2,0,0
12188000,12188000,47.3977508334755,8.54560736003724,488.08643,488.09003,0.033320636,1.135121,1.0620841,nan,2,2,0,0
12196000,12196000,47.39775083440024,8.54560736058142,488.08636,488.08997,0.033320636,1.135438,1.0617012,nan,2,2,0,0
12204000,12204000,47.39775083531905,8.545607361141572,488.08627,488.08987,0.033320636,1.1357578,1.0619428,nan,2,2,0,0
12212000,12212000,47.39775083622295,8.545607361700126,488.0862,488.0898,0.033320636,1.1360803,1.0621855,nan,2,2,0,0
12220000,12220000,47.397750837112866,8.545607362254025,488.08612,488.08972,0.033320636,1.1364055,1.0624297,nan,2,2,0,0
12228000,12228000,47.39775083799241,8.545607362786054,488.08606,488.08966,0.033320636,1.1367335,1.062675,nan,2,2,0,0
12236000,12236000,47.39775083886775,8.545607363296504,488.08597,488.08957,0.033320636,1.1370643,1.0629214,nan,2,2,0,0
12244000,12244000,47.39775083973681,8.545607363793412,488.08588,488.08948,0.033320636,1.137398,1.0631692,nan,2,2,0,0
12252000,12252000,47.39775084059673,8.545607364267626,488.0858,488.0894,0.033320636,1.1377345,1.0634181,nan,2,2,0,0
12260000,12260000,47.397750841451334,8.545607364715654,488.08572,488.08932,0.033320636,1.1380738,1.0630157,nan,2,2,0,0
12268000,12268000,47.39775084230353,8.545607365144434,488.08563,488.08923,0.033320636,1.138416,1.0632646,nan,2,2,0,0
12276000,12276000,47.39775084315978,8.545607365562944,488.08557,488.08917,0.033320636,1.1387612,1.0635148,nan,2,2,0,0
12284000,12284000,47.39775084402199,8.545607365962839,488.08548,488.08908,0.033320636,1.1391093,1.0637662,nan,2,2,0,0
12292000,12292000,47.397750844883184,8.545607366329735,488.0854,488.089,0.033320636,1.1394602,1.0640188,nan,2,2,0,0
12300000,12300000,47.3977508457343,8.545607366668579,488.08533,488.08893,0.033320636,1.1398143,1.0642728,nan,2,2,0,0
12308000,12308000,47.39775084657523,8.545607367009476,488.08524,488.08884,0.033320636,1.1401712,1.064528,nan,2,2,0,0
12316000,12316000,47.397750847430714,8.545607367345383,488.08514,488.08875,0.033320636,1.1405311,1.0641087,nan,2,2,0,0
12324000,12324000,47.397750848287586,8.545607367655062,488.08508,488.08868,0.033320636,1.140894,1.0643637,nan,2,2,0,0
12332000,12332000,47.39775084913923,8.545607367952258,488.08502,488.08862,0.033320636,1.1412601,1.06462,nan,2,2,0,0
12340000,12340000,47.397750849985485,8.54560736824,488.08496,488.08856,0.033320636,1.1416292,1.0648775,nan,2,2,0,0
12348000,12348000,47.39775085082673,8.545607368514448,488.08487,488.08847,0.033320636,1.1420014,1.0651363,nan,2,2,0,0
12356000,12356000,47.39775085167235,8.545607368789668,488.08478,488.08838,0.033320636,1.1423768,1.0653963,nan,2,2,0,0
12364000,12364000,47.39775085252024,8.545607369058022,488.08472,488.08832,0.033320636,1.1427552,1.0656576,nan,2,2,0,0
12372000,12372000,47.39775085336241,8.545607369323244,488.08463,488.08823,0.033320636,1.1431367,1.0659201,nan,2,2,0,0
12380000,12380000,47.397750854198776,8.54560736956593,488.0845,488.0881,0.033320636,1.1435215,1.0654789,nan,2,2,0,0
12388000,12388000,47.397750855038986,8.54560736979152,488.08438,488.08798,0.033320636,1.1439096,1.0657412,nan,2,2,0,0
12396000,12396000,47.397750855909315,8.545607370285465,488.08444,488.08865,0.033320636,1.1215086,1.0562601,nan,2,2,0,0
12404000,12404000,47.397750856769804,8.54560737077313,488.0845,488.0887,0.033320636,1.1217843,1.0564743,nan,2,2,0,0
12412000,12412000,47.397750857615975,8.545607371231952,488.08456,488.08878,0.033320636,1.1220627,1.0566896,nan,2,2,0,0
12420000,12420000,47.39775085846106,8.545607371680784,488.08463,488.08884,0.033320636,1.1223434,1.0569061,nan,2,2,0,0
12428000,12428000,47.39775085930659,8.545607372126305,488.08466,488.08887,0.033320636,1.1226267,1.0571235,nan,2,2,0,0
12436000,12436000,47.39775086014637,8.545607372548101,488.08472,488.08893,0.033320636,1.1229124,1.0568123,nan,2,2,0,0
12444000,12444000,47.39775086097982,8.545607372956086,488.08475,488.08896,0.033320636,1.1232005,1.05703,nan,2,2,0,0
12452000,12452000,47.39775086181407,8.545607373354638,488.08478,488.089,0.033320636,1.1234914,1.0572488,nan,2,2,0,0
12460000,12460000,47.397750862639235,8.545607373735312,488.0848,488.08902,0.033320636,1.1237848,1.0574688,nan,2,2,0,0
12468000,12468000,47.3977508634652,8.545607374087748,488.08484,488.08905,0.033320636,1.1240807,1.0576898,nan,2,2,0,0
12476000,12476000,47.39775086429306,8.545607374437543,488.08487,488.08908,0.033320636,1.1243793,1.057912,nan,2,2,0,0
12484000,12484000,47.39775086512143,8.545607374782122,488.08487,488.08908,0.033320636,1.1246804,1.0581353,nan,2,2,0,0
12492000,12492000,47.397750865957356,8.545607375121424,488.08487,488.08908,0.033320636,1.1249843,1.0583596,nan,2,2,0,0
12500000,12500000,47.39775086680914,8.545607375469512,488.0849,488.0891,0.033320636,1.1252906,1.0580322,nan,2,2,0,0
12508000,12508000,47.39775086766876,8.545607375811597,488.0849,488.0891,0.033320636,1.1255999,1.0582567,nan,2,2,0,0
12516000,12516000,47.39775086852545,8.545607376133688,488.0849,488.0891,0.033320636,1.1259117,1.0584823,nan,2,2,0,0
12524000,12524000,47.397750869382705,8.545607376431645,488.0849,488.0891,0.033320636,1.1262263,1.058709,nan,2,2,0,0
12532000,12532000,47.39775087023705,8.54560737670079,488.0849,488.0891,0.033320636,1.1265435,1.058937,nan,2,2,0,0
12540000,12540000,47.397750871081094,8.545607376957545,488.08487,488.08908,0.033320636,1.1268637,1.0591658,nan,2,2,0,0
12548000,12548000,47.39775087192339,8.545607377209324,488.08487,488.08908,0.033320636,1.1271865,1.0593959,nan,2,2,0,0
12556000,12556000,47.39775087276171,8.54560737745963,488.08487,488.08908,0.033320636,1.1275122,1.0590545,nan,2,2,0,0
12564000,12564000,47.397750873591235,8.545607377692033,488.08487,488.08908,0.033320636,1.1278406,1.0592847,nan,2,2,0,0
12572000,12572000,47.39775087441325,8.54560737791375,488.08487,488.08908,0.033320636,1.128172,1.059516,nan,2,2,0,0
12580000,12580000,47.397750875225874,8.545607378129109,488.08484,488.08905,0.033320636,1.1285063,1.0597484,nan,2,2,0,0
12588000,12588000,47.39775087603235,8.545607378355895,488.08484,488.08905,0.033320636,1.1288433,1.059982,nan,2,2,0,0
12596000,12596000,47.397750876822876,8.545607378580192,488.0848,488.08902,0.033320636,1.1291834,1.0602165,nan,2,2,0,0
12604000,12604000,47.3977508775948,8.545607378782163,488.08478,488.089,0.033320636,1.1295263,1.0604523,nan,2,2,0,0
12612000,12612000,47.39775087835571,8.545607378968201,488.08472,488.08893,0.033320636,1.1298722,1.0600961,nan,2,2,0,0
12620000,12620000,47.39775087911694,8.545607379139943,488.08463,488.08884,0.033320636,1.130221,1.060332,nan,2,2,0,0
12628000,12628000,47.397750879871644,8.545607379325197,488.08456,488.08878,0.033320636,1.1305728,1.0605688,nan,2,2,0,0
12636000,12636000,47.397750880603,8.54560737952759,488.08447,488.08868,0.033320636,1.1309277,1.060807,nan,2,2,0,0
12644000,12644000,47.39775088130429,8.545607379729157,488.0844,488.08862,0.033320636,1.1312855,1.0610461,nan,2,2,0,0
12652000,12652000,47.39775088198356,8.54560737993771,488.08432,488.08853,0.033320636,1.1316465,1.0612864,nan,2,2,0,0
12660000,12660000,47.39775088265134,8.545607380143535,488.08423,488.08844,0.033320636,1.1320106,1.0615278,nan,2,2,0,0
12668000,12668000,47.39775088331079,8.545607380328974,488.08417,488.08838,0.033320636,1.1323777,1.0611562,nan,2,2,0,0
12676000,12676000,47.39775088395971,8.545607380509447,488.08408,488.0883,0.033320636,1.132748,1.0613976,nan,2,2,0,0
12684000,12684000,47.397750884587346,8.54560738069118,488.08398,488.0882,0.033320636,1.1331214,1.06164,nan,2,2,0,0
12692000,12692000,47.397750885203834,8.54560738086505,488.08392,488.08813,0.033320636,1.133498,1.0618837,nan,2,2,0,0
12700000,12700000,47.39775088581614,8.545607381030647,488.08383,488.08804,0.033320636,1.1338778,1.0621285,nan,2,2,0,0
12708000,12708000,47.39775088643059,8.545607381190933,488.08374,488.08795,0.033320636,1.1342608,1.0623745,nan,2,2,0,0
12716000,12716000,47.397750887040004,8.545607381369246,488.08365,488.08786,0.033320636,1.1346469,1.0626216,nan,2,2,0,0
12724000,12724000,47.397750887644406,8.545607381554902,488.08356,488.08777,0.033320636,1.1350365,1.0622334,nan,2,2,0,0
12732000,12732000,47.397750888237425,8.545607381717883,488.0835,488.0877,0.033320636,1.1354291,1.0624804,nan,2,2,0,0
12740000,12740000,47.397750888820255,8.54560738184841,488.08344,488.08765,0.033320636,1.1358252,1.0627285,nan,2,2,0,0
12748000,12748000,47.39775088938635,8.545607381958954,488.08334,488.08755,0.033320636,1.1362246,1.0629778,nan,2,2,0,0
12756000,12756000,47.397750889932944,8.54560738207032,488.08325,488.08746,0.033320636,1.1366273,1.0632281,nan,2,2,0,0
12764000,12764000,47.397750890468004,8.545607382187614,488.08316,488.08737,0.033320636,1.1370335,1.0634797,nan,2,2,0,0
12772000,12772000,47.39775089098954,8.545607382308953,488.0831,488.0873,0.033320636,1.137443,1.0630786,nan,2,2,0,0
12780000,12780000,47.39775089148997,8.545607382434541,488.083,488.08722,0.033320636,1.1378559,1.0633299,nan,2,2,0,0
12788000,12788000,47.39775089197678,8.545607382574751,488.08292,488.08713,0.033320636,1.1382723,1.0635824,nan,2,2,0,0
12796000,12796000,47.39775089313227,8.545607381771843,488.08286,488.08774,0.033320636,1.1165402,1.0546867,nan,2,2,0,0
12804000,12804000,47.39775089427904,8.545607380994822,488.0828,488.08768,0.033320636,1.1168345,1.0548953,nan,2,2,0,0
12812000,12812000,47.39775089541221,8.545607380244032,488.08273,488.08762,0.033320636,1.1171316,1.0551047,nan,2,2,0,0
12820000,12820000,47.3977508965269,8.545607379522918,488.08264,488.08752,0.033320636,1.1174312,1.0553154,nan,2,2,0,0
12828000,12828000,47.3977508976321,8.545607378806828,488.08258,488.08746,0.033320636,1.1177334,1.055527,nan,2,2,0,0
12836000,12836000,47.39775089873549,8.54560737810123,488.08252,488.0874,0.033320636,1.1180383,1.055239,nan,2,2,0,0
12844000,12844000,47.397750899829155,8.545607377402403,488.08243,488.0873,0.033320636,1.1183459,1.0554508,nan,2,2,0,0
12852000,12852000,47.3977509009051,8.545607376720067,488.08237,488.08725,0.033320636,1.1186562,1.0556636,nan,2,2,0,0
12860000,12860000,47.39775090196288,8.545607376029883,488.08228,488.08716,0.033320636,1.1189692,1.0558774,nan,2,2,0,0
12868000,12868000,47.39775090299355,8.545607375334797,488.0822,488.0871,0.033320636,1.119285,1.0560923,nan,2,2,0,0
12876000,12876000,47.39775090399118,8.545607374633295,488.08212,488.087,0.033320636,1.1196035,1.0563082,nan,2,2,0,0
12884000,12884000,47.397750904977244,8.545607373936502,488.08203,488.0869,0.033320636,1.1199248,1.056525,nan,2,2,0,0
12892000,12892000,47.3977509059504,8.545607373244275,488.08194,488.08682,0.033320636,1.1202488,1.0562243,nan,2,2,0,0
