timestamp,timestamp_sample,xyz[0],xyz[1],xyz[2]
3428000,3428000,-0.18776548,0.18960592,-9.936525
3432000,3432000,-0.18600121,0.19062494,-9.931402
3480000,3480000,-0.21372664,0.17297174,-9.9503975
3524000,3524000,-0.21513322,0.1973634,-9.944662
3580000,3580000,-0.21635798,0.17245114,-9.914639
3628000,3628000,-0.20627666,0.17832857,-9.934414
3680000,3680000,-0.21285719,0.19080098,-9.82201
3728000,3728000,-0.20257735,0.18110377,-9.826972
3780000,3780000,-0.23884226,0.19007343,-9.829215
3824000,3824000,-0.20918998,0.20876326,-9.8159895
3880000,3880000,-0.21838251,0.18752867,-9.817952
3924000,3924000,-0.20634428,0.21295884,-9.812275
3980000,3980000,-0.20202643,0.20215268,-9.806082
4028000,4028000,-0.2053726,0.18217373,-9.804477
4080000,4080000,-0.1858574,0.19759606,-9.837162
4128000,4128000,-0.22664686,0.19677214,-9.8321905
4176000,4176000,-0.21916014,0.19295725,-9.836363
4228000,4228000,-0.22203013,0.18620491,-9.808376
4280000,4280000,-0.20728713,0.18944165,-9.829039
4328000,4328000,-0.21470389,0.21387358,-9.816442
4380000,4380000,-0.216506,0.21128152,-9.813562
4428000,4428000,-0.20213763,0.18309942,-9.82597
4480000,4480000,-0.20888591,0.19075426,-9.827008
4528000,4528000,-0.21492526,0.18880714,-9.807822
4576000,4576000,-0.20811589,0.17900231,-9.816566
4628000,4628000,-0.20483321,0.1822121,-9.8189945
4680000,4680000,-0.22914514,0.19583008,-9.810422
4728000,4728000,-0.21685338,0.20248273,-9.824408
4780000,4780000,-0.19029656,0.2078039,-9.84103
4828000,4828000,-0.242236,0.19034691,-9.834391
4880000,4880000,-0.20212723,0.16654345,-9.832982
4924000,4924000,-0.20600827,0.17744383,-9.801022
4980000,4980000,-0.19224392,0.19809811,-9.804619
5028000,5028000,-0.21070746,0.18175504,-9.8342495
5080000,5080000,-0.20610431,0.17536186,-9.821655
5128000,5128000,-0.19617975,0.21070078,-9.8102255
5180000,5180000,-0.19167219,0.1717502,-9.815612
5228000,5228000,-0.21429461,0.1761922,-9.821876
5280000,5280000,-0.21198018,0.18477847,-9.801126
5328000,5328000,-0.21081634,0.16230461,-9.81784
5380000,5380000,-0.19331414,0.1850039,-9.79783
5428000,5428000,-0.21305497,0.19317165,-9.79586
5480000,5480000,-0.21013412,0.18047947,-9.821398
5528000,5528000,-0.2295037,0.18952776,-9.794648
5580000,5580000,-0.24504425,0.19056883,-9.812999
5628000,5628000,-0.21298932,0.16843334,-9.819036
5680000,5680000,-0.19095638,0.18202409,-9.829876
5728000,5728000,-0.20440005,0.16838196,-9.796425
5780000,5780000,-0.2409111,0.1815107,-9.8030205
5824000,5824000,-0.21523188,0.16034217,-9.8067
5880000,5880000,-0.1836892,0.18437785,-9.795219
5928000,5928000,-0.20724699,0.17843026,-9.801177
5980000,5980000,-0.21545967,0.1810173,-9.810579
6028000,6028000,-0.22649619,0.16513434,-9.820304
6080000,6080000,-0.20556137,0.17550069,-9.819462
6128000,6128000,-0.19033861,0.17827629,-9.832262
6180000,6180000,-0.20582877,0.17638575,-9.802267
6228000,6228000,-0.20048842,0.19152425,-9.829017
6280000,6280000,-0.2027266,0.16210741,-9.811945
6328000,6328000,-0.1930013,0.16940935,-9.815189
6380000,6380000,-0.21328564,0.16574046,-9.814361
6428000,6428000,-0.235437,0.20432149,-9.806461
6480000,6480000,-0.20872836,0.17520766,-9.800054
6528000,6528000,-0.24385715,0.1932563,-9.812604
6580000,6580000,-0.19961187,0.16145185,-9.7843685
6628000,6628000,-0.22565705,0.18978482,-9.794034
6680000,6680000,-0.21072814,0.18517637,-9.814824
6728000,6728000,-0.19914533,0.16547449,-9.817273
6780000,6780000,-0.22098541,0.18356413,-9.799009
6828000,6828000,-0.20874819,0.20797427,-9.83438
6880000,6880000,-0.18862417,0.18736821,-9.795877
6928000,6928000,-0.19407995,0.19213171,-9.799047
6980000,6980000,-0.21352556,0.1907745,-9.787706
7028000,7028000,-0.1959333,0.20815572,-9.808809
7080000,7080000,-0.22988236,0.1860261,-9.848894
7128000,7128000,-0.2032567,0.17357475,-9.80508
7180000,7180000,-0.20170933,0.18437915,-9.79398
7228000,7228000,-0.18997724,0.18284094,-9.812587
7280000,7280000,-0.20789576,0.17399558,-9.790304
7328000,7328000,-0.20818286,0.19766328,-9.814056
7380000,7380000,-0.18527253,0.18240568,-9.827679
7428000,7428000,-0.21069908,0.18414831,-9.798302
7480000,7480000,-0.2060038,0.19223696,-9.800142
7524000,7524000,-0.21256961,0.18415722,-9.777355
7576000,7576000,-0.22018325,0.16361982,-9.815451
7628000,7628000,-0.20166665,0.16168882,-9.799313
7680000,7680000,-0.19998646,0.18822294,-9.7878895
7728000,7728000,-0.22742128,0.20298567,-9.794953
7780000,7780000,-0.19692115,0.17841417,-9.817458
7828000,7828000,-0.20696802,0.15714681,-9.804089
7880000,7880000,-0.22926895,0.16961803,-9.783295
7928000,7928000,-0.2098786,0.18943465,-9.81246
7980000,7980000,-0.19593884,0.19833615,-9.811741
8028000,8028000,-0.21709721,0.1782377,-9.817564
8080000,8080000,-0.1901949,0.17837188,-9.817781
8128000,8128000,-0.21223223,0.17093132,-9.815617
8180000,8180000,-0.21105327,0.17570403,-9.804293
8228000,8228000,-0.21115401,0.18384409,-9.827292
8280000,8280000,-0.20040455,0.17401302,-9.802379
8328000,8328000,-0.20880732,0.17951846,-9.823338
8380000,8380000,-0.19775054,0.19862239,-9.835665
8428000,8428000,-0.19749855,0.18175815,-9.803192
8480000,8480000,-0.19450709,0.19360444,-9.809151
8528000,8528000,-0.21893191,0.14961797,-9.828045
8576000,8576000,-0.18380342,0.16179816,-9.807314
8624000,8624000,-0.2018143,0.16633773,-9.77968
8680000,8680000,-0.20410459,0.16554478,-9.803134
8728000,8728000,-0.17061274,0.18042797,-9.795381
8780000,8780000,-0.19218215,0.1663942,-9.804607
8828000,8828000,-0.19675776,0.17881493,-9.801684
8880000,8880000,-0.19786611,0.16713625,-9.780513
8928000,8928000,-0.19331309,0.17641103,-9.781345
8980000,8980000,-0.16635746,0.16603734,-9.799229
9028000,9028000,-0.19874234,0.18573853,-9.8044405
9080000,9080000,-0.20322019,0.16721918,-9.798819
9128000,9128000,-0.17603844,0.16783911,-9.771871
9180000,9180000,-0.18104336,0.18082692,-9.795029
9224000,9224000,-0.2026033,0.18114273,-9.789599
9280000,9280000,-0.18103224,0.20317262,-9.796392
9328000,9328000,-0.19145606,0.2203387,-9.817442
9380000,9380000,-0.21835916,0.19495453,-9.817119
9428000,9428000,-0.22022553,0.1961009,-9.787473
9480000,9480000,-0.20097813,0.18460822,-9.823046
9528000,9528000,-0.20213422,0.18384382,-9.803405
9580000,9580000,-0.17366713,0.1989882,-9.808949
9628000,9628000,-0.18211772,0.16525619,-9.780598
9680000,9680000,-0.17753585,0.1586371,-9.792367
9728000,9728000,-0.16844355,0.19117369,-9.818142
9780000,9780000,-0.20403343,0.20549756,-9.794355
9828000,9828000,-0.19130516,0.18722935,-9.814506
9880000,9880000,-0.2069274,0.1778326,-9.783533
9928000,9928000,-0.1740882,0.15107521,-9.757193
9980000,9980000,-0.16699894,0.17098095,-9.805288
10024000,10024000,-0.2241954,0.16257213,-9.808218
10080000,10080000,-0.22548725,0.18502596,-9.786909
10128000,10128000,-0.20195565,0.16805312,-9.801241
10180000,10180000,-0.20458405,0.1842107,-9.787764
10228000,10228000,-0.18098313,0.15438929,-9.803894
10280000,10280000,-0.19333617,0.1658983,-9.775953
10328000,10328000,-0.21602863,0.17500283,-9.80799
10380000,10380000,-0.19143037,0.16499233,-9.802347
10428000,10428000,-0.19880627,0.16809082,-9.787536
10480000,10480000,-0.1726585,0.15718758,-9.80718
10524000,10524000,-0.21176803,0.179105,-9.807478
10580000,10580000,-0.17929219,0.16037686,-9.789932
10628000,10628000,-0.2230928,0.16691077,-9.758453
10680000,10680000,-0.18065915,0.17191419,-9.791863
10728000,10728000,-0.20695749,0.16151805,-9.809515
10780000,10780000,-0.19005969,0.18759045,-9.792937
10828000,10828000,-0.16854669,0.17468616,-9.802975
10880000,10880000,-0.17697544,0.13951424,-9.775558
10928000,10928000,-0.18144302,0.12866554,-9.795701
10980000,10980000,-0.19416986,0.17368114,-9.790152
11028000,11028000,-0.20989767,0.18971145,-9.774343
11080000,11080000,-0.19761956,0.14838377,-9.81613
11128000,11128000,-0.20219961,0.1751687,-9.781598
11180000,11180000,-0.20051098,0.14182203,-9.775464
11228000,11228000,-0.20972565,0.17107596,-9.779866
11280000,11280000,-0.19723052,0.16807544,-9.802223
11328000,11328000,-0.18716796,0.15997456,-9.759771
11380000,11380000,-0.2261795,0.16114835,-9.782506
11428000,11428000,-0.19264297,0.14184877,-9.808041
11480000,11480000,-0.19393112,0.17230438,-9.796855
11524000,11524000,-0.20593253,0.14662676,-9.796288
11576000,11576000,-0.17733273,0.1721498,-9.778325
11628000,11628000,-0.19779894,0.16366744,-9.779095
11680000,11680000,-0.19248432,0.17653793,-9.781115
11728000,11728000,-0.19616538,0.14534,-9.774264
11780000,11780000,-0.19801669,0.16774905,-9.805664
11828000,11828000,-0.182216,0.175235,-9.768198
11880000,11880000,-0.20641336,0.1757915,-9.78215
11928000,11928000,-0.19272107,0.1572531,-9.795849
11980000,11980000,-0.20191583,0.17110473,-9.797478
12024000,12024000,-0.22776999,0.15727538,-9.778479
12076000,12076000,-0.20249942,0.18986149,-9.82711
12128000,12128000,-0.18873185,0.14983684,-9.7737
12180000,12180000,-0.19288981,0.17409167,-9.783695
12228000,12228000,-0.19911447,0.16948615,-9.787046
12280000,12280000,-0.19080672,0.14058152,-9.786926
12328000,12328000,-0.2020992,0.15738368,-9.805938
12380000,12380000,-0.20338257,0.1647827,-9.801464
12428000,12428000,-0.18196726,0.15545642,-9.778025
12480000,12480000,-0.1815351,0.15637931,-9.796285
12528000,12528000,-0.21385121,0.1620956,-9.779582
12580000,12580000,-0.18624124,0.17432013,-9.797714
12628000,12628000,-0.16583994,0.16934866,-9.770251
12680000,12680000,-0.18522374,0.19076419,-9.807164
12724000,12724000,-0.17652316,0.17062795,-9.792543
12776000,12776000,-0.17927057,0.19383246,-9.815301
12824000,12824000,-0.1817842,0.17816961,-9.7679615
12880000,12880000,-0.20095703,0.19549122,-9.803989
12928000,12928000,-0.19057283,0.15176167,-9.793959
12980000,12980000,-0.18719938,0.16490279,-9.790186
13028000,13028000,-0.19751628,0.16040003,-9.791818
13080000,13080000,-0.18160936,0.15176795,-9.791697
13128000,13128000,-0.2164994,0.16853109,-9.803449
13180000,13180000,-0.16653559,0.14803398,-9.801833
13224000,13224000,-0.17448886,0.16168228,-9.803856
13280000,13280000,-0.19534497,0.14410715,-9.79764
13328000,13328000,-0.19262408,0.16972005,-9.790324
13376000,13376000,-0.17664537,0.1707075,-9.784511
13428000,13428000,-0.19691207,0.1861385,-9.811014
13480000,13480000,-0.1758849,0.16143343,-9.780089
13528000,13528000,-0.18324026,0.16673796,-9.794967
13580000,13580000,-0.14619371,0.16136958,-9.811359
13628000,13628000,-0.19438669,0.16733986,-9.787076
13680000,13680000,-0.18911207,0.14761284,-9.798279
13728000,13728000,-0.18643352,0.16556433,-9.832363
13780000,13780000,-0.18613726,0.155569,-9.781308
13828000,13828000,-0.17244293,0.14146434,-9.788576
13880000,13880000,-0.1820644,0.16046548,-9.802956
13928000,13928000,-0.194913,0.178532,-9.802754
13980000,13980000,-0.18244198,0.16913943,-9.817199
14028000,14028000,-0.16230687,0.16948974,-9.78048
14080000,14080000,-0.1898409,0.14475086,-9.795498
14128000,14128000,-0.20091622,0.17848563,-9.766632
14180000,14180000,-0.1643883,0.17275494,-9.781542
14228000,14228000,-0.1708788,0.15574086,-9.807307
14276000,14276000,-0.16385506,0.13376592,-9.784609
14328000,14328000,-0.18296945,0.15010005,-9.806433
14380000,14380000,-0.18302573,0.15492924,-9.801846
14424000,14424000,-0.17540176,0.18083698,-9.776522
14476000,14476000,-0.17487574,0.16746332,-9.802578
14528000,14528000,-0.16749334,0.1584689,-9.793582
14576000,14576000,-0.1867151,0.1497245,-9.76743
14628000,14628000,-0.18639742,0.17418803,-9.774242
14680000,14680000,-0.1888682,0.18990672,-9.794762
14724000,14724000,-0.17040259,0.17244604,-9.790094
14780000,14780000,-0.1609174,0.16365437,-9.8210125
14824000,14824000,-0.15798393,0.14777052,-9.805878
14880000,14880000,-0.1916604,0.19017737,-9.784277
14928000,14928000,-0.16879375,0.16308348,-9.788176
14980000,14980000,-0.17079519,0.15068965,-9.797397
15028000,15028000,-0.18221568,0.16021511,-9.81188
15080000,15080000,-0.17422773,0.14688072,-9.788031
15128000,15128000,-0.18458065,0.18677178,-9.794186
15180000,15180000,-0.20429848,0.1568407,-9.789052
15228000,15228000,-0.16058877,0.15824817,-9.771706
15280000,15280000,-0.17932475,0.16617745,-9.806749
15324000,15324000,-0.20888022,0.14871335,-9.806768
15380000,15380000,-0.16986448,0.17046818,-9.816254
15428000,15428000,-0.17377141,0.1601804,-9.788208
15476000,15476000,-0.15531242,0.16202095,-9.810238
15528000,15528000,-0.19288391,0.15227896,-9.794886
15580000,15580000,-0.15662283,0.15008467,-9.775822
15628000,15628000,-0.15508693,0.16187277,-9.782576
15680000,15680000,-0.15666462,0.1738704,-9.793591
15728000,15728000,-0.1915732,0.15799932,-9.766427
15780000,15780000,-0.22902583,0.17903666,-9.776617
15828000,15828000,-0.2020305,0.1663445,-9.811807
15880000,15880000,-0.16045114,0.1570938,-9.783319
15924000,15924000,-0.19494598,0.15440205,-9.80016
15980000,15980000,-0.150384,0.15628405,-9.811836
16024000,16024000,-0.1592117,0.1375843,-9.788987
16076000,16076000,-0.18158793,0.15614653,-9.7829485
16128000,16128000,-0.18464229,0.16613,-9.762996
16180000,16180000,-0.14567421,0.16757338,-9.802215
16228000,16228000,-0.16988103,0.14516419,-9.77779
16280000,16280000,-0.15739614,0.13803762,-9.809321
16328000,16328000,-0.16553499,0.15743163,-9.76031
16380000,16380000,-0.15710507,0.14827156,-9.793319
16428000,16428000,-0.16085352,0.1546078,-9.812485
16480000,16480000,-0.15719278,0.1579076,-9.795975
16528000,16528000,-0.18967754,0.15003097,-9.774214
16576000,16576000,-0.17990711,0.1552046,-9.791477
16628000,16628000,-0.17591077,0.16672023,-9.779626
16680000,16680000,-0.1782203,0.17615277,-9.7762375
16728000,16728000,-0.16821781,0.15367895,-9.759027
16776000,16776000,-0.16754526,0.15043378,-9.774032
16828000,16828000,-0.1565515,0.15516096,-9.791658
16880000,16880000,-0.18241124,0.14043726,-9.786429
16928000,16928000,-0.16522321,0.16360377,-9.783303
16980000,16980000,-0.18653658,0.15795368,-9.785361
17024000,17024000,-0.16416448,0.16286328,-9.795846
17080000,17080000,-0.15872705,0.17740645,-9.8141575
17128000,17128000,-0.1810781,0.16023214,-9.7547
17176000,17176000,-0.19204918,0.13972019,-9.768276
17228000,17228000,-0.15100324,0.14528972,-9.771694
17276000,17276000,-0.19093926,0.15250255,-9.789
17328000,17328000,-0.14366546,0.13528085,-9.77557
17380000,17380000,-0.16305795,0.13738006,-9.78179
17428000,17428000,-0.19147545,0.16765341,-9.786649
17480000,17480000,-0.17734757,0.13946396,-9.804302
17528000,17528000,-0.19491322,0.16216505,-9.781546
17580000,17580000,-0.15627182,0.16365376,-9.796612
17628000,17628000,-0.16686572,0.1427266,-9.789522
17680000,17680000,-0.17932697,0.14986409,-9.823422
17724000,17724000,-0.18556312,0.17565158,-9.820228
17780000,17780000,-0.18182437,0.15905711,-9.784771
17828000,17828000,-0.13387367,0.18068215,-9.794177
17880000,17880000,-0.19557798,0.14635007,-9.780668
17924000,17924000,-0.1750174,0.14947975,-9.787115
17980000,17980000,-0.1737067,0.1567396,-9.803945
18024000,18024000,-0.12976357,0.15657052,-9.78926
18080000,18080000,-0.16944198,0.14620408,-9.813336
18128000,18128000,-0.1415314,0.13327023,-9.783236
18176000,18176000,-0.15245561,0.15391386,-9.802047
18228000,18228000,-0.13884933,0.15073302,-9.755038
18280000,18280000,-0.15205477,0.13434163,-9.770901
18328000,18328000,-0.14738753,0.13646239,-9.810308
18380000,18380000,-0.14507633,0.13513936,-9.772647
18424000,18424000,-0.14778577,0.15373749,-9.797071
18480000,18480000,-0.13729547,0.15526289,-9.803447
18528000,18528000,-0.17741328,0.16170214,-9.768293
18580000,18580000,-0.16991082,0.15305668,-9.790216
18628000,18628000,-0.16373162,0.14546263,-9.790127
18680000,18680000,-0.14651145,0.1450537,-9.79523
18728000,18728000,-0.13541013,0.0995011,-9.775717
18780000,18780000,-0.16928816,0.12471181,-9.804855
18828000,18828000,-0.1347551,0.15558618,-9.776787
18880000,18880000,-0.16322751,0.12946707,-9.769796
18924000,18924000,-0.14193714,0.15456122,-9.816842
18980000,18980000,-0.18002313,0.12629473,-9.7737255
19028000,19028000,-0.17767373,0.15415646,-9.801899
19080000,19080000,-0.17393064,0.11003782,-9.786748
19128000,19128000,-0.16948208,0.16367748,-9.793522
19180000,19180000,-0.14802536,0.13054916,-9.778499
19228000,19228000,-0.14514408,0.13224277,-9.814242
19280000,19280000,-0.14680947,0.13143952,-9.784771
19324000,19324000,-0.16478552,0.12514591,-9.794555
19376000,19376000,-0.17401348,0.16089971,-9.802572
19428000,19428000,-0.1572137,0.1460803,-9.785173
19480000,19480000,-0.13793996,0.12181379,-9.794265
19528000,19528000,-0.13850054,0.13862963,-9.795709
19580000,19580000,-0.17462833,0.14763391,-9.804392
19628000,19628000,-0.14433661,0.1769905,-9.808776
19680000,19680000,-0.17200729,0.15094528,-9.807455
19728000,19728000,-0.14347342,0.13969484,-9.7848835
19780000,19780000,-0.17818514,0.14308724,-9.792298
19824000,19824000,-0.15750898,0.15038913,-9.790973
19880000,19880000,-0.14144146,0.14814997,-9.793522
19928000,19928000,-0.16699831,0.14260623,-9.778242
19980000,19980000,-0.14527816,0.14307275,-9.814482
20028000,20028000,0.33218288,0.6483011,-9.293357
20076000,20076000,0.3453614,0.6387508,-9.303953
20124000,20124000,0.3596436,0.6238208,-9.316051
20176000,20176000,0.3492909,0.6584715,-9.277674
20224000,20224000,0.33261427,0.62804306,-9.27242
20280000,20280000,0.31201735,0.6352711,-9.285891
20324000,20324000,0.360829,0.64011186,-9.309426
20380000,20380000,0.36181122,0.6440709,-9.312064
20428000,20428000,0.27562943,0.59602857,-9.304605
20480000,20480000,0.33316317,0.63046855,-9.320515
20528000,20528000,0.30891514,0.62544215,-9.315578
20580000,20580000,0.31823748,0.62181246,-9.330184
20628000,20628000,0.29208845,0.58695245,-9.346447
20680000,20680000,0.29379803,0.6053554,-9.323816
20728000,20728000,0.2938493,0.6036452,-9.353458
20780000,20780000,0.26295453,0.60754925,-9.312507
20828000,20828000,0.2523669,0.5691355,-9.37483
20880000,20880000,0.26451707,0.59797865,-9.374664
20928000,20928000,0.25763208,0.58402705,-9.388201
20980000,20980000,0.22505644,0.5754906,-9.370087
21028000,21028000,0.2561644,0.5559558,-9.403015
21080000,21080000,0.23127705,0.5418202,-9.411058
21128000,21128000,0.23269802,0.53666395,-9.3887615
21180000,21180000,0.1999908,0.5253042,-9.459091
21228000,21228000,0.18505637,0.49915713,-9.428091
21280000,21280000,0.20210806,0.48338848,-9.448168
21328000,21328000,0.14914623,0.50258076,-9.453054
21380000,21380000,0.1732663,0.47558594,-9.489519
21424000,21424000,0.14942752,0.45456982,-9.484047
21476000,21476000,0.12616517,0.4417259,-9.464075
21524000,21524000,0.09858158,0.42616802,-9.590214
21580000,21580000,0.021547725,0.415263,-9.925306
21628000,21628000,0.0017837947,0.45432362,-10.109149
21676000,21676000,0.03242134,0.49880034,-10.1069565
21728000,21728000,0.15490364,0.49400032,-10.034332
21780000,21780000,0.2630635,0.57945096,-9.995474
21828000,21828000,0.37870228,0.66822976,-9.979049
21880000,21880000,0.5447806,0.7600037,-9.98834
21928000,21928000,0.68860865,0.8718957,-9.873363
21980000,21980000,0.85269326,1.0048653,-9.863671
22028000,22028000,1.0826925,1.1710511,-9.821779
22076000,22076000,1.2973552,1.3289425,-9.68306
22124000,22124000,1.4824336,1.5060229,-9.51733
22180000,22180000,1.0746565,1.1647542,-9.330965
22224000,22224000,0.436544,0.6224646,-9.20467
22280000,22280000,0.03707512,0.25755325,-9.423261
22328000,22328000,0.027862275,0.28992698,-9.75497
22380000,22380000,0.023790834,0.28046277,-10.113876
22428000,22428000,0.05140327,0.3108909,-10.395752
22480000,22480000,0.124402806,0.3408404,-10.632932
22524000,22524000,0.12646705,0.33329672,-10.758202
22576000,22576000,0.13943519,0.32628015,-10.845561
22624000,22624000,0.15101376,0.3179268,-11.455669
22680000,22680000,0.14999202,0.3509016,-11.36611
22728000,22728000,0.10555136,0.3157456,-11.202171
22776000,22776000,0.07566106,0.29380056,-11.047029
22824000,22824000,0.060260236,0.29964906,-10.90019
22876000,22876000,0.026561074,0.31363234,-10.812217
22928000,22928000,0.022461504,0.2648322,-10.697735
22980000,22980000,-0.004910919,0.2403031,-10.650405
23028000,23028000,-0.04984034,0.20908123,-10.597769
23076000,23076000,-0.087145485,0.20422593,-10.588344
23124000,23124000,-0.10585105,0.16310406,-10.562843
23180000,23180000,-0.124209225,0.11962712,-10.541801
23228000,23228000,-0.14984635,0.13462941,-10.51332
23280000,23280000,-0.20709473,0.06458981,-10.454688
23328000,23328000,-0.2384228,0.07481164,-10.413229
23380000,23380000,-0.26365924,0.028557284,-10.365356
23428000,23428000,-0.29836273,-0.0019178286,-10.353072
23480000,23480000,-0.320177,-0.005919767,-10.379085
23528000,23528000,-0.34597868,-0.03880203,-10.375846
23580000,23580000,-0.38752052,-0.08498419,-10.313957
23628000,23628000,-0.39814502,-0.10968307,-10.333504
23680000,23680000,-0.4554195,-0.1438812,-10.298056
23728000,23728000,-0.479782,-0.17610036,-10.290881
23780000,23780000,-0.48875788,-0.16282202,-10.244155
23828000,23828000,-0.5497654,-0.20273088,-10.24049
23880000,23880000,-0.5630032,-0.23541479,-10.265764
23928000,23928000,-0.5963363,-0.28993785,-10.253839
23980000,23980000,-0.6124711,-0.32375628,-10.116118
24028000,24028000,-0.6370543,-0.31211275,-10.006816
24080000,24080000,-0.66493875,-0.37735444,-9.818829
24128000,24128000,-0.6793039,-0.38641986,-9.747507
24180000,24180000,-0.7244939,-0.3915555,-9.638836
24228000,24228000,-0.72830033,-0.41354632,-9.549154
24276000,24276000,-0.7590661,-0.42175165,-9.439384
24328000,24328000,-0.7606424,-0.43812868,-9.383531
24380000,24380000,-0.8121888,-0.45129806,-9.361652
24428000,24428000,-0.78632426,-0.52211386,-9.438606
24480000,24480000,-0.80789065,-0.51969016,-9.523213
24528000,24528000,-0.8291379,-0.51332015,-9.528785
24580000,24580000,-0.84559834,-0.5589434,-9.551482
24628000,24628000,-0.8474353,-0.56085587,-9.561325
24680000,24680000,-0.853125,-0.56722015,-9.6074295
24728000,24728000,-0.86229014,-0.5659327,-9.597042
24780000,24780000,-0.8801841,-0.5795255,-9.581512
24828000,24828000,-0.8643364,-0.6000196,-9.613445
24880000,24880000,-0.8505159,-0.60354984,-9.606051
24928000,24928000,-0.8817726,-0.61037517,-9.5798025
24980000,24980000,-0.88420594,-0.606693,-9.5663595
25024000,25024000,-0.90191865,-0.5989467,-9.591565
25080000,25080000,-0.88983804,-0.6315541,-9.595244
25124000,25124000,-0.88430333,-0.62387174,-9.606096
25176000,25176000,-0.88010406,-0.5863065,-9.587956
25228000,25228000,-0.83814394,-0.60177433,-9.47544
25280000,25280000,-0.82863724,-0.5968014,-9.50128
25328000,25328000,-0.8478366,-0.5881287,-9.427359
25380000,25380000,-0.8328853,-0.5792014,-9.271074
25424000,25424000,-0.83470315,-0.5746426,-9.066631
25476000,25476000,-0.80862826,-0.5870925,-8.835035
25524000,25524000,-0.8053671,-0.5733468,-8.584454
25580000,25580000,-0.83184755,-0.5513431,-8.525095
25628000,25628000,-0.6830422,-0.44562662,-8.715326
25680000,25680000,-0.6354446,-0.44492763,-9.073733
25728000,25728000,-0.6739899,-0.43691957,-9.391802
25780000,25780000,-0.6590786,-0.4048112,-9.686044
25828000,25828000,-0.6444906,-0.38913995,-9.914502
25880000,25880000,-0.6435814,-0.36731508,-10.141842
25928000,25928000,-0.58768207,-0.3637332,-10.225459
25980000,25980000,-0.58647734,-0.3636316,-10.3420725
26028000,26028000,-0.45466352,-0.19994399,-10.403404
26080000,26080000,-0.4150437,-0.16079795,-10.6976185
26128000,26128000,-0.38794994,-0.14946142,-10.7787285
26180000,26180000,-0.3510995,-0.11409532,-10.709374
26224000,26224000,-0.36214405,-0.11219949,-10.637612
26280000,26280000,-0.2893111,-0.09421543,-10.509104
26328000,26328000,-0.2703028,-0.032910563,-10.379021
26380000,26380000,-0.2530711,-0.012925521,-10.226147
26428000,26428000,-0.1406316,0.071767084,-10.112061
26480000,26480000,-0.11763561,0.10238138,-10.327357
26528000,26528000,-0.07573963,0.13296598,-10.509515
26576000,26576000,-0.022083787,0.16783597,-10.550219
26624000,26624000,-0.031275716,0.18734476,-10.5081415
26676000,26676000,0.018148385,0.25884145,-10.428712
26724000,26724000,0.043003865,0.28713948,-10.284369
26780000,26780000,0.11695994,0.30402973,-10.116888
26828000,26828000,0.1260273,0.38430533,-9.970496
26880000,26880000,0.20092475,0.41307288,-10.209503
26928000,26928000,0.17836049,0.46450806,-10.441754
26980000,26980000,0.24337897,0.5020539,-10.468212
27028000,27028000,0.25952256,0.53528756,-10.448841
27080000,27080000,0.27961567,0.5726307,-10.373768
27124000,27124000,0.31809992,0.59970474,-10.223697
27180000,27180000,0.36296293,0.6104782,-10.048554
27228000,27228000,0.37589958,0.66561216,-9.886183
27280000,27280000,0.41816255,0.68571424,-10.087598
27328000,27328000,0.4551641,0.7068114,-10.3766
27380000,27380000,0.48198813,0.75833267,-10.439461
27428000,27428000,0.47861624,0.7834968,-10.384034
27480000,27480000,0.49894312,0.79780954,-10.290559
27528000,27528000,0.51552415,0.8324179,-10.167914
27576000,27576000,0.5539149,0.85454,-10.026794
27628000,27628000,0.5715015,0.83466625,-9.8227625
27680000,27680000,0.5833977,0.8820285,-10.059474
27724000,27724000,0.60338485,0.8951723,-10.277826
27780000,27780000,0.5996474,0.9308049,-10.381248
27824000,27824000,0.63779765,0.9744923,-10.355143
27876000,27876000,0.6498871,0.9574802,-10.282968
27928000,27928000,0.642645,0.9857222,-10.124177
27980000,27980000,0.6867324,0.9899009,-9.975452
28028000,28028000,0.64752793,0.999411,-9.800828
28080000,28080000,0.68075037,1.0090734,-10.060062
28124000,28124000,0.68249893,1.0285133,-10.270926
28180000,28180000,0.7179301,1.0463891,-10.328732
28228000,28228000,0.74380827,1.0351859,-10.311031
28280000,28280000,0.7458163,1.0729387,-10.173762
28328000,28328000,0.7197881,1.0849576,-10.0188875
28380000,28380000,0.76081926,1.0788985,-9.857214
28428000,28428000,0.709395,1.0597975,-9.731423
28480000,28480000,0.7249825,1.0611401,-9.959
28528000,28528000,0.7427112,1.0869346,-10.179533
28580000,28580000,0.7328427,1.079093,-10.220303
28628000,28628000,0.7373075,1.097021,-10.151446
28680000,28680000,0.75335324,1.0996051,-10.047905
28724000,28724000,0.7563164,1.1102432,-9.935494
28780000,28780000,0.78634995,1.1033648,-9.807727
28828000,28828000,0.71692866,1.08956,-9.695276
28880000,28880000,0.7446604,1.0873353,-9.908056
28928000,28928000,0.72073704,1.0574667,-10.055926
28980000,28980000,0.72777694,1.1064262,-10.070352
29028000,29028000,0.7749089,1.0786424,-10.045313
29080000,29080000,0.74048847,1.1309507,-9.921385
29128000,29128000,0.7629581,1.099856,-9.839478
29180000,29180000,0.77300286,1.0993563,-9.726763
29228000,29228000,0.7340549,1.0605948,-9.637553
29276000,29276000,0.73347145,1.0330896,-9.778919
29328000,29328000,0.69984126,1.0354669,-9.874053
29380000,29380000,0.70423853,1.0098981,-9.865935
29424000,29424000,0.71541494,1.0204363,-9.843805
29476000,29476000,0.74933213,1.0103548,-9.774085
29528000,29528000,0.7312471,1.051908,-9.661966
29580000,29580000,0.72701955,1.0518882,-9.617647
29628000,29628000,0.6948744,1.0090239,-9.564073
29680000,29680000,0.671527,0.96400774,-9.686304
29728000,29728000,0.65618706,0.97318983,-9.705994
29780000,29780000,0.67954856,0.9575782,-9.727398
29828000,29828000,0.65199894,0.94624203,-9.705656
29880000,29880000,0.6790829,0.9457233,-9.644232
29924000,29924000,0.6610192,0.98625994,-9.592263
29980000,29980000,0.64693797,0.9702236,-9.568772
30028000,30028000,0.13178426,0.41599846,-10.016066
30080000,30080000,0.10508402,0.4164517,-10.016051
30124000,30124000,0.10314296,0.39971083,-9.821354
30176000,30176000,0.11369009,0.37473857,-9.688074
30224000,30224000,0.12995353,0.36663705,-9.604102
30280000,30280000,0.12534547,0.3656934,-9.492431
30328000,30328000,0.12226258,0.3384059,-9.444872
30380000,30380000,0.114391,0.33844835,-9.38899
30428000,30428000,0.09408785,0.31217885,-9.37931
30480000,30480000,0.095759004,0.31276423,-9.400066
30524000,30524000,0.08526409,0.29398653,-9.354966
30580000,30580000,0.06043058,0.29438317,-9.362921
30628000,30628000,0.061892964,0.2759422,-9.330149
30680000,30680000,0.06367003,0.24430642,-9.362057
30724000,30724000,0.024939781,0.27571654,-9.355239
30776000,30776000,0.044870917,0.2465989,-9.359148
30828000,30828000,0.017423509,0.21687134,-9.402424
30880000,30880000,0.012466008,0.19661674,-9.438316
30928000,30928000,0.002167129,0.19712624,-9.402451
30976000,30976000,0.0007919695,0.20715427,-9.394661
31028000,31028000,0.0036631627,0.17907915,-9.382801
31080000,31080000,-0.031111773,0.1736663,-9.411569
31128000,31128000,-0.028701387,0.1604019,-9.413611
31180000,31180000,-0.040497288,0.14089912,-9.427084
31228000,31228000,-0.026124543,0.12742108,-9.477431
31280000,31280000,-0.088360146,0.13409261,-9.474643
31328000,31328000,-0.08601516,0.102321,-9.441523
31380000,31380000,-0.09068935,0.091104254,-9.412748
31428000,31428000,-0.08427524,0.08414075,-9.397365
31480000,31480000,-0.094771616,0.06419472,-9.423882
31528000,31528000,-0.085421704,0.059991032,-9.478915
31580000,31580000,-0.08172411,0.087584764,-9.489887
31628000,31628000,-0.113613114,0.058448482,-9.540387
31680000,31680000,-0.102306016,0.020842796,-9.530552
31724000,31724000,-0.09150656,0.039051224,-9.426895
31780000,31780000,-0.10216518,0.0343735,-9.411595
31828000,31828000,-0.089661,0.038459696,-9.395621
31880000,31880000,-0.12010195,0.042808227,-9.41745
31928000,31928000,-0.091621034,0.025639517,-9.471039
31980000,31980000,-0.117156245,0.050616615,-9.521906
32028000,32028000,-0.11551791,0.04366436,-9.556266
32080000,32080000,-0.117967,0.005586076,-9.488083
32128000,32128000,-0.13320011,0.022731163,-9.411215
32180000,32180000,-0.13543934,0.029787038,-9.385044
32228000,32228000,-0.13052025,0.01807557,-9.395849
32280000,32280000,-0.1343418,0.018731603,-9.414329
32328000,32328000,-0.13996848,0.02151507,-9.491226
32380000,32380000,-0.11810897,0.015440777,-9.557159
32428000,32428000,-0.11970268,0.004266056,-9.582981
32480000,32480000,-0.11501298,0.0070118043,-9.535238
32528000,32528000,-0.11849856,0.0005048043,-9.448706
32576000,32576000,-0.12793328,-0.0036642826,-9.426266
32624000,32624000,-0.12592787,0.014662448,-9.436176
32676000,32676000,-0.09192941,0.041239355,-9.487855
32728000,32728000,-0.093546264,0.0026950717,-9.534331
32776000,32776000,-0.099872515,0.025873277,-9.602921
32828000,32828000,-0.11002334,0.028998755,-9.670879
32880000,32880000,-0.12537451,0.0061495095,-9.572952
32928000,32928000,-0.09731937,0.037941672,-9.488678
32980000,32980000,-0.09273506,0.030126197,-9.435009
33028000,33028000,-0.0856588,0.017331209,-9.466106
33076000,33076000,-0.10180123,0.037006374,-9.508492
33124000,33124000,-0.10109725,0.025896948,-9.551973
33180000,33180000,-0.08957536,0.051274363,-9.615173
33228000,33228000,-0.09831172,0.053483836,-9.690116
33280000,33280000,-0.098999195,0.0580772,-9.611904
33328000,33328000,-0.0942661,0.05251971,-9.46592
33376000,33376000,-0.07697345,0.088829435,-9.468995
33424000,33424000,-0.06759959,0.05124311,-9.467608
33480000,33480000,-0.06905063,0.052744363,-9.519213
33524000,33524000,-0.07473984,0.05254461,-9.577196
33576000,33576000,-0.06018019,0.059276946,-9.625079
33628000,33628000,-0.04722587,0.06337206,-9.687902
33680000,33680000,-0.046228804,0.093661845,-9.665885
33724000,33724000,-0.07226561,0.0795597,-9.557165
33776000,33776000,-0.04308118,0.08437928,-9.526213
33824000,33824000,-0.046565495,0.07447146,-9.520895
33880000,33880000,-0.102056324,0.09168003,-9.609342
33928000,33928000,-0.047924962,0.10069649,-9.641622
33980000,33980000,-0.04540862,0.09138235,-9.726023
34028000,34028000,-0.033162028,0.11496642,-9.792107
34080000,34080000,-0.03172012,0.084222645,-9.67879
34128000,34128000,-0.04222516,0.09324078,-9.553123
34180000,34180000,-0.040925775,0.09574124,-9.5002
34228000,34228000,-0.04641845,0.09698318,-9.52969
34280000,34280000,-0.019640867,0.09306963,-9.585493
34328000,34328000,-0.0329931,0.10557455,-9.632561
34380000,34380000,-0.049205367,0.12724449,-9.710814
34428000,34428000,-0.02809572,0.091754034,-9.751149
34476000,34476000,-0.039843187,0.11011347,-9.703233
34524000,34524000,-0.009333364,0.096311614,-9.612833
34580000,34580000,-0.02951723,0.11001049,-9.533202
34628000,34628000,-0.009398081,0.110309966,-9.6154785
34676000,34676000,-0.051188674,0.13988878,-9.610992
34728000,34728000,-0.024387013,0.1176599,-9.689447
34780000,34780000,-0.0316048,0.115942866,-9.761398
34828000,34828000,-0.024161061,0.1250121,-9.823016
34880000,34880000,-0.037781183,0.102490634,-9.768219
34928000,34928000,-0.03835493,0.14308298,-9.659523
34980000,34980000,-0.011533961,0.13352685,-9.604314
35028000,35028000,-0.01308204,0.13249606,-9.608743
35080000,35080000,-0.032758452,0.13846216,-9.648899
35128000,35128000,-0.011743181,0.13376315,-9.720877
35176000,35176000,-0.019848099,0.12186492,-9.762269
35224000,35224000,-0.030723836,0.10626608,-9.808235
35280000,35280000,-0.033045642,0.1195607,-9.754051
35328000,35328000,-0.040808134,0.11128538,-9.677235
35380000,35380000,-0.03871997,0.14187354,-9.645042
35428000,35428000,-0.029777609,0.12979892,-9.608664
35480000,35480000,-0.040164217,0.11273352,-9.683345
35528000,35528000,-0.021433473,0.14182751,-9.772848
35580000,35580000,0.0031834063,0.14676751,-9.814842
35628000,35628000,-0.014025947,0.12694344,-9.873982
35680000,35680000,-0.029070385,0.13851656,-9.763053
35728000,35728000,-0.03451807,0.11933355,-9.690178
35780000,35780000,-0.012816055,0.15393053,-9.649677
35828000,35828000,-0.03563625,0.13851836,-9.675945
35880000,35880000,-0.029235233,0.12760861,-9.701361
35924000,35924000,-0.02143872,0.12408663,-9.773823
35976000,35976000,-0.02005507,0.13305238,-9.819467
36024000,36024000,-0.016630473,0.13204852,-9.839815
36080000,36080000,-0.06063216,0.14277399,-9.787316
36124000,36124000,-0.039985713,0.12516451,-9.718942
36180000,36180000,-0.00521939,0.13361818,-9.633665
36228000,36228000,-0.013405474,0.10365741,-9.643931
36280000,36280000,-0.017500114,0.117018394,-9.677933
36324000,36324000,-0.058519468,0.14268485,-9.754103
36380000,36380000,-0.03880146,0.12454139,-9.788129
36424000,36424000,-0.031553887,0.1474202,-9.849176
36480000,36480000,-0.04094236,0.119031444,-9.807926
36528000,36528000,-0.020413972,0.12925509,-9.726157
36576000,36576000,-0.010219721,0.104602806,-9.696064
36628000,36628000,-0.039893523,0.13401036,-9.680695
36680000,36680000,-0.05252043,0.13468659,-9.745787
36728000,36728000,-0.019827383,0.13326636,-9.7811775
36780000,36780000,-0.011838337,0.12601396,-9.818956
36828000,36828000,-0.030936435,0.14403597,-9.868658
36880000,36880000,-0.01859631,0.14758313,-9.824434
36928000,36928000,-0.013685635,0.13095628,-9.731014
36976000,36976000,-0.034476943,0.13934524,-9.7234955
37024000,37024000,-0.012366873,0.12749955,-9.710323
37080000,37080000,-0.027423328,0.13861755,-9.761868
37128000,37128000,-0.021830058,0.1323784,-9.8244095
37180000,37180000,-0.06285065,0.092720605,-9.856157
37228000,37228000,0.010030399,0.12960726,-9.91576
37276000,37276000,-0.022767488,0.120337754,-9.829062
37328000,37328000,-0.0053330422,0.12312341,-9.769976
37376000,37376000,-0.01307425,0.13219361,-9.768824
37428000,37428000,-0.045287125,0.12782174,-9.74968
37476000,37476000,-0.024198351,0.118614286,-9.79658
37524000,37524000,0.012493443,0.11655757,-9.825167
37580000,37580000,-0.011981813,0.13639127,-9.841898
37624000,37624000,-0.014189446,0.1284283,-9.877506
37680000,37680000,-0.0190889,0.1076044,-9.821602
37728000,37728000,-0.019255046,0.14266793,-9.747887
37780000,37780000,-0.034073904,0.127286,-9.757844
37824000,37824000,-0.0006591935,0.11831641,-9.730119
37880000,37880000,-0.02422669,0.14997484,-9.763137
37928000,37928000,-0.03263638,0.1381228,-9.766009
37980000,37980000,0.013510169,0.11906321,-9.858344
38028000,38028000,-0.0048505943,0.14517519,-9.860499
38080000,38080000,-0.008119531,0.14513569,-9.827606
38128000,38128000,-0.032488257,0.14184107,-9.746988
38180000,38180000,-0.013990615,0.14127459,-9.713202
38228000,38228000,-0.012591723,0.13102636,-9.730246
38280000,38280000,-0.0071279975,0.12215851,-9.760656
38328000,38328000,-0.014579298,0.13947041,-9.814083
38380000,38380000,-0.005493254,0.1399515,-9.852904
38428000,38428000,0.0153982,0.13550465,-9.896551
38476000,38476000,-0.019196987,0.10925081,-9.818861
38528000,38528000,-0.02107732,0.11406831,-9.7895
38580000,38580000,-0.01620849,0.12589526,-9.73524
38624000,38624000,-0.020989554,0.14186105,-9.760081
38680000,38680000,-0.015189017,0.15383537,-9.751238
38728000,38728000,-0.018135779,0.0959214,-9.78882
38780000,38780000,0.0038075796,0.113318086,-9.814197
38828000,38828000,-0.012300466,0.12491764,-9.854769
38880000,38880000,-0.005659271,0.1392445,-9.855289
38928000,38928000,0.028600145,0.13013372,-9.761532
38980000,38980000,-0.019293249,0.13122539,-9.757686
39028000,39028000,-0.00942848,0.11100968,-9.791874
39080000,39080000,-0.0011608567,0.15056777,-9.802644
39128000,39128000,-0.006483407,0.13579622,-9.819256
39180000,39180000,0.008831,0.12202881,-9.846348
39228000,39228000,-0.032869216,0.1260847,-9.8662815
39280000,39280000,0.0039076675,0.13457514,-9.851202
39328000,39328000,-0.005644053,0.103202626,-9.764179
39380000,39380000,0.0059008496,0.112841874,-9.740302
39428000,39428000,0.0021308807,0.14698635,-9.736658
39476000,39476000,-0.006051556,0.12143429,-9.757221
39528000,39528000,-0.025790785,0.09120778,-9.805275
39580000,39580000,0.0070162313,0.15687378,-9.785803
39628000,39628000,-0.016788859,0.12373536,-9.8567505
39676000,39676000,-0.015312429,0.13251679,-9.832975
39728000,39728000,0.0025595585,0.1377043,-9.7617855
39780000,39780000,0.006658109,0.14599086,-9.751545
39828000,39828000,0.00524358,0.12945658,-9.7941265
39880000,39880000,0.004400889,0.13555792,-9.809096
39928000,39928000,0.0071978318,0.120316766,-9.803961
39980000,39980000,-0.00830023,0.12718163,-9.826023
40028000,40028000,-0.002059948,0.110954605,-9.852458
40080000,40080000,0.023219572,0.11288789,-9.818258
40128000,40128000,-0.012391453,0.13567233,-9.78327
40180000,40180000,-0.003264407,0.13522841,-9.776531
40228000,40228000,-0.00899438,0.12757038,-9.801922
40280000,40280000,-0.008657669,0.124483205,-9.788517
40328000,40328000,0.013587991,0.14975248,-9.830822
40380000,40380000,-0.01059915,0.13076179,-9.844431
40428000,40428000,-0.020196369,0.11482741,-9.856884
40480000,40480000,-0.0016294527,0.12942857,-9.866724
40528000,40528000,-0.011007556,0.12086005,-9.806524
40580000,40580000,-0.0019754274,0.123374194,-9.786263
40628000,40628000,-0.011859258,0.14939767,-9.754204
40680000,40680000,-0.0048107193,0.11299704,-9.814166
40728000,40728000,-0.016421385,0.13074985,-9.819807
40780000,40780000,-0.01133019,0.12340677,-9.829031
40828000,40828000,0.022736691,0.13370638,-9.855125
40880000,40880000,-0.013886703,0.10853019,-9.853936
40924000,40924000,-0.012374964,0.12695768,-9.819175
40976000,40976000,-0.024141008,0.099136576,-9.7770405
41024000,41024000,-0.022225486,0.13566586,-9.774598
41080000,41080000,-0.024737557,0.10950512,-9.778004
41128000,41128000,-0.027536763,0.11242768,-9.810783
41180000,41180000,-0.002777474,0.10859397,-9.8151655
41224000,41224000,-0.029824529,0.11726562,-9.852775
41280000,41280000,-0.0057654306,0.12960905,-9.814277
41328000,41328000,-0.0014801857,0.13000716,-9.7619095
41376000,41376000,-0.015376423,0.13788441,-9.746637
41424000,41424000,-0.025165513,0.11399311,-9.778806
41480000,41480000,-0.02731965,0.13117169,-9.780974
41528000,41528000,0.015207579,0.12968868,-9.796777
41580000,41580000,-0.005651167,0.13975707,-9.82979
41628000,41628000,-0.014514022,0.14583288,-9.848892
41680000,41680000,0.00028084265,0.12027209,-9.8235655
41728000,41728000,-0.025565373,0.1370923,-9.814264
41776000,41776000,-0.028853713,0.15666215,-9.78913
41824000,41824000,-0.029737502,0.13322277,-9.795505
41880000,41880000,0.0031599756,0.13391519,-9.799246
41928000,41928000,-0.01540843,0.14337498,-9.820377
41980000,41980000,-0.019133933,0.14663559,-9.859601
42028000,42028000,0.0043612397,0.14266476,-9.8726425
42076000,42076000,-0.008674499,0.11446989,-9.837708
42128000,42128000,-0.009413531,0.1533037,-9.796999
42180000,42180000,0.02573957,0.1197832,-9.770071
42228000,42228000,-0.005331899,0.15211892,-9.796574
42280000,42280000,0.01324568,0.15186834,-9.764349
42328000,42328000,0.0021541854,0.15034612,-9.804792
42380000,42380000,0.0028783933,0.13851878,-9.800157
42428000,42428000,-0.006906196,0.17353421,-9.832416
42480000,42480000,0.0047197444,0.1251249,-9.804261
42528000,42528000,0.003890833,0.1302803,-9.7768
42580000,42580000,7.356994e-05,0.12725648,-9.778011
42628000,42628000,-0.025066722,0.14779899,-9.785678
42680000,42680000,-0.005466206,0.13325115,-9.770848
42728000,42728000,-0.01010006,0.14249477,-9.774989
42780000,42780000,-0.015649948,0.12317653,-9.829996
42824000,42824000,-0.015957627,0.1214986,-9.816291
42880000,42880000,0.021441385,0.14159456,-9.788998
42928000,42928000,-0.00071428576,0.13048774,-9.767309
42980000,42980000,-0.009139042,0.14060444,-9.77791
43028000,43028000,-0.039287467,0.15475565,-9.728445
43080000,43080000,0.0050047655,0.12542564,-9.797011
43128000,43128000,-0.0016133165,0.11889584,-9.802683
43180000,43180000,-0.03139048,0.14430456,-9.788519
43228000,43228000,-0.010952169,0.10073803,-9.826986
43276000,43276000,-0.0129446285,0.12323303,-9.792318
43328000,43328000,0.002259933,0.13996391,-9.778863
43380000,43380000,0.009801471,0.13639285,-9.763231
43424000,43424000,-0.008682162,0.15465866,-9.785994
43480000,43480000,-0.021597655,0.124555826,-9.79507
43528000,43528000,0.018219858,0.1380703,-9.803793
43580000,43580000,-0.026782721,0.13684052,-9.806146
43628000,43628000,-0.009002445,0.14995804,-9.822307
43680000,43680000,0.0105978865,0.14914383,-9.803007
43728000,43728000,0.00047923223,0.1239284,-9.790574
43780000,43780000,-0.0017731228,0.12738529,-9.756902
43828000,43828000,-0.0031529712,0.12679982,-9.760156
43880000,43880000,-0.014848241,0.15369953,-9.798546
43928000,43928000,-0.017166084,0.12977745,-9.797317
43980000,43980000,0.0029588179,0.13843545,-9.811356
44024000,44024000,0.010462973,0.13706104,-9.813583
44080000,44080000,-0.024759816,0.1487213,-9.79949
44128000,44128000,0.010601001,0.1450009,-9.78994
44180000,44180000,-0.007671266,0.118813306,-9.752986
44228000,44228000,-0.015621003,0.13143471,-9.765374
44280000,44280000,-0.002746589,0.119157724,-9.798798
44328000,44328000,-0.030358048,0.16870499,-9.819313
44380000,44380000,-0.0070667705,0.13187318,-9.822302
44428000,44428000,-0.02779167,0.12702593,-9.836277
44480000,44480000,-0.017797245,0.13966385,-9.803131
44528000,44528000,-0.017791193,0.114755765,-9.772856
44580000,44580000,-0.016815033,0.09424485,-9.7447405
44628000,44628000,0.0075897183,0.11506831,-9.808462
44680000,44680000,-0.0108312,0.122948006,-9.797772
44728000,44728000,-0.031581774,0.116184846,-9.78789
44776000,44776000,-0.001499259,0.11822617,-9.806749
44828000,44828000,-0.014943069,0.12400475,-9.81115
44880000,44880000,0.0049890075,0.13932976,-9.797609
44928000,44928000,0.0071244524,0.09481879,-9.78437
44980000,44980000,-0.02648776,0.116935864,-9.758728
45028000,45028000,-0.0138250515,0.11738476,-9.810135
45080000,45080000,-0.028483892,0.107221834,-9.791108
45128000,45128000,-0.018502839,0.11502499,-9.80888
45180000,45180000,-0.021077108,0.1222952,-9.833141
45228000,45228000,0.004122964,0.086723335,-9.846768
45280000,45280000,-0.01708042,0.10305725,-9.788384
45328000,45328000,-0.0013990493,0.10632518,-9.760771
45380000,45380000,-0.0022899606,0.121648625,-9.74666
45428000,45428000,0.023671763,0.11189466,-9.763313
45480000,45480000,-0.012890442,0.11511128,-9.786912
45528000,45528000,-0.008096223,0.12410884,-9.799129
45580000,45580000,-0.041612495,0.10020048,-9.817049
45628000,45628000,-0.016615976,0.12111351,-9.832183
45680000,45680000,-0.029160446,0.120504506,-9.825795
45724000,45724000,-0.021009846,0.10793749,-9.80462
45780000,45780000,0.005708928,0.11496343,-9.774784
45828000,45828000,-0.010017008,0.12167029,-9.780121
45880000,45880000,-0.018777523,0.10426575,-9.800623
45928000,45928000,-0.016405828,0.10014601,-9.78839
45980000,45980000,0.010836047,0.101996295,-9.794749
46028000,46028000,0.009451556,0.09096086,-9.825672
46080000,46080000,-0.009977721,0.11476192,-9.797823
46128000,46128000,-0.017475342,0.07091111,-9.782019
46180000,46180000,-0.0012622898,0.07483242,-9.781677
46228000,46228000,-0.036806695,0.114521526,-9.784011
46280000,46280000,-0.03612084,0.100419626,-9.807951
46328000,46328000,0.004265579,0.12267879,-9.755257
46380000,46380000,-0.04195472,0.08754663,-9.79705
46428000,46428000,-0.016314436,0.10228076,-9.793167
46480000,46480000,-0.014481515,0.105015665,-9.805883
46524000,46524000,-0.029553419,0.0883449,-9.791149
46580000,46580000,-0.02692601,0.07780215,-9.805487
46628000,46628000,-0.037778195,0.06396042,-9.786585
46680000,46680000,-0.015956512,0.07287292,-9.804979
46728000,46728000,-0.031644635,0.09885026,-9.815048
46780000,46780000,-0.03121867,0.08337885,-9.815445
46824000,46824000,-0.0412172,0.096734054,-9.8284855
46876000,46876000,-0.010760883,0.105476804,-9.788313
46924000,46924000,-0.008576364,0.0815799,-9.783932
46980000,46980000,-0.014346312,0.08596758,-9.753488
47028000,47028000,-0.016924294,0.0932272,-9.781122
47080000,47080000,-0.030255798,0.11656871,-9.79294
47128000,47128000,-0.007602244,0.11334772,-9.775119
47180000,47180000,0.0016843046,0.09924133,-9.759262
47228000,47228000,-0.04499338,0.10215666,-9.839906
47280000,47280000,-0.024563447,0.083544254,-9.7816515
47328000,47328000,-0.012858927,0.10056544,-9.768063
47380000,47380000,-0.0026865029,0.09717052,-9.760685
47428000,47428000,0.004995334,0.10418489,-9.773052
47480000,47480000,0.008790081,0.10459691,-9.79483
47528000,47528000,-0.021066343,0.09840979,-9.790514
47576000,47576000,-0.02279017,0.082764566,-9.825199
47624000,47624000,-0.0139738,0.10485344,-9.852497
47680000,47680000,-0.04947999,0.09152775,-9.815599
47728000,47728000,-0.017359454,0.094926864,-9.788699
47776000,47776000,-0.0053802878,0.10439673,-9.790602
47828000,47828000,-0.050674245,0.09513538,-9.771287
47876000,47876000,-0.028902236,0.12119533,-9.798918
47924000,47924000,-0.023015363,0.091143034,-9.815367
47976000,47976000,-0.0005541903,0.09327803,-9.820334
48024000,48024000,-0.034030408,0.099040836,-9.826969
48076000,48076000,-0.04641201,0.10902633,-9.795774
48128000,48128000,-0.028858773,0.08973423,-9.7695
48180000,48180000,-0.029146042,0.09561738,-9.772301
48228000,48228000,0.007581437,0.08225218,-9.758988
48280000,48280000,-0.017933005,0.088111795,-9.774914
48328000,48328000,-0.0070955683,0.100371465,-9.781153
48376000,48376000,-0.015203372,0.073437445,-9.795863
48428000,48428000,-0.02213136,0.10763027,-9.810278
48480000,48480000,-0.015128129,0.09154608,-9.808759
48528000,48528000,-0.049661893,0.09007301,-9.788609
48576000,48576000,-0.057710923,0.10106249,-9.750482
48628000,48628000,-0.04196081,0.057958215,-9.774421
48680000,48680000,-0.025885697,0.091976754,-9.793289
48724000,48724000,-0.045004047,0.10375756,-9.798871
48780000,48780000,-0.020711107,0.091390885,-9.830513
48824000,48824000,-0.034559216,0.07866051,-9.82057
48880000,48880000,-0.046369314,0.078234255,-9.811945
48924000,48924000,-0.023097664,0.11025827,-9.794859
48980000,48980000,-0.02916881,0.0848425,-9.770819
49028000,49028000,-0.032495867,0.113644965,-9.818264
49076000,49076000,-0.010120915,0.13378242,-9.804611
49128000,49128000,-0.019021021,0.124402635,-9.796382
49176000,49176000,-0.02149575,0.09553744,-9.840865
49228000,49228000,-0.024721002,0.0820487,-9.797255
49280000,49280000,-0.0032989942,0.09884613,-9.820187
49328000,49328000,-0.03558954,0.09773405,-9.747614
49376000,49376000,-0.035017475,0.08276343,-9.773122
49424000,49424000,-0.05280587,0.11153456,-9.7725935
49476000,49476000,-0.025195077,0.081349656,-9.788289
49528000,49528000,-0.033302195,0.1136217,-9.81356
49580000,49580000,-0.024945095,0.104334295,-9.803861
49628000,49628000,-0.025357006,0.115468614,-9.824434
49680000,49680000,-0.03220236,0.10551394,-9.817476
49728000,49728000,-0.048102513,0.13877276,-9.806074
49780000,49780000,-0.07175934,0.12415032,-9.762754
49828000,49828000,-0.03165863,0.07696586,-9.767872
49880000,49880000,-0.04062282,0.14127806,-9.764638
49928000,49928000,-0.04308056,0.1420118,-9.823214
49976000,49976000,-0.01205875,0.12066448,-9.8128395
50028000,50028000,0.492102,0.6274246,-9.29195
50076000,50076000,0.46906108,0.6258946,-9.406923
50128000,50128000,0.50386065,0.6454941,-9.522835
50180000,50180000,0.48396152,0.61528826,-9.640093
50224000,50224000,0.4790925,0.632105,-9.750118
50280000,50280000,0.45426023,0.6130114,-9.786983
50328000,50328000,0.48978359,0.6224611,-9.786595
50380000,50380000,0.46856844,0.62154716,-9.851755
50428000,50428000,0.47946304,0.61675036,-9.848255
50480000,50480000,0.47089547,0.6285175,-9.788471
50524000,50524000,0.48066115,0.6440824,-9.736963
50580000,50580000,0.49206242,0.643729,-9.680155
50628000,50628000,0.47339836,0.6141047,-9.698389
50680000,50680000,0.4930554,0.6151233,-9.724353
50728000,50728000,0.48967203,0.6285099,-9.748048
50780000,50780000,0.48528105,0.62549645,-9.753567
50828000,50828000,0.44500297,0.5928495,-9.801474
50880000,50880000,0.46794888,0.62761927,-9.711825
50928000,50928000,0.46550536,0.62709534,-9.613668
50980000,50980000,0.47341514,0.6201047,-9.543014
51028000,51028000,0.4701043,0.60298514,-9.539761
51080000,51080000,0.45314166,0.6107651,-9.612244
51128000,51128000,0.47425383,0.6385465,-9.627234
51180000,51180000,0.46225166,0.6115531,-9.695331
51228000,51228000,0.45687842,0.5958953,-9.739329
51280000,51280000,0.44192827,0.603879,-9.622314
51328000,51328000,0.4427053,0.5534188,-9.495504
51380000,51380000,0.43459874,0.5610766,-9.461212
51428000,51428000,0.4107082,0.55639684,-9.440527
51480000,51480000,0.4023338,0.53082657,-9.509186
51528000,51528000,0.42970562,0.5555463,-9.52332
51580000,51580000,0.4059924,0.51810056,-9.619908
51628000,51628000,0.3935892,0.5583942,-9.6975565
51680000,51680000,0.35304636,0.54674965,-9.589462
51728000,51728000,0.31883806,0.48830152,-9.433897
51780000,51780000,0.34758103,0.46328622,-9.401119
51828000,51828000,0.33312488,0.44899654,-9.403051
51880000,51880000,0.30552188,0.4240414,-9.453327
51928000,51928000,0.27899474,0.44965827,-9.533766
51976000,51976000,0.28735825,0.39748737,-9.586023
52028000,52028000,0.27013043,0.41971034,-9.678305
52080000,52080000,0.21939167,0.39607617,-9.533312
52128000,52128000,0.23494703,0.34951413,-9.387723
52180000,52180000,0.1789349,0.31878796,-9.352732
52228000,52228000,0.17149138,0.3320962,-9.366526
52280000,52280000,0.1617375,0.29276592,-9.455269
52328000,52328000,0.14427432,0.28903186,-9.522701
52376000,52376000,0.1397787,0.2665239,-9.576269
52428000,52428000,0.10503448,0.20117779,-9.701464
52476000,52476000,0.07528082,0.18905678,-9.608852
52528000,52528000,0.09320358,0.18018872,-9.432437
52576000,52576000,0.011778568,0.18610908,-9.340665
52624000,52624000,0.02220688,0.14519757,-9.35637
52676000,52676000,-0.008586636,0.093175784,-9.428379
52724000,52724000,-0.019144729,0.10941388,-9.532653
52780000,52780000,-0.04382979,0.07345301,-9.610471
52828000,52828000,-0.09028553,0.05712641,-9.675422
52880000,52880000,-0.08147238,0.02615862,-9.591298
52924000,52924000,-0.12722927,-0.0021639157,-9.512169
52980000,52980000,-0.13787487,-0.0059684534,-9.450188
53028000,53028000,-0.14397767,-0.052427687,-9.446834
53080000,53080000,-0.1840752,-0.07052063,-9.518841
53128000,53128000,-0.23351985,-0.074440345,-9.587956
53180000,53180000,-0.19511235,-0.11381336,-9.685472
53228000,53228000,-0.25002855,-0.14993753,-9.746706
53280000,53280000,-0.3012845,-0.17128588,-9.653149
53328000,53328000,-0.30898342,-0.19469827,-9.540179
53380000,53380000,-0.31127536,-0.19432521,-9.472369
53428000,53428000,-0.34739333,-0.22876406,-9.482093
53480000,53480000,-0.36602736,-0.23537144,-9.542923
53528000,53528000,-0.41518694,-0.29997635,-9.603921
53580000,53580000,-0.4059304,-0.314587,-9.717795
53628000,53628000,-0.4178367,-0.34082034,-9.756975
53680000,53680000,-0.46454355,-0.32559896,-9.686617
53724000,53724000,-0.47968364,-0.33539867,-9.613705
53776000,53776000,-0.504703,-0.38151065,-9.583708
53828000,53828000,-0.50279814,-0.3908725,-9.563274
53880000,53880000,-0.5388628,-0.39145416,-9.610885
53928000,53928000,-0.5519701,-0.43850648,-9.704462
53980000,53980000,-0.5565088,-0.417482,-9.774638
54028000,54028000,-0.58025897,-0.46028265,-9.843659
54080000,54080000,-0.59843814,-0.5055687,-9.783632
54124000,54124000,-0.60719293,-0.4981485,-9.737714
54180000,54180000,-0.61990875,-0.50443846,-9.738451
54228000,54228000,-0.65056723,-0.53620976,-9.769899
54280000,54280000,-0.65399957,-0.52943575,-9.805628
54328000,54328000,-0.65496475,-0.56223994,-9.825516
54380000,54380000,-0.7019882,-0.58053374,-9.908892
54428000,54428000,-0.6976876,-0.5841062,-9.909693
54480000,54480000,-0.69148815,-0.58437586,-9.914529
54528000,54528000,-0.7361904,-0.5720841,-9.892389
54580000,54580000,-0.7359437,-0.58400583,-9.9249325
54628000,54628000,-0.7111736,-0.62504727,-9.908475
54680000,54680000,-0.71057355,-0.60374665,-9.942978
54728000,54728000,-0.7706635,-0.6211555,-9.971743
54780000,54780000,-0.7288733,-0.62638956,-9.988205
54828000,54828000,-0.7234795,-0.61625874,-10.013521
54880000,54880000,-0.7616512,-0.6493051,-10.066046
54924000,54924000,-0.7716794,-0.64387405,-10.059249
54980000,54980000,-0.75177914,-0.63236314,-10.081905
55024000,55024000,-0.73406345,-0.63867956,-10.094249
55080000,55080000,-0.76208013,-0.6240577,-10.10222
55128000,55128000,-0.7572404,-0.63201475,-10.071765
55180000,55180000,-0.7350506,-0.65407956,-10.079548
55228000,55228000,-0.7502271,-0.6511842,-10.072787
55280000,55280000,-0.74862945,-0.6102593,-10.193301
55328000,55328000,-0.75364995,-0.626124,-10.231921
55380000,55380000,-0.7315495,-0.6281159,-10.257573
55428000,55428000,-0.7374196,-0.60357845,-10.254695
55480000,55480000,-0.73013854,-0.6298953,-10.235329
55528000,55528000,-0.71871865,-0.6072906,-10.227874
55580000,55580000,-0.715441,-0.62271005,-10.168109
55628000,55628000,-0.72302705,-0.6216677,-10.154851
55680000,55680000,-0.6675833,-0.5992504,-10.282644
55728000,55728000,-0.6848589,-0.5468663,-10.365433
55780000,55780000,-0.6699964,-0.57779956,-10.394367
55828000,55828000,-0.6592854,-0.5771372,-10.395136
55876000,55876000,-0.6449603,-0.5455293,-10.331464
55928000,55928000,-0.6427282,-0.53543186,-10.285007
55980000,55980000,-0.6478321,-0.5097607,-10.207796
56028000,56028000,-0.64466465,-0.48580942,-10.140847
56076000,56076000,-0.60422486,-0.52736664,-10.317963
56128000,56128000,-0.5819831,-0.45381474,-10.450675
56180000,56180000,-0.5718811,-0.4532287,-10.50736
56228000,56228000,-0.5746464,-0.43818283,-10.4720955
56280000,56280000,-0.5009152,-0.40947154,-10.42066
56328000,56328000,-0.5245445,-0.39554024,-10.318562
56380000,56380000,-0.49257767,-0.36297446,-10.226285
56428000,56428000,-0.48324922,-0.3522117,-10.140738
56480000,56480000,-0.45962483,-0.35809344,-10.302801
56528000,56528000,-0.46101922,-0.32951218,-10.475044
56580000,56580000,-0.41307145,-0.29207754,-10.559959
56624000,56624000,-0.39626232,-0.27863643,-10.542475
56680000,56680000,-0.3899804,-0.25550807,-10.428945
56728000,56728000,-0.36447135,-0.24284276,-10.349483
56780000,56780000,-0.34577367,-0.22611958,-10.21699
56828000,56828000,-0.32401696,-0.18662216,-10.110872
56880000,56880000,-0.29646447,-0.1548025,-10.354205
56928000,56928000,-0.27177668,-0.16007262,-10.51506
56980000,56980000,-0.22040524,-0.13030377,-10.53745
57028000,57028000,-0.20855604,-0.09070211,-10.517275
57080000,57080000,-0.18659611,-0.057584755,-10.445204
57128000,57128000,-0.16214007,-0.067826614,-10.312622
57180000,57180000,-0.1408394,-0.040522445,-10.177954
57228000,57228000,-0.130323,-0.0058435826,-10.036306
57276000,57276000,-0.12803699,0.009742935,-10.251495
57324000,57324000,-0.05520565,0.05943768,-10.430557
57380000,57380000,-0.0353187,0.06382556,-10.519844
57428000,57428000,-0.018186927,0.09069844,-10.462901
57480000,57480000,0.0067848694,0.1292452,-10.372247
57524000,57524000,0.029565105,0.1442063,-10.280457
57576000,57576000,0.038056243,0.15637448,-10.118573
57628000,57628000,0.07080897,0.18927795,-9.937706
57680000,57680000,0.09861548,0.22645535,-10.190834
57728000,57728000,0.1620009,0.24264218,-10.34793
57780000,57780000,0.16305262,0.28728026,-10.418281
57824000,57824000,0.19080529,0.2830145,-10.374636
57876000,57876000,0.21295953,0.32046196,-10.277444
57928000,57928000,0.24835406,0.3425404,-10.147505
57980000,57980000,0.248672,0.34292823,-10.013772
58028000,58028000,0.27278185,0.35765848,-9.862841
58080000,58080000,0.30948833,0.4249698,-10.09025
58128000,58128000,0.35963774,0.43378848,-10.238583
58180000,58180000,0.37812385,0.48074472,-10.282099
58228000,58228000,0.38975078,0.4661561,-10.197184
58276000,58276000,0.3967036,0.51133364,-10.104417
58328000,58328000,0.41007805,0.5297228,-9.950449
58380000,58380000,0.42925933,0.5310571,-9.841846
58424000,58424000,0.45956662,0.5532564,-9.757448
58480000,58480000,0.4860663,0.5784777,-9.909136
58528000,58528000,0.49745402,0.6037984,-10.061988
58580000,58580000,0.5229796,0.615798,-10.080763
58628000,58628000,0.56367326,0.6423622,-10.045997
58680000,58680000,0.58143294,0.68200284,-9.976741
58728000,58728000,0.5666992,0.6762794,-9.883335
58780000,58780000,0.5837626,0.6984186,-9.759249
58828000,58828000,0.60950136,0.70548195,-9.658046
58880000,58880000,0.61920685,0.7242023,-9.795869
58928000,58928000,0.6581079,0.7500123,-9.946316
58980000,58980000,0.64272386,0.7918712,-9.944704
59028000,59028000,0.6888536,0.785843,-9.922958
59080000,59080000,0.70253384,0.7909543,-9.850092
59128000,59128000,0.704084,0.80906045,-9.762245
59180000,59180000,0.7049038,0.8667158,-9.671345
59228000,59228000,0.7249576,0.83359253,-9.585231
59280000,59280000,0.75018656,0.8636098,-9.674036
59328000,59328000,0.7557012,0.864133,-9.736943
59380000,59380000,0.7552346,0.86462563,-9.779372
59428000,59428000,0.7967384,0.8602997,-9.721549
59480000,59480000,0.79850245,0.87809134,-9.67807
59528000,59528000,0.8109164,0.90343213,-9.619609
59580000,59580000,0.8155867,0.9075751,-9.588871
59628000,59628000,0.8075212,0.917535,-9.545706
59680000,59680000,0.8404901,0.9157169,-9.563726
59724000,59724000,0.8354755,0.9177735,-9.552675
59780000,59780000,0.8172819,0.88877344,-9.569874
59824000,59824000,0.8346871,0.9167463,-9.567937
59880000,59880000,0.83375907,0.93783486,-9.553611
59928000,59928000,0.85727745,0.9497912,-9.510093
59980000,59980000,0.83369803,0.93748343,-9.483738
60028000,60028000,0.32335824,0.43571824,-9.999403
60080000,60080000,0.3104171,0.41796932,-9.898752
60128000,60128000,0.3088982,0.42335546,-9.734258
60180000,60180000,0.32551584,0.43485194,-9.589328
60228000,60228000,0.325127,0.42723137,-9.483852
60280000,60280000,0.33244336,0.4272015,-9.437295
60328000,60328000,0.29087904,0.41274422,-9.423124
60380000,60380000,0.30791876,0.44151703,-9.3853035
60428000,60428000,0.26784736,0.39069775,-9.400037
60480000,60480000,0.29631683,0.41386986,-9.419825
60528000,60528000,0.3002247,0.3842026,-9.383852
60580000,60580000,0.2521611,0.38790658,-9.322601
60628000,60628000,0.2794,0.36107782,-9.342328
60680000,60680000,0.25457373,0.35222062,-9.398908
60728000,60728000,0.23034525,0.33387834,-9.395877
60780000,60780000,0.232776,0.3390361,-9.438414
60828000,60828000,0.19297639,0.34377986,-9.449535
60876000,60876000,0.1972495,0.32746902,-9.461764
60928000,60928000,0.17140557,0.31455433,-9.372727
60980000,60980000,0.19877866,0.31316513,-9.381567
61028000,61028000,0.17985465,0.27698094,-9.414543
61080000,61080000,0.14496937,0.2721571,-9.423645
61128000,61128000,0.17706029,0.2694711,-9.44831
61180000,61180000,0.13525541,0.26573724,-9.47101
61228000,61228000,0.127623,0.2540421,-9.510307
61276000,61276000,0.11279348,0.22379139,-9.519545
61328000,61328000,0.092152074,0.19973268,-9.478724
61380000,61380000,0.06549099,0.15595382,-9.433638
61428000,61428000,0.036263008,0.17391562,-9.459116
61480000,61480000,0.077521734,0.14825363,-9.453493
61528000,61528000,0.035537045,0.15235811,-9.4721775
61580000,61580000,0.0540334,0.13602257,-9.5346575
61628000,61628000,0.020775799,0.1382563,-9.595209
61680000,61680000,0.00033121742,0.12888004,-9.547644
61728000,61728000,0.004084677,0.13145652,-9.466953
61780000,61780000,0.005671259,0.10749785,-9.427336
61828000,61828000,0.011389854,0.0844247,-9.455715
61880000,61880000,0.0016194005,0.10807572,-9.51842
61928000,61928000,-0.013600794,0.09495277,-9.532548
61980000,61980000,-0.050552256,0.06835404,-9.583876
62028000,62028000,-0.031999916,0.061325476,-9.62347
62080000,62080000,-0.054832786,0.064224325,-9.59544
62128000,62128000,-0.04853171,0.06715955,-9.506707
62180000,62180000,-0.03750718,0.03650706,-9.459141
62228000,62228000,-0.04720758,0.017260972,-9.48012
62280000,62280000,-0.051999763,0.052113775,-9.520369
62324000,62324000,-0.059267476,0.013649181,-9.52886
62380000,62380000,-0.053634286,0.006168972,-9.648012
62428000,62428000,-0.07083276,0.045045216,-9.663065
62480000,62480000,-0.080380574,0.014707426,-9.603474
