timestamp,timestamp_sample,ref_timestamp,ref_lat,ref_lon,x,y,z,delta_xy[0],delta_xy[1],delta_z,vx,vy,vz,z_deriv,delta_vxy[0],delta_vxy[1],delta_vz,ax,ay,az,heading,delta_heading,ref_alt,dist_bottom,eph,epv,evh,evv,vxy_max,vz_max,hagl_min,hagl_max,xy_valid,z_valid,v_xy_valid,v_z_valid,xy_reset_counter,z_reset_counter,vxy_reset_counter,vz_reset_counter,heading_reset_counter,heading_good_for_control,xy_global,z_global,dist_bottom_valid,dist_bottom_sensor_bitfield,dead_reckoning
3428000,3428000,0,nan,nan,2.1239257e-05,2.8431621e-05,-0.00077686686,-5.255593e-08,1.3669487e-08,0.0,0.0012214874,-0.00018715383,-0.014960865,-0.016224168,-8.759322e-06,2.2782478e-06,0.0014087781,0.050874658,-0.008039656,-0.12280791,-5.7202782e-05,0.0,nan,0.1,14.172738,10.008659,7.0740013,3.1623116,inf,inf,inf,inf,0,0,0,0,1,1,1,1,0,0,0,0,0,0,1
3436000,3436000,0,nan,nan,2.9938607e-05,2.5686728e-05,-0.00087222754,-5.255593e-08,1.3669487e-08,0.0,0.0012825074,-0.00017930884,-0.01593368,-0.017123457,-8.759322e-06,2.2782478e-06,0.0014087781,-0.010476112,0.014203672,-0.13063382,-5.3839503e-05,0.0,nan,0.10214929,14.142143,10.0,0.001953125,0.001,inf,inf,inf,inf,0,0,0,0,1,1,1,1,0,0,0,0,0,0,1
3444000,3444000,0,nan,nan,3.825223e-05,2.335827e-05,-0.0009722863,-5.255593e-08,1.3669487e-08,0.0,0.0012964631,-0.00011743308,-0.016915428,-0.018024348,-8.759322e-06,2.2782478e-06,0.0014087781,0.016422708,0.0007942726,-0.13217422,-5.930928e-05,0.0,nan,0.10224428,14.142143,10.0,0.01291335,0.004189447,inf,inf,inf,inf,0,0,0,0,1,1,1,1,0,0,0,0,0,0,1
3452000,3452000,0,nan,nan,-3.828185e-05,-3.228222e-05,0.0003712514,-5.255593e-08,1.3669487e-08,0.0,0.001100155,-0.0006431091,-0.013341243,-0.018570513,-8.759322e-06,2.2782478e-06,0.0014087781,0.011159921,-0.038105875,-0.08484162,1.6358068,0.0,nan,0.100886144,14.142143,10.0,0.024588006,0.006484639,inf,inf,inf,inf,0,0,0,0,1,1,1,1,0,0,0,0,0,0,1
3460000,3460000,0,nan,nan,-2.9522102e-05,-3.671716e-05,0.00026306958,-5.255593e-08,1.3669487e-08,0.0,0.0010124365,-0.00038928518,-0.014162304,-0.019210491,-8.759322e-06,2.2782478e-06,0.0014087781,-0.030637033,0.03532112,-0.115619965,1.6358111,0.0,nan,0.100970596,14.142143,10.0,0.03347068,0.008631168,inf,inf,inf,inf,0,0,0,0,1,1,1,1,0,0,0,0,0,0,1
3468000,3468000,0,nan,nan,-2.1599875e-05,-3.91976e-05,0.00014804472,-5.255593e-08,1.3669487e-08,0.0,0.0010375279,-0.00015147914,-0.015254827,-0.020118067,-8.759322e-06,2.2782478e-06,0.0014087781,0.01943165,0.029836707,-0.14358944,1.6357967,0.0,nan,0.10105323,14.142143,10.0,0.043705486,0.010718797,inf,inf,inf,inf,0,0,0,0,1,1,1,1,0,0,0,0,0,0,1
3476000,3476000,0,nan,nan,-1.2528909e-05,-4.0052615e-05,2.4748806e-05,-5.255593e-08,1.3669487e-08,0.0,0.0012315328,1.9646204e-06,-0.01644721,-0.021123739,-8.759322e-06,2.2782478e-06,0.0014087781,0.02325831,0.01131065,-0.15116481,1.6357846,0.0,nan,0.10113573,14.142143,10.0,0.054564465,0.012776456,inf,inf,inf,inf,0,0,0,0,1,1,1,1,0,0,0,0,0,0,1
3484000,3484000,0,nan,nan,-1.9287302e-06,-3.97784e-05,-0.00010614622,-5.255593e-08,1.3669487e-08,0.0,0.0013972683,0.00015277504,-0.017372472,-0.021862162,-8.759322e-06,2.2782478e-06,0.0014087781,0.012856907,0.015035256,-0.11175591,1.6357945,0.0,nan,0.10121734,14.142143,10.0,0.065729454,0.014816692,inf,inf,inf,inf,0,0,0,0,1,1,1,1,0,0,0,0,0,0,1
3492000,3492000,0,nan,nan,8.855076e-06,-3.820787e-05,-0.00024365116,-5.255593e-08,1.3669487e-08,0.0,0.0012998721,0.00030959636,-0.018394172,-0.02269816,-8.759322e-06,2.2782478e-06,0.0014087781,-0.016791293,0.015144963,-0.13624969,1.6357944,0.0,nan,0.10129628,14.142143,10.0,0.077116884,0.016845932,inf,inf,inf,inf,0,0,0,0,1,1,1,1,0,0,0,0,0,0,1
3500000,3500000,0,nan,nan,1.830923e-05,-3.508644e-05,-0.00038906874,-5.255593e-08,1.3669487e-08,0.0,0.0011137575,0.0004640361,-0.019590553,-0.023710938,-8.759322e-06,2.2782478e-06,0.0014087781,-0.01862325,0.010023068,-0.15558022,1.6357971,0.0,nan,0.101373374,14.142143,10.0,0.088606745,0.018867623,inf,inf,inf,inf,0,0,0,0,1,1,1,1,0,0,0,0,0,0,1
3508000,3508000,0,nan,nan,2.7215312e-05,-3.0383231e-05,-0.0005426095,-5.255593e-08,1.3669487e-08,0.0,0.0012046923,0.0006663737,-0.020627942,-0.02456755,-8.759322e-06,2.2782478e-06,0.0014087781,0.021824611,0.025363885,-0.12213643,1.6358058,0.0,nan,0.10145006,14.142143,10.0,0.100158185,0.020884056,inf,inf,inf,inf,0,0,0,0,1,1,1,1,0,0,0,0,0,0,1
3516000,3516000,0,nan,nan,3.6364905e-05,-2.3646659e-05,-0.0007028415,-5.255593e-08,1.3669487e-08,0.0,0.0011419168,0.00081031077,-0.02158853,-0.025350725,-8.759322e-06,2.2782478e-06,0.0014087781,-0.017563578,0.0038525173,-0.12697837,1.6358068,0.0,nan,0.10152528,14.142142,10.0,0.111787856,0.022896416,inf,inf,inf,inf,0,0,0,0,1,1,1,1,0,0,0,0,0,0,1
3524000,3524000,0,nan,nan,4.472803e-05,-1.5015621e-05,-0.0008709919,-5.255593e-08,1.3669487e-08,0.0,0.0011121044,0.0010836419,-0.022866657,-0.026455192,-8.759322e-06,2.2782478e-06,0.0014087781,0.0005151523,0.032702256,-0.1678625,1.6358156,0.0,nan,0.10159978,14.142142,10.0,0.12347276,0.0249058,inf,inf,inf,inf,0,0,0,0,1,1,1,1,0,0,0,0,0,0,1
3532000,3532000,0,nan,nan,5.1539115e-05,-3.3298272e-06,-0.0010518278,-5.255593e-08,1.3669487e-08,0.0,0.0007059695,0.0014405192,-0.023890827,-0.027286518,-8.759322e-06,2.2782478e-06,0.0014087781,-0.05305068,0.032935478,-0.12092664,1.635826,0.0,nan,0.101679675,14.142142,10.0,0.13515562,0.02691307,inf,inf,inf,inf,0,0,0,0,1,1,1,1,0,0,0,0,0,0,1
3540000,3540000,0,nan,nan,5.670255e-05,1.1188751e-05,-0.0012410284,-5.255593e-08,1.3669487e-08,0.0,0.00078889605,0.0016659421,-0.024952345,-0.028159948,-8.759322e-06,2.2782478e-06,0.0014087781,0.022169406,0.021473853,-0.128231,1.63582,0.0,nan,0.1017616,14.142142,10.0,0.14689125,0.02891851,inf,inf,inf,inf,0,0,0,0,1,1,1,1,0,0,0,0,0,0,1
3548000,3548000,0,nan,nan,6.219141e-05,2.7901126e-05,-0.0014378324,-5.255593e-08,1.3669487e-08,0.0,0.0007702574,0.0018356519,-0.025772655,-0.028797057,-8.759322e-06,2.2782478e-06,0.0014087781,-0.0016811681,0.011072086,-0.09779259,1.6358258,0.0,nan,0.10184331,14.142142,10.0,0.15870133,0.03092254,inf,inf,inf,inf,0,0,0,0,1,1,1,1,0,0,0,0,0,0,1
3556000,3556000,0,nan,nan,6.636695e-05,4.70632e-05,-0.0016411367,-5.255593e-08,1.3669487e-08,0.0,0.00043717283,0.002189446,-0.02657958,-0.02942573,-8.759322e-06,2.2782478e-06,0.0014087781,-0.05422768,0.045009084,-0.10149925,1.6358162,0.0,nan,0.10192222,14.142142,10.0,0.17055963,0.03292538,inf,inf,inf,inf,0,0,0,0,1,1,1,1,0,0,0,0,0,0,1
3564000,3564000,0,nan,nan,6.80619e-05,6.9996546e-05,-0.0018513633,-5.255593e-08,1.3669487e-08,0.0,0.0002938354,0.002600555,-0.027477283,-0.030150158,-8.759322e-06,2.2782478e-06,0.0014087781,-0.0020954902,0.03942022,-0.11147651,1.6358169,0.0,nan,0.10199942,14.142142,10.0,0.18241234,0.034927256,inf,inf,inf,inf,0,0,0,0,1,1,1,1,0,0,0,0,0,0,1
3572000,3572000,0,nan,nan,6.998466e-05,9.610014e-05,-0.0020687284,-5.255593e-08,1.3669487e-08,0.0,0.00050145667,0.002871593,-0.028357612,-0.03086217,-8.759322e-06,2.2782478e-06,0.0014087781,0.03632162,0.024305627,-0.11355988,1.6358143,0.0,nan,0.1020758,14.142142,10.0,0.19430882,0.03692827,inf,inf,inf,inf,0,0,0,0,1,1,1,1,0,0,0,0,0,0,1
3580000,3580000,0,nan,nan,7.316285e-05,0.00012426959,-0.0022933965,-5.255593e-08,1.3669487e-08,0.0,0.0005782808,0.003014007,-0.029238563,-0.03157972,-8.759322e-06,2.2782478e-06,0.0014087781,0.005775873,0.010338277,-0.10368693,1.6358176,0.0,nan,0.102150455,14.142143,10.0,0.20625997,0.038928602,inf,inf,inf,inf,0,0,0,0,1,1,1,1,0,0,0,0,0,0,1
3588000,3588000,0,nan,nan,7.6523094e-05,0.00015402329,-0.00252525,-5.255593e-08,1.3669487e-08,0.0,0.00056840223,0.003170137,-0.030178035,-0.032360654,-8.759322e-06,2.2782478e-06,0.0014087781,-0.006150643,0.013744225,-0.12298021,1.6358113,0.0,nan,0.10222321,14.142145,10.0,0.21821916,0.040928457,inf,inf,inf,inf,0,0,0,0,1,1,1,1,0,0,0,0,0,0,1
3596000,3596000,0,nan,nan,7.9787525e-05,0.0001852139,-0.002764815,-5.255593e-08,1.3669487e-08,0.0,0.0006403923,0.0032458126,-0.03111311,-0.033141974,-8.759322e-06,2.2782478e-06,0.0014087781,0.018899284,-0.0047744247,-0.11581182,1.6358088,0.0,nan,0.102295525,14.142146,10.0,0.23019643,0.042927776,inf,inf,inf,inf,0,0,0,0,1,1,1,1,0,0,0,0,0,0,1
3604000,3604000,0,nan,nan,8.4136474e-05,0.00021736968,-0.0030123042,-5.255593e-08,1.3669487e-08,0.0,0.00082369085,0.0034119268,-0.03213958,-0.034019385,-8.759322e-06,2.2782478e-06,0.0014087781,0.023047322,0.028304739,-0.12928805,1.6358001,0.0,nan,0.10236667,14.142147,10.0,0.2422487,0.044926777,inf,inf,inf,inf,0,0,0,0,1,1,1,1,0,0,0,0,0,0,1
3612000,3612000,0,nan,nan,8.947115e-05,0.00024412326,-0.0032546595,-5.255593e-08,1.3669487e-08,0.0,0.00083627884,0.0035411497,-0.033102866,-0.03482508,-8.759322e-06,2.2782478e-06,0.0014087781,0.0030713999,0.00315973,-0.12309942,1.6357919,0.0,nan,0.10283481,0.014084185,7.071068,0.25428975,0.046925448,inf,inf,inf,inf,0,0,0,0,1,1,1,1,0,0,0,0,0,0,1
3620000,3620000,0,nan,nan,9.542187e-05,0.00027239995,-0.0035056856,-5.255593e-08,1.3669487e-08,0.0,0.0009969302,0.003726984,-0.034157768,-0.035727352,-8.759322e-06,2.2782478e-06,0.0014087781,0.021119673,0.02406488,-0.12705195,1.6357945,0.0,nan,0.10289193,0.014298603,7.071068,0.26636747,0.04892378,inf,inf,inf,inf,0,0,0,0,1,1,1,1,0,0,0,0,0,0,1
3628000,3628000,0,nan,nan,0.00010231409,0.00030339696,-0.0037655912,-5.255593e-08,1.3669487e-08,0.0,0.00108873,0.0041004433,-0.03522348,-0.036645286,-8.759322e-06,2.2782478e-06,0.0014087781,0.011504598,0.045277655,-0.13269018,1.6358073,0.0,nan,0.10295044,0.014960912,7.071068,0.27844033,0.05092181,inf,inf,inf,inf,0,0,0,0,1,1,1,1,0,0,0,0,0,0,1
3636000,3636000,0,nan,nan,0.00010954451,0.00033755662,-0.0040338472,-5.255593e-08,1.3669487e-08,0.0,0.0011021832,0.0043926374,-0.03615355,-0.037432306,-8.759322e-06,2.2782478e-06,0.0014087781,0.001525157,0.030094305,-0.12127589,1.6358073,0.0,nan,0.10301083,0.01606968,7.071068,0.29054093,0.052919738,inf,inf,inf,inf,0,0,0,0,1,1,1,1,0,0,0,0,0,0,1
3644000,3644000,0,nan,nan,0.0001168302,0.00036945482,-0.0042441036,-5.255593e-08,1.3669487e-08,0.0,0.0010868345,0.0043994538,-0.036400698,-0.037390072,-8.759322e-06,2.2782478e-06,0.0014087781,-0.003513385,0.0014987598,-0.13526435,1.6358128,0.0,nan,0.10508965,0.0140868025,7.071067,0.0016256854,0.0010706191,inf,inf,inf,inf,0,0,0,0,1,1,1,1,0,0,0,0,0,0,1
3652000,3652000,0,nan,nan,0.00012346104,0.00040095247,-0.0044482695,-5.255593e-08,1.3669487e-08,0.0,0.00092971494,0.0045447834,-0.03586096,-0.036566995,-8.759322e-06,2.2782478e-06,0.0014087781,-0.025226587,0.046615645,-0.047679055,1.6358248,0.0,nan,0.1052933,0.014086874,7.071067,0.0053493767,0.0036070049,inf,inf,inf,inf,0,0,0,0,1,1,1,1,0,0,0,0,0,0,1
3660000,3660000,0,nan,nan,0.00012866643,0.0004337193,-0.0046437215,-5.255593e-08,1.3669487e-08,0.0,0.0007893442,0.004787422,-0.035364904,-0.035793524,-8.759322e-06,2.2782478e-06,0.0014087781,-0.010164658,0.0386125,-0.037856396,1.6358266,0.0,nan,0.10548747,0.01408693,7.071067,0.007821952,0.0050661624,inf,inf,inf,inf,0,0,0,0,1,1,1,1,0,0,0,0,0,0,1
3668000,3668000,0,nan,nan,0.00013309087,0.0004674559,-0.00482898,-5.255593e-08,1.3669487e-08,0.0,0.00071449426,0.004934637,-0.034576286,-0.034733303,-8.759322e-06,2.2782478e-06,0.0014087781,-0.008231902,0.023267623,-0.01288019,1.6323942,-0.0034274475,nan,0.10567047,0.014087176,7.071067,0.010067191,0.0062540546,inf,inf,inf,inf,0,0,0,0,1,1,1,1,1,0,0,0,0,0,1
3676000,3676000,0,nan,nan,0.00013760243,0.0005009658,-0.0050034467,-5.255593e-08,1.3669487e-08,0.0,0.0008011747,0.0049579013,-0.033886872,-0.033777982,-8.759322e-06,2.2782478e-06,0.0014087781,0.0091960095,0.021646831,-0.022014601,1.6324015,-0.0034274475,nan,0.10584148,0.014087884,7.071067,0.012027561,0.0073042824,inf,inf,inf,inf,0,0,0,0,1,1,1,1,1,0,0,0,0,0,1
3684000,3684000,0,nan,nan,0.00014190766,0.00053417694,-0.0051676915,-5.255593e-08,1.3669487e-08,0.0,0.00069040584,0.0049932795,-0.033299867,-0.032930646,-8.759322e-06,2.2782478e-06,0.0014087781,-0.008729446,0.012027288,-0.042770986,1.6324159,-0.0034274475,nan,0.106000744,0.014089388,7.071067,0.015035199,0.008269494,inf,inf,inf,inf,0,0,0,0,1,1,1,1,1,0,0,0,0,0,1
3692000,3692000,0,nan,nan,0.00014615837,0.00056633085,-0.0053232526,-5.255593e-08,1.3669487e-08,0.0,0.00073453836,0.0048876344,-0.032956272,-0.032332186,-8.759322e-06,2.2782478e-06,0.0014087781,-0.0022205203,-0.0043816543,-0.06803683,1.6324153,-0.0034274475,nan,0.106149696,0.014092215,7.071067,0.018586459,0.009176575,inf,inf,inf,inf,0,0,0,0,1,1,1,1,1,0,0,0,0,0,1
3700000,3700000,0,nan,nan,0.00015015835,0.0005967165,-0.00547049,-5.255593e-08,1.3669487e-08,0.0,0.0007247126,0.004787184,-0.032487396,-0.031613797,-8.759322e-06,2.2782478e-06,0.0014087781,0.01612016,0.0063896147,-0.05049165,1.632439,-0.0034274475,nan,0.10628858,0.014097263,7.071067,0.022428557,0.010041318,inf,inf,inf,inf,0,0,0,0,1,1,1,1,1,0,0,0,0,0,1
3708000,3708000,0,nan,nan,0.00015500112,0.0006258091,-0.005608684,-5.255593e-08,1.3669487e-08,0.0,0.00080236455,0.004769497,-0.031941466,-0.030823592,-8.759322e-06,2.2782478e-06,0.0014087781,-0.007418042,0.017114943,-0.030135734,1.6324695,-0.0034274475,nan,0.10641628,0.014105788,7.071067,0.026436493,0.010873839,inf,inf,inf,inf,0,0,0,0,1,1,1,1,1,0,0,0,0,0,1
3716000,3716000,0,nan,nan,0.00015949756,0.00065461727,-0.005736811,-5.255593e-08,1.3669487e-08,0.0,0.00075030705,0.0049182065,-0.031330038,-0.029973017,-8.759322e-06,2.2782478e-06,0.0014087781,0.0060989545,0.035539165,-0.036453824,1.6324732,-0.0034274475,nan,0.10653228,0.014119406,7.071067,0.030544087,0.01168105,inf,inf,inf,inf,0,0,0,0,1,1,1,1,1,0,0,0,0,0,1
3724000,3724000,0,nan,nan,0.00016483292,0.0006836862,-0.0058544786,-5.255593e-08,1.3669487e-08,0.0,0.00093591015,0.0050095054,-0.030613394,-0.029022248,-8.759322e-06,2.2782478e-06,0.0014087781,0.018846286,0.017131286,-0.016136093,1.6324669,-0.0034274475,nan,0.10663598,0.014140077,7.071067,0.034727667,0.012467885,inf,inf,inf,inf,0,0,0,0,1,1,1,1,1,0,0,0,0,0,1
3732000,3732000,0,nan,nan,0.00017067819,0.0007121922,-0.005962152,-5.255593e-08,1.3669487e-08,0.0,0.0008521455,0.0050489083,-0.0301708,-0.028352965,-8.759322e-06,2.2782478e-06,0.0014087781,-0.018937266,0.024809996,-0.06438791,1.6324714,-0.0034274475,nan,0.10672711,0.014170101,7.071067,0.038963187,0.013237987,inf,inf,inf,inf,0,0,0,0,1,1,1,1,1,0,0,0,0,0,1
3740000,3740000,0,nan,nan,0.00017577795,0.00074028235,-0.006062085,-5.255593e-08,1.3669487e-08,0.0,0.00079854147,0.0051029488,-0.029745316,-0.027708072,-8.759322e-06,2.2782478e-06,0.0014087781,8.463393e-05,0.022271764,-0.03518909,1.6324971,-0.0034274475,nan,0.10680777,0.014212097,7.071067,0.043241613,0.0139941415,inf,inf,inf,inf,0,0,0,0,1,1,1,1,1,0,0,0,0,0,1
3748000,3748000,0,nan,nan,0.00018156141,0.0007679609,-0.00615329,-5.255593e-08,1.3669487e-08,0.0,0.0010024259,0.0051572584,-0.029155126,-0.026905602,-8.759322e-06,2.2782478e-06,0.0014087781,0.030188529,0.022122432,-0.030874273,1.6324897,-0.0034274475,nan,0.106877975,0.014268984,7.071067,0.04754614,0.01473851,inf,inf,inf,inf,0,0,0,0,1,1,1,1,1,0,0,0,0,0,1
3756000,3756000,0,nan,nan,0.0001888417,0.00079568336,-0.006235727,-5.255593e-08,1.3669487e-08,0.0,0.0011376283,0.0053111287,-0.028508645,-0.02605382,-8.759322e-06,2.2782478e-06,0.0014087781,0.016050499,0.032297697,-0.009172595,1.6324828,-0.0034274475,nan,0.106938444,0.014343931,7.071067,0.05188541,0.015472809,inf,inf,inf,inf,0,0,0,0,1,1,1,1,1,0,0,0,0,0,1
3764000,3764000,0,nan,nan,0.00019702807,0.00082314573,-0.006309246,-5.255593e-08,1.3669487e-08,0.0,0.0012150584,0.005271135,-0.02792233,-0.025269035,-8.759322e-06,2.2782478e-06,0.0014087781,0.008996575,0.0019544822,-0.03383215,1.6324679,-0.0034274475,nan,0.106988244,0.014440346,7.071067,0.056257617,0.016198408,inf,inf,inf,inf,0,0,0,0,1,1,1,1,1,0,0,0,0,0,1
3772000,3772000,0,nan,nan,0.00020652854,0.0008481872,-0.0063754837,-5.255593e-08,1.3669487e-08,0.0,0.0014467423,0.0049567986,-0.027407948,-0.024562867,-8.759322e-06,2.2782478e-06,0.0014087781,0.026813531,-0.01916778,-0.011104158,1.6324544,-0.0034274475,nan,0.10702761,0.014561816,7.071067,0.060666878,0.016916446,inf,inf,inf,inf,0,0,0,0,1,1,1,1,1,0,0,0,0,0,1
3780000,3780000,0,nan,nan,0.0002168281,0.0008707387,-0.006434394,-5.255593e-08,1.3669487e-08,0.0,0.0013734377,0.0047978973,-0.026963139,-0.02393281,-8.759322e-06,2.2782478e-06,0.0014087781,-0.017321493,-0.010278949,-0.04629604,1.6324267,-0.0034274475,nan,0.10705603,0.0147120645,7.071067,0.06510093,0.017627858,inf,inf,inf,inf,0,0,0,0,1,1,1,1,1,0,0,0,0,0,1
3788000,3788000,0,nan,nan,0.00022612176,0.0008914313,-0.006487145,-5.255593e-08,1.3669487e-08,0.0,0.0012134166,0.0047226734,-0.026460437,-0.023251262,-8.759322e-06,2.2782478e-06,0.0014087781,-0.020292077,0.011473471,-0.014543532,1.6324013,-0.0034274475,nan,0.10707547,0.014894836,7.071067,0.069561735,0.018333426,inf,inf,inf,inf,0,0,0,0,1,1,1,1,1,0,0,0,0,0,1
3796000,3796000,0,nan,nan,0.00023454535,0.0009108952,-0.0065329345,-5.255593e-08,1.3669487e-08,0.0,0.001159858,0.0046455795,-0.025868976,-0.022487216,-8.759322e-06,2.2782478e-06,0.0014087781,-0.0016182602,0.005124035,-0.011801719,1.6323829,-0.0034274475,nan,0.1070857,0.015113853,7.071067,0.074050225,0.019033803,inf,inf,inf,inf,0,0,0,0,1,1,1,1,1,0,0,0,0,0,1
3804000,3804000,0,nan,nan,0.0002427909,0.00092909706,-0.0065724053,-5.255593e-08,1.3669487e-08,0.0,0.0011102363,0.004585752,-0.025443567,-0.021895343,-8.759322e-06,2.2782478e-06,0.0014087781,-0.011889612,0.008468778,-0.038116235,1.6323639,-0.0034274475,nan,0.10708804,0.015372731,7.071067,0.07856606,0.019729564,inf,inf,inf,inf,0,0,0,0,1,1,1,1,1,0,0,0,0,0,1
3812000,3812000,0,nan,nan,0.00025020778,0.00094593863,-0.006606995,-5.255593e-08,1.3669487e-08,0.0,0.0009587641,0.0044761994,-0.02501002,-0.02130132,-8.759322e-06,2.2782478e-06,0.0014087781,-0.019295765,0.0037600547,-0.010677612,1.632347,-0.0034274475,nan,0.10708336,0.015674904,7.071067,0.083122626,0.020421172,inf,inf,inf,inf,0,0,0,0,1,1,1,1,1,0,0,0,0,0,1
3820000,3820000,0,nan,nan,0.00025390662,0.00096255477,-0.006640748,-5.255593e-08,1.3669487e-08,0.0,0.0008327942,0.004528458,-0.024521925,-0.020663323,-8.759322e-06,2.2782478e-06,0.0014087781,-0.0113342535,0.015335521,-0.02088677,1.6323322,-0.0034274475,nan,0.106927246,0.010603107,5.7735023,0.08213269,0.02110905,inf,inf,inf,inf,0,0,0,0,1,1,1,1,1,0,0,0,0,0,1
3828000,3828000,0,nan,nan,0.0002576155,0.0009784702,-0.006668606,-5.255593e-08,1.3669487e-08,0.0,0.00092532026,0.0044969423,-0.023851793,-0.019848844,-8.759322e-06,2.2782478e-06,0.0014087781,0.012581789,0.016220728,0.015657393,1.6323252,-0.0034274475,nan,0.106910385,0.010880016,5.7735023,0.08648459,0.021793576,inf,inf,inf,inf,0,0,0,0,1,1,1,1,1,0,0,0,0,0,1
3836000,3836000,0,nan,nan,0.00026147495,0.0009943128,-0.0066901264,-5.255593e-08,1.3669487e-08,0.0,0.0008463909,0.004653046,-0.023301804,-0.01915994,-8.759322e-06,2.2782478e-06,0.0014087781,-0.009683702,0.03980631,-0.0128028905,1.6323172,-0.0034274475,nan,0.10688592,0.011219387,5.7735023,0.090869315,0.022475053,inf,inf,inf,inf,0,0,0,0,1,1,1,1,1,0,0,0,0,0,1
3844000,3844000,0,nan,nan,0.00026542903,0.0010107306,-0.00670739,-5.255593e-08,1.3669487e-08,0.0,0.00093279965,0.00470902,-0.023015799,-0.018740326,-8.759322e-06,2.2782478e-06,0.0014087781,0.011890137,0.010794304,-0.04050694,1.6323184,-0.0034274475,nan,0.10685609,0.011623895,5.7735023,0.09529248,0.023153745,inf,inf,inf,inf,0,0,0,0,1,1,1,1,1,0,0,0,0,0,1
3852000,3852000,0,nan,nan,0.0002700119,0.0010265855,-0.0067214435,-5.255593e-08,1.3669487e-08,0.0,0.0011019862,0.004718155,-0.02270321,-0.018298803,-8.759322e-06,2.2782478e-06,0.0014087781,0.032706447,0.015569428,-0.02429541,1.6323161,-0.0034274475,nan,0.106829286,0.0118846735,5.7735023,0.094076544,0.023662532,inf,inf,inf,inf,0,0,0,0,1,1,1,1,1,0,0,0,0,0,1
3860000,3860000,0,nan,nan,0.0002763753,0.0010422337,-0.0067322087,-5.255593e-08,1.3669487e-08,0.0,0.001272492,0.004792729,-0.022359086,-0.017830824,-8.759322e-06,2.2782478e-06,0.0014087781,0.008838149,0.027609842,-0.02533104,1.6323082,-0.0034274475,nan,0.10679035,0.012373531,5.7735023,0.09833892,0.024334716,inf,inf,inf,inf,0,0,0,0,1,1,1,1,1,0,0,0,0,0,1
3868000,3868000,0,nan,nan,0.00028362632,0.0010574495,-0.006739918,-5.255593e-08,1.3669487e-08,0.0,0.0014114826,0.004663853,-0.022015551,-0.017368397,-8.759322e-06,2.2782478e-06,0.0014087781,0.029071262,-0.011736293,-0.019779427,1.632283,-0.0034274475,nan,0.10674663,0.012925756,5.7735023,0.102639765,0.025004735,inf,inf,inf,inf,0,0,0,0,1,1,1,1,1,0,0,0,0,0,1
3876000,3876000,0,nan,nan,0.00029206107,0.001071259,-0.0067445403,-5.255593e-08,1.3669487e-08,0.0,0.0014818691,0.004605937,-0.021632697,-0.016871497,-8.759322e-06,2.2782478e-06,0.0014087781,0.000937056,0.013061115,-0.013587064,1.6322777,-0.0034274475,nan,0.10669885,0.013541309,5.7735023,0.106979676,0.025672773,inf,inf,inf,inf,0,0,0,0,1,1,1,1,1,0,0,0,0,0,1
3884000,3884000,0,nan,nan,0.00030076067,0.0010853141,-0.006746026,-5.255593e-08,1.3669487e-08,0.0,0.001516996,0.0047898865,-0.021229293,-0.016358782,-8.759322e-06,2.2782478e-06,0.0014087781,0.007781651,0.036473807,-0.0091651445,1.6322347,-0.0034274475,nan,0.1066468,0.014219678,5.7735023,0.11136955,0.02633898,inf,inf,inf,inf,0,0,0,0,1,1,1,1,1,0,0,0,0,0,1
3892000,3892000,0,nan,nan,0.00030995993,0.0010997397,-0.006744839,-5.255593e-08,1.3669487e-08,0.0,0.00160354,0.0047311145,-0.020977981,-0.016002784,-8.759322e-06,2.2782478e-06,0.0014087781,0.014665521,-0.006413349,-0.0398932,1.6321799,-0.0034274475,nan,0.106590465,0.014960074,5.7735023,0.115804754,0.027003495,inf,inf,inf,inf,0,0,0,0,1,1,1,1,1,0,0,0,0,0,1
3900000,3900000,0,nan,nan,0.00031955537,0.0011126206,-0.0067425896,-5.255593e-08,1.3669487e-08,0.0,0.0015595042,0.004571257,-0.02082568,-0.015750311,-8.759322e-06,2.2782478e-06,0.0014087781,-0.014735545,0.0041395975,-0.03647152,1.6321412,-0.0034274475,nan,0.10653184,0.015761452,5.7735023,0.12028524,0.027666453,inf,inf,inf,inf,0,0,0,0,1,1,1,1,1,0,0,0,0,0,1
3908000,3908000,0,nan,nan,0.0003286461,0.0011252194,-0.0067386255,-5.255593e-08,1.3669487e-08,0.0,0.0015464553,0.004667171,-0.020377057,-0.0152059235,-8.759322e-06,2.2782478e-06,0.0014087781,0.007118011,0.02160386,0.015982425,1.6321118,-0.0034274475,nan,0.10647139,0.016622636,5.7735023,0.12480763,0.028327972,inf,inf,inf,inf,0,0,0,0,1,1,1,1,1,0,0,0,0,0,1
3916000,3916000,0,nan,nan,0.0003370973,0.0011382877,-0.0067311632,-5.255593e-08,1.3669487e-08,0.0,0.0013142898,0.0047361073,-0.019921156,-0.014658561,-8.759322e-06,2.2782478e-06,0.0014087781,-0.041094795,0.01609337,-0.01247879,1.6320751,-0.0034274475,nan,0.10640769,0.01754237,5.7735023,0.12938513,0.028988149,inf,inf,inf,inf,0,0,0,0,1,1,1,1,1,0,0,0,0,0,1
3924000,3924000,0,nan,nan,0.00034413117,0.0011515687,-0.0067218645,-5.255593e-08,1.3669487e-08,0.0,0.0013239491,0.00483734,-0.019648694,-0.014298837,-8.759322e-06,2.2782478e-06,0.0014087781,0.022463456,0.03693021,-0.013045034,1.632038,-0.0034274475,nan,0.106341004,0.01851949,5.7735023,0.13402553,0.02964708,inf,inf,inf,inf,0,0,0,0,1,1,1,1,1,0,0,0,0,0,1
3932000,3932000,0,nan,nan,0.000352012,0.0011658185,-0.0067109815,-5.255593e-08,1.3669487e-08,0.0,0.0013820112,0.004910968,-0.019329678,-0.013896657,-8.759322e-06,2.2782478e-06,0.0014087781,-0.0069637606,0.0065797647,-0.010618939,1.6319928,-0.0034274475,nan,0.106270775,0.019552942,5.7735023,0.13871895,0.030304855,inf,inf,inf,inf,0,0,0,0,1,1,1,1,1,0,0,0,0,0,1
3940000,3940000,0,nan,nan,0.00035910902,0.0011797365,-0.00669819,-5.255593e-08,1.3669487e-08,0.0,0.0012252299,0.0048595592,-0.018932816,-0.013420631,-8.759322e-06,2.2782478e-06,0.0014087781,-0.009664843,0.00894365,-0.0009089708,1.631948,-0.0034274475,nan,0.10619699,0.020641683,5.7735023,0.14346659,0.030961553,inf,inf,inf,inf,0,0,0,0,1,1,1,1,1,0,0,0,0,0,1
3948000,3948000,0,nan,nan,0.00036584833,0.0011940252,-0.0066836863,-5.255593e-08,1.3669487e-08,0.0,0.0012283903,0.004993347,-0.018639645,-0.013052201,-8.759322e-06,2.2782478e-06,0.0014087781,-0.0052985414,0.02309364,-0.0147372475,1.6319522,-0.0034274475,nan,0.1061201,0.02178476,5.7735023,0.14827119,0.03161723,inf,inf,inf,inf,0,0,0,0,1,1,1,1,1,0,0,0,0,0,1
3956000,3956000,0,nan,nan,0.0003721469,0.0012086238,-0.0066691157,-5.255593e-08,1.3669487e-08,0.0,0.0011836713,0.0049976613,-0.01866262,-0.013003725,-8.759322e-06,2.2782478e-06,0.0014087781,0.005632755,0.018088335,-0.06364006,1.6319554,-0.0034274475,nan,0.10604204,0.022981348,5.7735023,0.15313251,0.032271963,inf,inf,inf,inf,0,0,0,0,1,1,1,1,1,0,0,0,0,0,1
3964000,3964000,0,nan,nan,0.00037920164,0.0012241623,-0.0066558816,-5.255593e-08,1.3669487e-08,0.0,0.001373759,0.0051948763,-0.018528309,-0.012801675,-8.759322e-06,2.2782478e-06,0.0014087781,0.02417981,0.031473886,-0.011344439,1.6319706,-0.0034274475,nan,0.10596454,0.024230713,5.7735023,0.15805277,0.032925826,inf,inf,inf,inf,0,0,0,0,1,1,1,1,1,0,0,0,0,0,1
3972000,3972000,0,nan,nan,0.00038702556,0.0012407746,-0.0066414815,-5.255593e-08,1.3669487e-08,0.0,0.0013404198,0.005285683,-0.018113436,-0.012322685,-8.759322e-06,2.2782478e-06,0.0014087781,-0.012516844,0.022070918,0.0034207476,1.6319861,-0.0034274475,nan,0.105884716,0.025532247,5.7735023,0.1630413,0.03357885,inf,inf,inf,inf,0,0,0,0,1,1,1,1,1,0,0,0,0,0,1
3980000,3980000,0,nan,nan,0.0003942268,0.0012585449,-0.0066259652,-5.255593e-08,1.3669487e-08,0.0,0.0012771394,0.005461389,-0.017864525,-0.012013185,-8.759322e-06,2.2782478e-06,0.0014087781,-0.0017943383,0.028416527,-0.010483897,1.6319996,-0.0034274475,nan,0.105801694,0.026885502,5.7735023,0.16809724,0.034231078,inf,inf,inf,inf,0,0,0,0,1,1,1,1,1,0,0,0,0,0,1
3988000,3988000,0,nan,nan,0.00040153816,0.0012773582,-0.006609332,-5.255593e-08,1.3669487e-08,0.0,0.0013714662,0.005544875,-0.017465983,-0.0115574915,-8.759322e-06,2.2782478e-06,0.0014087781,0.019087847,0.01911244,0.0065537165,1.632039,-0.0034274475,nan,0.10571638,0.028290112,5.7735023,0.17320338,0.0348826,inf,inf,inf,inf,0,0,0,0,1,1,1,1,1,0,0,0,0,0,1
3996000,3996000,0,nan,nan,0.00040991753,0.0012963606,-0.0065921172,-5.255593e-08,1.3669487e-08,0.0,0.0015045468,0.005488701,-0.01731854,-0.0113562485,-8.759322e-06,2.2782478e-06,0.0014087781,0.013682626,0.00073881523,-0.023833474,1.6320533,-0.0034274475,nan,0.105630636,0.02974567,5.7735033,0.17837432,0.035533424,inf,inf,inf,inf,0,0,0,0,1,1,1,1,1,0,0,0,0,0,1
4004000,4004000,0,nan,nan,0.00041928954,0.0013160225,-0.0065748193,-5.255593e-08,1.3669487e-08,0.0,0.0016618407,0.0056870384,-0.01701958,-0.011006756,-8.759322e-06,2.2782478e-06,0.0014087781,0.028027816,0.032972936,-0.0010970979,1.6320564,-0.0034274475,nan,0.10554435,0.031251952,5.773504,0.18362106,0.03618362,inf,inf,inf,inf,0,0,0,0,1,1,1,1,1,0,0,0,0,0,1
4012000,4012000,0,nan,nan,0.0004302532,0.0013366393,-0.0065573477,-5.255593e-08,1.3669487e-08,0.0,0.001851272,0.005675388,-0.016862916,-0.01080274,-8.759322e-06,2.2782478e-06,0.0014087781,0.01873655,0.00079673185,-0.022326594,1.6320711,-0.0034274475,nan,0.10545698,0.03280888,5.7735047,0.18893352,0.036833216,inf,inf,inf,inf,0,0,0,0,1,1,1,1,1,0,0,0,0,0,1
4020000,4020000,0,nan,nan,0.00044227942,0.0013569074,-0.006540433,-5.255593e-08,1.3669487e-08,0.0,0.001960677,0.0056331297,-0.016668607,-0.010564178,-8.759322e-06,2.2782478e-06,0.0014087781,0.017524797,0.013844386,-0.005139969,1.63208,-0.0034274475,nan,0.10536985,0.03441638,5.773505,0.19431102,0.037482213,inf,inf,inf,inf,0,0,0,0,1,1,1,1,1,0,0,0,0,0,1
4028000,4028000,0,nan,nan,0.00044832384,0.0013711732,-0.006513069,-5.255593e-08,1.3669487e-08,0.0,0.0020169085,0.005936951,-0.016329117,-0.0101736,-8.759322e-06,2.2782478e-06,0.0014087781,0.006901595,0.050887913,-0.0019147991,1.6320933,-0.0034274475,nan,0.10557995,0.013166531,5.000002,0.0942638,0.038130485,inf,inf,inf,inf,0,0,0,0,1,1,1,1,1,0,0,0,0,0,1
4036000,4036000,0,nan,nan,0.0004540455,0.0013877837,-0.006486104,-5.255593e-08,1.3669487e-08,0.0,0.0019179536,0.0062240204,-0.016201401,-0.009998083,-8.759322e-06,2.2782478e-06,0.0014087781,-0.008312068,0.054564323,-0.0211196,1.6320974,-0.0034274475,nan,0.105480514,0.013800665,5.0000024,0.09749707,0.038778435,inf,inf,inf,inf,0,0,0,0,1,1,1,1,1,0,0,0,0,0,1
4044000,4044000,0,nan,nan,0.00045867293,0.0014071943,-0.0064604017,-5.255593e-08,1.3669487e-08,0.0,0.0017735818,0.0065363045,-0.016071599,-0.009823679,-8.759322e-06,2.2782478e-06,0.0014087781,-0.0123086935,0.037592907,-0.013122334,1.6321197,-0.0034274475,nan,0.10537987,0.014474136,5.000003,0.100813225,0.039425913,inf,inf,inf,inf,0,0,0,0,1,1,1,1,1,0,0,0,0,0,1
4052000,4052000,0,nan,nan,0.00046245236,0.001427856,-0.006435837,-5.255593e-08,1.3669487e-08,0.0,0.0017521223,0.0065821167,-0.015986752,-0.009697342,-8.759322e-06,2.2782478e-06,0.0014087781,0.008235991,0.021500483,-0.03219023,1.6321378,-0.0034274475,nan,0.10527974,0.015186678,5.0000033,0.10420817,0.040072933,inf,inf,inf,inf,0,0,0,0,1,1,1,1,1,0,0,0,0,0,1
4060000,4060000,0,nan,nan,0.0004668664,0.0014474412,-0.006411926,-5.255593e-08,1.3669487e-08,0.0,0.0019006854,0.006447394,-0.016156428,-0.009825282,-8.759322e-06,2.2782478e-06,0.0014087781,0.024111504,-0.016174017,-0.056679357,1.6321394,-0.0034274475,nan,0.105245955,0.015265161,5.0000033,0.10065014,0.03990092,inf,inf,inf,inf,0,0,0,0,1,1,1,1,1,0,0,0,0,0,1
4068000,4068000,0,nan,nan,0.00047187236,0.0014665384,-0.006391261,-5.255593e-08,1.3669487e-08,0.0,0.0019050377,0.006584629,-0.016233452,-0.009863601,-8.759322e-06,2.2782478e-06,0.0014087781,0.001428023,0.053279825,-0.04273187,1.6321466,-0.0034274475,nan,0.10515261,0.01598645,5.000004,0.104008205,0.04053902,inf,inf,inf,inf,0,0,0,0,1,1,1,1,1,0,0,0,0,0,1
4076000,4076000,0,nan,nan,0.00047628413,0.0014883743,-0.006373227,-5.255593e-08,1.3669487e-08,0.0,0.0018057573,0.006961906,-0.016231542,-0.009825935,-8.759322e-06,2.2782478e-06,0.0014087781,-0.004518515,0.045490783,-0.027355736,1.6321733,-0.0034274475,nan,0.105061516,0.016744044,5.0000043,0.10746804,0.041176707,inf,inf,inf,inf,0,0,0,0,1,1,1,1,1,0,0,0,0,0,1
4084000,4084000,0,nan,nan,0.00048057837,0.0015119666,-0.0063575148,-5.255593e-08,1.3669487e-08,0.0,0.0019069671,0.0070622712,-0.016277567,-0.00983907,-8.759322e-06,2.2782478e-06,0.0014087781,0.022147998,0.026001723,-0.040410083,1.6321828,-0.0034274475,nan,0.104972064,0.01753808,5.000005,0.11101494,0.041814018,inf,inf,inf,inf,0,1,0,1,1,1,1,1,1,0,0,0,0,0,1
4092000,4092000,0,nan,nan,0.00048575044,0.0015369284,-0.006344699,-5.255593e-08,1.3669487e-08,0.0,0.0020350406,0.007278224,-0.0163647,-0.009896101,-8.759322e-06,2.2782478e-06,0.0014087781,0.021203434,0.03925092,-0.039983537,1.6321439,-0.0034274475,nan,0.10488493,0.018368678,5.0000057,0.11466184,0.04245096,inf,inf,inf,inf,0,1,0,1,1,1,1,1,1,0,0,0,0,0,1
4100000,4100000,0,nan,nan,0.0004916474,0.0015634289,-0.0063345446,-5.255593e-08,1.3669487e-08,0.0,0.0020831951,0.007416877,-0.016346268,-0.00985028,-8.759322e-06,2.2782478e-06,0.0014087781,0.0033339455,0.028204914,-0.020123085,1.6320883,-0.0034274475,nan,0.104799524,0.01923607,5.000006,0.118402086,0.04308755,inf,inf,inf,inf,0,1,0,1,1,1,1,1,1,0,0,0,0,0,1
4108000,4108000,0,nan,nan,0.0004968389,0.0015909591,-0.0063258624,-5.255593e-08,1.3669487e-08,0.0,0.0018951918,0.0074924584,-0.0161624,-0.009641655,-8.759322e-06,2.2782478e-06,0.0014087781,-0.024107894,0.015527183,-0.00048521903,1.6320518,-0.0034274475,nan,0.10471547,0.020140499,5.000007,0.12223142,0.04372383,inf,inf,inf,inf,0,1,0,1,1,1,1,1,1,0,0,0,0,0,1
4116000,4116000,0,nan,nan,0.00049968355,0.0016188305,-0.006317982,-5.255593e-08,1.3669487e-08,0.0,0.001563654,0.0074876132,-0.016041566,-0.009498625,-8.759322e-06,2.2782478e-06,0.0014087781,-0.031744085,0.0087840445,-0.025841406,1.6320235,-0.0034274475,nan,0.104631886,0.021082236,5.0000076,0.12616678,0.044359792,inf,inf,inf,inf,0,1,0,1,1,1,1,1,1,0,0,0,0,0,1
4124000,4124000,0,nan,nan,0.0005011363,0.0016464285,-0.0063125277,-5.255593e-08,1.3669487e-08,0.0,0.0015781842,0.0074362988,-0.016112562,-0.009549913,-8.759322e-06,2.2782478e-06,0.0014087781,0.013375974,0.01318725,-0.029574146,1.6319872,-0.0034274475,nan,0.10454963,0.022061685,5.0000086,0.13019916,0.044995464,inf,inf,inf,inf,0,1,0,1,1,1,1,1,1,0,0,0,0,0,1
4132000,4132000,0,nan,nan,0.00050315243,0.0016747946,-0.0063092974,-5.255593e-08,1.3669487e-08,0.0,0.0017191045,0.0075894943,-0.016037589,-0.009457647,-8.759322e-06,2.2782478e-06,0.0014087781,0.027672123,0.024781445,-0.015731899,1.6319492,-0.0034274475,nan,0.1044684,0.023079243,5.0000095,0.1343315,0.045630835,inf,inf,inf,inf,0,1,0,1,1,1,1,1,1,0,0,0,0,0,1
4140000,4140000,0,nan,nan,0.0005057439,0.0017038167,-0.0063073435,-5.255593e-08,1.3669487e-08,0.0,0.0016708517,0.0075817034,-0.015874706,-0.009279818,-8.759322e-06,2.2782478e-06,0.0014087781,-0.013542928,0.008838571,-0.009607523,1.6319089,-0.0034274475,nan,0.10438605,0.02413536,5.00001,0.13857593,0.046265937,inf,inf,inf,inf,0,1,0,1,1,1,1,1,1,0,0,0,0,0,1
4148000,4148000,0,nan,nan,0.00050724804,0.0017330868,-0.0073193666,-5.255593e-08,1.3669487e-08,0.0,0.0015242505,0.0075983307,-0.01588104,-0.010282381,-8.759322e-06,2.2782478e-06,0.0014087781,-0.010990886,0.009449751,-0.019024124,1.6318456,-0.0034274475,nan,0.1,0.025230601,2.8673136,0.1429149,0.046900723,inf,inf,inf,inf,0,1,0,1,1,1,1,1,1,0,0,0,0,0,1
4156000,4156000,0,nan,nan,0.0005081975,0.0017626625,-0.008303418,-5.255593e-08,1.3669487e-08,0.0,0.0015448817,0.007638206,-0.015644358,-0.011008386,-8.759322e-06,2.2782478e-06,0.0014087781,0.009536102,0.01889991,0.0056475396,1.631811,-0.0034274475,nan,0.1,0.026365452,2.8673143,0.147349,0.047535367,inf,inf,inf,inf,0,1,0,1,1,1,1,1,1,0,0,0,0,0,1
4164000,4164000,0,nan,nan,0.00050903374,0.0017931341,-0.009260571,-5.255593e-08,1.3669487e-08,0.0,0.0014906217,0.007757372,-0.015737643,-0.0120317545,-8.759322e-06,2.2782478e-06,0.0014087781,-0.0041619637,0.024420265,-0.048262995,1.6317298,-0.0034274475,nan,0.1,0.027540438,2.8673148,0.1518855,0.048169762,inf,inf,inf,inf,0,1,0,1,1,1,1,1,1,0,0,0,0,0,1
4172000,4172000,0,nan,nan,0.00050943636,0.0018244219,-0.010193556,-5.255593e-08,1.3669487e-08,0.0,0.0014845696,0.0078056115,-0.015836481,-0.013028995,-8.759322e-06,2.2782478e-06,0.0014087781,0.011263691,0.01898856,-0.025255604,1.6316268,-0.0034274475,nan,0.1,0.028756147,2.8673155,0.15652443,0.048803955,inf,inf,inf,inf,0,1,0,1,1,1,1,1,1,0,0,0,0,0,1
4180000,4180000,0,nan,nan,0.0005097155,0.0018565556,-0.011102131,-5.255593e-08,1.3669487e-08,0.0,0.0014017789,0.00788794,-0.015815835,-0.013875965,-8.759322e-06,2.2782478e-06,0.0014087781,-0.015159966,0.016339762,-0.022122635,1.6315259,-0.0034274475,nan,0.1,0.030013192,2.8673162,0.16125749,0.04943793,inf,inf,inf,inf,0,1,0,1,1,1,1,1,1,0,0,0,0,0,1
4188000,4188000,0,nan,nan,0.0005090609,0.0018898011,-0.01198706,-5.255593e-08,1.3669487e-08,0.0,0.0012906533,0.008074231,-0.015845366,-0.014743194,-8.759322e-06,2.2782478e-06,0.0014087781,-0.0105382195,0.040920697,-0.022514721,1.631424,-0.0034274475,nan,0.1,0.031312164,2.867317,0.16608085,0.050071675,inf,inf,inf,inf,0,1,0,1,1,1,1,1,1,0,0,0,0,0,1
4196000,4196000,0,nan,nan,0.0005071064,0.0019246317,-0.012849167,-5.255593e-08,1.3669487e-08,0.0,0.0011070942,0.008135497,-0.015888477,-0.015594936,-8.759322e-06,2.2782478e-06,0.0014087781,-0.012863965,0.002863089,-0.029423272,1.6313313,-0.0034274475,nan,0.1,0.032653637,2.8673182,0.17100835,0.050705217,inf,inf,inf,inf,0,1,0,1,1,1,1,1,1,0,0,0,0,0,1
4204000,4204000,0,nan,nan,0.00050497486,0.001959893,-0.015029644,-5.255593e-08,1.3669487e-08,0.0,0.0012543242,0.008210061,-0.015694523,-0.01751808,-8.759322e-06,2.2782478e-06,0.0014087781,0.030208522,0.027349057,0.020004807,1.6312429,-0.0034274475,nan,0.1,0.03403829,2.2180383,0.17604877,0.051338535,inf,inf,inf,inf,0,1,0,1,1,1,1,1,1,0,0,0,0,0,1
4212000,4212000,0,nan,nan,0.00050385616,0.0019960376,-0.017147684,-5.255593e-08,1.3669487e-08,0.0,0.0012860416,0.00823212,-0.015493673,-0.019359494,-8.759322e-06,2.2782478e-06,0.0014087781,-0.0025867482,0.005748879,-0.007412396,1.6311584,-0.0034274475,nan,0.1,0.035466883,2.2180393,0.18118095,0.051971775,inf,inf,inf,inf,0,1,0,1,1,1,1,1,1,0,0,0,0,0,1
4220000,4220000,0,nan,nan,0.00050279556,0.0020326227,-0.019206379,-5.255593e-08,1.3669487e-08,0.0,0.0013558933,0.008263474,-0.01545383,-0.021289196,-8.759322e-06,2.2782478e-06,0.0014087781,0.02470803,0.0137000745,-0.012597068,1.6310865,-0.0034274475,nan,0.1,0.036940046,2.2180402,0.18640818,0.052604817,inf,inf,inf,inf,0,1,0,1,1,1,1,1,1,0,0,0,0,0,1
4228000,4228000,0,nan,nan,0.0005024037,0.0020700851,-0.021207374,-5.255593e-08,1.3669487e-08,0.0,0.0013217014,0.008399321,-0.015278065,-0.023012323,-8.759322e-06,2.2782478e-06,0.0014087781,-0.019954924,0.031212663,0.00866875,1.6308821,-0.0034274475,nan,0.1,0.038458455,2.2180412,0.19174784,0.0532377,inf,inf,inf,inf,0,1,0,1,1,1,1,1,1,0,0,0,0,0,1
4236000,4236000,0,nan,nan,0.00049831485,0.0020878948,-0.023152173,-5.255593e-08,1.3669487e-08,0.0,0.0011486205,0.008372313,-0.015273011,-0.024837542,-8.759322e-06,2.2782478e-06,0.0014087781,-0.0024556064,0.008200237,-0.028627923,1.6306804,-0.0034274475,nan,0.1,0.013334182,2.2180424,0.09543,0.053870156,inf,inf,inf,inf,0,1,0,1,1,1,1,1,1,0,0,0,0,0,1
4244000,4244000,0,nan,nan,0.00049423607,0.002105511,-0.025043923,-5.255593e-08,1.3669487e-08,0.0,0.001273928,0.008371548,-0.015365668,-0.026693782,-8.759322e-06,2.2782478e-06,0.0014087781,0.022979902,0.024606211,-0.028817913,1.6304702,-0.0034274475,nan,0.1,0.013884238,2.2180438,0.099347554,0.054502748,inf,inf,inf,inf,0,1,0,1,1,1,1,1,1,0,0,0,0,0,1
4252000,4252000,0,nan,nan,0.0004910002,0.0021231468,-0.026242506,-5.255593e-08,1.3669487e-08,0.0,0.0013233362,0.008316281,-0.015536278,-0.027922949,-8.759322e-06,2.2782478e-06,0.0014087781,0.0058848234,0.010352159,-0.032994892,1.6302775,-0.0034274475,nan,0.1,0.014477245,1.8735132,0.103366226,0.055135127,inf,inf,inf,inf,0,1,0,1,1,1,1,1,1,0,0,0,0,0,1
4260000,4260000,0,nan,nan,0.0004878211,0.002140281,-0.027409347,-5.255593e-08,1.3669487e-08,0.0,0.0013117276,0.008223334,-0.015439118,-0.028844113,-8.759322e-06,2.2782478e-06,0.0014087781,0.005370908,0.0072480175,-0.006635673,1.630079,-0.0034274475,nan,0.1,0.01511415,1.8735145,0.107477814,0.05576745,inf,inf,inf,inf,0,1,0,1,1,1,1,1,1,0,0,0,0,0,1
4268000,4268000,0,nan,nan,0.00048417985,0.0021556364,-0.028541762,-5.255593e-08,1.3669487e-08,0.0,0.0011561806,0.008174363,-0.015410759,-0.029788826,-8.759322e-06,2.2782478e-06,0.0014087781,-0.020277016,0.018857723,-0.01390092,1.6298708,-0.0034274475,nan,0.1,0.0152166635,1.8735154,0.1038848,0.054282572,inf,inf,inf,inf,0,1,0,1,1,1,1,1,1,0,0,0,0,0,1
4276000,4276000,0,nan,nan,0.00047990857,0.002171416,-0.029644243,-5.255593e-08,1.3669487e-08,0.0,0.0011973141,0.00831328,-0.015531794,-0.03084514,-8.759322e-06,2.2782478e-06,0.0014087781,0.017653713,0.040652882,-0.03900751,1.6296781,-0.0034274475,nan,0.1,0.015870534,1.8735168,0.10790931,0.05489728,inf,inf,inf,inf,0,1,0,1,1,1,1,1,1,0,0,0,0,0,1
4284000,4284000,0,nan,nan,0.00047646923,0.0021878607,-0.030717583,-5.255593e-08,1.3669487e-08,0.0,0.0013272353,0.008291342,-0.015428794,-0.03164072,-8.759322e-06,2.2782478e-06,0.0014087781,0.022471517,0.010856732,-0.0048419456,1.6294953,-0.0034274475,nan,0.1,0.016566865,1.8735185,0.11201448,0.055511866,inf,inf,inf,inf,0,1,0,1,1,1,1,1,1,0,0,0,0,0,1
4292000,4292000,0,nan,nan,0.00047406528,0.0022046864,-0.031762753,-5.255593e-08,1.3669487e-08,0.0,0.0014294517,0.008458821,-0.015597908,-0.03267279,-8.759322e-06,2.2782478e-06,0.0014087781,0.015054697,0.049089354,-0.039836388,1.6293216,-0.0034274475,nan,0.1,0.017306317,1.8735201,0.11621239,0.056126323,inf,inf,inf,inf,0,1,0,1,1,1,1,1,1,0,0,0,0,0,1
4300000,4300000,0,nan,nan,0.0004724935,0.0022223892,-0.032781288,-5.255593e-08,1.3669487e-08,0.0,0.0015069688,0.008433723,-0.015651053,-0.0335543,-8.759322e-06,2.2782478e-06,0.0014087781,0.008601608,0.007269351,-0.021755693,1.6291397,-0.0034274475,nan,0.1,0.018089537,1.873522,0.12051273,0.056740668,inf,inf,inf,inf,0,1,0,1,1,1,1,1,1,0,0,0,0,0,1
4308000,4308000,0,nan,nan,0.00046991836,0.0022400536,-0.03377398,-5.255593e-08,1.3669487e-08,0.0,0.0011564266,0.008511348,-0.01586606,-0.0345641,-8.759322e-06,2.2782478e-06,0.0014087781,-0.047490682,0.03675297,-0.051904466,1.6289368,-0.0034274475,nan,0.1,0.018917164,1.873524,0.124896824,0.05735491,inf,inf,inf,inf,0,1,0,1,1,1,1,1,1,0,0,0,0,0,1
4316000,4316000,0,nan,nan,0.00046475756,0.0022586533,-0.03485095,-5.255593e-08,1.3669487e-08,0.0,0.00089453976,0.008622382,-0.015966652,-0.035535295,-8.759322e-06,2.2782478e-06,0.0014087781,-0.023581684,0.029772984,-0.023990868,1.6287397,-0.0034274475,nan,0.1,0.019789705,1.6517652,0.12938318,0.057968907,inf,inf,inf,inf,0,1,0,1,1,1,1,1,1,0,0,0,0,0,1
4324000,4324000,0,nan,nan,0.00045803134,0.0022774285,-0.03590003,-5.255593e-08,1.3669487e-08,0.0,0.00073594117,0.00857154,-0.015966874,-0.036370642,-8.759322e-06,2.2782478e-06,0.0014087781,-0.013577882,0.015166675,-0.009694136,1.628586,-0.0034274475,nan,0.1,0.020707732,1.6517673,0.1339672,0.058582943,inf,inf,inf,inf,0,1,0,1,1,1,1,1,1,0,0,0,0,0,1
4332000,4332000,0,nan,nan,0.00045040122,0.0022965427,-0.036920957,-5.255593e-08,1.3669487e-08,0.0,0.00066128233,0.008683949,-0.015834883,-0.037039343,-8.759322e-06,2.2782478e-06,0.0014087781,-0.00036168782,0.032136973,-0.0017350538,1.6284354,-0.0034274475,nan,0.1,0.021671765,1.6517695,0.13864729,0.05919688,inf,inf,inf,inf,0,1,0,1,1,1,1,1,1,0,0,0,0,0,1
4340000,4340000,0,nan,nan,0.00044281618,0.0023167576,-0.037914526,-5.255593e-08,1.3669487e-08,0.0,0.0007106032,0.008848253,-0.015788253,-0.037759986,-8.759322e-06,2.2782478e-06,0.0014087781,0.0111560505,0.042439334,-0.010749324,1.6282889,-0.0034274475,nan,0.1,0.022682311,1.6517719,0.14339983,0.059810713,inf,inf,inf,inf,0,1,0,1,1,1,1,1,1,0,0,0,0,0,1
4348000,4348000,0,nan,nan,0.00043567203,0.0023384483,-0.038882032,-5.255593e-08,1.3669487e-08,0.0,0.00072295783,0.009003245,-0.015783586,-0.038490154,-8.759322e-06,2.2782478e-06,0.0014087781,-0.00028593055,0.03344343,-0.014696269,1.6281546,-0.0034274475,nan,0.1,0.023739725,1.6517745,0.14824894,0.060424462,inf,inf,inf,inf,0,1,0,1,1,1,1,1,1,0,0,0,0,0,1
4356000,4356000,0,nan,nan,0.00042806324,0.002360122,-0.039825026,-5.255593e-08,1.3669487e-08,0.0,0.00059322425,0.008802981,-0.015956234,-0.03936619,-8.759322e-06,2.2782478e-06,0.0014087781,-0.012327698,-0.016218603,-0.042419877,1.628013,-0.0034274475,nan,0.1,0.024844483,1.6517773,0.1531986,0.061038148,inf,inf,inf,inf,0,1,0,1,1,1,1,1,1,0,0,0,0,0,1
4364000,4364000,0,nan,nan,0.00041966772,0.0023803995,-0.040744122,-5.255593e-08,1.3669487e-08,0.0,0.00051918015,0.008693045,-0.015807347,-0.039890174,-8.759322e-06,2.2782478e-06,0.0014087781,-0.00089517556,0.011452531,0.01966208,1.6279199,-0.0034274475,nan,0.1,0.0259971,1.6517802,0.1582217,0.061651748,inf,inf,inf,inf,0,1,0,1,1,1,1,1,1,0,0,0,0,0,1
4372000,4372000,0,nan,nan,0.00041103477,0.0023999284,-0.042004813,-5.255593e-08,1.3669487e-08,0.0,0.00046182596,0.0085402755,-0.015661947,-0.04075364,-8.759322e-06,2.2782478e-06,0.0014087781,-0.0103757335,-0.00447288,-0.004771165,1.6278487,-0.0034274475,nan,0.1,0.02719792,1.4937867,0.16335316,0.062265076,inf,inf,inf,inf,0,1,0,1,1,1,1,1,1,0,0,0,0,0,1
4380000,4380000,0,nan,nan,0.00040129683,0.0024193272,-0.043232005,-5.255593e-08,1.3669487e-08,0.0,0.00024951858,0.008701991,-0.015782496,-0.04184137,-8.759322e-06,2.2782478e-06,0.0014087781,-0.021440601,0.054196335,-0.030976718,1.6277839,-0.0034274475,nan,0.1,0.028447507,1.4937898,0.1685648,0.06287852,inf,inf,inf,inf,0,1,0,1,1,1,1,1,1,0,0,0,0,0,1
4388000,4388000,0,nan,nan,0.0003907939,0.002440512,-0.044426907,-5.255593e-08,1.3669487e-08,0.0,0.00026646655,0.008839024,-0.015652828,-0.042638417,-8.759322e-06,2.2782478e-06,0.0014087781,0.013081472,0.024955137,0.015730968,1.6277196,-0.0034274475,nan,0.1,0.029746255,1.4937931,0.17387661,0.06349189,inf,inf,inf,inf,0,1,0,1,1,1,1,1,1,0,0,0,0,0,1
4396000,4396000,4392000,47.3977508,8.5456073,0.0003810101,0.0024627731,-0.045588933,-5.255593e-08,1.3669487e-08,0.0,0.0003669093,0.008962199,-0.0155483205,-0.043421354,-8.759322e-06,2.2782478e-06,0.0014087781,0.015522891,0.032673325,-0.011486,1.6276577,-0.0034274475,488.02798,0.1,0.031094698,1.4937966,0.179268,0.0641052,inf,inf,inf,inf,0,1,0,1,1,1,1,1,1,0,1,1,0,0,1
4404000,4404000,4392000,47.3977508,8.5456073,0.0003719533,0.002486331,-0.04672063,-5.255593e-08,1.3669487e-08,0.0,0.00039756997,0.009135989,-0.015671385,-0.044393755,-8.759322e-06,2.2782478e-06,0.0014087781,0.0019178696,0.04534439,-0.026911495,1.6276227,-0.0034274475,488.02798,0.1,0.032493237,1.4938004,0.18473946,0.06471844,inf,inf,inf,inf,0,1,0,1,1,1,1,1,1,0,1,1,0,0,1
4412000,4412000,4392000,47.3977508,8.5456073,0.00036265678,0.0025117127,-0.04782276,-5.255593e-08,1.3669487e-08,0.0,0.00030133134,0.009298641,-0.015574261,-0.045108985,-8.759322e-06,2.2782478e-06,0.0014087781,-0.0072156102,0.028393695,0.002518296,1.6275884,-0.0034274475,488.02798,0.1,0.03394229,1.4938043,0.19028799,0.06533164,inf,inf,inf,inf,0,1,0,1,1,1,1,1,1,0,1,1,0,0,1
4420000,4420000,4392000,47.3977508,8.5456073,0.00035324317,0.0025384836,-0.04889628,-5.255593e-08,1.3669487e-08,0.0,0.00033015473,0.009467366,-0.015749935,-0.046061125,-8.759322e-06,2.2782478e-06,0.0014087781,0.007144626,0.040956713,-0.037537884,1.6275533,-0.0034274475,488.02798,0.1,0.03544225,1.4938086,0.1959304,0.06594478,inf,inf,inf,inf,0,1,0,1,1,1,1,1,1,0,1,1,0,0,1
4428000,4428000,4392000,47.3977508,8.5456073,0.00034456828,0.0025667027,-0.04994275,-5.255593e-08,1.3669487e-08,0.0,0.0004899313,0.00955588,-0.015764417,-0.046817258,-8.759322e-06,2.2782478e-06,0.0014087781,0.03276748,0.021308951,-0.0075213606,1.6275296,-0.0034274475,488.02798,0.1,0.03699364,1.493813,0.20166305,0.066557884,inf,inf,inf,inf,0,1,0,1,1,1,1,1,1,0,1,1,0,0,1
4436000,4436000,4392000,47.3977508,8.5456073,0.0003377033,0.0025954335,-0.05009638,-5.255593e-08,1.3669487e-08,0.0,0.0006745393,0.0095526,-0.01579206,-0.04668979,-8.759322e-06,2.2782478e-06,0.0014087781,0.017564466,0.017090466,-0.018609686,1.6274974,-0.0034274475,488.02798,0.10334408,0.038596988,1.3739123,0.20749699,0.06717051,inf,inf,inf,inf,0,1,0,1,1,1,1,1,1,0,1,1,0,0,1
4444000,4444000,4392000,47.3977508,8.5456073,0.00033116978,0.002604555,-0.050249223,-5.255593e-08,1.3669487e-08,0.0,0.0006794935,0.0095627885,-0.015870163,-0.046610642,-8.759322e-06,2.2782478e-06,0.0014087781,0.0036178387,0.031875312,-0.019610858,1.6274809,-0.0034274475,488.02798,0.10337558,0.01334262,1.373917,0.102993235,0.06778328,inf,inf,inf,inf,0,1,0,1,1,1,1,1,1,0,1,1,0,0,1
4452000,4452000,4392000,47.3977508,8.5456073,0.0003243485,0.0026140744,-0.050401364,-5.255593e-08,1.3669487e-08,0.0,0.0005195448,0.009624746,-0.01590419,-0.04648537,-8.759322e-06,2.2782478e-06,0.0014087781,-0.029248767,0.038210444,-0.008018686,1.6274676,-0.0034274475,488.02798,0.10340713,0.013923907,1.3739219,0.10672249,0.06839619,inf,inf,inf,inf,0,1,0,1,1,1,1,1,1,0,1,1,0,0,1
4460000,4460000,4392000,47.3977508,8.5456073,0.00031580505,0.0026235806,-0.05055198,-5.255593e-08,1.3669487e-08,0.0,0.0003052895,0.009445274,-0.015846457,-0.046266407,-8.759322e-06,2.2782478e-06,0.0014087781,-0.012998105,-0.012779666,-0.012486241,1.6274682,-0.0034274475,488.02798,0.10343644,0.014552592,1.373927,0.110530555,0.06900906,inf,inf,inf,inf,0,1,0,1,1,1,1,1,1,0,1,1,0,0,1
4468000,4468000,4392000,47.3977508,8.5456073,0.00030664424,0.0026317327,-0.050701983,-5.255593e-08,1.3669487e-08,0.0,0.00027106443,0.009385242,-0.0159758,-0.0462327,-8.759322e-06,2.2782478e-06,0.0014087781,-0.0047350763,0.034193344,-0.021860933,1.6274667,-0.0034274475,488.02798,0.10346439,0.015228735,1.3739325,0.1143885,0.06962188,inf,inf,inf,inf,0,1,0,1,1,1,1,1,1,0,1,1,0,0,1
4476000,4476000,4392000,47.3977508,8.5456073,0.00029740343,0.002639131,-0.05084155,-5.255593e-08,1.3669487e-08,0.0,0.00025496926,0.00935482,-0.016051885,-0.046128564,-8.759322e-06,2.2782478e-06,0.0014087781,0.009327268,0.017903147,-0.027897766,1.6274769,-0.0034274475,488.02798,0.10380353,0.015276778,1.3739309,0.10914729,0.0662673,inf,inf,inf,inf,0,1,0,1,1,1,1,1,1,0,1,1,0,0,1
4484000,4484000,4392000,47.3977508,8.5456073,0.000288939,0.002646351,-0.05098019,-5.255593e-08,1.3669487e-08,0.0,0.00038320155,0.00934458,-0.016009977,-0.045905266,-8.759322e-06,2.2782478e-06,0.0014087781,0.01656798,0.027098589,-0.007957219,1.6274871,-0.0034274475,488.02798,0.103832886,0.015962658,1.3739363,0.11284912,0.06685289,inf,inf,inf,inf,0,1,0,1,1,1,1,1,1,0,1,1,0,0,1
4492000,4492000,4392000,47.3977508,8.5456073,0.00028140505,0.002653047,-0.051185306,-5.255593e-08,1.3669487e-08,0.0,0.00043345656,0.009194851,-0.016023556,-0.045803856,-8.759322e-06,2.2782478e-06,0.0014087781,0.0033281539,0.007919632,-0.015773809,1.6274768,-0.0034274475,488.02798,0.10181938,0.01669191,1.2789301,0.11659855,0.067437984,inf,inf,inf,inf,0,1,0,1,1,1,1,1,1,0,1,1,0,0,1
4500000,4500000,4392000,47.3977508,8.5456073,0.0002739086,0.0026590577,-0.0513876,-5.255593e-08,1.3669487e-08,0.0,0.00036116905,0.009123985,-0.016092809,-0.04575474,-8.759322e-06,2.2782478e-06,0.0014087781,-0.0097421575,0.011827272,-0.0326056,1.6274835,-0.0034274475,488.02798,0.10191075,0.0174644,1.2789356,0.12042242,0.06802348,inf,inf,inf,inf,0,1,0,1,1,1,1,1,1,0,1,1,0,0,1
4508000,4508000,4392000,47.3977508,8.5456073,0.00026581794,0.0026637749,-0.051588405,-5.255593e-08,1.3669487e-08,0.0,0.00029417328,0.0088501815,-0.016332313,-0.045872647,-8.759322e-06,2.2782478e-06,0.0014087781,0.0037542048,-0.012776086,-0.04364643,1.6274793,-0.0034274475,488.02798,0.101999275,0.0182801,1.2789414,0.124296516,0.06860894,inf,inf,inf,inf,0,1,0,1,1,1,1,1,1,0,1,1,0,0,1
4516000,4516000,4392000,47.3977508,8.5456073,0.00025853023,0.0026660028,-0.051788025,-5.255593e-08,1.3669487e-08,0.0,0.0004740585,0.008499256,-0.016461272,-0.04587694,-8.759322e-06,2.2782478e-06,0.0014087781,0.022665305,-0.016473204,-0.02173241,1.627479,-0.0034274475,488.02798,0.10208589,0.019138848,1.2789476,0.12823026,0.069194354,inf,inf,inf,inf,0,1,0,1,1,1,1,1,1,0,1,1,0,0,1
4524000,4524000,4392000,47.3977508,8.5456073,0.00025193038,0.0026666499,-0.051984996,-5.255593e-08,1.3669487e-08,0.0,0.00043469865,0.008458985,-0.016359117,-0.045647185,-8.759322e-06,2.2782478e-06,0.0014087781,-0.0022298626,0.030100461,0.002980232,1.6274716,-0.0034274475,488.02798,0.1021689,0.020040512,1.2789541,0.13222556,0.06977974,inf,inf,inf,inf,0,1,0,1,1,1,1,1,1,0,1,1,0,0,1
4532000,4532000,4392000,47.3977508,8.5456073,0.0002458219,0.0026672438,-0.052178677,-5.255593e-08,1.3669487e-08,0.0,0.00056053384,0.008389614,-0.01631911,-0.04547679,-8.759322e-06,2.2782478e-06,0.0014087781,0.0194125,0.010850431,-0.012569129,1.6274621,-0.0034274475,488.02798,0.10224765,0.020984989,1.2789608,0.13627675,0.07036508,inf,inf,inf,inf,0,1,0,1,1,1,1,1,1,0,1,1,0,0,1
4540000,4540000,4392000,47.3977508,8.5456073,0.00024094812,0.0026672021,-0.052369703,-5.255593e-08,1.3669487e-08,0.0,0.00068826845,0.008286434,-0.016306026,-0.045330662,-8.759322e-06,2.2782478e-06,0.0014087781,0.016789183,0.012617281,-0.012489966,1.627462,-0.0034274475,488.02798,0.10232334,0.021972153,1.278968,0.14038076,0.070950374,inf,inf,inf,inf,0,1,0,1,1,1,1,1,1,0,1,1,0,0,1
4548000,4548000,4392000,47.3977508,8.5456073,0.00023703293,0.0026664461,-0.05255819,-5.255593e-08,1.3669487e-08,0.0,0.00075550063,0.00815372,-0.016258577,-0.04514765,-8.759322e-06,2.2782478e-06,0.0014087781,0.00857914,0.0066286153,-0.0007320195,1.6274371,-0.0034274475,488.02798,0.10239572,0.023001881,1.2789755,0.14455423,0.07153565,inf,inf,inf,inf,0,1,0,1,1,1,1,1,1,0,1,1,0,0,1
4556000,4556000,4392000,47.3977508,8.5456073,0.00023355288,0.0026657432,-0.053005654,-5.255593e-08,1.3669487e-08,0.0,0.00072977116,0.008292371,-0.016361862,-0.0453735,-8.759322e-06,2.2782478e-06,0.0014087781,-0.008886097,0.051633816,-0.035818662,1.6274191,-0.0034274475,488.02798,0.1,0.024074173,1.2012889,0.14878584,0.07212017,inf,inf,inf,inf,0,1,0,1,1,1,1,1,1,0,1,1,0,0,1
4564000,4564000,4392000,47.3977508,8.5456073,0.00022972534,0.0026661311,-0.05344423,-5.255593e-08,1.3669487e-08,0.0,0.00071116735,0.008280378,-0.016427916,-0.045550648,-8.759322e-06,2.2782478e-06,0.0014087781,0.013297205,0.0111329565,-0.017140059,1.6274085,-0.0034274475,488.02798,0.1,0.025188992,1.2012966,0.15306883,0.07270537,inf,inf,inf,inf,0,1,0,1,1,1,1,1,1,0,1,1,0,0,1
4572000,4572000,4392000,47.3977508,8.5456073,0.00022707733,0.0026662168,-0.053873673,-5.255593e-08,1.3669487e-08,0.0,0.0009071385,0.008201034,-0.016441181,-0.04566392,-8.759322e-06,2.2782478e-06,0.0014087781,0.021317929,0.01559891,-0.008419155,1.6273897,-0.0034274475,488.02798,0.1,0.02634628,1.2013047,0.15741292,0.07329054,inf,inf,inf,inf,0,1,0,1,1,1,1,1,1,0,1,1,0,0,1
4580000,4580000,4392000,47.3977508,8.5456073,0.00022489936,0.0026669533,-0.05429382,-5.255593e-08,1.3669487e-08,0.0,0.0007772535,0.008408665,-0.016427176,-0.0457392,-8.759322e-06,2.2782478e-06,0.0014087781,-0.02159331,0.06082242,-0.012856907,1.6273534,-0.0034274475,488.02798,0.1,0.027546074,1.201313,0.1618181,0.07387569,inf,inf,inf,inf,0,1,0,1,1,1,1,1,1,0,1,1,0,0,1
4588000,4588000,4392000,47.3977508,8.5456073,0.00022223934,0.0026698124,-0.054705564,-5.255593e-08,1.3669487e-08,0.0,0.0008099991,0.00854727,-0.016557692,-0.04594864,-8.759322e-06,2.2782478e-06,0.0014087781,0.01567474,0.025718834,-0.029693356,1.6273087,-0.0034274475,488.02798,0.1,0.028788438,1.2013218,0.16629182,0.07446079,inf,inf,inf,inf,0,1,0,1,1,1,1,1,1,0,1,1,0,0,1
4596000,4596000,4392000,47.3977508,8.5456073,0.00022056185,0.0026729438,-0.05510946,-5.255593e-08,1.3669487e-08,0.0,0.0009130497,0.008456682,-0.016579518,-0.04603938,-8.759322e-06,2.2782478e-06,0.0014087781,0.0077074794,0.013554555,-0.0073043625,1.6272703,-0.0034274475,488.02798,0.1,0.030073518,1.201331,0.170816,0.075045876,inf,inf,inf,inf,0,1,0,1,1,1,1,1,1,0,1,1,0,0,1
4604000,4604000,4392000,47.3977508,8.5456073,0.0002189677,0.0026761992,-0.05550557,-5.255593e-08,1.3669487e-08,0.0,0.00082363427,0.008450003,-0.016734341,-0.046253443,-8.759322e-06,2.2782478e-06,0.0014087781,-0.0073777335,0.0153825525,-0.033820044,1.6272466,-0.0034274475,488.02798,0.1,0.03140136,1.2013406,0.1753822,0.07563095,inf,inf,inf,inf,0,1,0,1,1,1,1,1,1,0,1,1,0,0,1
4612000,4612000,4392000,47.3977508,8.5456073,0.00021773706,0.0026790546,-0.055906452,-5.255593e-08,1.3669487e-08,0.0,0.000967216,0.008281967,-0.016521793,-0.046103504,-8.759322e-06,2.2782478e-06,0.0014087781,0.023363244,0.0011005176,0.031156464,1.627234,-0.0034274475,488.02798,0.1,0.032771964,1.1362782,0.1800097,0.076215,inf,inf,inf,inf,0,1,0,1,1,1,1,1,1,0,1,1,0,0,1
4620000,4620000,4392000,47.3977508,8.5456073,0.00021785637,0.0026815138,-0.056297354,-5.255593e-08,1.3669487e-08,0.0,0.0010962804,0.008257419,-0.01641823,-0.04605307,-8.759322e-06,2.2782478e-06,0.0014087781,0.016015794,0.022078034,-0.016319564,1.6272136,-0.0034274475,488.02798,0.1,0.034185503,1.1362879,0.1846961,0.076800026,inf,inf,inf,inf,0,1,0,1,1,1,1,1,1,0,1,1,0,0,1
4628000,4628000,4392000,47.3977508,8.5456073,0.00021885455,0.0026844614,-0.056681048,-5.255593e-08,1.3669487e-08,0.0,0.0011624728,0.008262578,-0.016590087,-0.046268906,-8.759322e-06,2.2782478e-06,0.0014087781,0.012672375,0.018390477,-0.023587605,1.627188,-0.0034274475,488.02798,0.1,0.03564215,1.1362983,0.18943712,0.07738503,inf,inf,inf,inf,0,1,0,1,1,1,1,1,1,0,1,1,0,0,1
4636000,4636000,4392000,47.3977508,8.5456073,0.00022149082,0.0026877157,-0.057058394,-5.255593e-08,1.3669487e-08,0.0,0.0014379534,0.008229408,-0.016794283,-0.046508245,-8.759322e-06,2.2782478e-06,0.0014087781,0.03223974,0.018408813,-0.039920207,1.6271735,-0.0034274475,488.02798,0.1,0.037142057,1.1363089,0.19424538,0.077970035,inf,inf,inf,inf,0,1,0,1,1,1,1,1,1,0,1,1,0,0,1
4644000,4644000,4392000,47.3977508,8.5456073,0.00022506688,0.0026912699,-0.0574292,-5.255593e-08,1.3669487e-08,0.0,0.0013514163,0.008172261,-0.016734561,-0.04647513,-8.759322e-06,2.2782478e-06,0.0014087781,-0.013470678,0.004999354,0.011661089,1.627103,-0.0034274475,488.02798,0.1,0.03868551,1.1363201,0.19910802,0.07855501,inf,inf,inf,inf,0,1,0,1,1,1,1,1,1,0,1,1,0,0,1
4652000,4652000,4392000,47.3977508,8.5456073,0.00022799916,0.0026784744,-0.05779215,-5.255593e-08,1.3669487e-08,0.0,0.001298296,0.007916291,-0.016726863,-0.046485823,-8.759322e-06,2.2782478e-06,0.0014087781,-0.0012123199,-0.005651905,-0.020637175,1.6270473,-0.0034274475,488.02798,0.1,0.013343342,1.1363318,0.0932619,0.07913986,inf,inf,inf,inf,0,1,0,1,1,1,1,1,1,0,1,1,0,0,1
4660000,4660000,4392000,47.3977508,8.5456073,0.00023173861,0.002664,-0.05786984,-5.255593e-08,1.3669487e-08,0.0,0.0015010317,0.007657487,-0.01697926,-0.04647001,-8.759322e-06,2.2782478e-06,0.0014087781,0.027865926,-0.004737885,-0.0391677,1.6269741,-0.0034274475,488.02798,0.106122896,0.013894415,1.0808066,0.0960546,0.07972352,inf,inf,inf,inf,0,1,0,1,1,1,1,1,1,0,1,1,0,0,1
4668000,4668000,4392000,47.3977508,8.5456073,0.00023659058,0.0026476886,-0.05795007,-5.255593e-08,1.3669487e-08,0.0,0.0015091661,0.007352404,-0.01697917,-0.046203915,-8.759322e-06,2.2782478e-06,0.0014087781,-0.0026636987,-0.011568029,0.0032968817,1.6269029,-0.0034274475,488.02798,0.10607042,0.014481149,1.0808185,0.09888984,0.08030844,inf,inf,inf,inf,0,1,0,1,1,1,1,1,1,0,1,1,0,0,1
4676000,4676000,4392000,47.3977508,8.5456073,0.00024164788,0.0026293148,-0.058031365,-5.255593e-08,1.3669487e-08,0.0,0.0015462803,0.0070536407,-0.01697986,-0.04594081,-8.759322e-06,2.2782478e-06,0.0014087781,0.009424155,-0.006238711,-0.013043172,1.6268405,-0.0034274475,488.02798,0.10601777,0.01510326,1.080831,0.10175709,0.08089334,inf,inf,inf,inf,0,1,0,1,1,1,1,1,1,0,1,1,0,0,1
4684000,4684000,4392000,47.3977508,8.5456073,0.00024633514,0.002608936,-0.058094554,-5.255593e-08,1.3669487e-08,0.0,0.0014101223,0.0068716495,-0.017033856,-0.045705855,-8.759322e-06,2.2782478e-06,0.0014087781,-0.020408828,-0.00076805,-0.032566484,1.6267947,-0.0034274475,488.02798,0.10656576,0.015184054,1.0808154,0.09816086,0.07545679,inf,inf,inf,inf,0,1,0,1,1,1,1,1,1,0,1,1,0,0,1
4692000,4692000,4392000,47.3977508,8.5456073,0.00025079135,0.0025872053,-0.05815912,-5.255593e-08,1.3669487e-08,0.0,0.0015032823,0.0066610947,-0.0169239,-0.045309946,-8.759322e-06,2.2782478e-06,0.0014087781,0.021376878,0.0085230125,0.0111022955,1.6267399,-0.0034274475,488.02798,0.10651412,0.01581636,1.080827,0.100919,0.07600667,inf,inf,inf,inf,0,1,0,1,1,1,1,1,1,0,1,1,0,0,1
4700000,4700000,4392000,47.3977508,8.5456073,0.00025673147,0.002564803,-0.05822364,-5.255593e-08,1.3669487e-08,0.0,0.0017337782,0.0065577705,-0.016797474,-0.044900537,-8.759322e-06,2.2782478e-06,0.0014087781,0.035848144,0.012813251,-0.007611699,1.6266849,-0.0034274475,488.02798,0.10646324,0.01648106,1.080839,0.10371595,0.07655655,inf,inf,inf,inf,0,1,0,1,1,1,1,1,1,0,1,1,0,0,1
4708000,4708000,4392000,47.3977508,8.5456073,0.00026505152,0.0025420212,-0.058288984,-5.255593e-08,1.3669487e-08,0.0,0.0020397177,0.0064411,-0.016797418,-0.044620443,-8.759322e-06,2.2782478e-06,0.0014087781,0.039811242,0.007736205,-0.014765187,1.626619,-0.0034274475,488.02798,0.10641246,0.017177934,1.0808514,0.10655859,0.0771064,inf,inf,inf,inf,0,1,0,1,1,1,1,1,1,0,1,1,0,0,1
4716000,4716000,4392000,47.3977508,8.5456073,0.00027566255,0.0025184092,-0.058355518,-5.255593e-08,1.3669487e-08,0.0,0.00223011,0.006241295,-0.016809113,-0.044355024,-8.759322e-06,2.2782478e-06,0.0014087781,0.015116718,-0.0011577357,-0.018961726,1.6265668,-0.0034274475,488.02798,0.10636094,0.017906807,1.0808644,0.10943711,0.07765624,inf,inf,inf,inf,0,1,0,1,1,1,1,1,1,0,1,1,0,0,1
4724000,4724000,4392000,47.3977508,8.5456073,0.00028673935,0.002493835,-0.05840178,-5.255593e-08,1.3669487e-08,0.0,0.002138161,0.0060812444,-0.016909406,-0.044159267,-8.759322e-06,2.2782478e-06,0.0014087781,-0.015955664,0.002974193,-0.028967855,1.626525,-0.0034274475,488.02798,0.10697013,0.018667467,1.0327518,0.11233879,0.078204595,inf,inf,inf,inf,0,1,0,1,1,1,1,1,1,0,1,1,0,0,1
4732000,4732000,4392000,47.3977508,8.5456073,0.0002975492,0.0024682197,-0.05844981,-5.255593e-08,1.3669487e-08,0.0,0.0021984072,0.0058782757,-0.016794952,-0.043752402,-8.759322e-06,2.2782478e-06,0.0014087781,0.020683188,0.0016905686,0.00050384545,1.6264857,-0.0034274475,488.02798,0.106899016,0.019459635,1.032765,0.115276895,0.07875439,inf,inf,inf,inf,0,1,0,1,1,1,1,1,1,0,1,1,0,0,1
4740000,4740000,4392000,47.3977508,8.5456073,0.0003103487,0.0024419369,-0.058499187,-5.255593e-08,1.3669487e-08,0.0,0.0025728052,0.005767441,-0.01679479,-0.04346342,-8.759322e-06,2.2782478e-06,0.0014087781,0.05290063,0.008034213,-0.009451061,1.6264642,-0.0034274475,488.02798,0.10682789,0.020283133,1.0327789,0.1182605,0.07930417,inf,inf,inf,inf,0,1,0,1,1,1,1,1,1,0,1,1,0,0,1
4748000,4748000,4392000,47.3977508,8.5456073,0.00032564573,0.0024151313,-0.058549456,-5.255593e-08,1.3669487e-08,0.0,0.0027374628,0.0056494335,-0.016604818,-0.042988174,-8.759322e-06,2.2782478e-06,0.0014087781,0.013669545,0.015671743,0.011611729,1.6264291,-0.0034274475,488.02798,0.10675629,0.02113786,1.0327932,0.1212673,0.079853944,inf,inf,inf,inf,0,1,0,1,1,1,1,1,1,0,1,1,0,0,1
