timestamp,roll_body,pitch_body,yaw_body,yaw_sp_move_rate,q_d[0],q_d[1],q_d[2],q_d[3],thrust_body[0],thrust_body[1],thrust_body[2],reset_integral,fw_control_yaw_wheel
3428000,-0.0,-0.0,-5.7202782e-05,0.0,1.0,-0.0,0.0,-2.8601391e-05,0.0,0.0,-0.001,0,0
3436000,-0.0,-0.0,-5.3839503e-05,0.0,1.0,-0.0,0.0,-2.6919752e-05,0.0,0.0,-0.001,0,0
3476000,0.0,-0.0,1.6357846,0.0,0.6837607,0.0,0.0,0.7297063,0.0,0.0,-0.001,0,0
3524000,0.0,-0.0,1.6358156,0.0,0.68374944,0.0,0.0,0.7297169,0.0,0.0,-0.001,0,0
3580000,0.0,-0.0,1.6358176,0.0,0.68374866,0.0,0.0,0.7297177,0.0,0.0,-0.001,0,0
3620000,0.0,-0.0,1.6357945,0.0,0.6837571,0.0,0.0,0.7297097,0.0,0.0,-0.001,0,0
3676000,0.0,-0.0,1.6324015,0.0,0.6849941,0.0,0.0,0.72854865,0.0,0.0,-0.001,0,0
3724000,0.0,-0.0,1.6324669,0.0,0.68497026,0.0,0.0,0.72857106,0.0,0.0,-0.001,0,0
3780000,0.0,-0.0,1.6324267,0.0,0.6849849,0.0,0.0,0.7285573,0.0,0.0,-0.001,0,0
3820000,0.0,-0.0,1.6323322,0.0,0.6850193,0.0,0.0,0.7285249,0.0,0.0,-0.001,0,0
3876000,0.0,-0.0,1.6322777,0.0,0.68503916,0.0,0.0,0.7285063,0.0,0.0,-0.001,0,0
3924000,0.0,-0.0,1.632038,0.0,0.6851265,0.0,0.0,0.72842413,0.0,0.0,-0.001,0,0
3972000,0.0,-0.0,1.6319861,0.0,0.6851454,0.0,0.0,0.72840637,0.0,0.0,-0.001,0,0
4020000,0.0,-0.0,1.63208,0.0,0.6851112,0.0,0.0,0.7284385,0.0,0.0,-0.001,0,0
4076000,0.0,-0.0,1.6321733,0.0,0.6850772,0.0,0.0,0.72847044,0.0,0.0,-0.001,0,0
4124000,0.0,-0.0,1.6319872,0.0,0.68514496,0.0,0.0,0.7284067,0.0,0.0,-0.001,0,0
4172000,0.0,-0.0,1.6316268,0.0,0.6852762,0.0,0.0,0.7282833,0.0,0.0,-0.001,0,0
4220000,0.0,-0.0,1.6310865,0.0,0.68547297,0.0,0.0,0.7280981,0.0,0.0,-0.001,0,0
4276000,0.0,-0.0,1.6296781,0.0,0.6859855,0.0,0.0,0.72761524,0.0,0.0,-0.001,0,0
4324000,0.0,-0.0,1.628586,0.0,0.6863827,0.0,0.0,0.7272405,0.0,0.0,-0.001,0,0
4372000,0.0,-0.0,1.6278487,0.0,0.68665075,0.0,0.0,0.7269875,0.0,0.0,-0.001,0,0
4428000,0.0,-0.0,1.6275296,0.0,0.68676674,0.0,0.0,0.7268779,0.0,0.0,-0.001,0,0
4476000,0.0,-0.0,1.6274769,0.0,0.6867859,0.0,0.0,0.72685987,0.0,0.0,-0.001,0,0
4524000,0.0,-0.0,1.6274716,0.0,0.68678784,0.0,0.0,0.726858,0.0,0.0,-0.001,0,0
4572000,0.0,-0.0,1.6273897,0.0,0.6868176,0.0,0.0,0.7268298,0.0,0.0,-0.001,0,0
4620000,0.0,-0.0,1.6272136,0.0,0.6868816,0.0,0.0,0.7267693,0.0,0.0,-0.001,0,0
4676000,0.0,-0.0,1.6268405,0.0,0.6870172,0.0,0.0,0.7266411,0.0,0.0,-0.001,0,0
4724000,0.0,-0.0,1.626525,0.0,0.68713176,0.0,0.0,0.72653294,0.0,0.0,-0.001,0,0
4780000,0.0,-0.0,1.6263324,0.0,0.68720174,0.0,0.0,0.7264666,0.0,0.0,-0.001,0,0
4820000,0.0,-0.0,1.6262001,0.0,0.68724984,0.0,0.0,0.7264211,0.0,0.0,-0.001,0,0
4876000,0.0,-0.0,1.6259598,0.0,0.6873371,0.0,0.0,0.72633857,0.0,0.0,-0.001,0,0
4924000,0.0,-0.0,1.625703,0.0,0.6874303,0.0,0.0,0.72625035,0.0,0.0,-0.001,0,0
4972000,0.0,-0.0,1.6246345,0.0,0.6878182,0.0,0.0,0.72588295,0.0,0.0,-0.001,0,0
5020000,0.0,-0.0,1.6235238,0.0,0.6882212,0.0,0.0,0.72550094,0.0,0.0,-0.001,0,0
5076000,0.0,-0.0,1.622699,0.0,0.6885204,0.0,0.0,0.7252171,0.0,0.0,-0.001,0,0
5124000,0.0,-0.0,1.623106,0.0,0.6883728,0.0,0.0,0.7253571,0.0,0.0,-0.001,0,0
5180000,0.0,-0.0,1.6239035,0.0,0.68808347,0.0,0.0,0.72563154,0.0,0.0,-0.001,0,0
5228000,0.0,-0.0,1.6244733,0.0,0.6878767,0.0,0.0,0.72582763,0.0,0.0,-0.001,0,0
5276000,0.0,-0.0,1.6247661,0.0,0.6877705,0.0,0.0,0.7259282,0.0,0.0,-0.001,0,0
5324000,0.0,-0.0,1.6247058,0.0,0.68779236,0.0,0.0,0.7259075,0.0,0.0,-0.001,0,0
5380000,0.0,-0.0,1.6244981,0.0,0.6878677,0.0,0.0,0.7258361,0.0,0.0,-0.001,0,0
5428000,0.0,-0.0,1.6242912,0.0,0.6879428,0.0,0.0,0.72576493,0.0,0.0,-0.001,0,0
5476000,0.0,-0.0,1.6241151,0.0,0.6880067,0.0,0.0,0.7257043,0.0,0.0,-0.001,0,0
5524000,0.0,-0.0,1.6235559,0.0,0.6882096,0.0,0.0,0.725512,0.0,0.0,-0.001,0,0
5572000,0.0,-0.0,1.6228976,0.0,0.6884483,0.0,0.0,0.7252854,0.0,0.0,-0.001,0,0
5628000,0.0,-0.0,1.6219828,0.0,0.68878,0.0,0.0,0.7249704,0.0,0.0,-0.001,0,0
5676000,0.0,-0.0,1.6213484,0.0,0.68900996,0.0,0.0,0.72475195,0.0,0.0,-0.001,0,0
5724000,0.0,-0.0,1.6208402,0.0,0.6891941,0.0,0.0,0.7245768,0.0,0.0,-0.001,0,0
5772000,0.0,-0.0,1.6204458,0.0,0.68933696,0.0,0.0,0.7244409,0.0,0.0,-0.001,0,0
5820000,0.0,-0.0,1.6208845,0.0,0.68917805,0.0,0.0,0.72459203,0.0,0.0,-0.001,0,0
5876000,0.0,-0.0,1.6220518,0.0,0.68875504,0.0,0.0,0.7249941,0.0,0.0,-0.001,0,0
5924000,0.0,-0.0,1.6229893,0.0,0.6884151,0.0,0.0,0.72531694,0.0,0.0,-0.001,0,0
5972000,0.0,-0.0,1.6239114,0.0,0.6880806,0.0,0.0,0.7256343,0.0,0.0,-0.001,0,0
6028000,0.0,-0.0,1.6245748,0.0,0.6878399,0.0,0.0,0.72586244,0.0,0.0,-0.001,0,0
6076000,0.0,-0.0,1.6247262,0.0,0.68778497,0.0,0.0,0.72591454,0.0,0.0,-0.001,0,0
6124000,0.0,-0.0,1.6248794,0.0,0.68772936,0.0,0.0,0.72596717,0.0,0.0,-0.001,0,0
6172000,0.0,-0.0,1.6249542,0.0,0.6877022,0.0,0.0,0.7259929,0.0,0.0,-0.001,0,0
6220000,0.0,-0.0,1.624942,0.0,0.68770665,0.0,0.0,0.7259887,0.0,0.0,-0.001,0,0
6276000,0.0,-0.0,1.6247474,0.0,0.6877772,0.0,0.0,0.72592187,0.0,0.0,-0.001,0,0
6324000,0.0,-0.0,1.6244918,0.0,0.68787,0.0,0.0,0.7258339,0.0,0.0,-0.001,0,0
6372000,0.0,-0.0,1.6242088,0.0,0.6879727,0.0,0.0,0.72573656,0.0,0.0,-0.001,0,0
6420000,0.0,-0.0,1.6236246,0.0,0.6881847,0.0,0.0,0.7255355,0.0,0.0,-0.001,0,0
6476000,0.0,-0.0,1.6230569,0.0,0.6883906,0.0,0.0,0.7253402,0.0,0.0,-0.001,0,0
6524000,0.0,-0.0,1.6226121,0.0,0.6885519,0.0,0.0,0.72518706,0.0,0.0,-0.001,0,0
6572000,0.0,-0.0,1.6222339,0.0,0.68868905,0.0,0.0,0.7250569,0.0,0.0,-0.001,0,0
6628000,0.0,-0.0,1.6219082,0.0,0.6888071,0.0,0.0,0.7249447,0.0,0.0,-0.001,0,0
6676000,0.0,-0.0,1.621818,0.0,0.6888398,0.0,0.0,0.7249137,0.0,0.0,-0.001,0,0
6724000,0.0,-0.0,1.6217426,0.0,0.6888671,0.0,0.0,0.72488767,0.0,0.0,-0.001,0,0
6780000,0.0,-0.0,1.6217258,0.0,0.6888732,0.0,0.0,0.72488195,0.0,0.0,-0.001,0,0
6820000,0.0,-0.0,1.6219089,0.0,0.68880683,0.0,0.0,0.72494495,0.0,0.0,-0.001,0,0
6876000,0.0,-0.0,1.6223587,0.0,0.68864375,0.0,0.0,0.7250998,0.0,0.0,-0.001,0,0
6924000,0.0,-0.0,1.622567,0.0,0.68856823,0.0,0.0,0.72517157,0.0,0.0,-0.001,0,0
6972000,0.0,-0.0,1.6232668,0.0,0.68831444,0.0,0.0,0.7254124,0.0,0.0,-0.001,0,0
7020000,0.0,-0.0,1.6241108,0.0,0.68800825,0.0,0.0,0.7257029,0.0,0.0,-0.001,0,0
7076000,0.0,-0.0,1.6248759,0.0,0.6877306,0.0,0.0,0.725966,0.0,0.0,-0.001,0,0
7124000,0.0,-0.0,1.6254957,0.0,0.6875056,0.0,0.0,0.72617906,0.0,0.0,-0.001,0,0
7172000,0.0,-0.0,1.6258796,0.0,0.6873662,0.0,0.0,0.726311,0.0,0.0,-0.001,0,0
7220000,0.0,-0.0,1.6259345,0.0,0.6873463,0.0,0.0,0.72632986,0.0,0.0,-0.001,0,0
7276000,0.0,-0.0,1.6259063,0.0,0.6873565,0.0,0.0,0.7263202,0.0,0.0,-0.001,0,0
7324000,0.0,-0.0,1.6257292,0.0,0.6874208,0.0,0.0,0.7262594,0.0,0.0,-0.001,0,0
7372000,0.0,-0.0,1.6255366,0.0,0.68749076,0.0,0.0,0.72619313,0.0,0.0,-0.001,0,0
7420000,0.0,-0.0,1.6251734,0.0,0.6876226,0.0,0.0,0.72606826,0.0,0.0,-0.001,0,0
7476000,0.0,-0.0,1.6247585,0.0,0.6877732,0.0,0.0,0.72592556,0.0,0.0,-0.001,0,0
7524000,0.0,-0.0,1.624613,0.0,0.68782604,0.0,0.0,0.7258756,0.0,0.0,-0.001,0,0
7572000,0.0,-0.0,1.6245948,0.0,0.6878326,0.0,0.0,0.72586936,0.0,0.0,-0.001,0,0
7628000,0.0,-0.0,1.6245959,0.0,0.68783224,0.0,0.0,0.7258697,0.0,0.0,-0.001,0,0
7676000,0.0,-0.0,1.6247618,0.0,0.687772,0.0,0.0,0.7259268,0.0,0.0,-0.001,0,0
7724000,0.0,-0.0,1.6249192,0.0,0.6877149,0.0,0.0,0.72598094,0.0,0.0,-0.001,0,0
7772000,0.0,-0.0,1.6250621,0.0,0.687663,0.0,0.0,0.72603005,0.0,0.0,-0.001,0,0
7820000,0.0,-0.0,1.6249,0.0,0.68772185,0.0,0.0,0.7259743,0.0,0.0,-0.001,0,0
7876000,0.0,-0.0,1.6245646,0.0,0.68784356,0.0,0.0,0.7258589,0.0,0.0,-0.001,0,0
7924000,0.0,-0.0,1.6242206,0.0,0.68796843,0.0,0.0,0.72574073,0.0,0.0,-0.001,0,0
7972000,0.0,-0.0,1.6231613,0.0,0.6883527,0.0,0.0,0.7253762,0.0,0.0,-0.001,0,0
8020000,0.0,-0.0,1.6221945,0.0,0.6887033,0.0,0.0,0.7250433,0.0,0.0,-0.001,0,0
8076000,0.0,-0.0,1.6214122,0.0,0.68898684,0.0,0.0,0.7247738,0.0,0.0,-0.001,0,0
8124000,0.0,-0.0,1.620903,0.0,0.6891713,0.0,0.0,0.72459847,0.0,0.0,-0.001,0,0
8172000,0.0,-0.0,1.6206871,0.0,0.6892495,0.0,0.0,0.7245241,0.0,0.0,-0.001,0,0
8220000,0.0,-0.0,1.6204696,0.0,0.6893284,0.0,0.0,0.72444904,0.0,0.0,-0.001,0,0
8276000,0.0,-0.0,1.6200583,0.0,0.6894773,0.0,0.0,0.72430724,0.0,0.0,-0.001,0,0
8324000,0.0,-0.0,1.619723,0.0,0.68959874,0.0,0.0,0.72419167,0.0,0.0,-0.001,0,0
8372000,0.0,-0.0,1.6195576,0.0,0.68965864,0.0,0.0,0.7241346,0.0,0.0,-0.001,0,0
8420000,0.0,-0.0,1.6196548,0.0,0.6896235,0.0,0.0,0.7241681,0.0,0.0,-0.001,0,0
8476000,0.0,-0.0,1.6198289,0.0,0.68956035,0.0,0.0,0.7242283,0.0,0.0,-0.001,0,0
8524000,0.0,-0.0,1.6205032,0.0,0.68931615,0.0,0.0,0.72446066,0.0,0.0,-0.001,0,0
8572000,0.0,-0.0,1.6212585,0.0,0.6890425,0.0,0.0,0.72472095,0.0,0.0,-0.001,0,0
8620000,0.0,-0.0,1.6218953,0.0,0.6888117,0.0,0.0,0.7249403,0.0,0.0,-0.001,0,0
8676000,0.0,-0.0,1.6219493,0.0,0.68879217,0.0,0.0,0.7249589,0.0,0.0,-0.001,0,0
8724000,0.0,-0.0,1.6217,0.0,0.6888825,0.0,0.0,0.72487307,0.0,0.0,-0.001,0,0
8780000,0.0,-0.0,1.6213696,0.0,0.6890023,0.0,0.0,0.7247593,0.0,0.0,-0.001,0,0
8820000,0.0,-0.0,1.6212302,0.0,0.68905276,0.0,0.0,0.7247113,0.0,0.0,-0.001,0,0
8876000,0.0,-0.0,1.6211332,0.0,0.6890879,0.0,0.0,0.7246778,0.0,0.0,-0.001,0,0
8924000,0.0,-0.0,1.6211064,0.0,0.68909764,0.0,0.0,0.7246685,0.0,0.0,-0.001,0,0
8980000,0.0,-0.0,1.6210371,0.0,0.68912274,0.0,0.0,0.72464466,0.0,0.0,-0.001,0,0
9020000,0.0,-0.0,1.6209637,0.0,0.6891494,0.0,0.0,0.72461927,0.0,0.0,-0.001,0,0
9076000,0.0,-0.0,1.6209013,0.0,0.68917197,0.0,0.0,0.7245978,0.0,0.0,-0.001,0,0
9124000,0.0,-0.0,1.620895,0.0,0.68917423,0.0,0.0,0.72459567,0.0,0.0,-0.001,0,0
9172000,0.0,-0.0,1.6210042,0.0,0.68913466,0.0,0.0,0.7246333,0.0,0.0,-0.001,0,0
9220000,0.0,-0.0,1.6212354,0.0,0.6890509,0.0,0.0,0.7247129,0.0,0.0,-0.001,0,0
9276000,0.0,-0.0,1.6216803,0.0,0.6888897,0.0,0.0,0.7248662,0.0,0.0,-0.001,0,0
9324000,0.0,-0.0,1.6220006,0.0,0.6887736,0.0,0.0,0.72497654,0.0,0.0,-0.001,0,0
9380000,0.0,-0.0,1.62222,0.0,0.68869406,0.0,0.0,0.72505206,0.0,0.0,-0.001,0,0
9428000,0.0,-0.0,1.6222659,0.0,0.6886774,0.0,0.0,0.72506803,0.0,0.0,-0.001,0,0
9476000,0.0,-0.0,1.6223973,0.0,0.6886298,0.0,0.0,0.7251131,0.0,0.0,-0.001,0,0
9524000,0.0,-0.0,1.6227134,0.0,0.6885151,0.0,0.0,0.725222,0.0,0.0,-0.001,0,0
9572000,0.0,-0.0,1.62298,0.0,0.68841845,0.0,0.0,0.7253138,0.0,0.0,-0.001,0,0
9620000,0.0,-0.0,1.6232324,0.0,0.68832695,0.0,0.0,0.7254007,0.0,0.0,-0.001,0,0
9676000,0.0,-0.0,1.6234366,0.0,0.68825287,0.0,0.0,0.7254709,0.0,0.0,-0.001,0,0
9724000,0.0,-0.0,1.6235732,0.0,0.68820333,0.0,0.0,0.72551787,0.0,0.0,-0.001,0,0
9772000,0.0,-0.0,1.6236917,0.0,0.68816036,0.0,0.0,0.72555864,0.0,0.0,-0.001,0,0
9820000,0.0,-0.0,1.623856,0.0,0.68810076,0.0,0.0,0.72561514,0.0,0.0,-0.001,0,0
9876000,0.0,-0.0,1.6239682,0.0,0.68806,0.0,0.0,0.7256538,0.0,0.0,-0.001,0,0
9924000,0.0,-0.0,1.6239494,0.0,0.68806684,0.0,0.0,0.72564733,0.0,0.0,-0.001,0,0
9980000,0.0,-0.0,1.6235322,0.0,0.6882182,0.0,0.0,0.72550386,0.0,0.0,-0.001,0,0
10020000,0.0,-0.0,1.623255,0.0,0.6883187,0.0,0.0,0.7254084,0.0,0.0,-0.001,0,0
10076000,0.0,-0.0,1.6229192,0.0,0.6884405,0.0,0.0,0.72529286,0.0,0.0,-0.001,0,0
10124000,0.0,-0.0,1.6224849,0.0,0.68859804,0.0,0.0,0.72514325,0.0,0.0,-0.001,0,0
10180000,0.0,-0.0,1.6222454,0.0,0.6886848,0.0,0.0,0.72506094,0.0,0.0,-0.001,0,0
10228000,0.0,-0.0,1.622185,0.0,0.68870676,0.0,0.0,0.7250401,0.0,0.0,-0.001,0,0
10276000,0.0,-0.0,1.6222532,0.0,0.688682,0.0,0.0,0.72506356,0.0,0.0,-0.001,0,0
10324000,0.0,-0.0,1.6223433,0.0,0.68864936,0.0,0.0,0.72509456,0.0,0.0,-0.001,0,0
10380000,0.0,-0.0,1.6224782,0.0,0.6886004,0.0,0.0,0.725141,0.0,0.0,-0.001,0,0
10420000,0.0,-0.0,1.6225407,0.0,0.6885778,0.0,0.0,0.72516257,0.0,0.0,-0.001,0,0
10476000,0.0,-0.0,1.6225032,0.0,0.6885914,0.0,0.0,0.7251495,0.0,0.0,-0.001,0,0
10524000,0.0,-0.0,1.6224848,0.0,0.68859804,0.0,0.0,0.72514325,0.0,0.0,-0.001,0,0
10572000,0.0,-0.0,1.6225524,0.0,0.68857354,0.0,0.0,0.7251665,0.0,0.0,-0.001,0,0
10628000,0.0,-0.0,1.6225843,0.0,0.688562,0.0,0.0,0.7251775,0.0,0.0,-0.001,0,0
10676000,0.0,-0.0,1.622574,0.0,0.68856573,0.0,0.0,0.72517395,0.0,0.0,-0.001,0,0
10724000,0.0,-0.0,1.6225241,0.0,0.6885838,0.0,0.0,0.7251568,0.0,0.0,-0.001,0,0
10772000,0.0,-0.0,1.6224316,0.0,0.6886173,0.0,0.0,0.72512496,0.0,0.0,-0.001,0,0
10828000,0.0,-0.0,1.6224893,0.0,0.6885964,0.0,0.0,0.72514474,0.0,0.0,-0.001,0,0
10876000,0.0,-0.0,1.6225543,0.0,0.6885728,0.0,0.0,0.7251672,0.0,0.0,-0.001,0,0
10924000,0.0,-0.0,1.622588,0.0,0.6885606,0.0,0.0,0.7251788,0.0,0.0,-0.001,0,0
10972000,0.0,-0.0,1.6227944,0.0,0.6884858,0.0,0.0,0.7252498,0.0,0.0,-0.001,0,0
11028000,0.0,-0.0,1.6229225,0.0,0.6884393,0.0,0.0,0.725294,0.0,0.0,-0.001,0,0
11076000,0.0,-0.0,1.6229566,0.0,0.688427,0.0,0.0,0.72530574,0.0,0.0,-0.001,0,0
11124000,0.0,-0.0,1.6230403,0.0,0.68839663,0.0,0.0,0.72533447,0.0,0.0,-0.001,0,0
11172000,0.0,-0.0,1.6230658,0.0,0.68838733,0.0,0.0,0.7253433,0.0,0.0,-0.001,0,0
11228000,0.0,-0.0,1.6231002,0.0,0.68837494,0.0,0.0,0.725355,0.0,0.0,-0.001,0,0
11276000,0.0,-0.0,1.6230887,0.0,0.68837905,0.0,0.0,0.72535115,0.0,0.0,-0.001,0,0
11324000,0.0,-0.0,1.6230048,0.0,0.6884095,0.0,0.0,0.72532225,0.0,0.0,-0.001,0,0
11372000,0.0,-0.0,1.6230285,0.0,0.68840086,0.0,0.0,0.72533053,0.0,0.0,-0.001,0,0
11420000,0.0,-0.0,1.6231397,0.0,0.6883606,0.0,0.0,0.7253687,0.0,0.0,-0.001,0,0
11476000,0.0,-0.0,1.6233706,0.0,0.6882768,0.0,0.0,0.72544813,0.0,0.0,-0.001,0,0
11524000,0.0,-0.0,1.6235967,0.0,0.6881948,0.0,0.0,0.725526,0.0,0.0,-0.001,0,0
11572000,0.0,-0.0,1.623744,0.0,0.68814135,0.0,0.0,0.72557676,0.0,0.0,-0.001,0,0
11628000,0.0,-0.0,1.623879,0.0,0.6880924,0.0,0.0,0.72562313,0.0,0.0,-0.001,0,0
11676000,0.0,-0.0,1.6240538,0.0,0.68802893,0.0,0.0,0.7256833,0.0,0.0,-0.001,0,0
11724000,0.0,-0.0,1.6242858,0.0,0.68794477,0.0,0.0,0.725763,0.0,0.0,-0.001,0,0
11780000,0.0,-0.0,1.6244875,0.0,0.6878716,0.0,0.0,0.72583246,0.0,0.0,-0.001,0,0
11828000,0.0,-0.0,1.6246768,0.0,0.68780285,0.0,0.0,0.72589755,0.0,0.0,-0.001,0,0
11876000,0.0,-0.0,1.6247934,0.0,0.6877606,0.0,0.0,0.72593755,0.0,0.0,-0.001,0,0
11924000,0.0,-0.0,1.6248854,0.0,0.68772715,0.0,0.0,0.72596925,0.0,0.0,-0.001,0,0
11972000,0.0,-0.0,1.6248025,0.0,0.68775725,0.0,0.0,0.72594076,0.0,0.0,-0.001,0,0
12020000,0.0,-0.0,1.6246936,0.0,0.6877968,0.0,0.0,0.72590333,0.0,0.0,-0.001,0,0
12076000,0.0,-0.0,1.6245095,0.0,0.6878636,0.0,0.0,0.72584,0.0,0.0,-0.001,0,0
12124000,0.0,-0.0,1.62442,0.0,0.6878961,0.0,0.0,0.72580916,0.0,0.0,-0.001,0,0
12180000,0.0,-0.0,1.6243004,0.0,0.6879395,0.0,0.0,0.725768,0.0,0.0,-0.001,0,0
12220000,0.0,-0.0,1.6242429,0.0,0.6879603,0.0,0.0,0.72574836,0.0,0.0,-0.001,0,0
12276000,0.0,-0.0,1.6242651,0.0,0.6879523,0.0,0.0,0.725756,0.0,0.0,-0.001,0,0
12324000,0.0,-0.0,1.624261,0.0,0.68795377,0.0,0.0,0.72575456,0.0,0.0,-0.001,0,0
12372000,0.0,-0.0,1.6242265,0.0,0.68796635,0.0,0.0,0.7257426,0.0,0.0,-0.001,0,0
12428000,0.0,-0.0,1.6240871,0.0,0.6880169,0.0,0.0,0.7256947,0.0,0.0,-0.001,0,0
12476000,0.0,-0.0,1.624019,0.0,0.68804157,0.0,0.0,0.72567135,0.0,0.0,-0.001,0,0
12524000,0.0,-0.0,1.6239625,0.0,0.6880621,0.0,0.0,0.7256518,0.0,0.0,-0.001,0,0
12580000,0.0,-0.0,1.6240431,0.0,0.68803287,0.0,0.0,0.7256795,0.0,0.0,-0.001,0,0
12620000,0.0,-0.0,1.6239585,0.0,0.68806356,0.0,0.0,0.7256504,0.0,0.0,-0.001,0,0
12676000,0.0,-0.0,1.6238396,0.0,0.68810666,0.0,0.0,0.7256096,0.0,0.0,-0.001,0,0
12724000,0.0,-0.0,1.6237391,0.0,0.68814313,0.0,0.0,0.725575,0.0,0.0,-0.001,0,0
12772000,0.0,-0.0,1.6236286,0.0,0.68818325,0.0,0.0,0.72553694,0.0,0.0,-0.001,0,0
12820000,0.0,-0.0,1.6234566,0.0,0.68824565,0.0,0.0,0.7254777,0.0,0.0,-0.001,0,0
12876000,0.0,-0.0,1.623288,0.0,0.68830675,0.0,0.0,0.72541976,0.0,0.0,-0.001,0,0
12924000,0.0,-0.0,1.6231551,0.0,0.68835497,0.0,0.0,0.725374,0.0,0.0,-0.001,0,0
12972000,0.0,-0.0,1.62311,0.0,0.6883713,0.0,0.0,0.72535855,0.0,0.0,-0.001,0,0
13028000,0.0,-0.0,1.6230737,0.0,0.6883845,0.0,0.0,0.72534597,0.0,0.0,-0.001,0,0
13076000,0.0,-0.0,1.6229657,0.0,0.68842363,0.0,0.0,0.7253089,0.0,0.0,-0.001,0,0
13124000,0.0,-0.0,1.6227621,0.0,0.6884975,0.0,0.0,0.72523874,0.0,0.0,-0.001,0,0
13172000,0.0,-0.0,1.622587,0.0,0.688561,0.0,0.0,0.7251784,0.0,0.0,-0.001,0,0
13220000,0.0,-0.0,1.6225224,0.0,0.68858445,0.0,0.0,0.7251561,0.0,0.0,-0.001,0,0
13276000,0.0,-0.0,1.6225436,0.0,0.6885767,0.0,0.0,0.72516346,0.0,0.0,-0.001,0,0
13324000,0.0,-0.0,1.6225762,0.0,0.6885649,0.0,0.0,0.7251747,0.0,0.0,-0.001,0,0
13372000,0.0,-0.0,1.6225058,0.0,0.68859047,0.0,0.0,0.72515047,0.0,0.0,-0.001,0,0
13420000,0.0,-0.0,1.6223515,0.0,0.6886464,0.0,0.0,0.72509736,0.0,0.0,-0.001,0,0
13476000,0.0,-0.0,1.6221656,0.0,0.6887138,0.0,0.0,0.72503334,0.0,0.0,-0.001,0,0
13524000,0.0,-0.0,1.6220767,0.0,0.688746,0.0,0.0,0.72500277,0.0,0.0,-0.001,0,0
13572000,0.0,-0.0,1.6221696,0.0,0.6887123,0.0,0.0,0.7250348,0.0,0.0,-0.001,0,0
13628000,0.0,-0.0,1.6222888,0.0,0.6886691,0.0,0.0,0.7250758,0.0,0.0,-0.001,0,0
13676000,0.0,-0.0,1.6222018,0.0,0.6887007,0.0,0.0,0.72504574,0.0,0.0,-0.001,0,0
13724000,0.0,-0.0,1.6220654,0.0,0.6887501,0.0,0.0,0.72499883,0.0,0.0,-0.001,0,0
13780000,0.0,-0.0,1.6219208,0.0,0.6888025,0.0,0.0,0.72494906,0.0,0.0,-0.001,0,0
13828000,0.0,-0.0,1.6216279,0.0,0.68890864,0.0,0.0,0.7248482,0.0,0.0,-0.001,0,0
13876000,0.0,-0.0,1.6213475,0.0,0.68901026,0.0,0.0,0.7247517,0.0,0.0,-0.001,0,0
13924000,0.0,-0.0,1.6212369,0.0,0.6890504,0.0,0.0,0.72471344,0.0,0.0,-0.001,0,0
13980000,0.0,-0.0,1.6209992,0.0,0.6891365,0.0,0.0,0.7246315,0.0,0.0,-0.001,0,0
14020000,0.0,-0.0,1.6208605,0.0,0.68918675,0.0,0.0,0.72458375,0.0,0.0,-0.001,0,0
14076000,0.0,-0.0,1.6206175,0.0,0.6892748,0.0,0.0,0.7245,0.0,0.0,-0.001,0,0
14124000,0.0,-0.0,1.6203209,0.0,0.6893822,0.0,0.0,0.72439784,0.0,0.0,-0.001,0,0
14180000,0.0,-0.0,1.6200837,0.0,0.68946815,0.0,0.0,0.724316,0.0,0.0,-0.001,0,0
14220000,0.0,-0.0,1.6199383,0.0,0.6895208,0.0,0.0,0.72426593,0.0,0.0,-0.001,0,0
14276000,0.0,-0.0,1.6197219,0.0,0.68959916,0.0,0.0,0.7241913,0.0,0.0,-0.001,0,0
14324000,0.0,-0.0,1.6195095,0.0,0.68967605,0.0,0.0,0.724118,0.0,0.0,-0.001,0,0
14380000,0.0,-0.0,1.6194036,0.0,0.6897144,0.0,0.0,0.72408164,0.0,0.0,-0.001,0,0
14420000,0.0,-0.0,1.6193968,0.0,0.6897168,0.0,0.0,0.7240792,0.0,0.0,-0.001,0,0
14476000,0.0,-0.0,1.6193922,0.0,0.68971854,0.0,0.0,0.7240776,0.0,0.0,-0.001,0,0
14524000,0.0,-0.0,1.619259,0.0,0.68976676,0.0,0.0,0.7240316,0.0,0.0,-0.001,0,0
14572000,0.0,-0.0,1.6190425,0.0,0.6898451,0.0,0.0,0.723957,0.0,0.0,-0.001,0,0
14620000,0.0,-0.0,1.6188747,0.0,0.6899059,0.0,0.0,0.7238991,0.0,0.0,-0.001,0,0
14676000,0.0,-0.0,1.618625,0.0,0.6899962,0.0,0.0,0.723813,0.0,0.0,-0.001,0,0
14724000,0.0,-0.0,1.6184405,0.0,0.690063,0.0,0.0,0.72374934,0.0,0.0,-0.001,0,0
14780000,0.0,-0.0,1.6182913,0.0,0.690117,0.0,0.0,0.72369784,0.0,0.0,-0.001,0,0
14820000,0.0,-0.0,1.6180863,0.0,0.69019115,0.0,0.0,0.7236271,0.0,0.0,-0.001,0,0
14876000,0.0,-0.0,1.6178977,0.0,0.6902594,0.0,0.0,0.723562,0.0,0.0,-0.001,0,0
14924000,0.0,-0.0,1.6177601,0.0,0.69030917,0.0,0.0,0.72351456,0.0,0.0,-0.001,0,0
14980000,0.0,-0.0,1.6178173,0.0,0.6902885,0.0,0.0,0.7235343,0.0,0.0,-0.001,0,0
15028000,0.0,-0.0,1.6179156,0.0,0.6902529,0.0,0.0,0.7235682,0.0,0.0,-0.001,0,0
15076000,0.0,-0.0,1.6179091,0.0,0.6902553,0.0,0.0,0.72356594,0.0,0.0,-0.001,0,0
15124000,0.0,-0.0,1.6178269,0.0,0.69028497,0.0,0.0,0.7235376,0.0,0.0,-0.001,0,0
15172000,0.0,-0.0,1.6177415,0.0,0.6903159,0.0,0.0,0.7235081,0.0,0.0,-0.001,0,0
15220000,0.0,-0.0,1.6176647,0.0,0.6903437,0.0,0.0,0.72348166,0.0,0.0,-0.001,0,0
15276000,0.0,-0.0,1.617492,0.0,0.69040614,0.0,0.0,0.723422,0.0,0.0,-0.001,0,0
15324000,0.0,-0.0,1.6173626,0.0,0.69045293,0.0,0.0,0.72337735,0.0,0.0,-0.001,0,0
15372000,0.0,-0.0,1.6172864,0.0,0.6904805,0.0,0.0,0.72335106,0.0,0.0,-0.001,0,0
15420000,0.0,-0.0,1.6171433,0.0,0.69053227,0.0,0.0,0.72330165,0.0,0.0,-0.001,0,0
15476000,0.0,-0.0,1.6170831,0.0,0.690554,0.0,0.0,0.7232808,0.0,0.0,-0.001,0,0
15524000,0.0,-0.0,1.6170317,0.0,0.6905726,0.0,0.0,0.7232631,0.0,0.0,-0.001,0,0
15572000,0.0,-0.0,1.6170892,0.0,0.6905518,0.0,0.0,0.723283,0.0,0.0,-0.001,0,0
15628000,0.0,-0.0,1.6170931,0.0,0.6905504,0.0,0.0,0.72328436,0.0,0.0,-0.001,0,0
15676000,0.0,-0.0,1.6169325,0.0,0.6906085,0.0,0.0,0.7232288,0.0,0.0,-0.001,0,0
15724000,0.0,-0.0,1.616736,0.0,0.69067955,0.0,0.0,0.7231609,0.0,0.0,-0.001,0,0
15780000,0.0,-0.0,1.6164564,0.0,0.69078064,0.0,0.0,0.72306436,0.0,0.0,-0.001,0,0
15820000,0.0,-0.0,1.6162398,0.0,0.69085896,0.0,0.0,0.72298956,0.0,0.0,-0.001,0,0
15876000,0.0,-0.0,1.6158209,0.0,0.69101036,0.0,0.0,0.7228449,0.0,0.0,-0.001,0,0
15924000,0.0,-0.0,1.6155567,0.0,0.69110584,0.0,0.0,0.7227536,0.0,0.0,-0.001,0,0
15972000,0.0,-0.0,1.6153783,0.0,0.69117033,0.0,0.0,0.7226919,0.0,0.0,-0.001,0,0
16020000,0.0,-0.0,1.6152542,0.0,0.69121516,0.0,0.0,0.72264904,0.0,0.0,-0.001,0,0
16076000,0.0,-0.0,1.6152065,0.0,0.6912324,0.0,0.0,0.72263265,0.0,0.0,-0.001,0,0
16124000,0.0,-0.0,1.6151768,0.0,0.6912431,0.0,0.0,0.72262233,0.0,0.0,-0.001,0,0
16172000,0.0,-0.0,1.6150509,0.0,0.6912886,0.0,0.0,0.72257876,0.0,0.0,-0.001,0,0
16220000,0.0,-0.0,1.6149635,0.0,0.6913202,0.0,0.0,0.72254854,0.0,0.0,-0.001,0,0
16276000,0.0,-0.0,1.6148466,0.0,0.69136244,0.0,0.0,0.72250813,0.0,0.0,-0.001,0,0
16324000,0.0,-0.0,1.6147033,0.0,0.6914142,0.0,0.0,0.7224586,0.0,0.0,-0.001,0,0
16372000,0.0,-0.0,1.6146253,0.0,0.6914423,0.0,0.0,0.7224317,0.0,0.0,-0.001,0,0
16420000,0.0,-0.0,1.6144468,0.0,0.69150686,0.0,0.0,0.72236997,0.0,0.0,-0.001,0,0
16476000,0.0,-0.0,1.6143054,0.0,0.69155794,0.0,0.0,0.72232103,0.0,0.0,-0.001,0,0
16524000,0.0,-0.0,1.6142291,0.0,0.6915855,0.0,0.0,0.7222946,0.0,0.0,-0.001,0,0
16572000,0.0,-0.0,1.6140858,0.0,0.6916372,0.0,0.0,0.72224504,0.0,0.0,-0.001,0,0
16620000,0.0,-0.0,1.6139742,0.0,0.6916775,0.0,0.0,0.7222065,0.0,0.0,-0.001,0,0
16676000,0.0,-0.0,1.6139215,0.0,0.6916965,0.0,0.0,0.72218823,0.0,0.0,-0.001,0,0
16724000,0.0,-0.0,1.6139106,0.0,0.69170046,0.0,0.0,0.72218454,0.0,0.0,-0.001,0,0
16772000,0.0,-0.0,1.6138961,0.0,0.6917057,0.0,0.0,0.7221795,0.0,0.0,-0.001,0,0
16820000,0.0,-0.0,1.6138667,0.0,0.6917163,0.0,0.0,0.7221694,0.0,0.0,-0.001,0,0
16876000,0.0,-0.0,1.6138468,0.0,0.6917235,0.0,0.0,0.7221625,0.0,0.0,-0.001,0,0
16924000,0.0,-0.0,1.6138092,0.0,0.69173706,0.0,0.0,0.7221495,0.0,0.0,-0.001,0,0
16972000,0.0,-0.0,1.6139033,0.0,0.6917031,0.0,0.0,0.722182,0.0,0.0,-0.001,0,0
17020000,0.0,-0.0,1.6139877,0.0,0.6916726,0.0,0.0,0.72221124,0.0,0.0,-0.001,0,0
17076000,0.0,-0.0,1.6140658,0.0,0.69164443,0.0,0.0,0.7222382,0.0,0.0,-0.001,0,0
17124000,0.0,-0.0,1.6141597,0.0,0.6916105,0.0,0.0,0.72227067,0.0,0.0,-0.001,0,0
17172000,0.0,-0.0,1.6141577,0.0,0.69161123,0.0,0.0,0.72226995,0.0,0.0,-0.001,0,0
17220000,0.0,-0.0,1.6141915,0.0,0.691599,0.0,0.0,0.7222817,0.0,0.0,-0.001,0,0
17276000,0.0,-0.0,1.6143132,0.0,0.6915551,0.0,0.0,0.7223237,0.0,0.0,-0.001,0,0
17324000,0.0,-0.0,1.6143825,0.0,0.69153005,0.0,0.0,0.7223478,0.0,0.0,-0.001,0,0
17380000,0.0,-0.0,1.6144644,0.0,0.6915005,0.0,0.0,0.7223761,0.0,0.0,-0.001,0,0
17428000,0.0,-0.0,1.6145844,0.0,0.6914571,0.0,0.0,0.7224176,0.0,0.0,-0.001,0,0
17476000,0.0,-0.0,1.6146166,0.0,0.69144547,0.0,0.0,0.7224287,0.0,0.0,-0.001,0,0
17524000,0.0,-0.0,1.6146863,0.0,0.6914203,0.0,0.0,0.7224527,0.0,0.0,-0.001,0,0
17580000,0.0,-0.0,1.6147746,0.0,0.6913884,0.0,0.0,0.7224833,0.0,0.0,-0.001,0,0
17628000,0.0,-0.0,1.6147623,0.0,0.69139284,0.0,0.0,0.722479,0.0,0.0,-0.001,0,0
17676000,0.0,-0.0,1.6147513,0.0,0.69139683,0.0,0.0,0.72247523,0.0,0.0,-0.001,0,0
17724000,0.0,-0.0,1.614682,0.0,0.6914219,0.0,0.0,0.7224512,0.0,0.0,-0.001,0,0
17772000,0.0,-0.0,1.6145724,0.0,0.69146144,0.0,0.0,0.7224135,0.0,0.0,-0.001,0,0
17828000,0.0,-0.0,1.6144658,0.0,0.69149995,0.0,0.0,0.7223766,0.0,0.0,-0.001,0,0
17876000,0.0,-0.0,1.614394,0.0,0.69152594,0.0,0.0,0.7223516,0.0,0.0,-0.001,0,0
17924000,0.0,-0.0,1.6143458,0.0,0.6915433,0.0,0.0,0.72233504,0.0,0.0,-0.001,0,0
17972000,0.0,-0.0,1.6143287,0.0,0.6915495,0.0,0.0,0.7223291,0.0,0.0,-0.001,0,0
18020000,0.0,-0.0,1.6143837,0.0,0.69152963,0.0,0.0,0.72234815,0.0,0.0,-0.001,0,0
18076000,0.0,-0.0,1.6143239,0.0,0.6915512,0.0,0.0,0.7223275,0.0,0.0,-0.001,0,0
18124000,0.0,-0.0,1.6141534,0.0,0.6916128,0.0,0.0,0.72226846,0.0,0.0,-0.001,0,0
18172000,0.0,-0.0,1.6140451,0.0,0.6916519,0.0,0.0,0.72223103,0.0,0.0,-0.001,0,0
18228000,0.0,-0.0,1.613921,0.0,0.6916967,0.0,0.0,0.7221881,0.0,0.0,-0.001,0,0
18276000,0.0,-0.0,1.6137922,0.0,0.69174325,0.0,0.0,0.72214353,0.0,0.0,-0.001,0,0
18324000,0.0,-0.0,1.6137167,0.0,0.6917705,0.0,0.0,0.72211754,0.0,0.0,-0.001,0,0
18372000,0.0,-0.0,1.6136844,0.0,0.6917821,0.0,0.0,0.7221064,0.0,0.0,-0.001,0,0
18420000,0.0,-0.0,1.6136616,0.0,0.69179034,0.0,0.0,0.72209847,0.0,0.0,-0.001,0,0
18476000,0.0,-0.0,1.6135702,0.0,0.69182336,0.0,0.0,0.7220668,0.0,0.0,-0.001,0,0
18524000,0.0,-0.0,1.6134624,0.0,0.6918623,0.0,0.0,0.7220295,0.0,0.0,-0.001,0,0
18580000,0.0,-0.0,1.6133692,0.0,0.6918959,0.0,0.0,0.72199726,0.0,0.0,-0.001,0,0
18628000,0.0,-0.0,1.6132827,0.0,0.6919272,0.0,0.0,0.7219673,0.0,0.0,-0.001,0,0
18676000,0.0,-0.0,1.613178,0.0,0.6919649,0.0,0.0,0.7219311,0.0,0.0,-0.001,0,0
18724000,0.0,-0.0,1.6130644,0.0,0.69200593,0.0,0.0,0.7218919,0.0,0.0,-0.001,0,0
18772000,0.0,-0.0,1.6130035,0.0,0.692028,0.0,0.0,0.7218708,0.0,0.0,-0.001,0,0
18828000,0.0,-0.0,1.6127896,0.0,0.6921051,0.0,0.0,0.7217968,0.0,0.0,-0.001,0,0
18876000,0.0,-0.0,1.612618,0.0,0.6921671,0.0,0.0,0.72173727,0.0,0.0,-0.001,0,0
18924000,0.0,-0.0,1.6124327,0.0,0.6922339,0.0,0.0,0.72167325,0.0,0.0,-0.001,0,0
18972000,0.0,-0.0,1.6123296,0.0,0.6922712,0.0,0.0,0.7216374,0.0,0.0,-0.001,0,0
19020000,0.0,-0.0,1.6121571,0.0,0.6923334,0.0,0.0,0.72157776,0.0,0.0,-0.001,0,0
19076000,0.0,-0.0,1.6120976,0.0,0.69235486,0.0,0.0,0.7215572,0.0,0.0,-0.001,0,0
19124000,0.0,-0.0,1.6120532,0.0,0.6923709,0.0,0.0,0.72154176,0.0,0.0,-0.001,0,0
19172000,0.0,-0.0,1.6121062,0.0,0.69235176,0.0,0.0,0.7215601,0.0,0.0,-0.001,0,0
19228000,0.0,-0.0,1.6121182,0.0,0.6923474,0.0,0.0,0.72156435,0.0,0.0,-0.001,0,0
19276000,0.0,-0.0,1.6120987,0.0,0.69235444,0.0,0.0,0.72155756,0.0,0.0,-0.001,0,0
19324000,0.0,-0.0,1.6119939,0.0,0.6923923,0.0,0.0,0.72152126,0.0,0.0,-0.001,0,0
19372000,0.0,-0.0,1.6118675,0.0,0.6924378,0.0,0.0,0.72147757,0.0,0.0,-0.001,0,0
19420000,0.0,-0.0,1.611707,0.0,0.69249576,0.0,0.0,0.7214219,0.0,0.0,-0.001,0,0
19476000,0.0,-0.0,1.6115514,0.0,0.69255185,0.0,0.0,0.7213681,0.0,0.0,-0.001,0,0
19524000,0.0,-0.0,1.6114281,0.0,0.6925963,0.0,0.0,0.72132546,0.0,0.0,-0.001,0,0
19572000,0.0041549928,0.000987466,1.6113025,0.0,0.6926408,0.0010828394,0.0018404385,0.72127956,0.0,0.0,-0.017567735,0,0
19620000,0.003738556,0.0008973146,1.6112595,0.0,0.6926565,0.00097116677,0.0016590127,0.721265,0.0,0.0,-0.02398157,0,0
19676000,0.0039405976,0.0005714416,1.6111411,0.0,0.6926989,0.001158756,0.001618948,0.72122425,0.0,0.0,-0.03206788,0,0
19724000,0.004412361,0.00074717554,1.6110781,0.0,0.6927214,0.0012588371,0.001849897,0.7212018,0.0,0.0,-0.03957189,0,0
19780000,0.004344843,0.00074396544,1.611054,0.0,0.6927302,0.0012366313,0.0018244233,0.72119343,0.0,0.0,-0.048781335,0,0
19820000,0.0043911356,0.00051796174,1.6110792,0.0,0.6927209,0.0013341397,0.0017628537,0.7212025,0.0,0.0,-0.05589766,0,0
19876000,0.004553352,0.0007781317,1.6110622,0.0,0.6927271,0.0012965235,0.0019114503,0.7211962,0.0,0.0,-0.06632676,0,0
19924000,0.0048918645,0.00062322745,1.6110725,0.0,0.69272304,0.0014696197,0.0019798717,0.7211995,0.0,0.0,-0.075736135,0,0
19972000,0.005255174,0.0011623631,1.6110162,0.0,0.6927435,0.0014011086,0.002297577,0.7211791,0.0,0.0,-0.085440025,0,0
20028000,-0.00374864,0.0090834135,1.6109678,0.0,0.69274783,-0.0045737512,0.0017946266,0.7211632,0.0,0.0,-0.10024987,0,0
20076000,-0.01184466,0.016656559,1.6109077,0.0,0.69271225,-0.010108453,0.0014988453,0.72114176,0.0,0.0,-0.115807906,0,0
20124000,-0.017127601,0.022423804,1.610847,0.0,0.6926677,-0.014017313,0.0015921242,0.7211188,0.0,0.0,-0.1318532,0,0
20172000,-0.02234682,0.02749603,1.6107962,0.0,0.6926047,-0.017653167,0.0014677751,0.72109985,0.0,0.0,-0.14863765,0,0
20220000,-0.027212292,0.032075427,1.6107626,0.0,0.69252574,-0.020988477,0.0013002495,0.7210866,0.0,0.0,-0.16611676,0,0
20276000,-0.033264108,0.038065653,1.6107928,0.0,0.6923759,-0.02524244,0.001193068,0.72109437,0.0,0.0,-0.18695176,0,0
20324000,-0.03871937,0.043537725,1.6108755,0.0,0.69219786,-0.029102376,0.001120607,0.72111994,0.0,0.0,-0.20541237,0,0
20372000,-0.044362977,0.048771814,1.6108946,0.0,0.6920224,-0.032940853,0.0008985492,0.7211236,0.0,0.0,-0.22453755,0,0
20428000,-0.04755866,0.05127739,1.6108214,0.0,0.6919521,-0.03494892,0.00061552034,0.7210967,0.0,0.0,-0.24681927,0,0
20476000,-0.051476106,0.054547936,1.61071,0.0,0.69186217,-0.03748182,0.00033815496,0.72105604,0.0,0.0,-0.2665967,0,0
20524000,-0.055828996,0.058652483,1.6106218,0.0,0.69172925,-0.04046507,0.0001925738,0.72102237,0.0,0.0,-0.28697398,0,0
20572000,-0.061006304,0.06319959,1.6105748,0.0,0.69154114,-0.043891933,-9.749822e-05,0.72100234,0.0,0.0,-0.30767626,0,0
20620000,-0.066161536,0.06801792,1.6105137,0.0,0.6913356,-0.047407713,-0.0002851185,0.7209768,0.0,0.0,-0.32916445,0,0
20676000,-0.072350405,0.07411418,1.6104697,0.0,0.6910471,-0.051738966,-0.00040275409,0.7209556,0.0,0.0,-0.3549771,0,0
20724000,-0.07841323,0.07986096,1.6104801,0.0,0.6907256,-0.055899143,-0.00059734297,0.7209528,0.0,0.0,-0.3776948,0,0
20772000,-0.084472276,0.08549871,1.6105007,0.0,0.69037926,-0.060016874,-0.0008286511,0.7209534,0.0,0.0,-0.40111834,0,0
20820000,-0.08477657,0.08573661,1.6104742,0.0,0.69037247,-0.0602074,-0.0008551161,0.7209439,0.0,0.0,-0.42388755,0,0
20876000,-0.08688663,0.08717118,1.6104599,0.0,0.6902698,-0.061450988,-0.0011182189,0.72093695,0.0,0.0,-0.43688896,0,0
20924000,-0.090194695,0.09000424,1.610397,0.0,0.6901005,-0.06360998,-0.0013270116,0.72091144,0.0,0.0,-0.44685328,0,0
20972000,-0.09417101,0.09380736,1.610366,0.0,0.6898589,-0.066347055,-0.001441434,0.7208957,0.0,0.0,-0.45813423,0,0
21020000,-0.09902833,0.098424,1.6102768,0.0,0.6895689,-0.0696788,-0.0015893542,0.72085863,0.0,0.0,-0.46911356,0,0
21076000,-0.10485886,0.10398389,1.6101744,0.0,0.68919754,-0.07368257,-0.001760341,0.7208151,0.0,0.0,-0.4829338,0,0
21124000,-0.11048834,0.10922109,1.6103128,0.0,0.6887369,-0.07749889,-0.0019795718,0.7208547,0.0,0.0,-0.494579,0,0
21172000,-0.11623231,0.115060404,1.6104057,0.0,0.68824273,-0.08156796,-0.0020300515,0.7208776,0.0,0.0,-0.5067007,0,0
21220000,-0.1149027,0.11307311,1.6103905,0.0,0.6883825,-0.08039862,-0.002238846,0.72087485,0.0,0.0,-0.5161492,0,0
21276000,-0.1140718,0.11216041,1.6103691,0.0,0.6884601,-0.079785705,-0.0022547836,0.7208688,0.0,0.0,-0.5288408,0,0
21324000,-0.115856744,0.113720156,1.6101955,0.0,0.6883882,-0.08095897,-0.002350607,0.72080636,0.0,0.0,-0.5393137,0,0
21372000,-0.11867817,0.11615897,1.6100857,0.0,0.6882124,-0.08280333,-0.0025177004,0.7207641,0.0,0.0,-0.5505073,0,0
21420000,-0.12194482,0.11921858,1.610032,0.0,0.6879663,-0.08502239,-0.0026322226,0.7207404,0.0,0.0,-0.5616536,0,0
21476000,-0.12644865,0.12337342,1.6099635,0.0,0.6876162,-0.088057734,-0.0028121674,0.7207093,0.0,0.0,-0.57616055,0,0
21524000,-0.13093203,0.127472,1.609883,0.0,0.68726087,-0.09106434,-0.0030034606,0.72067386,0.0,0.0,-0.5879141,0,0
21572000,-0.1355387,0.13077736,1.6097927,0.0,0.68692756,-0.09382828,-0.0035134223,0.7206348,0.0,0.0,-0.5971189,0,0
21620000,-0.13313395,0.12400934,1.6097832,0.0,0.6873542,-0.09058352,-0.0049926527,0.72063434,0.0,0.0,-0.60135156,0,0
21676000,-0.13119033,0.1179747,1.610641,0.0,0.68740124,-0.08775493,-0.006421841,0.7209282,0.0,0.0,-0.6070105,0,0
21724000,-0.13137831,0.115651764,1.6127418,0.0,0.6867371,-0.086980656,-0.0073858337,0.7216453,0.0,0.0,-0.6115416,0,0
21772000,-0.13271903,0.11451918,1.6162813,0.0,0.68545,-0.08702057,-0.008415596,0.7228519,0.0,0.0,-0.617574,0,0
21820000,-0.13419585,0.11359954,1.621261,0.0,0.68362397,-0.087173395,-0.009484139,0.72454745,0.0,0.0,-0.6235534,0,0
21876000,-0.13598818,0.114294894,1.6288328,0.0,0.68076694,-0.087997966,-0.010227073,0.7271232,0.0,0.0,-0.632799,0,0
21924000,-0.13755117,0.11514489,1.6364186,0.0,0.67789733,-0.0887962,-0.010840467,0.72969365,0.0,0.0,-0.6397448,0,0
21980000,-0.13893315,0.116343595,1.6462294,0.0,0.6741943,-0.089643925,-0.011374783,0.73300517,0.0,0.0,-0.64797646,0,0
22020000,-0.1318921,0.10865985,1.6536607,0.0,0.6721093,-0.084430024,-0.011720828,0.73552924,0.0,0.0,-0.6509362,0,0
22076000,-0.12492871,0.101740584,1.6642469,0.0,0.668778,-0.07949805,-0.01192429,0.7391034,0.0,0.0,-0.6597746,0,0
22124000,-0.12177714,0.09839431,1.6733289,0.0,0.6656707,-0.07715954,-0.012236912,0.74214506,0.0,0.0,-0.66695887,0,0
22172000,-0.11371021,0.0877935,1.6815846,0.0,0.66329557,-0.07050546,-0.013086348,0.7449139,0.0,0.0,-0.67618394,0,0
22220000,-0.09307426,0.06305146,1.6877257,0.0,0.66243637,-0.05442831,-0.013818192,0.7470105,0.0,0.0,-0.68761104,0,0
22276000,-0.06069322,0.024355521,1.6911517,0.0,0.66266936,-0.029233184,-0.01463122,0.7481982,0.0,0.0,-0.708151,0,0
22324000,-0.038000215,-0.0021616283,1.6930755,0.0,0.6624757,-0.011778958,-0.01494604,0.74884164,0.0,0.0,-0.7228728,0,0
22372000,-0.018126927,-0.02505944,1.6956335,0.0,0.6616278,0.0033985933,-0.0150848795,0.74967295,0.0,0.0,-0.73487693,0,0
22420000,0.0029882148,-0.04974417,1.6984107,0.0,0.660347,0.019657586,-0.015306926,0.7505473,0.0,0.0,-0.7419865,0,0
22476000,0.022168407,-0.071850345,1.7009964,0.0,0.65884346,0.03430059,-0.015364566,0.7513407,0.0,0.0,-0.749984,0,0
22524000,0.03358259,-0.08429902,1.7020643,0.0,0.657997,0.042739544,-0.015158529,0.7516538,0.0,0.0,-0.7515492,0,0
22572000,0.04113623,-0.09215235,1.7017981,0.0,0.65775615,0.048169233,-0.014914079,0.75154126,0.0,0.0,-0.7776137,0,0
22620000,0.047471523,-0.09748659,1.7002443,0.0,0.6580531,0.05224195,-0.014332218,0.7510204,0.0,0.0,-0.7725147,0,0
22676000,0.051744424,-0.10070931,1.6974354,0.0,0.65891016,0.05483577,-0.013867914,0.75009215,0.0,0.0,-0.76639867,0,0
22724000,0.05471454,-0.10279856,1.6948752,0.0,0.65973115,0.05657863,-0.013516776,0.7492469,0.0,0.0,-0.75968707,0,0
22772000,0.056966607,-0.10517026,1.6923602,0.0,0.6605426,0.05819067,-0.013531138,0.7484078,0.0,0.0,-0.75526494,0,0
22820000,0.063041985,-0.112953715,1.6900313,0.0,0.66100156,0.063084505,-0.013910633,0.74759865,0.0,0.0,-0.7495507,0,0
22876000,0.06958892,-0.12138384,1.6876302,0.0,0.6614153,0.068370536,-0.014342964,0.7467594,0.0,0.0,-0.7486347,0,0
22924000,0.073959604,-0.12680511,1.6857716,0.0,0.6617716,0.0718182,-0.014579238,0.7461152,0.0,0.0,-0.74440795,0,0
22972000,0.07724629,-0.131095,1.6841435,0.0,0.6621062,0.07448684,-0.014840736,0.74555135,0.0,0.0,-0.7430762,0,0
23028000,0.079638444,-0.13394417,1.6823099,0.0,0.6625949,0.07632213,-0.014967602,0.7449288,0.0,0.0,-0.73820883,0,0
23076000,0.08053706,-0.13521731,1.6807894,0.0,0.66307914,0.077080265,-0.01511582,0.7444167,0.0,0.0,-0.7413319,0,0
23124000,0.08063741,-0.13508758,1.679264,0.0,0.6636477,0.077054,-0.015093969,0.743913,0.0,0.0,-0.7386043,0,0
23172000,0.0804531,-0.13365683,1.677787,0.0,0.6642574,0.07645235,-0.014741341,0.7434378,0.0,0.0,-0.7378459,0,0
23220000,0.08224452,-0.13529862,1.6763014,0.0,0.6646789,0.077643685,-0.014681681,0.74293876,0.0,0.0,-0.733785,0,0
23276000,0.08443001,-0.13681556,1.6746536,0.0,0.6651473,0.07891869,-0.014442138,0.7423896,0.0,0.0,-0.73520964,0,0
23324000,0.08483004,-0.13727883,1.6732882,0.0,0.6656202,0.0792129,-0.014502795,0.74193305,0.0,0.0,-0.73191863,0,0
23372000,0.08490841,-0.13684478,1.6720589,0.0,0.66608983,0.079069994,-0.014376932,0.74152917,0.0,0.0,-0.73187596,0,0
23420000,0.08411744,-0.1359825,1.6709045,0.0,0.66658205,0.0784802,-0.014426463,0.7411484,0.0,0.0,-0.72904664,0,0
23476000,0.08291751,-0.13410331,1.6696028,0.0,0.66718256,0.07737812,-0.014291203,0.7407266,0.0,0.0,-0.73135537,0,0
23524000,0.08144871,-0.13185565,1.6685306,0.0,0.66772014,0.07605219,-0.014121544,0.7403826,0.0,0.0,-0.72864985,0,0
23572000,0.07989492,-0.12940127,1.667487,0.0,0.66825527,0.07462186,-0.013911384,0.74004924,0.0,0.0,-0.7287974,0,0
23628000,0.07743172,-0.12596333,1.6663225,0.0,0.6689003,0.07252439,-0.013709794,0.73967874,0.0,0.0,-0.72231627,0,0
23676000,0.07522996,-0.12367866,1.665342,0.0,0.6694219,0.070939876,-0.013790656,0.73935896,0.0,0.0,-0.7268491,0,0
23724000,0.07361506,-0.12100131,1.6644871,0.0,0.6698863,0.06940784,-0.013516588,0.73908883,0.0,0.0,-0.7234968,0,0
23772000,0.07140625,-0.1184396,1.6636158,0.0,0.6703698,0.06771912,-0.0135001065,0.73880726,0.0,0.0,-0.72406405,0,0
23828000,0.06914732,-0.11561476,1.6626694,0.0,0.670887,0.06591592,-0.013414509,0.7385024,0.0,0.0,-0.7191353,0,0
23876000,0.06724048,-0.113276534,1.6619196,0.0,0.6713004,0.064410895,-0.013354975,0.73826057,0.0,0.0,-0.7243713,0,0
23924000,0.06605679,-0.11059635,1.6610397,0.0,0.67174625,0.06302189,-0.012916271,0.7379826,0.0,0.0,-0.7173896,0,0
23972000,0.064580075,-0.10855044,1.6601185,0.0,0.6721946,0.061767507,-0.012799695,0.7376824,0.0,0.0,-0.7111658,0,0
24028000,0.05840529,-0.10235905,1.6591088,0.0,0.67293113,0.057408154,-0.013017336,0.73735917,0.0,0.0,-0.70133275,0,0
24076000,0.054026682,-0.0980941,1.6583065,0.0,0.67346543,0.054360986,-0.013213761,0.73709875,0.0,0.0,-0.6990701,0,0
24124000,0.050745726,-0.09467228,1.6575392,0.0,0.673924,0.05199274,-0.013287336,0.73684907,0.0,0.0,-0.69323814,0,0
24172000,0.048434064,-0.09165863,1.6567918,0.0,0.67433333,0.050100863,-0.013139584,0.7366083,0.0,0.0,-0.68785346,0,0
24220000,0.046736125,-0.08973717,1.6560882,0.0,0.67468065,0.048817422,-0.013132702,0.7363766,0.0,0.0,-0.6827813,0,0
24276000,0.04554272,-0.08837579,1.6552851,0.0,0.6750372,0.04790926,-0.013131038,0.7361094,0.0,0.0,-0.67924744,0,0
24324000,0.044964258,-0.08737665,1.6545984,0.0,0.6753269,0.04734248,-0.013022232,0.7358822,0.0,0.0,-0.6778228,0,0
24380000,0.044716775,-0.08695475,1.6537324,0.0,0.67566097,0.047098335,-0.01299092,0.73559177,0.0,0.0,-0.6794074,0,0
24420000,0.037478317,-0.079616755,1.6530588,0.0,0.6762287,0.04195328,-0.013183132,0.7353781,0.0,0.0,-0.68023455,0,0
24476000,0.030396743,-0.07178844,1.652079,0.0,0.6768772,0.036676932,-0.013153802,0.73506397,0.0,0.0,-0.68328094,0,0
24524000,0.025752788,-0.06721077,1.6513383,0.0,0.67730826,0.03341918,-0.013321903,0.7348191,0.0,0.0,-0.68262684,0,0
24572000,0.023011696,-0.06428572,1.6506184,0.0,0.67766285,0.031412136,-0.013348807,0.73458034,0.0,0.0,-0.68226326,0,0
24620000,0.021606565,-0.062359806,1.6498791,0.0,0.6779846,0.030224217,-0.01322299,0.7343354,0.0,0.0,-0.6812603,0,0
24676000,0.021268187,-0.061091274,1.649015,0.0,0.6783251,0.029638445,-0.0129297,0.73405004,0.0,0.0,-0.68291837,0,0
24724000,0.021969995,-0.06135334,1.6482776,0.0,0.6785815,0.029967891,-0.012772112,0.7338024,0.0,0.0,-0.681819,0,0
24780000,0.023595832,-0.061991572,1.6473395,0.0,0.6788916,0.030747704,-0.01240672,0.7334895,0.0,0.0,-0.6797624,0,0
24820000,0.015125975,-0.052397225,1.6467813,0.0,0.67934024,0.024351789,-0.012260499,0.73331684,0.0,0.0,-0.6792956,0,0
24876000,0.0068161343,-0.042852044,1.6460912,0.0,0.6797777,0.01802562,-0.012070024,0.7330974,0.0,0.0,-0.680173,0,0
24924000,0.002939872,-0.038162597,1.6455492,0.0,0.68004483,0.014986066,-0.011900786,0.73292077,0.0,0.0,-0.6791377,0,0
24972000,0.0007066379,-0.03507286,1.645086,0.0,0.68025047,0.013091756,-0.011671567,0.7327699,0.0,0.0,-0.6770963,0,0
25020000,9.540279e-05,-0.033860546,1.6445924,0.0,0.68044245,0.012436853,-0.01148624,0.73260593,0.0,0.0,-0.6758028,0,0
25076000,0.0015266772,-0.034328345,1.6439127,0.0,0.6806795,0.013091371,-0.011125564,0.73237985,0.0,0.0,-0.67622155,0,0
25124000,0.0047630034,-0.036276095,1.5953104,0.0,0.6982391,0.014643959,-0.010962434,0.7156309,0.0,0.0,-0.67458695,0,0
25172000,0.0069686105,-0.03878153,1.5964874,0.0,0.6977817,0.016316844,-0.0110384105,0.7160396,0.0,0.0,-0.6716571,0,0
25220000,-0.0029478497,-0.02932261,1.5979176,0.0,0.697393,0.009478464,-0.011281343,0.7165375,0.0,0.0,-0.67174846,0,0
25276000,-0.013045471,-0.019139025,1.5995493,0.0,0.6968664,0.0023177469,-0.0113463,0.71710753,0.0,0.0,-0.67005366,0,0
25324000,-0.017436888,-0.014488253,1.600791,0.0,0.69642353,-0.0008731172,-0.011301128,0.71754146,0.0,0.0,-0.6645605,0,0
25372000,-0.019687027,-0.012197832,1.6018655,0.0,0.6960337,-0.0024723986,-0.011312293,0.7179158,0.0,0.0,-0.6545156,0,0
25420000,-0.019662559,-0.01149879,1.603348,0.0,0.6955004,-0.0027066392,-0.011062271,0.71843547,0.0,0.0,-0.64790773,0,0
25476000,-0.017390039,-0.01250826,1.6047804,0.0,0.6949893,-0.0015461167,-0.010598051,0.7189403,0.0,0.0,-0.6345955,0,0
25524000,-0.014495597,-0.015393045,1.6057242,0.0,0.694652,0.0005017762,-0.0105596855,0.7192683,0.0,0.0,-0.63606334,0,0
25572000,-0.010806276,-0.018843757,1.6067141,0.0,0.6942903,0.003029456,-0.010429765,0.71961313,0.0,0.0,-0.6470813,0,0
25620000,-0.027132703,-0.0024859598,1.607661,0.0,0.69390154,-0.008519237,-0.010630222,0.719941,0.0,0.0,-0.6628139,0,0
25676000,-0.0434695,0.014661179,1.6087717,0.0,0.6932566,-0.020352323,-0.010573254,0.72032577,0.0,0.0,-0.68161184,0,0
25724000,-0.050948933,0.022968827,1.6098273,0.0,0.69269204,-0.025929911,-0.01040012,0.72069216,0.0,0.0,-0.6943022,0,0
25772000,-0.05494589,0.027765375,1.6110831,0.0,0.6921176,-0.02903503,-0.01019636,0.7211285,0.0,0.0,-0.7055051,0,0
25828000,-0.055906132,0.02997588,1.6122463,0.0,0.69165075,-0.030158043,-0.009794554,0.72153574,0.0,0.0,-0.7137745,0,0
25876000,-0.053233955,0.028932374,1.6129352,0.0,0.6914572,-0.028854558,-0.009201641,0.72178227,0.0,0.0,-0.72165066,0,0
25924000,-0.048861016,0.025565753,1.6136224,0.0,0.6913161,-0.026125392,-0.008797334,0.72202635,0.0,0.0,-0.72533566,0,0
25972000,-0.043227147,0.021471512,1.6144336,0.0,0.6911426,-0.022697192,-0.00818876,0.72231543,0.0,0.0,-0.7300009,0,0
26028000,-0.066614136,0.04472347,1.6157408,0.0,0.68994516,-0.039159615,-0.00862147,0.7227502,0.0,0.0,-0.73847973,0,0
26076000,-0.081802696,0.060582038,1.6172168,0.0,0.6887159,-0.050110433,-0.008667801,0.7232457,0.0,0.0,-0.74397004,0,0
26124000,-0.09073193,0.07002186,1.6176697,-0.0012647083,0.68806046,-0.056586698,-0.00865045,0.72339195,0.0,0.0,-0.74261165,0,0
26180000,-0.09569289,0.075930834,1.6176697,-0.0014521653,0.6877415,-0.060423337,-0.008405128,0.7233879,0.0,0.0,-0.73791,0,0
26220000,-0.09562357,0.07668704,1.6176697,-0.0012005334,0.6877206,-0.06067206,-0.008119026,0.7233902,0.0,0.0,-0.73336047,0,0
26276000,-0.09282462,0.07564313,1.6176697,-0.0005907765,0.68783605,-0.059333246,-0.0074669984,0.7233985,0.0,0.0,-0.72754633,0,0
26324000,-0.089009926,0.072538845,1.6176697,-0.00048840645,0.6880376,-0.05690189,-0.00715878,0.72340524,0.0,0.0,-0.7222177,0,0
26372000,-0.083850674,0.06797981,1.6176697,-0.00056079886,0.68830633,-0.053482413,-0.0068663564,0.72341335,0.0,0.0,-0.71746814,0,0
26428000,-0.09889773,0.081352405,1.6176697,-0.00046362338,0.6874735,-0.06347897,-0.007692845,0.7233889,0.0,0.0,-0.726639,0,0
26476000,-0.10813841,0.089050226,1.6176697,-0.00022814675,0.6869095,-0.06942655,-0.008377867,0.7233707,0.0,0.0,-0.7358872,0,0
26524000,-0.1122395,0.092801526,1.6176697,-0.00018861338,0.6866309,-0.07218511,-0.008566233,0.723363,0.0,0.0,-0.7381011,0,0
26572000,-0.11377245,0.09395344,1.6176697,-0.00021656994,0.6865332,-0.073125884,-0.008723035,0.7233593,0.0,0.0,-0.73632956,0,0
26620000,-0.11262877,0.092975125,1.6176697,-0.00017904259,0.6866106,-0.07238122,-0.008647097,0.7233616,0.0,0.0,-0.7319445,0,0
26676000,-0.1094867,0.09011137,1.6176697,-8.810596e-05,0.6868252,-0.07027161,-0.008499224,0.72336763,0.0,0.0,-0.72613823,0,0
26724000,-0.10547932,0.08625952,1.6176697,-7.283892e-05,0.68709654,-0.067508295,-0.008379451,0.7233745,0.0,0.0,-0.72041494,0,0
26772000,-0.10116621,0.08266941,1.6176697,-8.363522e-05,0.6873584,-0.06473315,-0.008058724,0.72338307,0.0,0.0,-0.7151564,0,0
26820000,-0.10585524,0.084118165,1.6176697,-6.9142865e-05,0.6871562,-0.06686627,-0.009254586,0.72336686,0.0,0.0,-0.7229062,0,0
26876000,-0.109361306,0.08456999,1.6176697,-3.402486e-05,0.68702245,-0.068233475,-0.0103667,0.7233512,0.0,0.0,-0.73517555,0,0
26924000,-0.10928396,0.082378745,1.6176697,-2.8129012e-05,0.6870998,-0.06741783,-0.0110950945,0.7233433,0.0,0.0,-0.73795503,0,0
26972000,-0.10766258,0.0798008,1.6176697,-3.229834e-05,0.6872404,-0.065932296,-0.011398533,0.72334194,0.0,0.0,-0.7358149,0,0
27020000,-0.10516524,0.07676896,1.6176697,-2.670167e-05,0.68742067,-0.063981876,-0.011541818,0.7233436,0.0,0.0,-0.7315514,0,0
27076000,-0.10141433,0.07270181,1.6176697,-1.3139756e-05,0.68766636,-0.061226845,-0.0115890615,0.7233478,0.0,0.0,-0.72572154,0,0
27124000,-0.09773129,0.06932062,1.6176697,-1.0862894e-05,0.687879,-0.058741532,-0.01142407,0.7233542,0.0,0.0,-0.71957415,0,0
27172000,-0.09454694,0.065845184,1.6176697,-1.2473008e-05,0.68807155,-0.056393057,-0.011471953,0.72335726,0.0,0.0,-0.7135761,0,0
27220000,-0.09065266,0.05912573,1.6176697,-1.0311679e-05,0.68836254,-0.05262944,-0.01238274,0.72334903,0.0,0.0,-0.72121906,0,0
27276000,-0.08626573,0.052089922,1.6176697,-5.0743256e-06,0.68865347,-0.048580535,-0.013224483,0.72334045,0.0,0.0,-0.7349718,0,0
27324000,-0.08196417,0.047331065,1.6176697,-4.1950443e-06,0.6888677,-0.045381464,-0.013311194,0.72334266,0.0,0.0,-0.7385571,0,0
27372000,-0.07865591,0.043157283,1.6176697,-4.8168404e-06,0.6890337,-0.042734925,-0.0135552,0.7233412,0.0,0.0,-0.73680955,0,0
27420000,-0.07584436,0.03929173,1.6176697,-3.982176e-06,0.6891736,-0.040370267,-0.013872456,0.7233378,0.0,0.0,-0.73273027,0,0
27476000,-0.072690114,0.035871226,1.6176697,-1.9596089e-06,0.6893035,-0.038047805,-0.013912162,0.72333914,0.0,0.0,-0.7272874,0,0
27524000,-0.070646465,0.03356019,1.6176697,-1.6200471e-06,0.6893854,-0.03650858,-0.013970623,0.72333926,0.0,0.0,-0.7213446,0,0
27572000,-0.069132514,0.031989843,1.6176697,-1.8601728e-06,0.6894413,-0.035419382,-0.013965033,0.7233403,0.0,0.0,-0.71516955,0,0
27620000,-0.059565943,0.023082042,1.6176697,-1.5378412e-06,0.68974113,-0.028901873,-0.013579324,0.72335154,0.0,0.0,-0.722618,0,0
27676000,-0.050375275,0.013273277,1.6176697,-7.56764e-07,0.68998677,-0.022185799,-0.01364044,0.7233533,0.0,0.0,-0.7362631,0,0
27724000,-0.044769306,0.0075965724,1.6176697,-6.256316e-07,0.6901024,-0.018198963,-0.013572002,0.72335553,0.0,0.0,-0.74019027,0,0
27772000,-0.041202243,0.0040030642,1.6176697,-7.183637e-07,0.69016415,-0.015668549,-0.0135220345,0.7233569,0.0,0.0,-0.73849696,0,0
27820000,-0.038792986,0.0018471235,1.6176697,-5.938854e-07,0.6901988,-0.014057422,-0.0133947,0.72335935,0.0,0.0,-0.7345981,0,0
27876000,-0.037697267,0.0009454854,1.6176697,-2.92248e-07,0.6902127,-0.013353189,-0.013309566,0.7233609,0.0,0.0,-0.72946703,0,0
27924000,-0.037863065,0.0009413294,1.6176697,-2.4160713e-07,0.69021165,-0.013408904,-0.013370967,0.7233597,0.0,0.0,-0.72366065,0,0
27980000,-0.03868278,0.0023223755,1.6176697,-2.774185e-07,0.69019604,-0.014191272,-0.0131908255,0.72336304,0.0,0.0,-0.7160252,0,0
28028000,-0.024421103,-0.01177317,1.6176697,-2.2934731e-07,0.69033045,-0.004170595,-0.012897187,0.7233672,0.0,0.0,-0.7264416,0,0
28076000,-0.015150584,-0.020548591,1.6176697,-1.1286066e-07,0.69034195,0.0022037223,-0.012572705,0.7233706,0.0,0.0,-0.73773795,0,0
28124000,-0.009487348,-0.025611497,1.6176697,-9.3304116e-08,0.69032145,0.0059899115,-0.012271678,0.72337395,0.0,0.0,-0.74118173,0,0
28172000,-0.0066662813,-0.027993878,1.6176697,-1.0713379e-07,0.69030416,0.007825389,-0.012073535,0.7233763,0.0,0.0,-0.73891586,0,0
28220000,-0.0058482685,-0.028025461,1.6176697,-8.856961e-08,0.69030076,0.00811915,-0.0117885675,0.72338104,0.0,0.0,-0.73526996,0,0
28276000,-0.00777094,-0.025972994,1.6176697,-4.358466e-08,0.69031495,0.006713109,-0.011775631,0.723382,0.0,0.0,-0.7313118,0,0
28324000,-0.010353542,-0.023107683,1.6176697,-3.6032286e-08,0.6903298,0.0047852267,-0.011720858,0.72338414,0.0,0.0,-0.726705,0,0
28372000,-0.013530454,-0.019533355,1.6176697,-4.137305e-08,0.69034094,0.002395693,-0.011636343,0.72338676,0.0,0.0,-0.7204598,0,0
28428000,0.0010772456,-0.033952575,1.6176697,-3.4203907e-08,0.6902357,0.012653249,-0.0113292495,0.7233853,0.0,0.0,-0.7298696,0,0
28476000,0.009661799,-0.04273922,1.6176697,-1.6831573e-08,0.6901015,0.018793397,-0.011256779,0.723381,0.0,0.0,-0.74091303,0,0
28524000,0.013615518,-0.04686101,1.6176697,-1.3914989e-08,0.69002104,0.02164799,-0.0112492945,0.72337806,0.0,0.0,-0.7441929,0,0
28572000,0.014629912,-0.047794577,1.6176697,-1.597749e-08,0.6899998,0.022335513,-0.011204598,0.72337806,0.0,0.0,-0.74174887,0,0
28620000,0.012847966,-0.046562552,1.6176697,-1.3208903e-08,0.69003236,0.021275258,-0.011423904,0.7233756,0.0,0.0,-0.73849136,0,0
28676000,0.008595254,-0.042082943,1.6176697,-6.5000347e-09,0.6901173,0.018188054,-0.0114160385,0.72337896,0.0,0.0,-0.7351181,0,0
28724000,0.0034572093,-0.036877517,1.6176697,-5.373706e-09,0.69020045,0.014532481,-0.0114779025,0.7233812,0.0,0.0,-0.73123485,0,0
28780000,-0.0035407462,-0.029431665,1.6176697,-6.1702052e-09,0.6902849,0.009424227,-0.0114392685,0.7233859,0.0,0.0,-0.7256551,0,0
28820000,0.010891688,-0.041538093,1.6176697,-5.1010294e-09,0.6901009,0.018783422,-0.01039739,0.72339463,0.0,0.0,-0.7330476,0,0
28876000,0.022644132,-0.051125478,1.6176697,-2.5101907e-09,0.6898627,0.02630439,-0.009455501,0.7234004,0.0,0.0,-0.7440821,0,0
28924000,0.026803428,-0.053730145,1.6176697,-2.0752238e-09,0.68977034,0.028680498,-0.00885006,0.72340584,0.0,0.0,-0.7467091,0,0
28980000,0.025900712,-0.052557692,1.6176697,-2.3828166e-09,0.6897994,0.027945364,-0.008771909,0.7234078,0.0,0.0,-0.7444945,0,0
29020000,0.02385153,-0.049236417,1.6176697,-1.9699211e-09,0.68987125,0.026037965,-0.008366782,0.7234153,0.0,0.0,-0.7422781,0,0
29076000,0.0174648,-0.042785343,1.6176697,-9.693882e-10,0.6900224,0.021502357,-0.008450347,0.72341913,0.0,0.0,-0.7390734,0,0
29124000,0.010483698,-0.035630725,1.6176697,-8.0141227e-10,0.69015527,0.016506335,-0.0085061,0.723423,0.0,0.0,-0.7358873,0,0
29172000,0.0025327802,-0.02771103,1.6176697,-9.2019875e-10,0.6902624,0.010898063,-0.008648604,0.72342545,0.0,0.0,-0.73181105,0,0
29220000,0.015550426,-0.03838144,1.6176697,-7.607463e-10,0.69008595,0.019249408,-0.0076228,0.7234312,0.0,0.0,-0.73627585,0,0
29276000,0.02715228,-0.047219954,1.6176697,-3.7435946e-10,0.689854,0.02644754,-0.0064768675,0.7234363,0.0,0.0,-0.743373,0,0
29324000,0.030666607,-0.049333762,1.6176697,-3.0949027e-10,0.68977714,0.028423754,-0.005935273,0.7234392,0.0,0.0,-0.7446054,0,0
29380000,0.029608903,-0.047654733,1.6176697,-3.5536343e-10,0.6898151,0.02745204,-0.005738328,0.7234422,0.0,0.0,-0.74284244,0,0
29420000,0.026444912,-0.044174332,1.6176697,-2.9378588e-10,0.6899019,0.025102522,-0.00568151,0.72344524,0.0,0.0,-0.74101645,0,0
29476000,0.01919968,-0.036304086,1.6176697,-1.4457056e-10,0.6900703,0.01975735,-0.0055857766,0.72345114,0.0,0.0,-0.7385549,0,0
29524000,0.010757058,-0.028257443,1.6176697,-1.1951931e-10,0.690208,0.01393404,-0.0058623133,0.7234531,0.0,0.0,-0.73644096,0,0
29572000,0.0013743809,-0.019693125,1.6176697,-1.3723463e-10,0.6903033,0.007598081,-0.0063002366,0.7234527,0.0,0.0,-0.7341485,0,0
29620000,0.013451729,-0.02951437,1.6176697,-1.13454565e-10,0.6901793,0.015318556,-0.0053214184,0.72345674,0.0,0.0,-0.7374431,0,0
29676000,0.024840105,-0.03789829,1.6176697,-5.5830427e-11,0.68999445,0.022279838,-0.004095739,0.72346014,0.0,0.0,-0.7421612,0,0
29724000,0.02746196,-0.039580494,1.6176697,-4.6156103e-11,0.68994504,0.023792546,-0.003727978,0.7234611,0.0,0.0,-0.7432059,0,0
29780000,0.02551921,-0.037474737,1.6176697,-5.299743e-11,0.68999153,0.022360984,-0.0037038897,0.72346246,0.0,0.0,-0.7420275,0,0
29828000,0.020617856,-0.03272919,1.6176697,-4.3814015e-11,0.6900907,0.018953959,-0.0038388544,0.7234644,0.0,0.0,-0.7403917,0,0
29876000,0.013419064,-0.025805766,1.6176697,-2.1560656e-11,0.6902062,0.013966002,-0.0040531587,0.72346663,0.0,0.0,-0.73910624,0,0
29924000,0.0042711142,-0.017585121,1.6176697,-1.7824615e-11,0.6903,0.007835381,-0.004524802,0.72346675,0.0,0.0,-0.7378755,0,0
29980000,-0.007120531,-0.0071820174,1.6176697,-2.0466608e-11,0.6903423,0.0001402335,-0.0050547733,0.7234653,0.0,0.0,-0.7361474,0,0
30020000,0.014768816,-0.025819518,1.6176697,-1.6920144e-11,0.6901966,0.014436776,-0.0035696535,0.7234691,0.0,0.0,-0.73403805,0,0
30076000,0.03663986,-0.045343503,1.6176697,-8.326319e-12,0.68974817,0.029041534,-0.002397276,0.7234627,0.0,0.0,-0.72733337,0,0
30124000,0.045481104,-0.053292252,1.6176697,-6.8835306e-12,0.6894801,0.03496259,-0.0019428503,0.7234577,0.0,0.0,-0.7217408,0,0
30172000,0.049024206,-0.056477636,1.6176697,-7.903818e-12,0.68935865,0.03733475,-0.0017607417,0.72345537,0.0,0.0,-0.7173684,0,0
30220000,0.048232254,-0.056015708,1.6176697,-6.534241e-12,0.6893819,0.036894903,-0.0018877636,0.7234554,0.0,0.0,-0.7138041,0,0
30276000,0.04406739,-0.051813517,1.6176697,-3.2154672e-12,0.6895298,0.033940915,-0.0019438058,0.723459,0.0,0.0,-0.7110418,0,0
30324000,0.03816902,-0.046223987,1.6176697,-2.6582896e-12,0.68971276,0.029887127,-0.002148053,0.7234628,0.0,0.0,-0.7095607,0,0
30372000,0.031099813,-0.039944354,1.6176697,-3.0523054e-12,0.68989605,0.025179008,-0.0025376466,0.723466,0.0,0.0,-0.7085877,0,0
30420000,0.043389924,-0.049381346,1.6176697,-2.5234003e-12,0.6895816,0.03282847,-0.0013493355,0.72346234,0.0,0.0,-0.7084667,0,0
30476000,0.05420678,-0.05801979,1.6176697,-1.2417527e-12,0.68922925,0.039677966,-0.00041838147,0.72345597,0.0,0.0,-0.70783615,0,0
30524000,0.05781714,-0.061428443,1.6176697,-1.0265812e-12,0.6890858,0.042153057,-0.00028902816,0.7234527,0.0,0.0,-0.7072407,0,0
30580000,0.057814434,-0.061900873,1.6176697,-1.1787427e-12,0.6890759,0.042322718,-0.00045308517,0.7234522,0.0,0.0,-0.7066462,0,0
30620000,0.055784505,-0.06031695,1.6176697,-9.744896e-13,0.6891511,0.0410513,-0.00064061617,0.7234536,0.0,0.0,-0.7066261,0,0
30676000,0.050094966,-0.055275958,1.6176697,-4.7954143e-13,0.68936104,0.03726972,-0.00095861807,0.723458,0.0,0.0,-0.70691323,0,0
30724000,0.043594614,-0.0501202,1.6176697,-3.9644625e-13,0.689566,0.03316604,-0.0015303291,0.72346133,0.0,0.0,-0.7073941,0,0
30772000,0.036082014,-0.043328837,1.6176697,-4.5520814e-13,0.6897848,0.028120933,-0.0019036541,0.72346556,0.0,0.0,-0.7080407,0,0
30820000,0.044602316,-0.05081758,1.6176697,-3.7632947e-13,0.6895375,0.033765465,-0.0014065326,0.7234611,0.0,0.0,-0.7080501,0,0
30876000,0.052148778,-0.05740219,1.6176697,-1.8518985e-13,0.6892817,0.03874564,-0.0009496338,0.7234561,0.0,0.0,-0.7069565,0,0
30924000,0.053233035,-0.05859718,1.6176697,-1.5310008e-13,0.6892371,0.039550945,-0.0009699164,0.7234549,0.0,0.0,-0.70623153,0,0
30972000,0.051763937,-0.057845492,1.6176697,-1.757928e-13,0.68928057,0.038773138,-0.0012418624,0.72345525,0.0,0.0,-0.70594287,0,0
31020000,0.047951266,-0.054944154,1.6176697,-1.4533135e-13,0.68940663,0.03641093,-0.0016195253,0.72345716,0.0,0.0,-0.7063791,0,0
31076000,0.041504428,-0.049435355,1.6176697,-7.151683e-14,0.6896114,0.032197874,-0.002050021,0.7234607,0.0,0.0,-0.7071148,0,0
31124000,0.03495099,-0.043643247,1.6176697,-5.9124363e-14,0.68979627,0.027844492,-0.0024213116,0.7234639,0.0,0.0,-0.70795316,0,0
31172000,0.02706368,-0.037054304,1.6176697,-6.788787e-14,0.68997884,0.022741796,-0.003000086,0.723466,0.0,0.0,-0.70882744,0,0
31228000,0.031465057,-0.03983144,1.6176697,-5.6124227e-14,0.6898929,0.025264177,-0.0023665489,0.72346663,0.0,0.0,-0.70820105,0,0
31276000,0.03577384,-0.0434602,1.6176697,-2.7618451e-14,0.6897873,0.028062131,-0.0020604748,0.723465,0.0,0.0,-0.7067871,0,0
31324000,0.036274463,-0.04386982,1.6176697,-2.2832713e-14,0.68977445,0.02838285,-0.0020207735,0.72346497,0.0,0.0,-0.7057793,0,0
31380000,0.0343504,-0.04245805,1.6176697,-2.6217013e-14,0.68982077,0.027208934,-0.0022294621,0.72346526,0.0,0.0,-0.7055474,0,0
31428000,0.030486291,-0.039212905,1.6176697,-2.1674118e-14,0.6899128,0.024702936,-0.0025070999,0.7234666,0.0,0.0,-0.70634913,0,0
31476000,0.02529514,-0.034654416,1.6176697,-1.0665725e-14,0.6900245,0.021263918,-0.002811453,0.72346807,0.0,0.0,-0.7076015,0,0
31524000,0.019064184,-0.02890788,1.6176697,-8.817564e-15,0.69013876,0.017035961,-0.0030818738,0.72347,0.0,0.0,-0.70859444,0,0
31580000,0.01064785,-0.022154571,1.6176697,-1.0124517e-14,0.69024706,0.011689039,-0.0037953332,0.72346944,0.0,0.0,-0.7096138,0,0
31620000,0.014990262,-0.026581218,1.6176697,-8.3701365e-15,0.6901895,0.014788678,-0.0037524633,0.7234679,0.0,0.0,-0.707433,0,0
31676000,0.017914314,-0.029642137,1.6176697,-4.1189027e-15,0.6901423,0.016904712,-0.003751265,0.7234665,0.0,0.0,-0.70425004,0,0
31724000,0.017123783,-0.029300721,1.6176697,-3.4051773e-15,0.69015175,0.016508449,-0.00391938,0.7234658,0.0,0.0,-0.703014,0,0
31772000,0.014524151,-0.027734507,1.6176697,-3.9098977e-15,0.6901844,0.0150449285,-0.0043191467,0.7234642,0.0,0.0,-0.7025305,0,0
31820000,0.010929489,-0.024800492,1.6176697,-3.232389e-15,0.6902295,0.012743239,-0.0046067345,0.7234638,0.0,0.0,-0.7034159,0,0
31876000,0.0051542167,-0.020424277,1.6176697,-1.5906422e-15,0.69028455,0.00916715,-0.0051853256,0.7234614,0.0,0.0,-0.7058288,0,0
31924000,-0.00063911837,-0.015369668,1.6176697,-1.315015e-15,0.69032323,0.005339195,-0.0055362987,0.7234602,0.0,0.0,-0.7075191,0,0
31972000,-0.0063823075,-0.010050326,1.6176697,-1.5099287e-15,0.69034123,0.001432632,-0.005777761,0.7234595,0.0,0.0,-0.70849997,0,0
32020000,-0.0036675718,-0.01222259,1.6176697,-1.2482876e-15,0.6903359,0.00315547,-0.0055455375,0.7234609,0.0,0.0,-0.70577997,0,0
32076000,-0.0014169638,-0.014320003,1.6176697,-6.14276e-16,0.6903277,0.004691013,-0.0054553663,0.7234611,0.0,0.0,-0.7020007,0,0
32124000,-0.0024733606,-0.01394688,1.6176697,-5.07834e-16,0.6903308,0.004191411,-0.0057087103,0.72345924,0.0,0.0,-0.7006003,0,0
32172000,-0.004459907,-0.012601892,1.6176697,-5.8310595e-16,0.69033664,0.0030191892,-0.005963068,0.7234574,0.0,0.0,-0.70037895,0,0
32228000,-0.008126401,-0.009474815,1.6176697,-4.820651e-16,0.69034237,0.00062243553,-0.0062100086,0.72345597,0.0,0.0,-0.70198005,0,0
32276000,-0.012254501,-0.0062654386,1.6176697,-2.372218e-16,0.6903394,-0.0019634266,-0.006595517,0.723453,0.0,0.0,-0.7045931,0,0
32324000,-0.016575133,-0.0025933366,1.6176697,-1.9611591e-16,0.6903254,-0.004783098,-0.006890955,0.7234504,0.0,0.0,-0.70676875,0,0
32372000,-0.021012545,0.0019330442,1.6176697,-2.251845e-16,0.6902961,-0.007952007,-0.0069337757,0.72345006,0.0,0.0,-0.7081663,0,0
32420000,-0.017750038,0.00012093312,1.6176697,-1.8616443e-16,0.6903143,-0.006170462,-0.0063791033,0.72345525,0.0,0.0,-0.7054012,0,0
32476000,-0.015152652,-0.0020999894,1.6176697,-9.161058e-17,0.6903274,-0.00447057,-0.0062061236,0.72345674,0.0,0.0,-0.7014807,0,0
32524000,-0.014981854,-0.0019275006,1.6176697,-7.573625e-17,0.6903274,-0.004474012,-0.0060848054,0.7234577,0.0,0.0,-0.6999469,0,0
32572000,-0.016099518,-0.0012336649,1.6176697,-8.6961994e-17,0.690323,-0.0051107714,-0.006249615,0.72345626,0.0,0.0,-0.70032686,0,0
32620000,-0.018086152,0.00049879006,1.6176697,-7.189318e-17,0.690312,-0.0064231544,-0.0063702646,0.72345537,0.0,0.0,-0.70196265,0,0
32676000,-0.021673428,0.003714435,1.6176697,-3.5378273e-17,0.69028556,-0.008824465,-0.0065579773,0.72345346,0.0,0.0,-0.7046338,0,0
32724000,-0.024420477,0.0067811143,1.6176697,-2.9247912e-17,0.6902565,-0.010881806,-0.0064931693,0.7234539,0.0,0.0,-0.7067312,0,0
32772000,-0.02804808,0.009596112,1.6176697,-3.358308e-17,0.6902174,-0.013151912,-0.0068337494,0.72345024,0.0,0.0,-0.70881575,0,0
32828000,-0.024878865,0.00737463,1.6176697,-2.7763788e-17,0.6902506,-0.01125468,-0.0064541236,0.7234541,0.0,0.0,-0.70452815,0,0
32876000,-0.022527615,0.005788644,1.6176697,-1.3662422e-17,0.6902716,-0.009869538,-0.006151028,0.72345686,0.0,0.0,-0.70060694,0,0
32924000,-0.022130867,0.005701637,1.6176697,-1.1294992e-17,0.690274,-0.009701135,-0.006037544,0.7234578,0.0,0.0,-0.6990992,0,0
32972000,-0.022247313,0.0066178087,1.6176697,-1.2969153e-17,0.69026875,-0.010072708,-0.0057634395,0.72345996,0.0,0.0,-0.69963163,0,0
33020000,-0.023445267,0.007913354,1.6176697,-1.0721853e-17,0.69025546,-0.010954761,-0.0057496037,0.72346,0.0,0.0,-0.7014536,0,0
33076000,-0.025688296,0.009430347,1.6176697,-5.27617e-18,0.6902334,-0.012277568,-0.0060373675,0.72345746,0.0,0.0,-0.70412153,0,0
33124000,-0.027684629,0.011312336,1.6176697,-4.3619132e-18,0.690208,-0.0136472,-0.0061099087,0.7234565,0.0,0.0,-0.7063144,0,0
33172000,-0.030286571,0.013696544,1.6176697,-5.008442e-18,0.69017154,-0.015407401,-0.006228168,0.72345495,0.0,0.0,-0.7082743,0,0
33220000,-0.028149992,0.011853279,1.6176697,-4.140577e-18,0.69020104,-0.014003443,-0.0060915314,0.72345656,0.0,0.0,-0.70470536,0,0
33276000,-0.026163189,0.009658179,1.6176697,-2.0375574e-18,0.69022906,-0.0125238625,-0.0061305114,0.72345644,0.0,0.0,-0.6993044,0,0
33324000,-0.025647974,0.008905913,1.6176697,-1.6844886e-18,0.6902369,-0.012073969,-0.006203793,0.7234561,0.0,0.0,-0.6976408,0,0
33372000,-0.02593242,0.009084487,1.6176697,-1.934166e-18,0.6902341,-0.012236726,-0.0062450515,0.7234556,0.0,0.0,-0.6979373,0,0
33420000,-0.026881913,0.010147358,1.6176697,-1.5990128e-18,0.6902213,-0.01294883,-0.0062216474,0.7234558,0.0,0.0,-0.69987315,0,0
