timestamp,timestamp_sample,gps_hvel[0],gps_hvel[1],gps_vvel,gps_hpos[0],gps_hpos[1],gps_vpos,ev_hvel[0],ev_hvel[1],ev_vvel,ev_hpos[0],ev_hpos[1],ev_vpos,rng_vpos,baro_vpos,aux_hvel[0],aux_hvel[1],aux_vvel,flow[0],flow[1],terr_flow[0],terr_flow[1],heading,mag_field[0],mag_field[1],mag_field[2],gravity[0],gravity[1],gravity[2],drag[0],drag[1],airspeed,beta,hagl,hagl_rate
3428000,3348000,0.0,0.0,0.0,0.0,0.0,0.0,0.0,0.0,0.0,0.0,0.0,0.0,0.0,0.0,0.0,0.0,nan,0.0,0.0,0.0,0.0,0.0,0.0,0.0,0.0,0.00071784,0.0,0.0,0.0,0.0,0.0,0.0,0.0,0.0
3436000,3356000,0.0,0.0,0.0,0.0,0.0,0.0,0.0,0.0,0.0,0.0,0.0,0.0,0.0,1.7177076e-14,0.0,0.0,nan,0.0,0.0,0.0,0.0,0.0,0.0,0.0,0.0,0.00027997998,0.0,0.0,0.0,0.0,0.0,0.0,0.0,0.0
3444000,3364000,0.0,0.0,0.0,0.0,0.0,0.0,0.0,0.0,0.0,0.0,0.0,0.0,0.0,1.7177076e-14,0.0,0.0,nan,0.0,0.0,0.0,0.0,0.0,0.0,0.0,0.0,4.2405994e-05,0.0,0.0,0.0,0.0,0.0,0.0,0.0,0.0
3452000,3372000,0.0,0.0,0.0,0.0,0.0,0.0,0.0,0.0,0.0,0.0,0.0,0.0,0.0,1.7177076e-14,0.0,0.0,nan,0.0,0.0,0.0,0.0,0.0,inf,0.0,0.0,8.0895035e-05,0.0,0.0,0.0,0.0,0.0,0.0,0.0,0.0
3460000,3380000,0.0,0.0,0.0,0.0,0.0,0.0,0.0,0.0,0.0,0.0,0.0,0.0,0.0,1.7177076e-14,0.0,0.0,nan,0.0,0.0,0.0,0.0,0.0,inf,0.0,0.0,0.00015027175,0.0,0.0,0.0,0.0,0.0,0.0,0.0,0.0
3468000,3388000,0.0,0.0,0.0,0.0,0.0,0.0,0.0,0.0,0.0,0.0,0.0,0.0,0.0,1.7177076e-14,0.0,0.0,nan,0.0,0.0,0.0,0.0,0.0,inf,0.0,0.0,1.1988947e-05,0.0,0.0,0.0,0.0,0.0,0.0,0.0,0.0
3476000,3396000,0.0,0.0,0.0,0.0,0.0,0.0,0.0,0.0,0.0,0.0,0.0,0.0,0.0,1.7177076e-14,0.0,0.0,nan,0.0,0.0,0.0,0.0,0.0,inf,0.0,0.0,0.00017385656,0.0,0.0,0.0,0.0,0.0,0.0,0.0,0.0
3484000,3404000,0.0,0.0,0.0,0.0,0.0,0.0,0.0,0.0,0.0,0.0,0.0,0.0,0.0,1.7177076e-14,0.0,0.0,nan,0.0,0.0,0.0,0.0,0.0,inf,0.0,0.0,0.00038327812,0.0,0.0,0.0,0.0,0.0,0.0,0.0,0.0
3492000,3412000,0.0,0.0,0.0,0.0,0.0,0.0,0.0,0.0,0.0,0.0,0.0,0.0,0.0,1.7177076e-14,0.0,0.0,nan,0.0,0.0,0.0,0.0,0.0,inf,0.0,0.0,0.00079269323,0.0,0.0,0.0,0.0,0.0,0.0,0.0,0.0
3500000,3420000,0.0,0.0,0.0,0.0,0.0,0.0,0.0,0.0,0.0,0.0,0.0,0.0,0.0,5.1545004e-07,0.0,0.0,nan,0.0,0.0,0.0,0.0,0.0,inf,0.0,0.0,0.0004994509,0.0,0.0,0.0,0.0,0.0,0.0,0.0,0.0
3508000,3428000,0.0,0.0,0.0,0.0,0.0,0.0,0.0,0.0,0.0,0.0,0.0,0.0,0.0,5.1545004e-07,0.0,0.0,nan,0.0,0.0,0.0,0.0,0.0,inf,0.0,0.0,0.0009386216,0.0,0.0,0.0,0.0,0.0,0.0,0.0,0.0
3516000,3436000,0.0,0.0,0.0,0.0,0.0,0.0,0.0,0.0,0.0,0.0,0.0,0.0,0.0,5.1545004e-07,0.0,0.0,nan,0.0,0.0,0.0,0.0,0.0,inf,0.0,0.0,4.166417e-05,0.0,0.0,0.0,0.0,0.0,0.0,0.0,0.0
3524000,3444000,0.0,0.0,0.0,0.0,0.0,0.0,0.0,0.0,0.0,0.0,0.0,0.0,0.0,5.1545004e-07,0.0,0.0,nan,0.0,0.0,0.0,0.0,0.0,inf,0.0,0.0,3.8145106e-05,0.0,0.0,0.0,0.0,0.0,0.0,0.0,0.0
3532000,3452000,0.0,0.0,0.0,0.0,0.0,0.0,0.0,0.0,0.0,0.0,0.0,0.0,0.0,5.1545004e-07,0.0,0.0,nan,0.0,0.0,0.0,0.0,0.0,inf,0.0,0.0,0.00041894286,0.0,0.0,0.0,0.0,0.0,0.0,0.0,0.0
3540000,3460000,0.0,0.0,0.0,0.0,0.0,0.0,0.0,0.0,0.0,0.0,0.0,0.0,0.0,5.1545004e-07,0.0,0.0,nan,0.0,0.0,0.0,0.0,0.0,inf,0.0,0.0,0.0003700836,0.0,0.0,0.0,0.0,0.0,0.0,0.0,0.0
3548000,3468000,0.0,0.0,0.0,0.0,0.0,0.0,0.0,0.0,0.0,0.0,0.0,0.0,0.0,5.1545004e-07,0.0,0.0,nan,0.0,0.0,0.0,0.0,0.0,inf,0.0,0.0,0.00029040047,0.0,0.0,0.0,0.0,0.0,0.0,0.0,0.0
3556000,3476000,0.0,0.0,0.0,0.0,0.0,0.0,0.0,0.0,0.0,0.0,0.0,0.0,0.0,3.0254438e-07,0.0,0.0,nan,0.0,0.0,0.0,0.0,0.0,inf,0.0,0.0,0.00028090796,0.0,0.0,0.0,0.0,0.0,0.0,0.0,0.0
3564000,3484000,0.0,0.0,0.0,0.0,0.0,0.0,0.0,0.0,0.0,0.0,0.0,0.0,0.0,3.0254438e-07,0.0,0.0,nan,0.0,0.0,0.0,0.0,0.0,inf,0.0,0.0,0.00020829376,0.0,0.0,0.0,0.0,0.0,0.0,0.0,0.0
3572000,3492000,0.0,0.0,0.0,0.0,0.0,0.0,0.0,0.0,0.0,0.0,0.0,0.0,0.0,3.0254438e-07,0.0,0.0,nan,0.0,0.0,0.0,0.0,0.0,inf,0.0,0.0,6.6358945e-05,0.0,0.0,0.0,0.0,0.0,0.0,0.0,0.0
3580000,3500000,0.0,0.0,0.0,0.0,0.0,0.0,0.0,0.0,0.0,0.0,0.0,0.0,0.0,3.0254438e-07,0.0,0.0,nan,0.0,0.0,0.0,0.0,0.0,inf,0.0,0.0,0.00023481208,0.0,0.0,0.0,0.0,0.0,0.0,0.0,0.0
3588000,3508000,0.0,0.0,0.0,0.0,0.0,0.0,0.0,0.0,0.0,0.0,0.0,0.0,0.0,3.0254438e-07,0.0,0.0,nan,0.0,0.0,0.0,0.0,0.0,inf,0.0,0.0,9.165597e-05,0.0,0.0,0.0,0.0,0.0,0.0,0.0,0.0
3596000,3516000,2.5510315e-06,0.0,0.0003354292,1.2630196e-11,0.0,94.35449,0.0,0.0,0.0,0.0,0.0,0.0,0.0,3.0254438e-07,0.0,0.0,nan,0.0,0.0,0.0,0.0,0.0,inf,0.0,0.0,2.4518922e-05,0.0,0.0,0.0,0.0,0.0,0.0,0.0,0.0
3604000,3524000,2.5510315e-06,0.0,0.0003354292,1.2630196e-11,0.0,94.35449,0.0,0.0,0.0,0.0,0.0,0.0,0.0,3.0254438e-07,0.0,0.0,nan,0.0,0.0,0.0,0.0,0.0,inf,0.0,0.0,0.0002600231,0.0,0.0,0.0,0.0,0.0,0.0,0.0,0.0
3612000,3532000,2.5510315e-06,0.0,0.0003354292,1.2630196e-11,0.0,94.35449,0.0,0.0,0.0,0.0,0.0,0.0,0.0,3.0254438e-07,0.0,0.0,nan,0.0,0.0,0.0,0.0,0.0,inf,0.0,0.0,0.0010446958,0.0,0.0,0.0,0.0,0.0,0.0,0.0,0.0
3620000,3540000,2.5510315e-06,0.0,0.0003354292,1.2630196e-11,0.0,94.35449,0.0,0.0,0.0,0.0,0.0,0.0,0.0,8.861805e-07,0.0,0.0,nan,0.0,0.0,0.0,0.0,0.0,inf,0.0,0.0,0.00013452495,0.0,0.0,0.0,0.0,0.0,0.0,0.0,0.0
3628000,3548000,2.5510315e-06,0.0,0.0003354292,1.2630196e-11,0.0,94.35449,0.0,0.0,0.0,0.0,0.0,0.0,0.0,8.861805e-07,0.0,0.0,nan,0.0,0.0,0.0,0.0,0.0,inf,0.0,0.0,6.0247738e-05,0.0,0.0,0.0,0.0,0.0,0.0,0.0,0.0
3636000,3556000,2.5510315e-06,0.0,0.0003354292,1.2630196e-11,0.0,94.35449,0.0,0.0,0.0,0.0,0.0,0.0,0.0,8.861805e-07,0.0,0.0,nan,0.0,0.0,0.0,0.0,0.0,inf,0.0,0.0,0.0006718124,0.0,0.0,0.0,0.0,0.0,0.0,0.0,0.0
3644000,3564000,2.5510315e-06,0.0,0.0003354292,1.2630196e-11,0.0,94.35449,0.0,0.0,0.0,0.0,0.0,0.0,0.0,8.861805e-07,0.0,0.0,nan,0.0,0.0,0.0,0.0,0.0,inf,0.0,0.0,0.0008788854,0.0,0.0,0.0,0.0,0.0,0.0,0.0,0.0
3652000,3572000,2.5510315e-06,0.0,0.0003354292,1.2630196e-11,0.0,94.35449,0.0,0.0,0.0,0.0,0.0,0.0,0.0,8.861805e-07,0.0,0.0,nan,0.0,0.0,0.0,0.0,0.0,inf,0.0,0.0,0.0008205238,0.0,0.0,0.0,0.0,0.0,0.0,0.0,0.0
3660000,3580000,2.5510315e-06,0.0,0.0003354292,1.2630196e-11,0.0,94.35449,0.0,0.0,0.0,0.0,0.0,0.0,0.0,8.861805e-07,0.0,0.0,nan,0.0,0.0,0.0,0.0,0.0,inf,0.0,0.0,0.00014533273,0.0,0.0,0.0,0.0,0.0,0.0,0.0,0.0
3668000,3588000,2.5510315e-06,0.0,0.0003354292,1.2630196e-11,0.0,94.35449,0.0,0.0,0.0,0.0,0.0,0.0,0.0,8.861805e-07,0.0,0.0,nan,0.0,0.0,0.0,0.0,5.8884107e-06,inf,0.0,0.0,5.9638227e-05,0.0,0.0,0.0,0.0,0.0,0.0,0.0,0.0
3676000,3596000,2.5510315e-06,0.0,0.0003354292,1.2630196e-11,0.0,94.35449,0.0,0.0,0.0,0.0,0.0,0.0,0.0,7.1946056e-07,0.0,0.0,nan,0.0,0.0,0.0,0.0,5.8884107e-06,inf,0.0,0.0,0.00031224985,0.0,0.0,0.0,0.0,0.0,0.0,0.0,0.0
3684000,3604000,2.5510315e-06,0.0,0.0003354292,1.2630196e-11,0.0,94.35449,0.0,0.0,0.0,0.0,0.0,0.0,0.0,7.1946056e-07,0.0,0.0,nan,0.0,0.0,0.0,0.0,5.8884107e-06,inf,0.0,0.0,0.0006244891,0.0,0.0,0.0,0.0,0.0,0.0,0.0,0.0
3692000,3612000,2.5510315e-06,0.0,0.0003354292,1.2630196e-11,0.0,94.35449,0.0,0.0,0.0,0.0,0.0,0.0,0.0,7.1946056e-07,0.0,0.0,nan,0.0,0.0,0.0,0.0,5.8884107e-06,inf,0.0,0.0,0.00010207221,0.0,0.0,0.0,0.0,0.0,0.0,0.0,0.0
3700000,3620000,2.5510315e-06,0.0,0.0003354292,1.2630196e-11,0.0,94.35449,0.0,0.0,0.0,0.0,0.0,0.0,0.0,7.1946056e-07,0.0,0.0,nan,0.0,0.0,0.0,0.0,5.8884107e-06,inf,0.0,0.0,0.000503885,0.0,0.0,0.0,0.0,0.0,0.0,0.0,0.0
3708000,3628000,2.5510315e-06,0.0,0.0003354292,1.2630196e-11,0.0,94.35449,0.0,0.0,0.0,0.0,0.0,0.0,0.0,7.1946056e-07,0.0,0.0,nan,0.0,0.0,0.0,0.0,5.8884107e-06,inf,0.0,0.0,0.00036173622,0.0,0.0,0.0,0.0,0.0,0.0,0.0,0.0
3716000,3636000,2.5510315e-06,0.0,0.0003354292,1.2630196e-11,0.0,94.35449,0.0,0.0,0.0,0.0,0.0,0.0,0.0,7.1946056e-07,0.0,0.0,nan,0.0,0.0,0.0,0.0,5.8884107e-06,inf,0.0,0.0,0.00010507124,0.0,0.0,0.0,0.0,0.0,0.0,0.0,0.0
3724000,3644000,2.5510315e-06,0.0,0.0003354292,1.2630196e-11,0.0,94.35449,0.0,0.0,0.0,0.0,0.0,0.0,0.0,7.1946056e-07,0.0,0.0,nan,0.0,0.0,0.0,0.0,5.8884107e-06,inf,0.0,0.0,6.226896e-05,0.0,0.0,0.0,0.0,0.0,0.0,0.0,0.0
3732000,3652000,2.5510315e-06,0.0,0.0003354292,1.2630196e-11,0.0,94.35449,0.0,0.0,0.0,0.0,0.0,0.0,0.0,7.1946056e-07,0.0,0.0,nan,0.0,0.0,0.0,0.0,5.8884107e-06,inf,0.0,0.0,0.00023484736,0.0,0.0,0.0,0.0,0.0,0.0,0.0,0.0
3740000,3660000,2.5510315e-06,0.0,0.0003354292,1.2630196e-11,0.0,94.35449,0.0,0.0,0.0,0.0,0.0,0.0,0.0,1.0934648e-05,0.0,0.0,nan,0.0,0.0,0.0,0.0,4.1727908e-05,inf,0.0,0.0,0.00059801847,0.0,0.0,0.0,0.0,0.0,0.0,0.0,0.0
3748000,3668000,2.5510315e-06,0.0,0.0003354292,1.2630196e-11,0.0,94.35449,0.0,0.0,0.0,0.0,0.0,0.0,0.0,1.0934648e-05,0.0,0.0,nan,0.0,0.0,0.0,0.0,4.1727908e-05,inf,0.0,0.0,0.00019698322,0.0,0.0,0.0,0.0,0.0,0.0,0.0,0.0
3756000,3676000,2.5510315e-06,0.0,0.0003354292,1.2630196e-11,0.0,94.35449,0.0,0.0,0.0,0.0,0.0,0.0,0.0,1.0934648e-05,0.0,0.0,nan,0.0,0.0,0.0,0.0,4.1727908e-05,inf,0.0,0.0,0.00015340412,0.0,0.0,0.0,0.0,0.0,0.0,0.0,0.0
3764000,3684000,2.5510315e-06,0.0,0.0003354292,1.2630196e-11,0.0,94.35449,0.0,0.0,0.0,0.0,0.0,0.0,0.0,1.0934648e-05,0.0,0.0,nan,0.0,0.0,0.0,0.0,4.1727908e-05,inf,0.0,0.0,0.0001222421,0.0,0.0,0.0,0.0,0.0,0.0,0.0,0.0
3772000,3692000,2.5510315e-06,0.0,0.0003354292,1.2630196e-11,0.0,94.35449,0.0,0.0,0.0,0.0,0.0,0.0,0.0,1.0934648e-05,0.0,0.0,nan,0.0,0.0,0.0,0.0,4.1727908e-05,inf,0.0,0.0,0.00017312265,0.0,0.0,0.0,0.0,0.0,0.0,0.0,0.0
3780000,3700000,2.5510315e-06,0.0,0.0003354292,1.2630196e-11,0.0,94.35449,0.0,0.0,0.0,0.0,0.0,0.0,0.0,1.0934648e-05,0.0,0.0,nan,0.0,0.0,0.0,0.0,4.1727908e-05,inf,0.0,0.0,0.00011857282,0.0,0.0,0.0,0.0,0.0,0.0,0.0,0.0
3788000,3708000,2.5510315e-06,0.0,0.0003354292,1.2630196e-11,0.0,94.35449,0.0,0.0,0.0,0.0,0.0,0.0,0.0,1.0934648e-05,0.0,0.0,nan,0.0,0.0,0.0,0.0,4.1727908e-05,inf,0.0,0.0,0.000111707996,0.0,0.0,0.0,0.0,0.0,0.0,0.0,0.0
3796000,3716000,2.5510315e-06,0.0,0.0003354292,1.2630196e-11,0.0,94.35449,0.0,0.0,0.0,0.0,0.0,0.0,0.0,1.1856626e-07,0.0,0.0,nan,0.0,0.0,0.0,0.0,4.1727908e-05,inf,0.0,0.0,0.0004490294,0.0,0.0,0.0,0.0,0.0,0.0,0.0,0.0
3804000,3724000,2.5510315e-06,0.0,0.0003354292,1.2630196e-11,0.0,94.35449,0.0,0.0,0.0,0.0,0.0,0.0,0.0,1.1856626e-07,0.0,0.0,nan,0.0,0.0,0.0,0.0,1.1476582e-05,inf,0.0,0.0,0.0005748076,0.0,0.0,0.0,0.0,0.0,0.0,0.0,0.0
3812000,3732000,2.5510315e-06,0.0,0.0003354292,1.2630196e-11,0.0,94.35449,0.0,0.0,0.0,0.0,0.0,0.0,0.0,1.1856626e-07,0.0,0.0,nan,0.0,0.0,0.0,0.0,1.1476582e-05,inf,0.0,0.0,0.000115547424,0.0,0.0,0.0,0.0,0.0,0.0,0.0,0.0
3820000,3740000,2.5510315e-06,0.0,0.0003354292,1.2630196e-11,0.0,94.35449,0.0,0.0,0.0,0.0,0.0,0.0,0.0,1.1856626e-07,0.0,0.0,nan,0.0,0.0,0.0,0.0,1.1476582e-05,inf,0.0,0.0,0.00017559652,0.0,0.0,0.0,0.0,0.0,0.0,0.0,0.0
3828000,3748000,2.5510315e-06,0.0,0.0003354292,1.2630196e-11,0.0,94.35449,0.0,0.0,0.0,0.0,0.0,0.0,0.0,1.1856626e-07,0.0,0.0,nan,0.0,0.0,0.0,0.0,1.1476582e-05,inf,0.0,0.0,0.0005915971,0.0,0.0,0.0,0.0,0.0,0.0,0.0,0.0
3836000,3756000,2.5510315e-06,0.0,0.0003354292,1.2630196e-11,0.0,94.35449,0.0,0.0,0.0,0.0,0.0,0.0,0.0,1.1856626e-07,0.0,0.0,nan,0.0,0.0,0.0,0.0,1.1476582e-05,inf,0.0,0.0,0.0006649127,0.0,0.0,0.0,0.0,0.0,0.0,0.0,0.0
3844000,3764000,2.5510315e-06,0.0,0.0003354292,1.2630196e-11,0.0,94.35449,0.0,0.0,0.0,0.0,0.0,0.0,0.0,1.1856626e-07,0.0,0.0,nan,0.0,0.0,0.0,0.0,1.1476582e-05,inf,0.0,0.0,7.290926e-05,0.0,0.0,0.0,0.0,0.0,0.0,0.0,0.0
3852000,3772000,2.5510315e-06,0.0,0.0003354292,1.2630196e-11,0.0,94.35449,0.0,0.0,0.0,0.0,0.0,0.0,0.0,1.1856626e-07,0.0,0.0,nan,0.0,0.0,0.0,0.0,1.1476582e-05,inf,0.0,0.0,0.00081297796,0.0,0.0,0.0,0.0,0.0,0.0,0.0,0.0
3860000,3780000,2.5510315e-06,0.0,0.0003354292,1.2630196e-11,0.0,94.35449,0.0,0.0,0.0,0.0,0.0,0.0,0.0,5.6058532e-08,0.0,0.0,nan,0.0,0.0,0.0,0.0,1.1476582e-05,inf,0.0,0.0,0.00011952369,0.0,0.0,0.0,0.0,0.0,0.0,0.0,0.0
3868000,3788000,2.5510315e-06,0.0,0.0003354292,1.2630196e-11,0.0,94.35449,0.0,0.0,0.0,0.0,0.0,0.0,0.0,5.6058532e-08,0.0,0.0,nan,0.0,0.0,0.0,0.0,1.1476582e-05,inf,0.0,0.0,0.0004240865,0.0,0.0,0.0,0.0,0.0,0.0,0.0,0.0
3876000,3796000,2.5510315e-06,0.0,0.0003354292,1.2630196e-11,0.0,94.35449,0.0,0.0,0.0,0.0,0.0,0.0,0.0,5.6058532e-08,0.0,0.0,nan,0.0,0.0,0.0,0.0,0.00015596267,inf,0.0,0.0,6.778477e-05,0.0,0.0,0.0,0.0,0.0,0.0,0.0,0.0
3884000,3804000,2.5510315e-06,0.0,0.0003354292,1.2630196e-11,0.0,94.35449,0.0,0.0,0.0,0.0,0.0,0.0,0.0,5.6058532e-08,0.0,0.0,nan,0.0,0.0,0.0,0.0,0.00015596267,inf,0.0,0.0,5.8634956e-05,0.0,0.0,0.0,0.0,0.0,0.0,0.0,0.0
3892000,3812000,2.5510315e-06,0.0,0.0003354292,1.2630196e-11,0.0,94.35449,0.0,0.0,0.0,0.0,0.0,0.0,0.0,5.6058532e-08,0.0,0.0,nan,0.0,0.0,0.0,0.0,0.00015596267,inf,0.0,0.0,0.00039598162,0.0,0.0,0.0,0.0,0.0,0.0,0.0,0.0
3900000,3820000,2.5510315e-06,0.0,0.0003354292,1.2630196e-11,0.0,94.35449,0.0,0.0,0.0,0.0,0.0,0.0,0.0,5.6058532e-08,0.0,0.0,nan,0.0,0.0,0.0,0.0,0.00015596267,inf,0.0,0.0,0.00036099425,0.0,0.0,0.0,0.0,0.0,0.0,0.0,0.0
3908000,3828000,2.5510315e-06,0.0,0.0003354292,1.2630196e-11,0.0,94.35449,0.0,0.0,0.0,0.0,0.0,0.0,0.0,5.6058532e-08,0.0,0.0,nan,0.0,0.0,0.0,0.0,0.00015596267,inf,0.0,0.0,0.0001039923,0.0,0.0,0.0,0.0,0.0,0.0,0.0,0.0
3916000,3836000,2.5510315e-06,0.0,0.0003354292,1.2630196e-11,0.0,94.35449,0.0,0.0,0.0,0.0,0.0,0.0,0.0,5.1056185e-07,0.0,0.0,nan,0.0,0.0,0.0,0.0,0.00015596267,inf,0.0,0.0,0.00094792136,0.0,0.0,0.0,0.0,0.0,0.0,0.0,0.0
3924000,3844000,2.5510315e-06,0.0,0.0003354292,1.2630196e-11,0.0,94.35449,0.0,0.0,0.0,0.0,0.0,0.0,0.0,5.1056185e-07,0.0,0.0,nan,0.0,0.0,0.0,0.0,0.00015596267,inf,0.0,0.0,0.00032305947,0.0,0.0,0.0,0.0,0.0,0.0,0.0,0.0
3932000,3852000,2.5510315e-06,0.0,0.0003354292,1.2630196e-11,0.0,94.35449,0.0,0.0,0.0,0.0,0.0,0.0,0.0,5.1056185e-07,0.0,0.0,nan,0.0,0.0,0.0,0.0,0.00015596267,inf,0.0,0.0,0.0003928703,0.0,0.0,0.0,0.0,0.0,0.0,0.0,0.0
3940000,3860000,2.5510315e-06,0.0,0.0003354292,1.2630196e-11,0.0,94.35449,0.0,0.0,0.0,0.0,0.0,0.0,0.0,5.1056185e-07,0.0,0.0,nan,0.0,0.0,0.0,0.0,0.00033088814,inf,0.0,0.0,0.0004270036,0.0,0.0,0.0,0.0,0.0,0.0,0.0,0.0
3948000,3868000,2.5510315e-06,0.0,0.0003354292,1.2630196e-11,0.0,94.35449,0.0,0.0,0.0,0.0,0.0,0.0,0.0,5.1056185e-07,0.0,0.0,nan,0.0,0.0,0.0,0.0,0.00033088814,inf,0.0,0.0,0.00024401002,0.0,0.0,0.0,0.0,0.0,0.0,0.0,0.0
3956000,3876000,2.5510315e-06,0.0,0.0003354292,1.2630196e-11,0.0,94.35449,0.0,0.0,0.0,0.0,0.0,0.0,0.0,5.1056185e-07,0.0,0.0,nan,0.0,0.0,0.0,0.0,0.00033088814,inf,0.0,0.0,6.907625e-05,0.0,0.0,0.0,0.0,0.0,0.0,0.0,0.0
3964000,3884000,2.5510315e-06,0.0,0.0003354292,1.2630196e-11,0.0,94.35449,0.0,0.0,0.0,0.0,0.0,0.0,0.0,5.1056185e-07,0.0,0.0,nan,0.0,0.0,0.0,0.0,0.00033088814,inf,0.0,0.0,0.0010727122,0.0,0.0,0.0,0.0,0.0,0.0,0.0,0.0
3972000,3892000,2.5510315e-06,0.0,0.0003354292,1.2630196e-11,0.0,94.35449,0.0,0.0,0.0,0.0,0.0,0.0,0.0,1.7967064e-05,0.0,0.0,nan,0.0,0.0,0.0,0.0,0.00033088814,inf,0.0,0.0,0.00010367251,0.0,0.0,0.0,0.0,0.0,0.0,0.0,0.0
3980000,3900000,2.5510315e-06,0.0,0.0003354292,1.2630196e-11,0.0,94.35449,0.0,0.0,0.0,0.0,0.0,0.0,0.0,1.7967064e-05,0.0,0.0,nan,0.0,0.0,0.0,0.0,0.00033088814,inf,0.0,0.0,3.9732073e-05,0.0,0.0,0.0,0.0,0.0,0.0,0.0,0.0
3988000,3908000,2.5510315e-06,0.0,0.0003354292,1.2630196e-11,0.0,94.35449,0.0,0.0,0.0,0.0,0.0,0.0,0.0,1.7967064e-05,0.0,0.0,nan,0.0,0.0,0.0,0.0,0.00033088814,inf,0.0,0.0,0.00049369805,0.0,0.0,0.0,0.0,0.0,0.0,0.0,0.0
3996000,3916000,5.6661822e-05,0.0,6.7566034e-05,1.909997e-09,0.0,277.57327,0.0,0.0,0.0,0.0,0.0,0.0,0.0,1.7967064e-05,0.0,0.0,nan,0.0,0.0,0.0,0.0,0.00033088814,inf,0.0,0.0,0.0006172218,0.0,0.0,0.0,0.0,0.0,0.0,0.0,0.0
4004000,3924000,5.6661822e-05,0.0,6.7566034e-05,1.909997e-09,0.0,277.57327,0.0,0.0,0.0,0.0,0.0,0.0,0.0,1.7967064e-05,0.0,0.0,nan,0.0,0.0,0.0,0.0,0.00033088814,inf,0.0,0.0,0.00048813559,0.0,0.0,0.0,0.0,0.0,0.0,0.0,0.0
4012000,3932000,5.6661822e-05,0.0,6.7566034e-05,1.909997e-09,0.0,277.57327,0.0,0.0,0.0,0.0,0.0,0.0,0.0,1.7967064e-05,0.0,0.0,nan,0.0,0.0,0.0,0.0,6.2145664e-05,inf,0.0,0.0,0.00033547025,0.0,0.0,0.0,0.0,0.0,0.0,0.0,0.0
4020000,3940000,5.6661822e-05,0.0,6.7566034e-05,1.909997e-09,0.0,277.57327,0.0,0.0,0.0,0.0,0.0,0.0,0.0,1.7967064e-05,0.0,0.0,nan,0.0,0.0,0.0,0.0,6.2145664e-05,inf,0.0,0.0,0.0002834672,0.0,0.0,0.0,0.0,0.0,0.0,0.0,0.0
4028000,3948000,5.6661822e-05,0.0,6.7566034e-05,1.909997e-09,0.0,277.57327,0.0,0.0,0.0,0.0,0.0,0.0,0.0,1.1257582e-06,0.0,0.0,nan,0.0,0.0,0.0,0.0,6.2145664e-05,inf,0.0,0.0,0.0006111454,0.0,0.0,0.0,0.0,0.0,0.0,0.0,0.0
4036000,3956000,5.6661822e-05,0.0,6.7566034e-05,1.909997e-09,0.0,277.57327,0.0,0.0,0.0,0.0,0.0,0.0,0.0,1.1257582e-06,0.0,0.0,nan,0.0,0.0,0.0,0.0,6.2145664e-05,inf,0.0,0.0,5.5584303e-05,0.0,0.0,0.0,0.0,0.0,0.0,0.0,0.0
4044000,3964000,5.6661822e-05,0.0,6.7566034e-05,1.909997e-09,0.0,277.57327,0.0,0.0,0.0,0.0,0.0,0.0,0.0,1.1257582e-06,0.0,0.0,nan,0.0,0.0,0.0,0.0,6.2145664e-05,inf,0.0,0.0,0.0007539559,0.0,0.0,0.0,0.0,0.0,0.0,0.0,0.0
4052000,3972000,5.6661822e-05,0.0,6.7566034e-05,1.909997e-09,0.0,277.57327,0.0,0.0,0.0,0.0,0.0,0.0,0.0,1.1257582e-06,0.0,0.0,nan,0.0,0.0,0.0,0.0,6.2145664e-05,inf,0.0,0.0,0.00027178676,0.0,0.0,0.0,0.0,0.0,0.0,0.0,0.0
4060000,3980000,5.6661822e-05,0.0,6.7566034e-05,1.909997e-09,0.0,277.57327,0.0,0.0,0.0,0.0,0.0,0.0,0.0,1.1257582e-06,0.0,0.0,nan,0.0,0.0,0.0,0.0,6.2145664e-05,inf,0.0,0.0,0.0006733654,0.0,0.0,0.0,0.0,0.0,0.0,0.0,0.0
4068000,3988000,5.6661822e-05,0.0,6.7566034e-05,1.909997e-09,0.0,277.57327,0.0,0.0,0.0,0.0,0.0,0.0,0.0,1.1257582e-06,0.0,0.0,nan,0.0,0.0,0.0,0.0,6.2145664e-05,inf,0.0,0.0,0.00016715677,0.0,0.0,0.0,0.0,0.0,0.0,0.0,0.0
4076000,3996000,5.6661822e-05,0.0,6.7566034e-05,1.909997e-09,0.0,277.57327,0.0,0.0,0.0,0.0,0.0,0.0,0.0,1.1257582e-06,0.0,0.0,nan,0.0,0.0,0.0,0.0,6.2145664e-05,inf,0.0,0.0,0.00015720197,0.0,0.0,0.0,0.0,0.0,0.0,0.0,0.0
4084000,4004000,5.6661822e-05,0.0,6.7566034e-05,1.909997e-09,0.0,277.57327,0.0,0.0,0.0,0.0,0.0,0.0,0.0,3.6049644e-06,0.0,0.0,nan,0.0,0.0,0.0,0.0,0.0002244392,inf,0.0,0.0,0.0006154666,0.0,0.0,0.0,0.0,0.0,0.0,0.0,0.0
4092000,4012000,5.6661822e-05,0.0,6.7566034e-05,1.909997e-09,0.0,277.57327,0.0,0.0,0.0,0.0,0.0,0.0,0.0,3.6049644e-06,0.0,0.0,nan,0.0,0.0,0.0,0.0,0.0002244392,inf,0.0,0.0,0.00036407332,0.0,0.0,0.0,0.0,0.0,0.0,0.0,0.0
4100000,4020000,5.6661822e-05,0.0,6.7566034e-05,1.909997e-09,0.0,277.57327,0.0,0.0,0.0,0.0,0.0,0.0,0.0,3.6049644e-06,0.0,0.0,nan,0.0,0.0,0.0,0.0,0.0002244392,inf,0.0,0.0,9.69206e-05,0.0,0.0,0.0,0.0,0.0,0.0,0.0,0.0
4108000,4028000,5.6661822e-05,0.0,6.7566034e-05,1.909997e-09,0.0,277.57327,0.0,0.0,0.0,0.0,0.0,0.0,0.0,3.6049644e-06,0.0,0.0,nan,0.0,0.0,0.0,0.0,0.0002244392,inf,0.0,0.0,0.001640664,0.0,0.0,0.0,0.0,0.0,0.0,0.0,0.0
4116000,4036000,5.6661822e-05,0.0,6.7566034e-05,1.909997e-09,0.0,277.57327,0.0,0.0,0.0,0.0,0.0,0.0,0.0,3.6049644e-06,0.0,0.0,nan,0.0,0.0,0.0,0.0,0.0002244392,inf,0.0,0.0,0.0016081824,0.0,0.0,0.0,0.0,0.0,0.0,0.0,0.0
4124000,4044000,5.6661822e-05,0.0,6.7566034e-05,1.909997e-09,0.0,277.57327,0.0,0.0,0.0,0.0,0.0,0.0,0.0,3.6049644e-06,0.0,0.0,nan,0.0,0.0,0.0,0.0,0.0002244392,inf,0.0,0.0,0.0018452287,0.0,0.0,0.0,0.0,0.0,0.0,0.0,0.0
4132000,4052000,5.6661822e-05,0.0,6.7566034e-05,1.909997e-09,0.0,277.57327,0.0,0.0,0.0,0.0,0.0,0.0,0.0,3.6049644e-06,0.0,0.0,nan,0.0,0.0,0.0,0.0,0.0002244392,inf,0.0,0.0,0.00014568151,0.0,0.0,0.0,0.0,0.0,0.0,0.0,0.0
4140000,4060000,5.6661822e-05,0.0,6.7566034e-05,1.909997e-09,0.0,277.57327,0.0,0.0,0.0,0.0,0.0,0.0,0.0,3.6049644e-06,0.0,0.0,nan,0.0,0.0,0.0,0.0,0.0002244392,inf,0.0,0.0,0.00035211485,0.0,0.0,0.0,0.0,0.0,0.0,0.0,0.0
4148000,4068000,5.6661822e-05,0.0,6.7566034e-05,1.909997e-09,0.0,277.57327,0.0,0.0,0.0,0.0,0.0,0.0,0.0,2.3696498e-06,0.0,0.0,nan,0.0,0.0,0.0,0.0,0.0002244392,inf,0.0,0.0,0.0005166735,0.0,0.0,0.0,0.0,0.0,0.0,0.0,0.0
4156000,4076000,5.6661822e-05,0.0,6.7566034e-05,1.909997e-09,0.0,277.57327,0.0,0.0,0.0,0.0,0.0,0.0,0.0,2.3696498e-06,0.0,0.0,nan,0.0,0.0,0.0,0.0,0.0003682749,inf,0.0,0.0,0.0024946863,0.0,0.0,0.0,0.0,0.0,0.0,0.0,0.0
4164000,4084000,5.6661822e-05,0.0,6.7566034e-05,1.909997e-09,0.0,277.57327,0.0,0.0,0.0,0.0,0.0,0.0,0.0,2.3696498e-06,0.0,0.0,nan,0.0,0.0,0.0,0.0,0.0003682749,inf,0.0,0.0,0.00031966445,0.0,0.0,0.0,0.0,0.0,0.0,0.0,0.0
4172000,4092000,5.6661822e-05,0.0,6.7566034e-05,1.909997e-09,0.0,277.57327,0.0,0.0,0.0,0.0,0.0,0.0,0.0,2.3696498e-06,0.0,0.0,nan,0.0,0.0,0.0,0.0,0.0003682749,inf,0.0,0.0,0.000916544,0.0,0.0,0.0,0.0,0.0,0.0,0.0,0.0
4180000,4100000,5.6661822e-05,0.0,6.7566034e-05,1.909997e-09,0.0,277.57327,0.0,0.0,0.0,0.0,0.0,0.0,0.0,2.3696498e-06,0.0,0.0,nan,0.0,0.0,0.0,0.0,0.0003682749,inf,0.0,0.0,0.0004962552,0.0,0.0,0.0,0.0,0.0,0.0,0.0,0.0
4188000,4108000,5.6661822e-05,0.0,6.7566034e-05,1.909997e-09,0.0,277.57327,0.0,0.0,0.0,0.0,0.0,0.0,0.0,2.3696498e-06,0.0,0.0,nan,0.0,0.0,0.0,0.0,0.0003682749,inf,0.0,0.0,0.00028580177,0.0,0.0,0.0,0.0,0.0,0.0,0.0,0.0
4196000,4116000,5.6661822e-05,0.0,6.7566034e-05,1.909997e-09,0.0,277.57327,0.0,0.0,0.0,0.0,0.0,0.0,0.0,2.3696498e-06,0.0,0.0,nan,0.0,0.0,0.0,0.0,0.0003682749,inf,0.0,0.0,0.0010423178,0.0,0.0,0.0,0.0,0.0,0.0,0.0,0.0
4204000,4124000,5.6661822e-05,0.0,6.7566034e-05,1.909997e-09,0.0,277.57327,0.0,0.0,0.0,0.0,0.0,0.0,0.0,2.1138676e-05,0.0,0.0,nan,0.0,0.0,0.0,0.0,0.0003682749,inf,0.0,0.0,2.6220036e-05,0.0,0.0,0.0,0.0,0.0,0.0,0.0,0.0
4212000,4132000,5.6661822e-05,0.0,6.7566034e-05,1.909997e-09,0.0,277.57327,0.0,0.0,0.0,0.0,0.0,0.0,0.0,2.1138676e-05,0.0,0.0,nan,0.0,0.0,0.0,0.0,0.0003682749,inf,0.0,0.0,0.0005219091,0.0,0.0,0.0,0.0,0.0,0.0,0.0,0.0
4220000,4140000,5.6661822e-05,0.0,6.7566034e-05,1.909997e-09,0.0,277.57327,0.0,0.0,0.0,0.0,0.0,0.0,0.0,2.1138676e-05,0.0,0.0,nan,0.0,0.0,0.0,0.0,0.0016773941,inf,0.0,0.0,4.6346548e-05,0.0,0.0,0.0,0.0,0.0,0.0,0.0,0.0
4228000,4148000,5.6661822e-05,0.0,6.7566034e-05,1.909997e-09,0.0,277.57327,0.0,0.0,0.0,0.0,0.0,0.0,0.0,2.1138676e-05,0.0,0.0,nan,0.0,0.0,0.0,0.0,0.0016773941,inf,0.0,0.0,0.00013656825,0.0,0.0,0.0,0.0,0.0,0.0,0.0,0.0
4236000,4156000,5.6661822e-05,0.0,6.7566034e-05,1.909997e-09,0.0,277.57327,0.0,0.0,0.0,0.0,0.0,0.0,0.0,2.1138676e-05,0.0,0.0,nan,0.0,0.0,0.0,0.0,0.0016773941,inf,0.0,0.0,0.0001265177,0.0,0.0,0.0,0.0,0.0,0.0,0.0,0.0
4244000,4164000,5.6661822e-05,0.0,6.7566034e-05,1.909997e-09,0.0,277.57327,0.0,0.0,0.0,0.0,0.0,0.0,0.0,2.1138676e-05,0.0,0.0,nan,0.0,0.0,0.0,0.0,0.0016773941,inf,0.0,0.0,0.00016873132,0.0,0.0,0.0,0.0,0.0,0.0,0.0,0.0
4252000,4172000,5.6661822e-05,0.0,6.7566034e-05,1.909997e-09,0.0,277.57327,0.0,0.0,0.0,0.0,0.0,0.0,0.0,1.1358444e-05,0.0,0.0,nan,0.0,0.0,0.0,0.0,0.0016773941,inf,0.0,0.0,2.1452937e-05,0.0,0.0,0.0,0.0,0.0,0.0,0.0,0.0
4260000,4180000,5.6661822e-05,0.0,6.7566034e-05,1.909997e-09,0.0,277.57327,0.0,0.0,0.0,0.0,0.0,0.0,0.0,1.1358444e-05,0.0,0.0,nan,0.0,0.0,0.0,0.0,0.0016773941,inf,0.0,0.0,7.726283e-05,0.0,0.0,0.0,0.0,0.0,0.0,0.0,0.0
4268000,4188000,5.6661822e-05,0.0,6.7566034e-05,1.909997e-09,0.0,277.57327,0.0,0.0,0.0,0.0,0.0,0.0,0.0,1.1358444e-05,0.0,0.0,nan,0.0,0.0,0.0,0.0,0.0016773941,inf,0.0,0.0,0.0004112112,0.0,0.0,0.0,0.0,0.0,0.0,0.0,0.0
4276000,4196000,5.6661822e-05,0.0,6.7566034e-05,1.909997e-09,0.0,277.57327,0.0,0.0,0.0,0.0,0.0,0.0,0.0,1.1358444e-05,0.0,0.0,nan,0.0,0.0,0.0,0.0,0.0016773941,inf,0.0,0.0,0.00030605312,0.0,0.0,0.0,0.0,0.0,0.0,0.0,0.0
4284000,4204000,5.6661822e-05,0.0,6.7566034e-05,1.909997e-09,0.0,277.57327,0.0,0.0,0.0,0.0,0.0,0.0,0.0,1.1358444e-05,0.0,0.0,nan,0.0,0.0,0.0,0.0,0.0016773941,inf,0.0,0.0,0.0003763287,0.0,0.0,0.0,0.0,0.0,0.0,0.0,0.0
4292000,4212000,5.6661822e-05,0.0,6.7566034e-05,1.909997e-09,0.0,277.57327,0.0,0.0,0.0,0.0,0.0,0.0,0.0,1.1358444e-05,0.0,0.0,nan,0.0,0.0,0.0,0.0,0.00011615117,inf,0.0,0.0,3.6822643e-05,0.0,0.0,0.0,0.0,0.0,0.0,0.0,0.0
4300000,4220000,5.6661822e-05,0.0,6.7566034e-05,1.909997e-09,0.0,277.57327,0.0,0.0,0.0,0.0,0.0,0.0,0.0,1.1358444e-05,0.0,0.0,nan,0.0,0.0,0.0,0.0,0.00011615117,inf,0.0,0.0,0.00010504127,0.0,0.0,0.0,0.0,0.0,0.0,0.0,0.0
4308000,4228000,5.6661822e-05,0.0,6.7566034e-05,1.909997e-09,0.0,277.57327,0.0,0.0,0.0,0.0,0.0,0.0,0.0,1.1358444e-05,0.0,0.0,nan,0.0,0.0,0.0,0.0,0.00011615117,inf,0.0,0.0,0.00013247092,0.0,0.0,0.0,0.0,0.0,0.0,0.0,0.0
4316000,4236000,5.6661822e-05,0.0,6.7566034e-05,1.909997e-09,0.0,277.57327,0.0,0.0,0.0,0.0,0.0,0.0,0.0,5.8714386e-07,0.0,0.0,nan,0.0,0.0,0.0,0.0,0.00011615117,inf,0.0,0.0,0.00022752336,0.0,0.0,0.0,0.0,0.0,0.0,0.0,0.0
4324000,4244000,5.6661822e-05,0.0,6.7566034e-05,1.909997e-09,0.0,277.57327,0.0,0.0,0.0,0.0,0.0,0.0,0.0,5.8714386e-07,0.0,0.0,nan,0.0,0.0,0.0,0.0,0.00011615117,inf,0.0,0.0,0.00031394788,0.0,0.0,0.0,0.0,0.0,0.0,0.0,0.0
4332000,4252000,5.6661822e-05,0.0,6.7566034e-05,1.909997e-09,0.0,277.57327,0.0,0.0,0.0,0.0,0.0,0.0,0.0,5.8714386e-07,0.0,0.0,nan,0.0,0.0,0.0,0.0,0.00011615117,inf,0.0,0.0,8.16702e-05,0.0,0.0,0.0,0.0,0.0,0.0,0.0,0.0
4340000,4260000,5.6661822e-05,0.0,6.7566034e-05,1.909997e-09,0.0,277.57327,0.0,0.0,0.0,0.0,0.0,0.0,0.0,5.8714386e-07,0.0,0.0,nan,0.0,0.0,0.0,0.0,0.00011615117,inf,0.0,0.0,7.5421153e-06,0.0,0.0,0.0,0.0,0.0,0.0,0.0,0.0
4348000,4268000,5.6661822e-05,0.0,6.7566034e-05,1.909997e-09,0.0,277.57327,0.0,0.0,0.0,0.0,0.0,0.0,0.0,5.8714386e-07,0.0,0.0,nan,0.0,0.0,0.0,0.0,0.00011615117,inf,0.0,0.0,0.00017513653,0.0,0.0,0.0,0.0,0.0,0.0,0.0,0.0
4356000,4276000,5.6661822e-05,0.0,6.7566034e-05,1.909997e-09,0.0,277.57327,0.0,0.0,0.0,0.0,0.0,0.0,0.0,5.8714386e-07,0.0,0.0,nan,0.0,0.0,0.0,0.0,0.0001593948,inf,0.0,0.0,0.00056136335,0.0,0.0,0.0,0.0,0.0,0.0,0.0,0.0
4364000,4284000,5.6661822e-05,0.0,6.7566034e-05,1.909997e-09,0.0,277.57327,0.0,0.0,0.0,0.0,0.0,0.0,0.0,5.8714386e-07,0.0,0.0,nan,0.0,0.0,0.0,0.0,0.0001593948,inf,0.0,0.0,0.00031717535,0.0,0.0,0.0,0.0,0.0,0.0,0.0,0.0
4372000,4292000,5.6661822e-05,0.0,6.7566034e-05,1.909997e-09,0.0,277.57327,0.0,0.0,0.0,0.0,0.0,0.0,0.0,1.0505421e-05,0.0,0.0,nan,0.0,0.0,0.0,0.0,0.0001593948,inf,0.0,0.0,0.0007227605,0.0,0.0,0.0,0.0,0.0,0.0,0.0,0.0
4380000,4300000,5.6661822e-05,0.0,6.7566034e-05,1.909997e-09,0.0,277.57327,0.0,0.0,0.0,0.0,0.0,0.0,0.0,1.0505421e-05,0.0,0.0,nan,0.0,0.0,0.0,0.0,0.0001593948,inf,0.0,0.0,0.00014576889,0.0,0.0,0.0,0.0,0.0,0.0,0.0,0.0
4388000,4308000,5.6661822e-05,0.0,6.7566034e-05,1.909997e-09,0.0,277.57327,0.0,0.0,0.0,0.0,0.0,0.0,0.0,1.0505421e-05,0.0,0.0,nan,0.0,0.0,0.0,0.0,0.0001593948,inf,0.0,0.0,0.0010956677,0.0,0.0,0.0,0.0,0.0,0.0,0.0,0.0
4396000,4316000,1.4257296e-05,0.0,0.000116846975,1.0200667e-08,0.0,1.2482355e-10,0.0,0.0,0.0,0.0,0.0,0.0,0.0,1.0505421e-05,0.0,0.0,nan,0.0,0.0,0.0,0.0,0.0001593948,inf,0.0,0.0,0.0005726023,0.0,0.0,0.0,0.0,0.0,0.0,0.0,0.0
4404000,4324000,1.4257296e-05,0.0,0.000116846975,1.0200667e-08,0.0,1.2482355e-10,0.0,0.0,0.0,0.0,0.0,0.0,0.0,1.0505421e-05,0.0,0.0,nan,0.0,0.0,0.0,0.0,0.0001593948,inf,0.0,0.0,0.0001774864,0.0,0.0,0.0,0.0,0.0,0.0,0.0,0.0
4412000,4332000,1.4257296e-05,0.0,0.000116846975,1.0200667e-08,0.0,1.2482355e-10,0.0,0.0,0.0,0.0,0.0,0.0,0.0,1.0505421e-05,0.0,0.0,nan,0.0,0.0,0.0,0.0,0.0001593948,inf,0.0,0.0,0.00055174826,0.0,0.0,0.0,0.0,0.0,0.0,0.0,0.0
4420000,4340000,1.4257296e-05,0.0,0.000116846975,1.0200667e-08,0.0,1.2482355e-10,0.0,0.0,0.0,0.0,0.0,0.0,0.0,1.0505421e-05,0.0,0.0,nan,0.0,0.0,0.0,0.0,0.0001593948,inf,0.0,0.0,0.00080426224,0.0,0.0,0.0,0.0,0.0,0.0,0.0,0.0
4428000,4348000,1.4257296e-05,0.0,0.000116846975,1.0200667e-08,0.0,1.2482355e-10,0.0,0.0,0.0,0.0,0.0,0.0,0.0,1.0505421e-05,0.0,0.0,nan,0.0,0.0,0.0,0.0,3.429323e-06,inf,0.0,0.0,0.00076876517,0.0,0.0,0.0,0.0,0.0,0.0,0.0,0.0
4436000,4356000,1.4257296e-05,0.0,0.000116846975,1.0200667e-08,0.0,1.2482355e-10,0.0,0.0,0.0,0.0,0.0,0.0,0.0,8.4598e-05,0.0,0.0,nan,0.0,0.0,0.0,0.0,3.429323e-06,inf,0.0,0.0,0.00012420537,0.0,0.0,0.0,0.0,0.0,0.0,0.0,0.0
4444000,4364000,1.4257296e-05,0.0,0.000116846975,1.0200667e-08,0.0,1.2482355e-10,0.0,0.0,0.0,0.0,0.0,0.0,0.0,8.4598e-05,0.0,0.0,nan,0.0,0.0,0.0,0.0,3.429323e-06,inf,0.0,0.0,2.2500413e-05,0.0,0.0,0.0,0.0,0.0,0.0,0.0,0.0
4452000,4372000,1.4257296e-05,0.0,0.000116846975,1.0200667e-08,0.0,1.2482355e-10,0.0,0.0,0.0,0.0,0.0,0.0,0.0,8.4598e-05,0.0,0.0,nan,0.0,0.0,0.0,0.0,3.429323e-06,inf,0.0,0.0,0.0001696124,0.0,0.0,0.0,0.0,0.0,0.0,0.0,0.0
4460000,4380000,1.4257296e-05,0.0,0.000116846975,1.0200667e-08,0.0,1.2482355e-10,0.0,0.0,0.0,0.0,0.0,0.0,0.0,8.4598e-05,0.0,0.0,nan,0.0,0.0,0.0,0.0,3.429323e-06,inf,0.0,0.0,0.00055166974,0.0,0.0,0.0,0.0,0.0,0.0,0.0,0.0
4468000,4388000,1.4257296e-05,0.0,0.000116846975,1.0200667e-08,0.0,1.2482355e-10,0.0,0.0,0.0,0.0,0.0,0.0,0.0,8.4598e-05,0.0,0.0,nan,0.0,0.0,0.0,0.0,3.429323e-06,inf,0.0,0.0,0.00037268552,0.0,0.0,0.0,0.0,0.0,0.0,0.0,0.0
4476000,4396000,1.4257296e-05,0.0,0.000116846975,1.0200667e-08,0.0,1.2482355e-10,0.0,0.0,0.0,0.0,0.0,0.0,0.0,8.4598e-05,0.0,0.0,nan,0.0,0.0,0.0,0.0,3.429323e-06,inf,0.0,0.0,0.00029485542,0.0,0.0,0.0,0.0,0.0,0.0,0.0,0.0
4484000,4404000,1.4257296e-05,0.0,0.000116846975,1.0200667e-08,0.0,1.2482355e-10,0.0,0.0,0.0,0.0,0.0,0.0,0.0,8.4598e-05,0.0,0.0,nan,0.0,0.0,0.0,0.0,3.429323e-06,inf,0.0,0.0,0.00049530884,0.0,0.0,0.0,0.0,0.0,0.0,0.0,0.0
4492000,4412000,1.4257296e-05,0.0,0.000116846975,1.0200667e-08,0.0,1.2482355e-10,0.0,0.0,0.0,0.0,0.0,0.0,0.0,7.055936e-07,0.0,0.0,nan,0.0,0.0,0.0,0.0,3.429323e-06,inf,0.0,0.0,0.00047384505,0.0,0.0,0.0,0.0,0.0,0.0,0.0,0.0
4500000,4420000,1.4257296e-05,0.0,0.000116846975,1.0200667e-08,0.0,1.2482355e-10,0.0,0.0,0.0,0.0,0.0,0.0,0.0,7.055936e-07,0.0,0.0,nan,0.0,0.0,0.0,0.0,6.6616194e-05,inf,0.0,0.0,0.00045481918,0.0,0.0,0.0,0.0,0.0,0.0,0.0,0.0
4508000,4428000,1.4257296e-05,0.0,0.000116846975,1.0200667e-08,0.0,1.2482355e-10,0.0,0.0,0.0,0.0,0.0,0.0,0.0,7.055936e-07,0.0,0.0,nan,0.0,0.0,0.0,0.0,6.6616194e-05,inf,0.0,0.0,0.00046024975,0.0,0.0,0.0,0.0,0.0,0.0,0.0,0.0
4516000,4436000,1.4257296e-05,0.0,0.000116846975,1.0200667e-08,0.0,1.2482355e-10,0.0,0.0,0.0,0.0,0.0,0.0,0.0,7.055936e-07,0.0,0.0,nan,0.0,0.0,0.0,0.0,6.6616194e-05,inf,0.0,0.0,0.00055499375,0.0,0.0,0.0,0.0,0.0,0.0,0.0,0.0
4524000,4444000,1.4257296e-05,0.0,0.000116846975,1.0200667e-08,0.0,1.2482355e-10,0.0,0.0,0.0,0.0,0.0,0.0,0.0,7.055936e-07,0.0,0.0,nan,0.0,0.0,0.0,0.0,6.6616194e-05,inf,0.0,0.0,0.0002022292,0.0,0.0,0.0,0.0,0.0,0.0,0.0,0.0
4532000,4452000,1.4257296e-05,0.0,0.000116846975,1.0200667e-08,0.0,1.2482355e-10,0.0,0.0,0.0,0.0,0.0,0.0,0.0,7.055936e-07,0.0,0.0,nan,0.0,0.0,0.0,0.0,6.6616194e-05,inf,0.0,0.0,0.00042121115,0.0,0.0,0.0,0.0,0.0,0.0,0.0,0.0
4540000,4460000,1.4257296e-05,0.0,0.000116846975,1.0200667e-08,0.0,1.2482355e-10,0.0,0.0,0.0,0.0,0.0,0.0,0.0,7.055936e-07,0.0,0.0,nan,0.0,0.0,0.0,0.0,6.6616194e-05,inf,0.0,0.0,0.00047945077,0.0,0.0,0.0,0.0,0.0,0.0,0.0,0.0
4548000,4468000,1.4257296e-05,0.0,0.000116846975,1.0200667e-08,0.0,1.2482355e-10,0.0,0.0,0.0,0.0,0.0,0.0,0.0,7.055936e-07,0.0,0.0,nan,0.0,0.0,0.0,0.0,6.6616194e-05,inf,0.0,0.0,4.1685773e-05,0.0,0.0,0.0,0.0,0.0,0.0,0.0,0.0
4556000,4476000,1.4257296e-05,0.0,0.000116846975,1.0200667e-08,0.0,1.2482355e-10,0.0,0.0,0.0,0.0,0.0,0.0,0.0,1.3756381e-05,0.0,0.0,nan,0.0,0.0,0.0,0.0,6.6616194e-05,inf,0.0,0.0,0.00011841197,0.0,0.0,0.0,0.0,0.0,0.0,0.0,0.0
4564000,4484000,1.4257296e-05,0.0,0.000116846975,1.0200667e-08,0.0,1.2482355e-10,0.0,0.0,0.0,0.0,0.0,0.0,0.0,1.3756381e-05,0.0,0.0,nan,0.0,0.0,0.0,0.0,6.6616194e-05,inf,0.0,0.0,0.00030318226,0.0,0.0,0.0,0.0,0.0,0.0,0.0,0.0
4572000,4492000,1.4257296e-05,0.0,0.000116846975,1.0200667e-08,0.0,1.2482355e-10,0.0,0.0,0.0,0.0,0.0,0.0,0.0,1.3756381e-05,0.0,0.0,nan,0.0,0.0,0.0,0.0,3.8709957e-05,inf,0.0,0.0,5.9659415e-05,0.0,0.0,0.0,0.0,0.0,0.0,0.0,0.0
4580000,4500000,1.4257296e-05,0.0,0.000116846975,1.0200667e-08,0.0,1.2482355e-10,0.0,0.0,0.0,0.0,0.0,0.0,0.0,1.3756381e-05,0.0,0.0,nan,0.0,0.0,0.0,0.0,3.8709957e-05,inf,0.0,0.0,5.563517e-05,0.0,0.0,0.0,0.0,0.0,0.0,0.0,0.0
4588000,4508000,1.4257296e-05,0.0,0.000116846975,1.0200667e-08,0.0,1.2482355e-10,0.0,0.0,0.0,0.0,0.0,0.0,0.0,1.3756381e-05,0.0,0.0,nan,0.0,0.0,0.0,0.0,3.8709957e-05,inf,0.0,0.0,0.00021890667,0.0,0.0,0.0,0.0,0.0,0.0,0.0,0.0
4596000,4516000,1.4257296e-05,0.0,0.000116846975,1.0200667e-08,0.0,1.2482355e-10,0.0,0.0,0.0,0.0,0.0,0.0,0.0,1.3756381e-05,0.0,0.0,nan,0.0,0.0,0.0,0.0,3.8709957e-05,inf,0.0,0.0,0.0006002352,0.0,0.0,0.0,0.0,0.0,0.0,0.0,0.0
4604000,4524000,1.4257296e-05,0.0,0.000116846975,1.0200667e-08,0.0,1.2482355e-10,0.0,0.0,0.0,0.0,0.0,0.0,0.0,1.3756381e-05,0.0,0.0,nan,0.0,0.0,0.0,0.0,3.8709957e-05,inf,0.0,0.0,0.00013411064,0.0,0.0,0.0,0.0,0.0,0.0,0.0,0.0
4612000,4532000,1.4257296e-05,0.0,0.000116846975,1.0200667e-08,0.0,1.2482355e-10,0.0,0.0,0.0,0.0,0.0,0.0,0.0,4.1489635e-08,0.0,0.0,nan,0.0,0.0,0.0,0.0,3.8709957e-05,inf,0.0,0.0,0.00026659848,0.0,0.0,0.0,0.0,0.0,0.0,0.0,0.0
4620000,4540000,1.4257296e-05,0.0,0.000116846975,1.0200667e-08,0.0,1.2482355e-10,0.0,0.0,0.0,0.0,0.0,0.0,0.0,4.1489635e-08,0.0,0.0,nan,0.0,0.0,0.0,0.0,3.8709957e-05,inf,0.0,0.0,0.00026413953,0.0,0.0,0.0,0.0,0.0,0.0,0.0,0.0
4628000,4548000,1.4257296e-05,0.0,0.000116846975,1.0200667e-08,0.0,1.2482355e-10,0.0,0.0,0.0,0.0,0.0,0.0,0.0,4.1489635e-08,0.0,0.0,nan,0.0,0.0,0.0,0.0,3.8709957e-05,inf,0.0,0.0,8.649261e-05,0.0,0.0,0.0,0.0,0.0,0.0,0.0,0.0
4636000,4556000,1.4257296e-05,0.0,0.000116846975,1.0200667e-08,0.0,1.2482355e-10,0.0,0.0,0.0,0.0,0.0,0.0,0.0,4.1489635e-08,0.0,0.0,nan,0.0,0.0,0.0,0.0,0.000123282,inf,0.0,0.0,0.0010263077,0.0,0.0,0.0,0.0,0.0,0.0,0.0,0.0
4644000,4564000,1.4257296e-05,0.0,0.000116846975,1.0200667e-08,0.0,1.2482355e-10,0.0,0.0,0.0,0.0,0.0,0.0,0.0,4.1489635e-08,0.0,0.0,nan,0.0,0.0,0.0,0.0,0.000123282,inf,0.0,0.0,0.00024549416,0.0,0.0,0.0,0.0,0.0,0.0,0.0,0.0
4652000,4572000,1.4257296e-05,0.0,0.000116846975,1.0200667e-08,0.0,1.2482355e-10,0.0,0.0,0.0,0.0,0.0,0.0,0.0,4.1489635e-08,0.0,0.0,nan,0.0,0.0,0.0,0.0,0.000123282,inf,0.0,0.0,0.00055307837,0.0,0.0,0.0,0.0,0.0,0.0,0.0,0.0
4660000,4580000,1.4257296e-05,0.0,0.000116846975,1.0200667e-08,0.0,1.2482355e-10,0.0,0.0,0.0,0.0,0.0,0.0,0.0,2.4626906e-05,0.0,0.0,nan,0.0,0.0,0.0,0.0,0.000123282,inf,0.0,0.0,0.001373149,0.0,0.0,0.0,0.0,0.0,0.0,0.0,0.0
4668000,4588000,1.4257296e-05,0.0,0.000116846975,1.0200667e-08,0.0,1.2482355e-10,0.0,0.0,0.0,0.0,0.0,0.0,0.0,2.4626906e-05,0.0,0.0,nan,0.0,0.0,0.0,0.0,0.000123282,inf,0.0,0.0,0.0007723915,0.0,0.0,0.0,0.0,0.0,0.0,0.0,0.0
4676000,4596000,1.4257296e-05,0.0,0.000116846975,1.0200667e-08,0.0,1.2482355e-10,0.0,0.0,0.0,0.0,0.0,0.0,0.0,2.4626906e-05,0.0,0.0,nan,0.0,0.0,0.0,0.0,0.000123282,inf,0.0,0.0,0.00018476744,0.0,0.0,0.0,0.0,0.0,0.0,0.0,0.0
4684000,4604000,1.4257296e-05,0.0,0.000116846975,1.0200667e-08,0.0,1.2482355e-10,0.0,0.0,0.0,0.0,0.0,0.0,0.0,2.4626906e-05,0.0,0.0,nan,0.0,0.0,0.0,0.0,0.000123282,inf,0.0,0.0,0.00013071789,0.0,0.0,0.0,0.0,0.0,0.0,0.0,0.0
4692000,4612000,1.4257296e-05,0.0,0.000116846975,1.0200667e-08,0.0,1.2482355e-10,0.0,0.0,0.0,0.0,0.0,0.0,0.0,2.4626906e-05,0.0,0.0,nan,0.0,0.0,0.0,0.0,0.000123282,inf,0.0,0.0,0.00030871553,0.0,0.0,0.0,0.0,0.0,0.0,0.0,0.0
4700000,4620000,1.4257296e-05,0.0,0.000116846975,1.0200667e-08,0.0,1.2482355e-10,0.0,0.0,0.0,0.0,0.0,0.0,0.0,2.4626906e-05,0.0,0.0,nan,0.0,0.0,0.0,0.0,0.000123282,inf,0.0,0.0,0.00027910172,0.0,0.0,0.0,0.0,0.0,0.0,0.0,0.0
4708000,4628000,1.4257296e-05,0.0,0.000116846975,1.0200667e-08,0.0,1.2482355e-10,0.0,0.0,0.0,0.0,0.0,0.0,0.0,2.4626906e-05,0.0,0.0,nan,0.0,0.0,0.0,0.0,3.1842268e-07,inf,0.0,0.0,0.00011344643,0.0,0.0,0.0,0.0,0.0,0.0,0.0,0.0
4716000,4636000,1.4257296e-05,0.0,0.000116846975,1.0200667e-08,0.0,1.2482355e-10,0.0,0.0,0.0,0.0,0.0,0.0,0.0,2.4626906e-05,0.0,0.0,nan,0.0,0.0,0.0,0.0,3.1842268e-07,inf,0.0,0.0,0.0011250174,0.0,0.0,0.0,0.0,0.0,0.0,0.0,0.0
4724000,4644000,1.4257296e-05,0.0,0.000116846975,1.0200667e-08,0.0,1.2482355e-10,0.0,0.0,0.0,0.0,0.0,0.0,0.0,1.8288357e-07,0.0,0.0,nan,0.0,0.0,0.0,0.0,3.1842268e-07,inf,0.0,0.0,8.144965e-05,0.0,0.0,0.0,0.0,0.0,0.0,0.0,0.0
4732000,4652000,1.4257296e-05,0.0,0.000116846975,1.0200667e-08,0.0,1.2482355e-10,0.0,0.0,0.0,0.0,0.0,0.0,0.0,1.8288357e-07,0.0,0.0,nan,0.0,0.0,0.0,0.0,3.1842268e-07,inf,0.0,0.0,0.00012284754,0.0,0.0,0.0,0.0,0.0,0.0,0.0,0.0
4740000,4660000,1.4257296e-05,0.0,0.000116846975,1.0200667e-08,0.0,1.2482355e-10,0.0,0.0,0.0,0.0,0.0,0.0,0.0,1.8288357e-07,0.0,0.0,nan,0.0,0.0,0.0,0.0,3.1842268e-07,inf,0.0,0.0,0.00056888047,0.0,0.0,0.0,0.0,0.0,0.0,0.0,0.0
4748000,4668000,1.4257296e-05,0.0,0.000116846975,1.0200667e-08,0.0,1.2482355e-10,0.0,0.0,0.0,0.0,0.0,0.0,0.0,1.8288357e-07,0.0,0.0,nan,0.0,0.0,0.0,0.0,3.1842268e-07,inf,0.0,0.0,0.00032368628,0.0,0.0,0.0,0.0,0.0,0.0,0.0,0.0
4756000,4676000,1.4257296e-05,0.0,0.000116846975,1.0200667e-08,0.0,1.2482355e-10,0.0,0.0,0.0,0.0,0.0,0.0,0.0,1.8288357e-07,0.0,0.0,nan,0.0,0.0,0.0,0.0,3.1842268e-07,inf,0.0,0.0,0.00030425072,0.0,0.0,0.0,0.0,0.0,0.0,0.0,0.0
4764000,4684000,1.4257296e-05,0.0,0.000116846975,1.0200667e-08,0.0,1.2482355e-10,0.0,0.0,0.0,0.0,0.0,0.0,0.0,1.8288357e-07,0.0,0.0,nan,0.0,0.0,0.0,0.0,3.1842268e-07,inf,0.0,0.0,0.00022338971,0.0,0.0,0.0,0.0,0.0,0.0,0.0,0.0
4772000,4692000,1.4257296e-05,0.0,0.000116846975,1.0200667e-08,0.0,1.2482355e-10,0.0,0.0,0.0,0.0,0.0,0.0,0.0,1.8288357e-07,0.0,0.0,nan,0.0,0.0,0.0,0.0,3.1842268e-07,inf,0.0,0.0,0.00013302974,0.0,0.0,0.0,0.0,0.0,0.0,0.0,0.0
4780000,4700000,1.4257296e-05,0.0,0.000116846975,1.0200667e-08,0.0,1.2482355e-10,0.0,0.0,0.0,0.0,0.0,0.0,0.0,2.8383454e-05,0.0,0.0,nan,0.0,0.0,0.0,0.0,2.22185e-06,inf,0.0,0.0,0.00079489703,0.0,0.0,0.0,0.0,0.0,0.0,0.0,0.0
4788000,4708000,1.4257296e-05,0.0,0.000116846975,1.0200667e-08,0.0,1.2482355e-10,0.0,0.0,0.0,0.0,0.0,0.0,0.0,2.8383454e-05,0.0,0.0,nan,0.0,0.0,0.0,0.0,2.22185e-06,inf,0.0,0.0,0.0013534022,0.0,0.0,0.0,0.0,0.0,0.0,0.0,0.0
4796000,4716000,2.512197e-05,0.0,3.890643e-05,2.1328747e-06,0.0,1.852702e-05,0.0,0.0,0.0,0.0,0.0,0.0,0.0,2.8383454e-05,0.0,0.0,nan,0.0,0.0,0.0,0.0,2.22185e-06,inf,0.0,0.0,0.0005198103,0.0,0.0,0.0,0.0,0.0,0.0,0.0,0.0
4804000,4724000,2.512197e-05,0.0,3.890643e-05,2.1328747e-06,0.0,1.852702e-05,0.0,0.0,0.0,0.0,0.0,0.0,0.0,2.8383454e-05,0.0,0.0,nan,0.0,0.0,0.0,0.0,2.22185e-06,inf,0.0,0.0,9.529401e-05,0.0,0.0,0.0,0.0,0.0,0.0,0.0,0.0
4812000,4732000,2.512197e-05,0.0,3.890643e-05,2.1328747e-06,0.0,1.852702e-05,0.0,0.0,0.0,0.0,0.0,0.0,0.0,2.8383454e-05,0.0,0.0,nan,0.0,0.0,0.0,0.0,2.22185e-06,inf,0.0,0.0,5.8302317e-05,0.0,0.0,0.0,0.0,0.0,0.0,0.0,0.0
4820000,4740000,2.512197e-05,0.0,3.890643e-05,2.1328747e-06,0.0,1.852702e-05,0.0,0.0,0.0,0.0,0.0,0.0,0.0,2.8383454e-05,0.0,0.0,nan,0.0,0.0,0.0,0.0,2.22185e-06,inf,0.0,0.0,0.0019871963,0.0,0.0,0.0,0.0,0.0,0.0,0.0,0.0
4828000,4748000,2.512197e-05,0.0,3.890643e-05,2.1328747e-06,0.0,1.852702e-05,0.0,0.0,0.0,0.0,0.0,0.0,0.0,2.8383454e-05,0.0,0.0,nan,0.0,0.0,0.0,0.0,2.22185e-06,inf,0.0,0.0,0.00041083622,0.0,0.0,0.0,0.0,0.0,0.0,0.0,0.0
4836000,4756000,2.512197e-05,0.0,3.890643e-05,2.1328747e-06,0.0,1.852702e-05,0.0,0.0,0.0,0.0,0.0,0.0,0.0,2.8383454e-05,0.0,0.0,nan,0.0,0.0,0.0,0.0,2.22185e-06,inf,0.0,0.0,0.00086635177,0.0,0.0,0.0,0.0,0.0,0.0,0.0,0.0
4844000,4764000,2.512197e-05,0.0,3.890643e-05,2.1328747e-06,0.0,1.852702e-05,0.0,0.0,0.0,0.0,0.0,0.0,0.0,3.5153637e-06,0.0,0.0,nan,0.0,0.0,0.0,0.0,2.22185e-06,inf,0.0,0.0,0.00015147538,0.0,0.0,0.0,0.0,0.0,0.0,0.0,0.0
4852000,4772000,2.512197e-05,0.0,3.890643e-05,2.1328747e-06,0.0,1.852702e-05,0.0,0.0,0.0,0.0,0.0,0.0,0.0,3.5153637e-06,0.0,0.0,nan,0.0,0.0,0.0,0.0,9.810674e-05,inf,0.0,0.0,0.0015055172,0.0,0.0,0.0,0.0,0.0,0.0,0.0,0.0
4860000,4780000,2.512197e-05,0.0,3.890643e-05,2.1328747e-06,0.0,1.852702e-05,0.0,0.0,0.0,0.0,0.0,0.0,0.0,3.5153637e-06,0.0,0.0,nan,0.0,0.0,0.0,0.0,9.810674e-05,inf,0.0,0.0,0.00014982517,0.0,0.0,0.0,0.0,0.0,0.0,0.0,0.0
4868000,4788000,2.512197e-05,0.0,3.890643e-05,2.1328747e-06,0.0,1.852702e-05,0.0,0.0,0.0,0.0,0.0,0.0,0.0,3.5153637e-06,0.0,0.0,nan,0.0,0.0,0.0,0.0,9.810674e-05,inf,0.0,0.0,0.00051926833,0.0,0.0,0.0,0.0,0.0,0.0,0.0,0.0
4876000,4796000,2.512197e-05,0.0,3.890643e-05,2.1328747e-06,0.0,1.852702e-05,0.0,0.0,0.0,0.0,0.0,0.0,0.0,3.5153637e-06,0.0,0.0,nan,0.0,0.0,0.0,0.0,9.810674e-05,inf,0.0,0.0,0.00024117339,0.0,0.0,0.0,0.0,0.0,0.0,0.0,0.0
4884000,4804000,2.512197e-05,0.0,3.890643e-05,2.1328747e-06,0.0,1.852702e-05,0.0,0.0,0.0,0.0,0.0,0.0,0.0,3.5153637e-06,0.0,0.0,nan,0.0,0.0,0.0,0.0,9.810674e-05,inf,0.0,0.0,0.001479136,0.0,0.0,0.0,0.0,0.0,0.0,0.0,0.0
4892000,4812000,2.512197e-05,0.0,3.890643e-05,2.1328747e-06,0.0,1.852702e-05,0.0,0.0,0.0,0.0,0.0,0.0,0.0,3.5153637e-06,0.0,0.0,nan,0.0,0.0,0.0,0.0,9.810674e-05,inf,0.0,0.0,0.0010119022,0.0,0.0,0.0,0.0,0.0,0.0,0.0,0.0
4900000,4820000,2.512197e-05,0.0,3.890643e-05,2.1328747e-06,0.0,1.852702e-05,0.0,0.0,0.0,0.0,0.0,0.0,0.0,4.5972643e-06,0.0,0.0,nan,0.0,0.0,0.0,0.0,9.810674e-05,inf,0.0,0.0,0.0008094526,0.0,0.0,0.0,0.0,0.0,0.0,0.0,0.0
4908000,4828000,2.512197e-05,0.0,3.890643e-05,2.1328747e-06,0.0,1.852702e-05,0.0,0.0,0.0,0.0,0.0,0.0,0.0,4.5972643e-06,0.0,0.0,nan,0.0,0.0,0.0,0.0,9.810674e-05,inf,0.0,0.0,0.0010188282,0.0,0.0,0.0,0.0,0.0,0.0,0.0,0.0
4916000,4836000,2.512197e-05,0.0,3.890643e-05,2.1328747e-06,0.0,1.852702e-05,0.0,0.0,0.0,0.0,0.0,0.0,0.0,4.5972643e-06,0.0,0.0,nan,0.0,0.0,0.0,0.0,9.810674e-05,inf,0.0,0.0,0.00043288912,0.0,0.0,0.0,0.0,0.0,0.0,0.0,0.0
4924000,4844000,2.512197e-05,0.0,3.890643e-05,2.1328747e-06,0.0,1.852702e-05,0.0,0.0,0.0,0.0,0.0,0.0,0.0,4.5972643e-06,0.0,0.0,nan,0.0,0.0,0.0,0.0,0.0024831225,inf,0.0,0.0,2.8056083e-05,0.0,0.0,0.0,0.0,0.0,0.0,0.0,0.0
4932000,4852000,2.512197e-05,0.0,3.890643e-05,2.1328747e-06,0.0,1.852702e-05,0.0,0.0,0.0,0.0,0.0,0.0,0.0,4.5972643e-06,0.0,0.0,nan,0.0,0.0,0.0,0.0,0.0024831225,inf,0.0,0.0,0.0001952896,0.0,0.0,0.0,0.0,0.0,0.0,0.0,0.0
4940000,4860000,2.512197e-05,0.0,3.890643e-05,2.1328747e-06,0.0,1.852702e-05,0.0,0.0,0.0,0.0,0.0,0.0,0.0,4.5972643e-06,0.0,0.0,nan,0.0,0.0,0.0,0.0,0.0024831225,inf,0.0,0.0,0.00016900913,0.0,0.0,0.0,0.0,0.0,0.0,0.0,0.0
4948000,4868000,2.512197e-05,0.0,3.890643e-05,2.1328747e-06,0.0,1.852702e-05,0.0,0.0,0.0,0.0,0.0,0.0,0.0,4.5972643e-06,0.0,0.0,nan,0.0,0.0,0.0,0.0,0.0024831225,inf,0.0,0.0,0.00037651922,0.0,0.0,0.0,0.0,0.0,0.0,0.0,0.0
4956000,4876000,2.512197e-05,0.0,3.890643e-05,2.1328747e-06,0.0,1.852702e-05,0.0,0.0,0.0,0.0,0.0,0.0,0.0,4.5972643e-06,0.0,0.0,nan,0.0,0.0,0.0,0.0,0.0024831225,inf,0.0,0.0,0.0008723687,0.0,0.0,0.0,0.0,0.0,0.0,0.0,0.0
4964000,4884000,2.512197e-05,0.0,3.890643e-05,2.1328747e-06,0.0,1.852702e-05,0.0,0.0,0.0,0.0,0.0,0.0,0.0,1.3734464e-06,0.0,0.0,nan,0.0,0.0,0.0,0.0,0.0024831225,inf,0.0,0.0,0.00025715234,0.0,0.0,0.0,0.0,0.0,0.0,0.0,0.0
4972000,4892000,2.512197e-05,0.0,3.890643e-05,2.1328747e-06,0.0,1.852702e-05,0.0,0.0,0.0,0.0,0.0,0.0,0.0,1.3734464e-06,0.0,0.0,nan,0.0,0.0,0.0,0.0,0.0024831225,inf,0.0,0.0,0.00023151241,0.0,0.0,0.0,0.0,0.0,0.0,0.0,0.0
4980000,4900000,2.512197e-05,0.0,3.890643e-05,2.1328747e-06,0.0,1.852702e-05,0.0,0.0,0.0,0.0,0.0,0.0,0.0,1.3734464e-06,0.0,0.0,nan,0.0,0.0,0.0,0.0,0.0024831225,inf,0.0,0.0,0.0012640425,0.0,0.0,0.0,0.0,0.0,0.0,0.0,0.0
4988000,4908000,2.512197e-05,0.0,3.890643e-05,2.1328747e-06,0.0,1.852702e-05,0.0,0.0,0.0,0.0,0.0,0.0,0.0,1.3734464e-06,0.0,0.0,nan,0.0,0.0,0.0,0.0,0.0024831225,inf,0.0,0.0,0.0010147014,0.0,0.0,0.0,0.0,0.0,0.0,0.0,0.0
4996000,4916000,2.512197e-05,0.0,3.890643e-05,2.1328747e-06,0.0,1.852702e-05,0.0,0.0,0.0,0.0,0.0,0.0,0.0,1.3734464e-06,0.0,0.0,nan,0.0,0.0,0.0,0.0,4.3494268e-07,inf,0.0,0.0,0.00010669449,0.0,0.0,0.0,0.0,0.0,0.0,0.0,0.0
5004000,4924000,2.512197e-05,0.0,3.890643e-05,2.1328747e-06,0.0,1.852702e-05,0.0,0.0,0.0,0.0,0.0,0.0,0.0,1.3734464e-06,0.0,0.0,nan,0.0,0.0,0.0,0.0,4.3494268e-07,inf,0.0,0.0,0.00050459045,0.0,0.0,0.0,0.0,0.0,0.0,0.0,0.0
5012000,4932000,2.512197e-05,0.0,3.890643e-05,2.1328747e-06,0.0,1.852702e-05,0.0,0.0,0.0,0.0,0.0,0.0,0.0,1.3734464e-06,0.0,0.0,nan,0.0,0.0,0.0,0.0,4.3494268e-07,inf,0.0,0.0,0.00066764886,0.0,0.0,0.0,0.0,0.0,0.0,0.0,0.0
5020000,4940000,2.512197e-05,0.0,3.890643e-05,2.1328747e-06,0.0,1.852702e-05,0.0,0.0,0.0,0.0,0.0,0.0,0.0,4.209972e-05,0.0,0.0,nan,0.0,0.0,0.0,0.0,4.3494268e-07,inf,0.0,0.0,9.225317e-06,0.0,0.0,0.0,0.0,0.0,0.0,0.0,0.0
5028000,4948000,2.512197e-05,0.0,3.890643e-05,2.1328747e-06,0.0,1.852702e-05,0.0,0.0,0.0,0.0,0.0,0.0,0.0,4.209972e-05,0.0,0.0,nan,0.0,0.0,0.0,0.0,4.3494268e-07,inf,0.0,0.0,0.0009689472,0.0,0.0,0.0,0.0,0.0,0.0,0.0,0.0
5036000,4956000,2.512197e-05,0.0,3.890643e-05,2.1328747e-06,0.0,1.852702e-05,0.0,0.0,0.0,0.0,0.0,0.0,0.0,4.209972e-05,0.0,0.0,nan,0.0,0.0,0.0,0.0,4.3494268e-07,inf,0.0,0.0,0.00013079672,0.0,0.0,0.0,0.0,0.0,0.0,0.0,0.0
5044000,4964000,2.512197e-05,0.0,3.890643e-05,2.1328747e-06,0.0,1.852702e-05,0.0,0.0,0.0,0.0,0.0,0.0,0.0,4.209972e-05,0.0,0.0,nan,0.0,0.0,0.0,0.0,4.3494268e-07,inf,0.0,0.0,0.00020143461,0.0,0.0,0.0,0.0,0.0,0.0,0.0,0.0
5052000,4972000,2.512197e-05,0.0,3.890643e-05,2.1328747e-06,0.0,1.852702e-05,0.0,0.0,0.0,0.0,0.0,0.0,0.0,4.209972e-05,0.0,0.0,nan,0.0,0.0,0.0,0.0,4.3494268e-07,inf,0.0,0.0,5.362272e-05,0.0,0.0,0.0,0.0,0.0,0.0,0.0,0.0
5060000,4980000,2.512197e-05,0.0,3.890643e-05,2.1328747e-06,0.0,1.852702e-05,0.0,0.0,0.0,0.0,0.0,0.0,0.0,4.209972e-05,0.0,0.0,nan,0.0,0.0,0.0,0.0,4.3494268e-07,inf,0.0,0.0,0.0011161759,0.0,0.0,0.0,0.0,0.0,0.0,0.0,0.0
5068000,4988000,2.512197e-05,0.0,3.890643e-05,2.1328747e-06,0.0,1.852702e-05,0.0,0.0,0.0,0.0,0.0,0.0,0.0,4.209972e-05,0.0,0.0,nan,0.0,0.0,0.0,0.0,0.0028601773,inf,0.0,0.0,0.00057275227,0.0,0.0,0.0,0.0,0.0,0.0,0.0,0.0
5076000,4996000,2.512197e-05,0.0,3.890643e-05,2.1328747e-06,0.0,1.852702e-05,0.0,0.0,0.0,0.0,0.0,0.0,0.0,4.209972e-05,0.0,0.0,nan,0.0,0.0,0.0,0.0,0.0028601773,inf,0.0,0.0,0.0006244907,0.0,0.0,0.0,0.0,0.0,0.0,0.0,0.0
5084000,5004000,2.512197e-05,0.0,3.890643e-05,2.1328747e-06,0.0,1.852702e-05,0.0,0.0,0.0,0.0,0.0,0.0,0.0,5.9414083e-06,0.0,0.0,nan,0.0,0.0,0.0,0.0,0.0028601773,inf,0.0,0.0,0.0027446884,0.0,0.0,0.0,0.0,0.0,0.0,0.0,0.0
5092000,5012000,2.512197e-05,0.0,3.890643e-05,2.1328747e-06,0.0,1.852702e-05,0.0,0.0,0.0,0.0,0.0,0.0,0.0,5.9414083e-06,0.0,0.0,nan,0.0,0.0,0.0,0.0,0.0028601773,inf,0.0,0.0,0.0010908574,0.0,0.0,0.0,0.0,0.0,0.0,0.0,0.0
5100000,5020000,2.512197e-05,0.0,3.890643e-05,2.1328747e-06,0.0,1.852702e-05,0.0,0.0,0.0,0.0,0.0,0.0,0.0,5.9414083e-06,0.0,0.0,nan,0.0,0.0,0.0,0.0,0.0028601773,inf,0.0,0.0,9.742524e-05,0.0,0.0,0.0,0.0,0.0,0.0,0.0,0.0
5108000,5028000,2.512197e-05,0.0,3.890643e-05,2.1328747e-06,0.0,1.852702e-05,0.0,0.0,0.0,0.0,0.0,0.0,0.0,5.9414083e-06,0.0,0.0,nan,0.0,0.0,0.0,0.0,0.0028601773,inf,0.0,0.0,0.00037276113,0.0,0.0,0.0,0.0,0.0,0.0,0.0,0.0
5116000,5036000,2.512197e-05,0.0,3.890643e-05,2.1328747e-06,0.0,1.852702e-05,0.0,0.0,0.0,0.0,0.0,0.0,0.0,5.9414083e-06,0.0,0.0,nan,0.0,0.0,0.0,0.0,0.0028601773,inf,0.0,0.0,0.00036254,0.0,0.0,0.0,0.0,0.0,0.0,0.0,0.0
5124000,5044000,2.512197e-05,0.0,3.890643e-05,2.1328747e-06,0.0,1.852702e-05,0.0,0.0,0.0,0.0,0.0,0.0,0.0,5.9414083e-06,0.0,0.0,nan,0.0,0.0,0.0,0.0,0.0028601773,inf,0.0,0.0,7.40362e-05,0.0,0.0,0.0,0.0,0.0,0.0,0.0,0.0
5132000,5052000,2.512197e-05,0.0,3.890643e-05,2.1328747e-06,0.0,1.852702e-05,0.0,0.0,0.0,0.0,0.0,0.0,0.0,5.9414083e-06,0.0,0.0,nan,0.0,0.0,0.0,0.0,0.0028601773,inf,0.0,0.0,0.00010741044,0.0,0.0,0.0,0.0,0.0,0.0,0.0,0.0
5140000,5060000,2.512197e-05,0.0,3.890643e-05,2.1328747e-06,0.0,1.852702e-05,0.0,0.0,0.0,0.0,0.0,0.0,0.0,5.403415e-06,0.0,0.0,nan,0.0,0.0,0.0,0.0,5.935325e-05,inf,0.0,0.0,0.00026372605,0.0,0.0,0.0,0.0,0.0,0.0,0.0,0.0
5148000,5068000,2.512197e-05,0.0,3.890643e-05,2.1328747e-06,0.0,1.852702e-05,0.0,0.0,0.0,0.0,0.0,0.0,0.0,5.403415e-06,0.0,0.0,nan,0.0,0.0,0.0,0.0,5.935325e-05,inf,0.0,0.0,0.0004213017,0.0,0.0,0.0,0.0,0.0,0.0,0.0,0.0
5156000,5076000,2.512197e-05,0.0,3.890643e-05,2.1328747e-06,0.0,1.852702e-05,0.0,0.0,0.0,0.0,0.0,0.0,0.0,5.403415e-06,0.0,0.0,nan,0.0,0.0,0.0,0.0,5.935325e-05,inf,0.0,0.0,0.00014441978,0.0,0.0,0.0,0.0,0.0,0.0,0.0,0.0
5164000,5084000,2.512197e-05,0.0,3.890643e-05,2.1328747e-06,0.0,1.852702e-05,0.0,0.0,0.0,0.0,0.0,0.0,0.0,5.403415e-06,0.0,0.0,nan,0.0,0.0,0.0,0.0,5.935325e-05,inf,0.0,0.0,9.7171134e-05,0.0,0.0,0.0,0.0,0.0,0.0,0.0,0.0
5172000,5092000,2.512197e-05,0.0,3.890643e-05,2.1328747e-06,0.0,1.852702e-05,0.0,0.0,0.0,0.0,0.0,0.0,0.0,5.403415e-06,0.0,0.0,nan,0.0,0.0,0.0,0.0,5.935325e-05,inf,0.0,0.0,0.00010867095,0.0,0.0,0.0,0.0,0.0,0.0,0.0,0.0
5180000,5100000,2.512197e-05,0.0,3.890643e-05,2.1328747e-06,0.0,1.852702e-05,0.0,0.0,0.0,0.0,0.0,0.0,0.0,5.403415e-06,0.0,0.0,nan,0.0,0.0,0.0,0.0,5.935325e-05,inf,0.0,0.0,0.00027389557,0.0,0.0,0.0,0.0,0.0,0.0,0.0,0.0
5188000,5108000,2.512197e-05,0.0,3.890643e-05,2.1328747e-06,0.0,1.852702e-05,0.0,0.0,0.0,0.0,0.0,0.0,0.0,5.403415e-06,0.0,0.0,nan,0.0,0.0,0.0,0.0,5.935325e-05,inf,0.0,0.0,0.0003823547,0.0,0.0,0.0,0.0,0.0,0.0,0.0,0.0
5196000,5116000,2.8015293e-05,0.0,4.7892405e-05,2.34061e-06,0.0,1.5395048e-05,0.0,0.0,0.0,0.0,0.0,0.0,0.0,5.403415e-06,0.0,0.0,nan,0.0,0.0,0.0,0.0,5.935325e-05,inf,0.0,0.0,0.00045285755,0.0,0.0,0.0,0.0,0.0,0.0,0.0,0.0
5204000,5124000,2.8015293e-05,0.0,4.7892405e-05,2.34061e-06,0.0,1.5395048e-05,0.0,0.0,0.0,0.0,0.0,0.0,0.0,1.2920484e-05,0.0,0.0,nan,0.0,0.0,0.0,0.0,5.935325e-05,inf,0.0,0.0,0.00065808394,0.0,0.0,0.0,0.0,0.0,0.0,0.0,0.0
5212000,5132000,2.8015293e-05,0.0,4.7892405e-05,2.34061e-06,0.0,1.5395048e-05,0.0,0.0,0.0,0.0,0.0,0.0,0.0,1.2920484e-05,0.0,0.0,nan,0.0,0.0,0.0,0.0,1.8549179e-05,inf,0.0,0.0,0.0006409649,0.0,0.0,0.0,0.0,0.0,0.0,0.0,0.0
5220000,5140000,2.8015293e-05,0.0,4.7892405e-05,2.34061e-06,0.0,1.5395048e-05,0.0,0.0,0.0,0.0,0.0,0.0,0.0,1.2920484e-05,0.0,0.0,nan,0.0,0.0,0.0,0.0,1.8549179e-05,inf,0.0,0.0,8.833332e-06,0.0,0.0,0.0,0.0,0.0,0.0,0.0,0.0
5228000,5148000,2.8015293e-05,0.0,4.7892405e-05,2.34061e-06,0.0,1.5395048e-05,0.0,0.0,0.0,0.0,0.0,0.0,0.0,1.2920484e-05,0.0,0.0,nan,0.0,0.0,0.0,0.0,1.8549179e-05,inf,0.0,0.0,0.00012817857,0.0,0.0,0.0,0.0,0.0,0.0,0.0,0.0
5236000,5156000,2.8015293e-05,0.0,4.7892405e-05,2.34061e-06,0.0,1.5395048e-05,0.0,0.0,0.0,0.0,0.0,0.0,0.0,1.2920484e-05,0.0,0.0,nan,0.0,0.0,0.0,0.0,1.8549179e-05,inf,0.0,0.0,4.5828274e-05,0.0,0.0,0.0,0.0,0.0,0.0,0.0,0.0
5244000,5164000,2.8015293e-05,0.0,4.7892405e-05,2.34061e-06,0.0,1.5395048e-05,0.0,0.0,0.0,0.0,0.0,0.0,0.0,1.2920484e-05,0.0,0.0,nan,0.0,0.0,0.0,0.0,1.8549179e-05,inf,0.0,0.0,0.00020239607,0.0,0.0,0.0,0.0,0.0,0.0,0.0,0.0
5252000,5172000,2.8015293e-05,0.0,4.7892405e-05,2.34061e-06,0.0,1.5395048e-05,0.0,0.0,0.0,0.0,0.0,0.0,0.0,1.2920484e-05,0.0,0.0,nan,0.0,0.0,0.0,0.0,1.8549179e-05,inf,0.0,0.0,0.00063043134,0.0,0.0,0.0,0.0,0.0,0.0,0.0,0.0
5260000,5180000,2.8015293e-05,0.0,4.7892405e-05,2.34061e-06,0.0,1.5395048e-05,0.0,0.0,0.0,0.0,0.0,0.0,0.0,5.290131e-07,0.0,0.0,nan,0.0,0.0,0.0,0.0,1.8549179e-05,inf,0.0,0.0,0.00087460264,0.0,0.0,0.0,0.0,0.0,0.0,0.0,0.0
5268000,5188000,2.8015293e-05,0.0,4.7892405e-05,2.34061e-06,0.0,1.5395048e-05,0.0,0.0,0.0,0.0,0.0,0.0,0.0,5.290131e-07,0.0,0.0,nan,0.0,0.0,0.0,0.0,1.8549179e-05,inf,0.0,0.0,6.2167994e-05,0.0,0.0,0.0,0.0,0.0,0.0,0.0,0.0
5276000,5196000,2.8015293e-05,0.0,4.7892405e-05,2.34061e-06,0.0,1.5395048e-05,0.0,0.0,0.0,0.0,0.0,0.0,0.0,5.290131e-07,0.0,0.0,nan,0.0,0.0,0.0,0.0,1.8549179e-05,inf,0.0,0.0,0.00028427734,0.0,0.0,0.0,0.0,0.0,0.0,0.0,0.0
5284000,5204000,2.8015293e-05,0.0,4.7892405e-05,2.34061e-06,0.0,1.5395048e-05,0.0,0.0,0.0,0.0,0.0,0.0,0.0,5.290131e-07,0.0,0.0,nan,0.0,0.0,0.0,0.0,9.1059395e-05,inf,0.0,0.0,3.669914e-06,0.0,0.0,0.0,0.0,0.0,0.0,0.0,0.0
5292000,5212000,2.8015293e-05,0.0,4.7892405e-05,2.34061e-06,0.0,1.5395048e-05,0.0,0.0,0.0,0.0,0.0,0.0,0.0,5.290131e-07,0.0,0.0,nan,0.0,0.0,0.0,0.0,9.1059395e-05,inf,0.0,0.0,0.0006864949,0.0,0.0,0.0,0.0,0.0,0.0,0.0,0.0
5300000,5220000,2.8015293e-05,0.0,4.7892405e-05,2.34061e-06,0.0,1.5395048e-05,0.0,0.0,0.0,0.0,0.0,0.0,0.0,5.290131e-07,0.0,0.0,nan,0.0,0.0,0.0,0.0,9.1059395e-05,inf,0.0,0.0,1.540077e-05,0.0,0.0,0.0,0.0,0.0,0.0,0.0,0.0
5308000,5228000,2.8015293e-05,0.0,4.7892405e-05,2.34061e-06,0.0,1.5395048e-05,0.0,0.0,0.0,0.0,0.0,0.0,0.0,5.290131e-07,0.0,0.0,nan,0.0,0.0,0.0,0.0,9.1059395e-05,inf,0.0,0.0,0.00013517925,0.0,0.0,0.0,0.0,0.0,0.0,0.0,0.0
5316000,5236000,2.8015293e-05,0.0,4.7892405e-05,2.34061e-06,0.0,1.5395048e-05,0.0,0.0,0.0,0.0,0.0,0.0,0.0,5.290131e-07,0.0,0.0,nan,0.0,0.0,0.0,0.0,9.1059395e-05,inf,0.0,0.0,0.0007958665,0.0,0.0,0.0,0.0,0.0,0.0,0.0,0.0
5324000,5244000,2.8015293e-05,0.0,4.7892405e-05,2.34061e-06,0.0,1.5395048e-05,0.0,0.0,0.0,0.0,0.0,0.0,0.0,1.5964091e-05,0.0,0.0,nan,0.0,0.0,0.0,0.0,9.1059395e-05,inf,0.0,0.0,0.0006319251,0.0,0.0,0.0,0.0,0.0,0.0,0.0,0.0
5332000,5252000,2.8015293e-05,0.0,4.7892405e-05,2.34061e-06,0.0,1.5395048e-05,0.0,0.0,0.0,0.0,0.0,0.0,0.0,1.5964091e-05,0.0,0.0,nan,0.0,0.0,0.0,0.0,9.1059395e-05,inf,0.0,0.0,6.719549e-05,0.0,0.0,0.0,0.0,0.0,0.0,0.0,0.0
5340000,5260000,2.8015293e-05,0.0,4.7892405e-05,2.34061e-06,0.0,1.5395048e-05,0.0,0.0,0.0,0.0,0.0,0.0,0.0,1.5964091e-05,0.0,0.0,nan,0.0,0.0,0.0,0.0,9.1059395e-05,inf,0.0,0.0,0.00018731409,0.0,0.0,0.0,0.0,0.0,0.0,0.0,0.0
5348000,5268000,2.8015293e-05,0.0,4.7892405e-05,2.34061e-06,0.0,1.5395048e-05,0.0,0.0,0.0,0.0,0.0,0.0,0.0,1.5964091e-05,0.0,0.0,nan,0.0,0.0,0.0,0.0,9.1059395e-05,inf,0.0,0.0,5.226617e-05,0.0,0.0,0.0,0.0,0.0,0.0,0.0,0.0
5356000,5276000,2.8015293e-05,0.0,4.7892405e-05,2.34061e-06,0.0,1.5395048e-05,0.0,0.0,0.0,0.0,0.0,0.0,0.0,1.5964091e-05,0.0,0.0,nan,0.0,0.0,0.0,0.0,3.3225035e-05,inf,0.0,0.0,7.631461e-07,0.0,0.0,0.0,0.0,0.0,0.0,0.0,0.0
5364000,5284000,2.8015293e-05,0.0,4.7892405e-05,2.34061e-06,0.0,1.5395048e-05,0.0,0.0,0.0,0.0,0.0,0.0,0.0,1.5964091e-05,0.0,0.0,nan,0.0,0.0,0.0,0.0,3.3225035e-05,inf,0.0,0.0,0.00034072055,0.0,0.0,0.0,0.0,0.0,0.0,0.0,0.0
5372000,5292000,2.8015293e-05,0.0,4.7892405e-05,2.34061e-06,0.0,1.5395048e-05,0.0,0.0,0.0,0.0,0.0,0.0,0.0,1.5964091e-05,0.0,0.0,nan,0.0,0.0,0.0,0.0,3.3225035e-05,inf,0.0,0.0,2.5783956e-07,0.0,0.0,0.0,0.0,0.0,0.0,0.0,0.0
5380000,5300000,2.8015293e-05,0.0,4.7892405e-05,2.34061e-06,0.0,1.5395048e-05,0.0,0.0,0.0,0.0,0.0,0.0,0.0,4.9947164e-07,0.0,0.0,nan,0.0,0.0,0.0,0.0,3.3225035e-05,inf,0.0,0.0,0.0005776747,0.0,0.0,0.0,0.0,0.0,0.0,0.0,0.0
5388000,5308000,2.8015293e-05,0.0,4.7892405e-05,2.34061e-06,0.0,1.5395048e-05,0.0,0.0,0.0,0.0,0.0,0.0,0.0,4.9947164e-07,0.0,0.0,nan,0.0,0.0,0.0,0.0,3.3225035e-05,inf,0.0,0.0,0.00043757312,0.0,0.0,0.0,0.0,0.0,0.0,0.0,0.0
5396000,5316000,2.8015293e-05,0.0,4.7892405e-05,2.34061e-06,0.0,1.5395048e-05,0.0,0.0,0.0,0.0,0.0,0.0,0.0,4.9947164e-07,0.0,0.0,nan,0.0,0.0,0.0,0.0,3.3225035e-05,inf,0.0,0.0,0.00037718125,0.0,0.0,0.0,0.0,0.0,0.0,0.0,0.0
5404000,5324000,2.8015293e-05,0.0,4.7892405e-05,2.34061e-06,0.0,1.5395048e-05,0.0,0.0,0.0,0.0,0.0,0.0,0.0,4.9947164e-07,0.0,0.0,nan,0.0,0.0,0.0,0.0,3.3225035e-05,inf,0.0,0.0,0.0004742475,0.0,0.0,0.0,0.0,0.0,0.0,0.0,0.0
5412000,5332000,2.8015293e-05,0.0,4.7892405e-05,2.34061e-06,0.0,1.5395048e-05,0.0,0.0,0.0,0.0,0.0,0.0,0.0,4.9947164e-07,0.0,0.0,nan,0.0,0.0,0.0,0.0,3.3225035e-05,inf,0.0,0.0,5.0488234e-06,0.0,0.0,0.0,0.0,0.0,0.0,0.0,0.0
5420000,5340000,2.8015293e-05,0.0,4.7892405e-05,2.34061e-06,0.0,1.5395048e-05,0.0,0.0,0.0,0.0,0.0,0.0,0.0,4.9947164e-07,0.0,0.0,nan,0.0,0.0,0.0,0.0,3.3225035e-05,inf,0.0,0.0,0.00071401976,0.0,0.0,0.0,0.0,0.0,0.0,0.0,0.0
5428000,5348000,2.8015293e-05,0.0,4.7892405e-05,2.34061e-06,0.0,1.5395048e-05,0.0,0.0,0.0,0.0,0.0,0.0,0.0,4.9947164e-07,0.0,0.0,nan,0.0,0.0,0.0,0.0,4.2409647e-05,inf,0.0,0.0,0.00014683013,0.0,0.0,0.0,0.0,0.0,0.0,0.0,0.0
5436000,5356000,2.8015293e-05,0.0,4.7892405e-05,2.34061e-06,0.0,1.5395048e-05,0.0,0.0,0.0,0.0,0.0,0.0,0.0,4.9947164e-07,0.0,0.0,nan,0.0,0.0,0.0,0.0,4.2409647e-05,inf,0.0,0.0,0.0001708233,0.0,0.0,0.0,0.0,0.0,0.0,0.0,0.0
5444000,5364000,2.8015293e-05,0.0,4.7892405e-05,2.34061e-06,0.0,1.5395048e-05,0.0,0.0,0.0,0.0,0.0,0.0,0.0,8.712926e-06,0.0,0.0,nan,0.0,0.0,0.0,0.0,4.2409647e-05,inf,0.0,0.0,0.0004388883,0.0,0.0,0.0,0.0,0.0,0.0,0.0,0.0
5452000,5372000,2.8015293e-05,0.0,4.7892405e-05,2.34061e-06,0.0,1.5395048e-05,0.0,0.0,0.0,0.0,0.0,0.0,0.0,8.712926e-06,0.0,0.0,nan,0.0,0.0,0.0,0.0,4.2409647e-05,inf,0.0,0.0,1.698124e-05,0.0,0.0,0.0,0.0,0.0,0.0,0.0,0.0
5460000,5380000,2.8015293e-05,0.0,4.7892405e-05,2.34061e-06,0.0,1.5395048e-05,0.0,0.0,0.0,0.0,0.0,0.0,0.0,8.712926e-06,0.0,0.0,nan,0.0,0.0,0.0,0.0,4.2409647e-05,inf,0.0,0.0,0.0005072276,0.0,0.0,0.0,0.0,0.0,0.0,0.0,0.0
5468000,5388000,2.8015293e-05,0.0,4.7892405e-05,2.34061e-06,0.0,1.5395048e-05,0.0,0.0,0.0,0.0,0.0,0.0,0.0,8.712926e-06,0.0,0.0,nan,0.0,0.0,0.0,0.0,4.2409647e-05,inf,0.0,0.0,0.0008447393,0.0,0.0,0.0,0.0,0.0,0.0,0.0,0.0
5476000,5396000,2.8015293e-05,0.0,4.7892405e-05,2.34061e-06,0.0,1.5395048e-05,0.0,0.0,0.0,0.0,0.0,0.0,0.0,8.712926e-06,0.0,0.0,nan,0.0,0.0,0.0,0.0,4.2409647e-05,inf,0.0,0.0,0.00063910714,0.0,0.0,0.0,0.0,0.0,0.0,0.0,0.0
5484000,5404000,2.8015293e-05,0.0,4.7892405e-05,2.34061e-06,0.0,1.5395048e-05,0.0,0.0,0.0,0.0,0.0,0.0,0.0,8.712926e-06,0.0,0.0,nan,0.0,0.0,0.0,0.0,4.2409647e-05,inf,0.0,0.0,0.0020452728,0.0,0.0,0.0,0.0,0.0,0.0,0.0,0.0
5492000,5412000,2.8015293e-05,0.0,4.7892405e-05,2.34061e-06,0.0,1.5395048e-05,0.0,0.0,0.0,0.0,0.0,0.0,0.0,8.712926e-06,0.0,0.0,nan,0.0,0.0,0.0,0.0,4.2409647e-05,inf,0.0,0.0,0.004215462,0.0,0.0,0.0,0.0,0.0,0.0,0.0,0.0
5500000,5420000,2.8015293e-05,0.0,4.7892405e-05,2.34061e-06,0.0,1.5395048e-05,0.0,0.0,0.0,0.0,0.0,0.0,0.0,3.1603064e-05,0.0,0.0,nan,0.0,0.0,0.0,0.0,0.0009510266,inf,0.0,0.0,0.0006323437,0.0,0.0,0.0,0.0,0.0,0.0,0.0,0.0
5508000,5428000,2.8015293e-05,0.0,4.7892405e-05,2.34061e-06,0.0,1.5395048e-05,0.0,0.0,0.0,0.0,0.0,0.0,0.0,3.1603064e-05,0.0,0.0,nan,0.0,0.0,0.0,0.0,0.0009510266,inf,0.0,0.0,9.205337e-05,0.0,0.0,0.0,0.0,0.0,0.0,0.0,0.0
5516000,5436000,2.8015293e-05,0.0,4.7892405e-05,2.34061e-06,0.0,1.5395048e-05,0.0,0.0,0.0,0.0,0.0,0.0,0.0,3.1603064e-05,0.0,0.0,nan,0.0,0.0,0.0,0.0,0.0009510266,inf,0.0,0.0,5.0101033e-05,0.0,0.0,0.0,0.0,0.0,0.0,0.0,0.0
5524000,5444000,2.8015293e-05,0.0,4.7892405e-05,2.34061e-06,0.0,1.5395048e-05,0.0,0.0,0.0,0.0,0.0,0.0,0.0,3.1603064e-05,0.0,0.0,nan,0.0,0.0,0.0,0.0,0.0009510266,inf,0.0,0.0,0.00014799152,0.0,0.0,0.0,0.0,0.0,0.0,0.0,0.0
5532000,5452000,2.8015293e-05,0.0,4.7892405e-05,2.34061e-06,0.0,1.5395048e-05,0.0,0.0,0.0,0.0,0.0,0.0,0.0,3.1603064e-05,0.0,0.0,nan,0.0,0.0,0.0,0.0,0.0009510266,inf,0.0,0.0,0.00021770004,0.0,0.0,0.0,0.0,0.0,0.0,0.0,0.0
5540000,5460000,2.8015293e-05,0.0,4.7892405e-05,2.34061e-06,0.0,1.5395048e-05,0.0,0.0,0.0,0.0,0.0,0.0,0.0,3.1603064e-05,0.0,0.0,nan,0.0,0.0,0.0,0.0,0.0009510266,inf,0.0,0.0,0.001420619,0.0,0.0,0.0,0.0,0.0,0.0,0.0,0.0
5548000,5468000,2.8015293e-05,0.0,4.7892405e-05,2.34061e-06,0.0,1.5395048e-05,0.0,0.0,0.0,0.0,0.0,0.0,0.0,3.1603064e-05,0.0,0.0,nan,0.0,0.0,0.0,0.0,0.0009510266,inf,0.0,0.0,0.00024193144,0.0,0.0,0.0,0.0,0.0,0.0,0.0,0.0
5556000,5476000,2.8015293e-05,0.0,4.7892405e-05,2.34061e-06,0.0,1.5395048e-05,0.0,0.0,0.0,0.0,0.0,0.0,0.0,3.1603064e-05,0.0,0.0,nan,0.0,0.0,0.0,0.0,0.0009510266,inf,0.0,0.0,2.3084178e-06,0.0,0.0,0.0,0.0,0.0,0.0,0.0,0.0
5564000,5484000,2.8015293e-05,0.0,4.7892405e-05,2.34061e-06,0.0,1.5395048e-05,0.0,0.0,0.0,0.0,0.0,0.0,0.0,9.0494734e-07,0.0,0.0,nan,0.0,0.0,0.0,0.0,0.0009510266,inf,0.0,0.0,0.00010059706,0.0,0.0,0.0,0.0,0.0,0.0,0.0,0.0
5572000,5492000,2.8015293e-05,0.0,4.7892405e-05,2.34061e-06,0.0,1.5395048e-05,0.0,0.0,0.0,0.0,0.0,0.0,0.0,9.0494734e-07,0.0,0.0,nan,0.0,0.0,0.0,0.0,5.8203048e-05,inf,0.0,0.0,0.00043943938,0.0,0.0,0.0,0.0,0.0,0.0,0.0,0.0
5580000,5500000,2.8015293e-05,0.0,4.7892405e-05,2.34061e-06,0.0,1.5395048e-05,0.0,0.0,0.0,0.0,0.0,0.0,0.0,9.0494734e-07,0.0,0.0,nan,0.0,0.0,0.0,0.0,5.8203048e-05,inf,0.0,0.0,0.0008885561,0.0,0.0,0.0,0.0,0.0,0.0,0.0,0.0
5588000,5508000,2.8015293e-05,0.0,4.7892405e-05,2.34061e-06,0.0,1.5395048e-05,0.0,0.0,0.0,0.0,0.0,0.0,0.0,9.0494734e-07,0.0,0.0,nan,0.0,0.0,0.0,0.0,5.8203048e-05,inf,0.0,0.0,0.00032439095,0.0,0.0,0.0,0.0,0.0,0.0,0.0,0.0
5596000,5516000,2.534244e-06,0.0,6.153474e-05,2.2639051e-06,0.0,2.056905e-05,0.0,0.0,0.0,0.0,0.0,0.0,0.0,9.0494734e-07,0.0,0.0,nan,0.0,0.0,0.0,0.0,5.8203048e-05,inf,0.0,0.0,7.4583935e-05,0.0,0.0,0.0,0.0,0.0,0.0,0.0,0.0
5604000,5524000,2.534244e-06,0.0,6.153474e-05,2.2639051e-06,0.0,2.056905e-05,0.0,0.0,0.0,0.0,0.0,0.0,0.0,9.0494734e-07,0.0,0.0,nan,0.0,0.0,0.0,0.0,5.8203048e-05,inf,0.0,0.0,0.0003828027,0.0,0.0,0.0,0.0,0.0,0.0,0.0,0.0
5612000,5532000,2.534244e-06,0.0,6.153474e-05,2.2639051e-06,0.0,2.056905e-05,0.0,0.0,0.0,0.0,0.0,0.0,0.0,9.0494734e-07,0.0,0.0,nan,0.0,0.0,0.0,0.0,5.8203048e-05,inf,0.0,0.0,0.00079934724,0.0,0.0,0.0,0.0,0.0,0.0,0.0,0.0
5620000,5540000,2.534244e-06,0.0,6.153474e-05,2.2639051e-06,0.0,2.056905e-05,0.0,0.0,0.0,0.0,0.0,0.0,0.0,1.9701195e-06,0.0,0.0,nan,0.0,0.0,0.0,0.0,5.8203048e-05,inf,0.0,0.0,0.0001736563,0.0,0.0,0.0,0.0,0.0,0.0,0.0,0.0
5628000,5548000,2.534244e-06,0.0,6.153474e-05,2.2639051e-06,0.0,2.056905e-05,0.0,0.0,0.0,0.0,0.0,0.0,0.0,1.9701195e-06,0.0,0.0,nan,0.0,0.0,0.0,0.0,5.8203048e-05,inf,0.0,0.0,0.00050287147,0.0,0.0,0.0,0.0,0.0,0.0,0.0,0.0
5636000,5556000,2.534244e-06,0.0,6.153474e-05,2.2639051e-06,0.0,2.056905e-05,0.0,0.0,0.0,0.0,0.0,0.0,0.0,1.9701195e-06,0.0,0.0,nan,0.0,0.0,0.0,0.0,5.8203048e-05,inf,0.0,0.0,0.0005561478,0.0,0.0,0.0,0.0,0.0,0.0,0.0,0.0
5644000,5564000,2.534244e-06,0.0,6.153474e-05,2.2639051e-06,0.0,2.056905e-05,0.0,0.0,0.0,0.0,0.0,0.0,0.0,1.9701195e-06,0.0,0.0,nan,0.0,0.0,0.0,0.0,3.0877716e-05,inf,0.0,0.0,0.00029980644,0.0,0.0,0.0,0.0,0.0,0.0,0.0,0.0
