timestamp,timestamp_sample,time_last_fuse,device_id,observation[0],observation[1],observation[2],observation_variance[0],observation_variance[1],observation_variance[2],innovation[0],innovation[1],innovation[2],innovation_variance[0],innovation_variance[1],innovation_variance[2],test_ratio[0],test_ratio[1],test_ratio[2],estimator_instance,fusion_enabled,innovation_rejected,fused
3596000,3477124,0,0,0.0,0.0,0.02,0.09,0.09,0.20250002,0.0025018388,-0.0009859551,-0.04139516,0.11862898,0.11863357,0.20434281,2.1105122e-06,3.277681e-07,0.00033542837,3,1,0,0
3996000,3877470,0,0,0.0,-0.01,0.01,0.09,0.09,0.20250002,0.002554703,0.009503171,-0.018551828,0.10323341,0.10323615,0.20376262,2.5288352e-06,3.4991717e-05,6.7563e-05,3,1,0,0
4396000,4277680,0,0,0.0,0.01,0.01,0.09,0.09,0.20250002,0.003172689,-0.009657748,-0.024566913,0.09768064,0.0976809,0.20660947,4.121985e-06,3.8194612e-05,0.000116845215,3,1,0,0
4796000,4677806,0,0,0.01,0.0,-0.03,0.09,0.09,0.20250002,-0.0069253827,-0.0018651807,0.014272472,0.09444224,0.09444228,0.20941399,2.0313337e-05,1.4734497e-06,3.8909235e-05,3,1,0,0
5196000,5077883,0,0,0.01,0.0,-0.03,0.09,0.09,0.20250002,-0.009047516,-0.0027278531,0.015887005,0.09296092,0.09296091,0.21087864,3.5222347e-05,3.2018545e-06,4.78753e-05,3,1,0,0
5596000,5477929,0,0,0.0,0.0,-0.03,0.09,0.09,0.20250002,0.0011768515,0.0015644323,0.01801621,0.09201187,0.092011884,0.21111788,6.0208725e-07,1.0639706e-06,6.149812e-05,3,1,0,0
5996000,5877958,0,0,0.0,0.01,-0.02,0.09,0.09,0.20250002,0.000697724,-0.009323085,0.008923408,0.09149872,0.0914987,0.21074452,2.1281993e-07,3.7998314e-05,1.51135055e-05,3,1,0,0
6396000,6277974,0,0,0.0,0.0,0.02,0.09,0.09,0.20250002,0.00042363803,-0.00032312222,-0.029392254,0.091207355,0.09120731,0.21017145,7.870821e-08,4.5789296e-08,0.00016441902,3,1,0,0
6796000,6677985,0,0,0.0,0.0,0.04,0.09,0.09,0.20250002,-0.002882448,0.00034280773,-0.046607964,0.091023535,0.09102352,0.20958647,3.651147e-06,5.1642537e-08,0.00041458826,3,1,0,0
7196000,7077991,0,0,0.0,0.01,0.02,0.09,0.09,0.20250002,-0.0012757555,-0.006004632,-0.024295647,0.09089677,0.09089675,0.20904888,7.1622e-07,1.5866619e-05,0.00011294554,3,1,0,0
7596000,7477995,0,0,0.0,0.0,0.02,0.09,0.09,0.20250002,0.0011360772,0.004884341,-0.022545557,0.09081923,0.09081923,0.20966955,5.684573e-07,1.05073705e-05,9.697206e-05,3,1,0,0
7996000,7877997,0,0,0.01,0.0,0.02,0.09,0.09,0.20250002,-0.009888441,0.001238703,-0.020571645,0.09074378,0.09074377,0.20915098,4.310214e-05,6.763595e-07,8.093533e-05,3,1,0,0
8396000,8277998,0,0,0.0,0.0,-0.01,0.09,0.09,0.20250002,-0.0018483555,0.0013705028,0.007800052,0.09120983,0.09120981,0.20874132,1.4982675e-06,8.237175e-07,1.1658604e-05,3,1,0,0
8796000,8677999,0,0,0.0,0.0,-0.01,0.09,0.09,0.20250002,-0.0007095474,0.0010834655,0.009317109,0.09111392,0.09111391,0.20842722,2.2102333e-07,5.153538e-07,1.665973e-05,3,1,0,0
9196000,9078000,0,0,0.0,0.0,-0.01,0.09,0.09,0.20250002,0.0023812612,0.0027947342,0.009966621,0.091034584,0.09103461,0.20821548,2.4915387e-06,3.431899e-06,1.9082834e-05,3,1,0,0
9596000,9478000,0,0,0.0,-0.02,0.0,0.09,0.09,0.20250002,0.003070208,0.02276996,0.00054176897,0.090967275,0.09096731,0.20804745,4.144865e-06,0.00022798126,5.643205e-08,3,1,0,0
9996000,9878000,0,0,-0.01,0.0,0.0,0.09,0.09,0.20250002,0.013639265,0.0029312759,0.0026833713,0.09090856,0.09090859,0.2079109,8.185348e-05,3.7806676e-06,1.3853014e-06,3,1,0,0
10396000,10278000,0,0,-0.01,0.01,0.0,0.09,0.09,0.20250002,0.01004224,-0.0096714925,0.0052357614,0.09085663,0.09085666,0.20779806,4.439812e-05,4.118037e-05,5.276892e-06,3,1,0,0
10796000,10678000,0,0,0.0,0.0,-0.02,0.09,0.09,0.20250002,-0.0017506323,-0.0015002344,0.025813442,0.09081026,0.090810336,0.20770048,1.3499415e-06,9.913863e-07,0.0001283259,3,1,0,0
11196000,11078000,0,0,0.01,-0.02,0.01,0.09,0.09,0.20250002,-0.010575887,0.017012201,-0.0012558643,0.09076778,0.09076782,0.20761444,4.929035e-05,0.00012754078,3.0387002e-07,3,1,0,0
11596000,11478000,0,0,0.01,0.0,0.02,0.09,0.09,0.20250002,-0.012361212,-0.0035054244,-0.0085311495,0.0907288,0.090728775,0.2075389,6.73654e-05,5.417465e-06,1.4027347e-05,3,1,0,0
11996000,11878000,0,0,0.02,0.01,0.0,0.09,0.09,0.20250002,-0.023342641,-0.01237371,0.014429182,0.09069258,0.09069248,0.20746763,0.00024031906,6.752873e-05,4.014145e-05,3,1,0,0
12396000,12278000,0,0,0.01,0.0,-0.01,0.09,0.09,0.20250002,-0.012759837,-0.0005329819,0.022744687,0.09065895,0.090658836,0.20740096,7.183557e-05,1.2533569e-07,9.9772114e-05,3,1,0,0
12796000,12678000,0,0,0.02,-0.01,0.03,0.09,0.09,0.20250002,-0.019946398,0.01172427,-0.015580138,0.09063687,0.09063678,0.20800392,0.00017558364,6.066346e-05,4.6680023e-05,3,1,0,0
13196000,13078000,0,0,0.01,0.0,0.01,0.09,0.09,0.20250002,-0.009712035,0.003788398,0.0043828543,0.090606116,0.09060602,0.20793699,4.164117e-05,6.3359853e-06,3.6952372e-06,3,1,0,0
13596000,13478000,0,0,-0.03,0.0,-0.02,0.09,0.09,0.20250002,0.031533506,0.0040170792,0.033921603,0.090939514,0.0909393,0.20787321,0.0004373729,7.0978886e-06,0.00022141864,3,1,0,0
13996000,13878000,0,0,0.02,0.0,0.03,0.09,0.09,0.20250002,-0.016902145,0.001670756,-0.0186327,0.09090217,0.090901986,0.20781633,0.00012570986,1.2283233e-06,6.6823915e-05,3,1,0,0
14396000,14278000,0,0,0.0,0.0,-0.01,0.09,0.09,0.20250002,0.0014718688,-0.0016376264,0.021020005,0.090866394,0.090866186,0.20775726,9.53663e-07,1.1805582e-06,8.506862e-05,3,1,0,0
14796000,14678000,0,0,0.0,0.02,0.0,0.09,0.09,0.20250002,0.0023054415,-0.021191403,0.009828739,0.09083232,0.0908321,0.20769994,2.3406033e-06,0.00019776073,1.860455e-05,3,1,0,0
15196000,15078000,0,0,0.02,0.0,-0.02,0.09,0.09,0.20250002,-0.018060155,0.00039866666,0.027160767,0.09079973,0.09079952,0.20764877,0.00014368731,7.001584e-08,0.00014210674,3,1,0,0
15596000,15478000,0,0,-0.01,-0.01,0.0,0.09,0.09,0.20250002,0.011440793,0.01029246,0.007774025,0.090768054,0.09076787,0.2075948,5.7681857e-05,4.6683803e-05,1.1644891e-05,3,1,0,0
15996000,15878000,0,0,0.0,0.0,0.01,0.09,0.09,0.20250002,-0.0006856221,-0.0006644395,-0.0013512094,0.09073757,0.090737395,0.20754199,2.0722516e-07,1.9461872e-07,3.5188384e-07,3,1,0,0
16396000,16278000,0,0,0.0,0.01,-0.01,0.09,0.09,0.20250002,0.0003004986,-0.011881979,0.018827872,0.09070819,0.09070799,0.20749055,3.9819735e-08,6.225755e-05,6.8338304e-05,3,1,0,0
16796000,16678000,0,0,0.0,-0.01,-0.01,0.09,0.09,0.20250002,-0.00033883867,0.006729996,0.02139105,0.09067954,0.09067932,0.20744413,5.0645003e-08,1.9979349e-05,8.823138e-05,3,1,0,0
17196000,17078000,0,0,0.0,0.0,0.0,0.09,0.09,0.20250002,-0.0005966974,-0.0029067341,0.012421019,0.09065186,0.09065167,0.20739433,1.5710555e-07,3.7281623e-06,2.9756207e-05,3,1,0,0
17596000,17478000,0,0,0.0,0.0,0.01,0.09,0.09,0.20250002,-0.0015965373,-0.002908834,0.00238253,0.09062499,0.090624824,0.20734556,1.1250457e-06,3.7346567e-06,1.0950703e-06,3,1,0,0
17996000,17878000,0,0,-0.01,0.0,0.02,0.09,0.09,0.20250002,0.008255334,0.00022044088,-0.009435099,0.09060799,0.09060784,0.20795073,3.0085881e-05,2.145253e-08,1.7123497e-05,3,1,0,0
18396000,18278000,0,0,0.0,0.0,0.0,0.09,0.09,0.20250002,0.0022809897,-0.0018667643,0.012625858,0.09058191,0.09058177,0.20789906,2.297551e-06,1.5388565e-06,3.0671094e-05,3,1,0,0
18796000,18678000,0,0,0.02,0.0,0.02,0.09,0.09,0.20250002,-0.016595738,-0.0049549877,-0.006663453,0.0908911,0.090890825,0.20785294,0.000121208126,1.0805008e-05,8.544812e-06,3,1,0,0
19196000,19078000,0,0,-0.01,0.0,0.0,0.09,0.09,0.20250002,0.00987869,-0.0068471693,0.013750665,0.09086078,0.09086053,0.20780176,4.296178e-05,2.0639865e-05,3.6396377e-05,3,1,0,0
19596000,19478000,0,0,0.02,0.0,0.0,0.09,0.09,0.20250002,-0.020064712,-0.004567303,0.012812875,0.09083127,0.09083111,0.2077509,0.00017729253,9.186394e-06,3.1608968e-05,3,1,0,0
19996000,19878000,0,0,0.0,0.0,-0.01,0.09,0.09,0.20250002,0.00049896666,-0.0024604318,0.021695236,0.09080236,0.09080226,0.20770107,1.09674566e-07,2.6667726e-06,9.064628e-05,3,1,0,0
20396000,20278000,0,0,-0.01,0.0,-0.01,0.09,0.09,0.20250002,0.15620969,0.14764932,0.16546471,0.09112714,0.091129355,0.20768532,0.010710956,0.009568957,0.005273088,3,1,0,0
20796000,20678000,0,0,0.0,0.0,-0.02,0.09,0.09,0.20250002,0.32735634,0.3381353,0.3657152,0.10386841,0.10390049,0.20917122,0.041268438,0.044017304,0.025576675,3,1,0,0
21196000,21078000,0,0,0.0,0.0,-0.03,0.09,0.09,0.20250002,0.48498854,0.5083852,0.54447883,0.1340666,0.1341579,0.21088508,0.07017822,0.07706009,0.05623104,3,1,0,0
21596000,21478000,0,0,-0.01,0.0,0.0,0.09,0.09,0.20250002,0.61794686,0.64528716,0.6451307,0.18220386,0.1823864,0.21272907,0.083831005,0.09132162,0.07825796,3,1,0,0
21996000,21878000,0,0,0.0,-0.089999996,-0.13,0.09,0.09,0.20250002,0.6133407,0.83923244,0.69052273,0.2520622,0.2522912,0.21451056,0.059697453,0.111666374,0.08891341,3,1,0,0
22396000,22278000,0,0,0.17999999,-0.31,-0.099999994,0.09,0.09,0.20250002,0.1515068,0.82943594,0.743837,0.3366165,0.336712,0.21523698,0.0027276513,0.08172729,0.102824986,3,1,0,0
22796000,22678000,0,0,0.66999996,-0.69,-0.39,0.09,0.09,0.20250002,-0.7299281,0.7510012,0.6931196,0.44883606,0.4492052,0.21470697,0.04748237,0.05022228,0.08950147,3,1,0,0
23196000,23078000,0,0,0.48999998,-0.48,-0.71,0.09,0.09,0.20250002,-0.4058757,0.6770652,0.6041007,0.5792156,0.58038485,0.2144961,0.011376427,0.03159402,0.068054885,3,1,0,0
23596000,23478000,0,0,0.089999996,-0.089999996,-0.82,0.09,0.09,0.20250002,0.23482046,0.53345734,0.44941837,0.71400416,0.7163613,0.21455356,0.003089094,0.015890123,0.03765528,3,1,0,0
23996000,23878000,0,0,-0.32,0.26999998,-0.78,0.09,0.09,0.20250002,0.83145,0.37546682,0.19565743,0.8646854,0.86862266,0.2149102,0.03197968,0.0064919023,0.0071251774,3,1,0,0
24396000,24278000,0,0,-0.61,0.53,-0.71,0.09,0.09,0.20250002,1.1339812,0.14180231,0.09493101,0.9878752,0.99345815,0.21519816,0.05206785,0.00080961216,0.0016750881,3,1,0,0
24796000,24678000,0,0,-0.74,0.71,-0.29999998,0.09,0.09,0.20250002,1.1271029,-0.18125594,-0.23605141,1.0832286,1.0903078,0.2154596,0.046910167,0.0012053006,0.010344449,3,1,0,0
25196000,25078000,0,0,-0.78999996,0.77,0.0,0.09,0.09,0.20250002,0.9261988,-0.52246475,-0.4825929,1.1467688,1.1547742,0.21589868,0.029922131,0.009455335,0.04314911,3,1,0,0
25596000,25478000,0,0,-0.76,0.77,0.35999998,0.09,0.09,0.20250002,0.56135285,-0.89018327,-0.64735234,1.1661412,1.1742929,0.2164976,0.010808881,0.026992455,0.07742628,3,1,0,0
25996000,25878000,0,0,-0.64,0.66999996,0.75,0.09,0.09,0.20250002,0.038487077,-1.2297256,-0.83678496,1.1493703,1.1567937,0.2173856,5.155014e-05,0.05229022,0.12884185,3,1,0,0
26396000,26278000,0,0,-0.32,0.35,0.63,0.09,0.09,0.20250002,-0.81718105,-1.4883455,-0.9567088,1.1191452,1.1251973,0.21861644,0.023867678,0.07874787,0.16746987,3,1,0,0
26796000,26678000,0,0,0.06,-0.049999997,0.59,0.09,0.09,0.20250002,-1.7975596,-1.7197076,-1.0469133,1.0624566,1.066747,0.2201008,0.12165092,0.11089394,0.19918644,3,1,0,0
27196000,27078000,0,0,0.48,-0.48,0.53999996,0.09,0.09,0.20250002,-2.7129176,-1.8219264,-1.1005487,0.9915,0.99408567,0.22154857,0.2969207,0.13356657,0.21868026,3,1,0,0
27596000,27478000,0,0,0.81,-0.74,0.35999998,0.09,0.09,0.20250002,-3.3138962,-1.8897469,-1.0318608,0.91456306,0.9156817,0.22240561,0.48031276,0.15599933,0.19149458,3,1,0,0
27996000,27878000,0,0,0.97999996,-0.85999995,0.17999999,0.09,0.09,0.20250002,-3.4955199,-1.8427644,-0.970492,0.83689916,0.83696425,0.22271997,0.5839967,0.16229035,0.16915496,3,1,0,0
28396000,28278000,0,0,0.96,-0.84,-0.089999996,0.09,0.09,0.20250002,-3.2713304,-1.7009754,-0.8051533,0.7620008,0.76153517,0.22284868,0.5617633,0.15197289,0.1163609,3,1,0,0
28796000,28678000,0,0,0.87,-0.69,-0.29999998,0.09,0.09,0.20250002,-2.8300815,-1.5146158,-0.6472609,0.6919668,0.69138193,0.22274321,0.4629911,0.13272323,0.075234026,3,1,0,0
29196000,29078000,0,0,0.7,-0.52,-0.59,0.09,0.09,0.20250002,-2.3133156,-1.3392577,-0.3512408,0.6867684,0.6862806,0.2226991,0.31168753,0.10454099,0.022159066,3,1,0,0
29596000,29478000,0,0,0.48999998,-0.34,-0.68,0.09,0.09,0.20250002,-1.6615995,-1.039198,-0.19772732,0.6232103,0.6229713,0.22265159,0.17720586,0.06934076,0.0070237266,3,1,0,0
29996000,29878000,0,0,0.35999998,-0.22999999,-0.87,0.09,0.09,0.20250002,-1.1192331,-0.67003083,0.10582757,0.5678581,0.56784904,0.2228037,0.08823915,0.03162399,0.0020106444,3,1,0,0
30396000,30278000,0,0,0.19,-0.099999994,-1.0,0.09,0.09,0.20250002,-0.71796715,-0.4948828,0.32422817,0.52083296,0.52090144,0.22277924,0.03958865,0.018806549,0.018874992,3,1,0,0
30796000,30678000,0,0,-0.01,0.03,-0.83,0.09,0.09,0.20250002,-0.26400083,-0.2966931,0.37333766,0.4795491,0.47961614,0.22270711,0.0058134976,0.0073414366,0.025033958,3,1,0,0
31196000,31082000,0,0,-0.24,0.22,-0.65999997,0.09,0.09,0.20250002,0.19385907,-0.18730251,0.40516832,0.44468996,0.44466692,0.22276245,0.0033804532,0.003155821,0.029477386,3,1,0,0
31596000,31478000,0,0,-0.41,0.29999998,-0.59999996,0.09,0.09,0.20250002,0.5291666,-0.053156927,0.5139683,0.41537598,0.41523695,0.22260763,0.026965186,0.00027219724,0.04746709,3,1,0,0
31996000,31878000,0,0,-0.48999998,0.38,-0.53,0.09,0.09,0.20250002,0.70178074,-0.012765735,0.5890695,0.39065173,0.3904225,0.22241753,0.05042816,1.669617e-05,0.06240567,3,1,0,0
32396000,32278000,0,0,-0.47,0.37,-0.39,0.09,0.09,0.20250002,0.7096847,0.025942087,0.58122516,0.36979038,0.3695393,0.22237347,0.05447977,7.284659e-05,0.060766723,3,1,0,0
32796000,32678000,0,0,-0.39999998,0.34,-0.32999998,0.09,0.09,0.20250002,0.61940265,0.01599127,0.62785435,0.35238123,0.3521633,0.22215505,0.04355052,2.90457e-05,0.07097764,3,1,0,0
33196000,33078000,0,0,-0.35,0.28,-0.29,0.09,0.09,0.20250002,0.5204623,0.007991552,0.6737563,0.33805692,0.33787334,0.22194819,0.032051522,7.5608104e-06,0.08181144,3,1,0,0
33596000,33478000,0,0,-0.26,0.19999999,-0.14999999,0.09,0.09,0.20250002,0.3682983,0.01267685,0.6099729,0.32646933,0.326308,0.22192582,0.016619463,1.9699488e-05,0.06706149,3,1,0,0
33996000,33878000,0,0,-0.17,0.12,-0.21,0.09,0.09,0.20250002,0.22304355,0.018822588,0.7209436,0.3173818,0.31724358,0.22176342,0.006269852,4.467102e-05,0.093750305,3,1,0,0
34396000,34278000,0,0,-0.12,0.099999994,-0.049999997,0.09,0.09,0.20250002,0.12453486,-0.026036963,0.6002408,0.32444543,0.32431573,0.2216357,0.0019120543,8.361277e-05,0.065023646,3,1,0,0
34796000,34678000,0,0,-0.06,0.06,0.0,0.09,0.09,0.20250002,0.038656265,-0.027329367,0.57451093,0.31859085,0.31846738,0.22153044,0.00018761453,9.381109e-05,0.059596833,3,1,0,0
35196000,35078000,0,0,-0.04,0.049999997,0.04,0.09,0.09,0.20250002,0.0008959323,-0.041298974,0.5429425,0.31473413,0.31460625,0.22160222,1.0201559e-07,0.00021685587,0.053210042,3,1,0,0
35596000,35478000,0,0,-0.049999997,0.04,0.08,0.09,0.09,0.20250002,0.0010134242,-0.044531003,0.4972874,0.31263208,0.3124968,0.22153232,1.3140414e-07,0.0002538279,0.044651683,3,1,0,0
35996000,35878000,0,0,-0.02,0.07,0.03,0.09,0.09,0.20250002,-0.031775873,-0.080257244,0.5308856,0.31211567,0.31197327,0.22148214,0.00012940152,0.00082586886,0.050900627,3,1,0,0
36396000,36278000,0,0,-0.03,0.07,0.08,0.09,0.09,0.20250002,-0.025014492,-0.08694939,0.4670108,0.3129497,0.31280285,0.22143967,7.997768e-05,0.0009667683,0.03939657,3,1,0,0
36796000,36678000,0,0,-0.06,0.04,0.13,0.09,0.09,0.20250002,-0.006570261,-0.0550581,0.4018935,0.3150466,0.3148811,0.22155978,5.4808816e-06,0.0003850843,0.029160235,3,1,0,0
37196000,37078000,0,0,-0.06,0.04,0.14999999,0.09,0.09,0.20250002,-0.02014729,-0.057557374,0.35385,0.3183034,0.31812373,0.22152601,5.1009607e-05,0.0004165488,0.0226086,3,1,0,0
37596000,37478000,0,0,-0.07,0.049999997,0.099999994,0.09,0.09,0.20250002,-0.019081749,-0.079024315,0.3656253,0.32259947,0.32241935,0.22149798,4.514739e-05,0.0007747478,0.024141412,3,1,0,0
37996000,37878000,0,0,-0.03,0.06,0.089999996,0.09,0.09,0.20250002,-0.070086844,-0.10656977,0.34541732,0.32770008,0.32752413,0.22163129,0.00059959287,0.0013870265,0.021533627,3,1,0,0
38396000,38278000,0,0,-0.02,0.04,0.099999994,0.09,0.09,0.20250002,-0.094230965,-0.104364626,0.30927968,0.33349475,0.3333218,0.22160591,0.0010650211,0.0013070822,0.01726559,3,1,0,0
38796000,38678000,0,0,0.0,0.02,0.14,0.09,0.09,0.20250002,-0.13390741,-0.099660724,0.24087621,0.33991486,0.33974117,0.22157578,0.0021100806,0.0011693914,0.010474313,3,1,0,0
39196000,39078000,0,0,-0.01,-0.01,0.01,0.09,0.09,0.20250002,-0.14244339,-0.080227084,0.3371841,0.34685302,0.3466788,0.22154662,0.0023399098,0.0007426338,0.02052717,3,1,0,0
39596000,39478000,0,0,0.0,0.02,0.08,0.09,0.09,0.20250002,-0.16740449,-0.11899704,0.24285112,0.36541224,0.3652289,0.22167766,0.0030676874,0.0015508407,0.0106418785,3,1,0,0
39996000,39878000,0,0,0.0,-0.01,0.07,0.09,0.09,0.20250002,-0.17426884,-0.09363166,0.23338977,0.37313288,0.37295365,0.22165138,0.003255637,0.0009402658,0.0098299915,3,1,0,0
40396000,40278000,0,0,-0.02,-0.01,0.08,0.09,0.09,0.20250002,-0.16408718,-0.09956594,0.19711088,0.38103822,0.38086483,0.22162503,0.0028264462,0.0010411437,0.007012331,3,1,0,0
40796000,40678000,0,0,0.0,0.0,0.049999997,0.09,0.09,0.20250002,-0.19104025,-0.117699854,0.20235188,0.38894752,0.38878286,0.22160262,0.0037533469,0.0014252949,0.007390939,3,1,0,0
41196000,41078000,0,0,-0.01,-0.01,0.02,0.09,0.09,0.20250002,-0.18964572,-0.11736619,0.2045679,0.39674067,0.3965861,0.22157076,0.0036260963,0.0013893399,0.0075547914,3,1,0,0
41596000,41478000,0,0,0.0,-0.03,0.07,0.09,0.09,0.20250002,-0.20490114,-0.1049283,0.13790742,0.4041876,0.40404335,0.22168945,0.00415495,0.001089977,0.0034315488,3,1,0,0
41996000,41878000,0,0,0.02,0.0,0.04,0.09,0.09,0.20250002,-0.22732516,-0.1432313,0.14694804,0.41129014,0.41115692,0.2216439,0.0050258175,0.0019958515,0.003897013,3,1,0,0
42396000,42278000,0,0,0.02,-0.03,0.02,0.09,0.09,0.20250002,-0.22458892,-0.12021604,0.1486765,0.41788453,0.4177614,0.2215937,0.0048281453,0.0013837465,0.003990132,3,1,0,0
42796000,42678000,0,0,0.03,-0.02,0.02,0.09,0.09,0.20250002,-0.23780921,-0.13280194,0.1357151,0.4238675,0.42375532,0.22169937,0.0053368774,0.0016647676,0.0033231645,3,1,0,0
43196000,43078000,0,0,0.03,-0.01,0.01,0.09,0.09,0.20250002,-0.23421872,-0.14201605,0.1356033,0.42917743,0.4290751,0.22164372,0.0051128883,0.0018801893,0.0033185245,3,1,0,0
43596000,43478000,0,0,0.06,-0.02,0.0,0.09,0.09,0.20250002,-0.26119938,-0.12880765,0.13492489,0.43377745,0.43368572,0.22158697,0.006291255,0.0015302704,0.0032862448,3,1,0,0
43996000,43878000,0,0,0.06,-0.04,0.0,0.09,0.09,0.20250002,-0.2584883,-0.09919634,0.12864932,0.43760118,0.43752104,0.22168879,0.006107498,0.00089960586,0.0029862854,3,1,0,0
44396000,44278000,0,0,0.04,-0.02,0.01,0.09,0.09,0.20250002,-0.23544088,-0.09879218,0.112222135,0.44064716,0.44058028,0.22163142,0.005031909,0.0008860945,0.0022729281,3,1,0,0
44796000,44674000,0,0,0.04,-0.02,0.01,0.09,0.09,0.20250002,-0.23335353,-0.084860966,0.102269955,0.46059456,0.46053034,0.22157773,0.0047290064,0.0006254861,0.0018881217,3,1,0,0
45196000,45078000,0,0,0.02,-0.04,0.0,0.09,0.09,0.20250002,-0.2062811,-0.046587378,0.10358323,0.4624736,0.46241966,0.22153935,0.0036803735,0.00018774148,0.0019372606,3,1,0,0
45596000,45478000,0,0,0.01,-0.02,0.02,0.09,0.09,0.20250002,-0.18391624,-0.049116377,0.07752383,0.46353677,0.46348956,0.2216586,0.0029188783,0.00020819613,0.0010845405,3,1,0,0
45996000,45878000,0,0,-0.01,0.0,0.0,0.09,0.09,0.20250002,-0.15328442,-0.05731116,0.08787863,0.46387094,0.46383017,0.22162975,0.0020260904,0.00028325614,0.0013937936,3,1,0,0
46396000,46278000,0,0,0.0,-0.01,0.03,0.09,0.09,0.20250002,-0.15233481,-0.041244105,0.052476287,0.4634647,0.4634291,0.22160164,0.0020028187,0.00014682514,0.000497065,3,1,0,0
46796000,46678000,0,0,0.0,0.01,-0.01,0.09,0.09,0.20250002,-0.14654933,-0.05914235,0.08404749,0.46241415,0.46238482,0.22158255,0.0018577898,0.00030258932,0.0012751871,3,1,0,0
47196000,47078000,0,0,-0.01,-0.01,0.01,0.09,0.09,0.20250002,-0.13284993,-0.037483446,0.05826789,0.4607467,0.4607229,0.2215585,0.0015322176,0.00012198298,0.0006129572,3,1,0,0
47596000,47478000,0,0,0.01,0.0,0.02,0.09,0.09,0.20250002,-0.14991476,-0.043850794,0.04851656,0.45849812,0.4584795,0.22153391,0.0019607001,0.00016776254,0.00042501063,3,1,0,0
47996000,47878000,0,0,-0.01,0.0,-0.03,0.09,0.09,0.20250002,-0.12868059,-0.04163578,0.091962785,0.455841,0.45582724,0.22165899,0.0014530236,0.00015212239,0.0015261559,3,1,0,0
48396000,48278000,0,0,0.02,0.0,0.03,0.09,0.09,0.20250002,-0.15582818,-0.041608527,0.031139107,0.45274216,0.45273092,0.22162685,0.0021453644,0.00015296233,0.00017500478,3,1,0,0
48796000,48678000,0,0,0.01,-0.03,0.04,0.09,0.09,0.20250002,-0.14524962,-0.011041885,0.018767174,0.44933084,0.4493227,0.22159165,0.0018781219,1.0853957e-05,6.357764e-05,3,1,0,0
49196000,49078000,0,0,0.02,0.01,0.0,0.09,0.09,0.20250002,-0.15179466,-0.043800533,0.048692092,0.44571337,0.44570804,0.22155565,0.0020678416,0.00017217429,0.00042804953,3,1,0,0
49596000,49478000,0,0,0.0,0.01,0.0,0.09,0.09,0.20250002,-0.12395303,-0.04040563,0.047987122,0.4418191,0.44181195,0.22167578,0.0013910085,0.00014781085,0.0004155193,3,1,0,0
49996000,49874000,0,0,0.0,0.0,-0.02,0.09,0.09,0.20250002,-0.130015,-0.023189906,0.066583276,0.45697865,0.45697582,0.22163333,0.0014796227,4.7072226e-05,0.0008001201,3,1,0,0
50396000,50278000,0,0,0.02,0.01,-0.11,0.09,0.09,0.20250002,-0.020306636,0.11013578,0.21672755,0.452113,0.45204535,0.221589,3.6482867e-05,0.0010733339,0.008478911,3,1,0,0
50796000,50678000,0,0,0.19,-0.14,-0.26999998,0.09,0.09,0.20250002,-0.13607973,0.32499897,0.37729558,0.44772926,0.44762498,0.22169724,0.0016543651,0.009438645,0.025684029,3,1,0,0
51196000,51078000,0,0,0.32999998,-0.29999998,-0.39,0.09,0.09,0.20250002,-0.2509486,0.5201698,0.5340514,0.44296315,0.4428343,0.22164322,0.0056867218,0.024440441,0.051472075,3,1,0,0
51596000,51478000,0,0,0.41,-0.38,-0.45,0.09,0.09,0.20250002,-0.28221232,0.6625193,0.66052735,0.43798348,0.43779853,0.22159095,0.00727368,0.04010354,0.07875707,3,1,0,0
51996000,51878000,0,0,0.42999998,-0.35999998,-0.42999998,0.09,0.09,0.20250002,-0.21053483,0.7492373,0.7297205,0.43298948,0.43269104,0.22170137,0.00409478,0.051894445,0.09607374,3,1,0,0
52396000,52278000,0,0,0.34,-0.29,-0.39999998,0.09,0.09,0.20250002,-8.21054e-05,0.81867385,0.794646,0.42822042,0.42773584,0.22165737,6.297034e-10,0.06267671,0.11395286,3,1,0,0
52796000,52678000,0,0,0.19,-0.16,-0.24,0.09,0.09,0.20250002,0.27721325,0.8380463,0.7234279,0.4238249,0.42308798,0.22161476,0.007252729,0.06639958,0.09446084,3,1,0,0
53196000,53078000,0,0,0.01,0.04,-0.07,0.09,0.09,0.20250002,0.5683626,0.77414507,0.62035334,0.41986674,0.4188309,0.22172792,0.030775102,0.05723556,0.069425315,3,1,0,0
53596000,53478000,0,0,-0.21,0.22,0.11,0.09,0.09,0.20250002,0.8594289,0.68700325,0.4770738,0.41614205,0.41484737,0.2216752,0.070996724,0.045508157,0.041068986,3,1,0,0
53996000,53878000,0,0,-0.39,0.37,0.35,0.09,0.09,0.20250002,1.0461848,0.56756216,0.24441144,0.41243675,0.41095918,0.22161233,0.10614986,0.031353656,0.010782243,3,1,0,0
54396000,54278000,0,0,-0.57,0.55,0.53999996,0.09,0.09,0.20250002,1.1694874,0.34759003,0.008478165,0.4088555,0.40737724,0.22169998,0.13380773,0.011863091,1.2968747e-05,3,1,0,0
54796000,54678000,0,0,-0.69,0.62,0.71999997,0.09,0.09,0.20250002,1.1641073,0.16298175,-0.26824456,0.40540773,0.4041335,0.22162671,0.13370696,0.0026291362,0.012986727,3,1,0,0
55196000,55078000,0,0,-0.74,0.64,0.82,0.09,0.09,0.20250002,1.0367674,-0.027847528,-0.50953937,0.4189462,0.4180396,0.22155969,0.10262765,7.420205e-05,0.046873208,3,1,0,0
55596000,55478000,0,0,-0.72999996,0.61,0.89,0.09,0.09,0.20250002,0.78745157,-0.25054777,-0.7518922,0.41631404,0.41597342,0.22166468,0.0595781,0.0060363645,0.1020175,3,1,0,0
55996000,55878000,0,0,-0.66999996,0.57,0.85999995,0.09,0.09,0.20250002,0.45974848,-0.5072654,-0.9147989,0.4147501,0.41494587,0.22163182,0.02038516,0.024804987,0.15103553,3,1,0,0
56396000,56278000,0,0,-0.53,0.44,0.79999995,0.09,0.09,0.20250002,0.036830813,-0.6946255,-1.0506883,0.41440418,0.41495937,0.2216188,0.00013093582,0.046511017,0.1992513,3,1,0,0
56796000,56674000,0,0,-0.38,0.32999998,0.69,0.09,0.09,0.20250002,-0.39346915,-0.9024831,-1.1250753,0.41518888,0.41585174,0.22177757,0.014915426,0.0783429,0.22829983,3,1,0,0
57196000,57078000,0,0,-0.17999999,0.17,0.53999996,0.09,0.09,0.20250002,-0.8491251,-1.0342392,-1.1428409,0.41681844,0.4173367,0.22178048,0.06919209,0.1025216,0.2355636,3,1,0,0
57596000,57478000,0,0,0.03,-0.03,0.35,0.09,0.09,0.20250002,-1.2803812,-1.0813823,-1.0904258,0.41863218,0.41890773,0.22177899,0.1566412,0.11166063,0.21445288,3,1,0,0
57996000,57878000,0,0,0.21,-0.19999999,0.17,0.09,0.09,0.20250002,-1.6324415,-1.0950177,-1.0092033,0.41989937,0.42000487,0.22176012,0.25385752,0.11419521,0.18371047,3,1,0,0
58396000,58278000,0,0,0.42,-0.39999998,-0.06,0.09,0.09,0.20250002,-1.9449325,-1.0041034,-0.83112776,0.41997963,0.41994876,0.22172414,0.36028054,0.096033014,0.12461853,3,1,0,0
58796000,58678000,0,0,0.58,-0.57,-0.22,0.09,0.09,0.20250002,-2.132495,-0.8631503,-0.6736703,0.4184645,0.4183779,0.22182752,0.4346877,0.07123019,0.081835054,3,1,0,0
59196000,59078000,0,0,0.71,-0.72999996,-0.47,0.09,0.09,0.20250002,-2.2072425,-0.6447744,-0.38806322,0.41530102,0.4152471,0.22175154,0.46924224,0.0400469,0.027164286,3,1,0,0
59596000,59478000,0,0,0.84999996,-0.82,-0.66999996,0.09,0.09,0.20250002,-2.201439,-0.41782647,-0.107803226,0.4107117,0.41053718,0.22166717,0.47199365,0.017009808,0.0020971145,3,1,0,0
59996000,59878000,0,0,0.9,-0.83,-0.79999995,0.09,0.09,0.20250002,-2.0207884,-0.19207102,0.14660037,0.40507814,0.40477404,0.22158538,0.4032393,0.0036456168,0.0038796184,3,1,0,0
60396000,60278000,0,0,0.83,-0.78999996,-0.82,0.09,0.09,0.20250002,-1.8238146,-0.11494118,0.2669893,0.41693527,0.41653627,0.22153278,0.31911907,0.0012686987,0.012870923,3,1,0,0
60796000,60678000,0,0,0.64,-0.55,-0.71999997,0.09,0.09,0.20250002,-1.3593452,-0.0826118,0.3660902,0.4110096,0.41074312,0.22163774,0.17983223,0.0006646207,0.024187585,3,1,0,0
61196000,61078000,0,0,0.35,-0.29,-0.56,0.09,0.09,0.20250002,-0.74909025,-0.014685214,0.39031792,0.4058637,0.40580744,0.22160192,0.05530292,2.125693e-05,0.027499413,3,1,0,0
61596000,61478000,0,0,0.08,-0.049999997,-0.44,0.09,0.09,0.20250002,-0.18889207,0.05022018,0.4246585,0.40222603,0.402315,0.22158206,0.0035482747,0.0002507554,0.032554053,3,1,0,0
61996000,61878000,0,0,-0.12,0.13,-0.34,0.09,0.09,0.20250002,0.23782375,0.11241308,0.4509799,0.3997771,0.39989924,0.22172466,0.005659167,0.0012639884,0.036691066,3,1,0,0
62396000,62278000,0,0,-0.22999999,0.22,-0.28,0.09,0.09,0.20250002,0.4980181,0.18226674,0.48945472,0.3978956,0.397994,0.22171418,0.024933375,0.003338861,0.043220676,3,1,0,0
62796000,62678000,0,0,-0.31,0.26999998,-0.24,0.09,0.09,0.20250002,0.6617735,0.2208721,0.52789825,0.39613387,0.39620274,0.22168416,0.044221833,0.0049252044,0.050283536,3,1,0,0
63196000,63078000,0,0,-0.32,0.29,-0.16,0.09,0.09,0.20250002,0.7084708,0.23478988,0.51159406,0.39431444,0.39438844,0.22163598,0.050916817,0.005591065,0.047235735,3,1,0,0
63596000,63478000,0,0,-0.29999998,0.26,-0.12,0.09,0.09,0.20250002,0.6885304,0.25832283,0.5227094,0.39245692,0.3925565,0.22173505,0.048318587,0.0067996006,0.049288586,3,1,0,0
63996000,63878000,0,0,-0.29,0.19999999,-0.07,0.09,0.09,0.20250002,0.6572478,0.28711015,0.50915253,0.39063516,0.39077297,0.22167945,0.044233054,0.008437865,0.046776783,3,1,0,0
64396000,64278000,0,0,-0.26,0.17,-0.049999997,0.09,0.09,0.20250002,0.6006431,0.27346897,0.51283973,0.3889262,0.38912988,0.22162798,0.03710443,0.0076874364,0.04746776,3,1,0,0
64796000,64678000,0,0,-0.19999999,0.12,0.0,0.09,0.09,0.20250002,0.5186927,0.26916108,0.48104894,0.38731632,0.38764518,0.22157815,0.027785255,0.00747567,0.04177453,3,1,0,0
65196000,65078000,0,0,-0.12,0.14999999,0.02,0.09,0.09,0.20250002,0.41877198,0.18399523,0.46972853,0.38588566,0.38632607,0.22168484,0.018178439,0.0035052511,0.039812356,3,1,0,0
65604000,65482000,0,0,-0.11,0.099999994,0.0,0.09,0.09,0.20250002,0.3947525,0.18499255,0.4937175,0.38517407,0.38570747,0.22168756,0.016182765,0.0035490363,0.043982077,3,1,0,0
65996000,65878000,0,0,-0.08,0.089999996,0.099999994,0.09,0.09,0.20250002,0.34657526,0.16533911,0.38715252,0.39825466,0.39880103,0.22157234,0.012064081,0.0027419208,0.027058804,3,1,0,0
66396000,66278000,0,0,-0.08,0.049999997,0.14,0.09,0.09,0.20250002,0.3260488,0.18026914,0.439623,0.39652124,0.3970302,0.22168133,0.010724047,0.003274004,0.03487319,3,1,0,0
66796000,66678000,0,0,-0.06,0.049999997,0.82,0.09,0.09,0.20250002,0.27223286,0.1656623,0.39396936,0.39099634,0.3913801,0.22163975,0.007581732,0.0028048435,0.028011555,3,1,0,0
67196000,67078000,0,0,-0.049999997,0.02,0.82,0.09,0.09,0.20250002,0.2552799,0.16943699,0.28377908,0.39096692,0.39137396,0.22159776,0.00666735,0.0029341648,0.01453635,3,1,0,0
67596000,67478000,0,0,-0.049999997,0.03,0.77,0.09,0.09,0.20250002,0.2523892,0.13859239,0.29957473,0.3904874,0.39091682,0.22155325,0.0065252096,0.0019654157,0.01620288,3,1,0,0
67996000,67878000,0,0,-0.04,0.01,0.72999996,0.09,0.09,0.20250002,0.24447596,0.13725072,0.32873875,0.3899249,0.39039147,0.22166504,0.006131282,0.0019301407,0.019501347,3,1,0,0
68396000,68278000,0,0,-0.03,0.02,0.83,0.09,0.09,0.20250002,0.23557559,0.10551956,0.22075433,0.38939297,0.389886,0.22162554,0.005700756,0.0011423215,0.008795462,3,1,0,0
68796000,68678000,0,0,-0.02,0.0,0.84,0.09,0.09,0.20250002,0.22902797,0.1033865,0.18776065,0.3890061,0.3895285,0.22158343,0.0053936234,0.0010976108,0.006364025,3,1,0,0
69196000,69078000,0,0,-0.03,0.01,0.83,0.09,0.09,0.20250002,0.23917721,0.07282192,0.17233664,0.38870466,0.38923308,0.22169635,0.005886808,0.00054497237,0.005358666,3,1,0,0
69596000,69482000,0,0,-0.01,0.0,0.78999996,0.09,0.09,0.20250002,0.22269562,0.06343439,0.17786366,0.38848412,0.38902476,0.2216498,0.005106344,0.00041374456,0.0057090926,3,1,0,0
69996000,69878000,0,0,-0.02,0.0,0.77,0.09,0.09,0.20250002,0.2331042,0.04406391,0.17068005,0.38823012,0.38876283,0.2216003,0.0055984906,0.0001997751,0.0052584186,3,1,0,0
70396000,70278000,0,0,0.0,0.01,0.83,0.09,0.09,0.20250002,0.21380028,0.016342852,0.090140045,0.387928,0.38844702,0.2217077,0.0047133034,2.7503245e-05,0.0014659351,3,1,0,0
70796000,70678000,0,0,0.01,0.01,-0.42999998,0.09,0.09,0.20250002,0.19613694,-0.0009188596,1.2430128,0.4030721,0.4035424,0.21994889,0.0038176493,8.3689145e-08,0.28098908,3,1,0,0
71196000,71078000,0,0,0.04,0.06,-0.35,0.09,0.09,0.20250002,0.17870384,-0.06903671,1.2804416,0.40156305,0.40206075,0.21813083,0.003181076,0.00047416388,0.3006509,3,1,0,0
71596000,71478000,0,0,0.03,0.06,-0.06,0.09,0.09,0.20250002,0.16909027,-0.08352572,1.2173275,0.39914277,0.39953074,0.21694681,0.0028652926,0.00069847394,0.2732257,3,1,0,0
71996000,71878000,0,0,0.07,0.049999997,0.19,0.09,0.09,0.20250002,0.08687452,-0.087654054,1.157857,0.39693475,0.3971414,0.21611875,0.0007605464,0.00077385374,0.24812889,3,1,0,0
72396000,72278000,0,0,0.07,0.01,0.44,0.09,0.09,0.20250002,0.03280531,-0.061804354,1.0362105,0.39518216,0.39520845,0.21571892,0.00010893086,0.00038660897,0.1990984,3,1,0,0
72796000,72678000,0,0,0.08,-0.049999997,0.55,0.09,0.09,0.20250002,0.036874697,0.079237066,0.52457696,0.39720526,0.3973403,0.21565077,0.00013693103,0.00063205394,0.05104197,3,1,0,0
73196000,73078000,0,0,0.0,0.0,0.02,0.09,0.09,0.20250002,0.086521395,0.019369634,0.8776002,0.3975952,0.39765504,0.21458852,0.0007531229,3.7739515e-05,0.14356445,3,1,0,0
73596000,73478000,0,0,0.02,0.01,0.0,0.09,0.09,0.20250002,0.050517958,-0.0026311874,0.8204651,0.39722136,0.3972401,0.21379307,0.00025699163,6.9712473e-07,0.12594664,3,1,0,0
73996000,73878000,0,0,0.0,0.01,0.0,0.09,0.09,0.20250002,0.056414664,-0.01443102,0.7490157,0.3967928,0.3967763,0.21342236,0.00032083387,2.0994637e-05,0.10514821,3,1,0,0
74396000,74278000,0,0,0.0,-0.01,0.02,0.09,0.09,0.20250002,0.040784705,-0.006158022,0.6575185,0.3963133,0.39626244,0.2133076,0.00016788658,3.827891e-06,0.08107176,3,1,0,0
74796000,74678000,0,0,0.01,0.0,0.0,0.09,0.09,0.20250002,0.014286002,-0.030173598,0.6073123,0.3957998,0.3957139,0.21348822,2.0625565e-05,9.2030736e-05,0.069105126,3,1,0,0
