timestamp,timestamp_sample,gps_hvel[0],gps_hvel[1],gps_vvel,gps_hpos[0],gps_hpos[1],gps_vpos,ev_hvel[0],ev_hvel[1],ev_vvel,ev_hpos[0],ev_hpos[1],ev_vpos,rng_vpos,baro_vpos,aux_hvel[0],aux_hvel[1],aux_vvel,flow[0],flow[1],terr_flow[0],terr_flow[1],heading,mag_field[0],mag_field[1],mag_field[2],gravity[0],gravity[1],gravity[2],drag[0],drag[1],airspeed,beta,hagl,hagl_rate
3732000,3652000,2.1105122e-06,0.0,0.00033542837,8.198552e-12,0.0,94.35449,0.0,0.0,0.0,0.0,0.0,0.0,0.0,7.1946187e-07,0.0,0.0,nan,0.0,0.0,0.0,0.0,0.0,0.0,0.0,0.0,0.00030331648,0.0,0.0,0.0,0.0,0.0,0.0,0.0,0.0
4228000,4148000,3.4991717e-05,0.0,6.7563e-05,2.1770346e-09,0.0,277.57327,0.0,0.0,0.0,0.0,0.0,0.0,0.0,2.1138689e-05,0.0,0.0,nan,0.0,0.0,0.0,0.0,0.0,0.0,0.0,0.0,0.0002113865,0.0,0.0,0.0,0.0,0.0,0.0,0.0,0.0
4732000,4652000,3.8194612e-05,0.0,0.000116845215,7.3035933e-09,0.0,1.2471245e-10,0.0,0.0,0.0,0.0,0.0,0.0,0.0,1.8287713e-07,0.0,0.0,nan,0.0,0.0,0.0,0.0,0.0,0.0,0.0,0.0,4.516281e-05,0.0,0.0,0.0,0.0,0.0,0.0,0.0,0.0
5228000,5148000,3.5222347e-05,0.0,4.78753e-05,2.555127e-06,0.0,1.5393578e-05,0.0,0.0,0.0,0.0,0.0,0.0,0.0,1.2920975e-05,0.0,0.0,nan,0.0,0.0,0.0,0.0,0.0,0.0,0.0,0.0,0.00026344837,0.0,0.0,0.0,0.0,0.0,0.0,0.0,0.0
5732000,5652000,1.0639706e-06,0.0,6.149812e-05,2.2755767e-06,0.0,2.0565078e-05,0.0,0.0,0.0,0.0,0.0,0.0,0.0,1.7081866e-06,0.0,0.0,nan,0.0,0.0,0.0,0.0,0.0,0.0,0.0,0.0,0.00042076313,0.0,0.0,0.0,0.0,0.0,0.0,0.0,0.0
6228000,6148000,3.7998314e-05,0.0,1.51135055e-05,2.1435342e-06,0.0,3.079213e-05,0.0,0.0,0.0,0.0,0.0,0.0,0.0,1.2456857e-07,0.0,0.0,nan,0.0,0.0,0.0,0.0,0.0,0.0,0.0,0.0,0.00048811326,0.0,0.0,0.0,0.0,0.0,0.0,0.0,0.0
6724000,6644000,7.870821e-08,0.0,0.00016441902,2.2724562e-06,0.0,2.3941033e-05,0.0,0.0,0.0,0.0,0.0,0.0,0.0,1.8380317e-05,0.0,0.0,nan,0.0,0.0,0.0,0.0,0.0,0.0,0.0,0.0,0.00037350046,0.0,0.0,0.0,0.0,0.0,0.0,0.0,0.0
7228000,7148000,1.5866619e-05,0.0,0.00011294554,2.054196e-06,0.0,6.0796785e-05,0.0,0.0,0.0,0.0,0.0,0.0,0.0,2.0526973e-06,0.0,0.0,nan,0.0,0.0,0.0,0.0,0.0,0.0,0.0,0.0,0.0023571283,0.0,0.0,0.0,0.0,0.0,0.0,0.0,0.0
7732000,7652000,1.05073705e-05,0.0,9.697206e-05,1.8338507e-06,0.0,5.5125558e-05,0.0,0.0,0.0,0.0,0.0,0.0,0.0,5.969518e-06,0.0,0.0,nan,0.0,0.0,0.0,0.0,0.0,0.0,0.0,0.0,0.0007825094,0.0,0.0,0.0,0.0,0.0,0.0,0.0,0.0
8228000,8148000,4.310214e-05,0.0,8.093533e-05,2.0017087e-06,0.0,4.9437083e-05,0.0,0.0,0.0,0.0,0.0,0.0,0.0,1.09971215e-05,0.0,0.0,nan,0.0,0.0,0.0,0.0,0.0,0.0,0.0,0.0,0.0010410732,0.0,0.0,0.0,0.0,0.0,0.0,0.0,0.0
8732000,8652000,1.4982675e-06,0.0,1.1658604e-05,4.8150428e-06,0.0,5.1256375e-05,0.0,0.0,0.0,0.0,0.0,0.0,0.0,6.734728e-07,0.0,0.0,nan,0.0,0.0,0.0,0.0,0.0,0.0,0.0,0.0,0.0006153713,0.0,0.0,0.0,0.0,0.0,0.0,0.0,0.0
9228000,9148000,3.431899e-06,0.0,1.9082834e-05,1.9499105e-06,0.0,2.4094395e-06,0.0,0.0,0.0,0.0,0.0,0.0,0.0,1.8851586e-06,0.0,0.0,nan,0.0,0.0,0.0,0.0,0.0,0.0,0.0,0.0,1.3212226e-05,0.0,0.0,0.0,0.0,0.0,0.0,0.0,0.0
9732000,9652000,0.00022798126,0.0,5.643205e-08,1.8654148e-06,0.0,2.3551365e-07,0.0,0.0,0.0,0.0,0.0,0.0,0.0,4.4288464e-07,0.0,0.0,nan,0.0,0.0,0.0,0.0,0.0,0.0,0.0,0.0,1.779839e-05,0.0,0.0,0.0,0.0,0.0,0.0,0.0,0.0
10228000,10148000,8.185348e-05,0.0,1.3853014e-06,1.8856903e-06,0.0,4.3348816e-10,0.0,0.0,0.0,0.0,0.0,0.0,0.0,8.3472005e-05,0.0,0.0,nan,0.0,0.0,0.0,0.0,0.0,0.0,0.0,0.0,0.000118196534,0.0,0.0,0.0,0.0,0.0,0.0,0.0,0.0
10724000,10644000,4.439812e-05,0.0,5.276892e-06,8.651825e-06,0.0,1.7912603e-07,0.0,0.0,0.0,0.0,0.0,0.0,0.0,3.6256233e-06,0.0,0.0,nan,0.0,0.0,0.0,0.0,0.0,0.0,0.0,0.0,0.0023508098,0.0,0.0,0.0,0.0,0.0,0.0,0.0,0.0
11228000,11148000,0.00012754078,0.0,3.0387002e-07,2.5835734e-06,0.0,2.1923977e-07,0.0,0.0,0.0,0.0,0.0,0.0,0.0,1.469128e-05,0.0,0.0,nan,0.0,0.0,0.0,0.0,0.0,0.0,0.0,0.0,0.000510361,0.0,0.0,0.0,0.0,0.0,0.0,0.0,0.0
11724000,11644000,6.73654e-05,0.0,1.4027347e-05,2.6526093e-06,0.0,1.6286682e-05,0.0,0.0,0.0,0.0,0.0,0.0,0.0,2.8111697e-07,0.0,0.0,nan,0.0,0.0,0.0,0.0,0.0,0.0,0.0,0.0,7.743718e-05,0.0,0.0,0.0,0.0,0.0,0.0,0.0,0.0
12228000,12148000,0.00024031906,0.0,4.014145e-05,4.529503e-06,0.0,1.1702533e-05,0.0,0.0,0.0,0.0,0.0,0.0,0.0,7.661969e-06,0.0,0.0,nan,0.0,0.0,0.0,0.0,0.0,0.0,0.0,0.0,0.00036869742,0.0,0.0,0.0,0.0,0.0,0.0,0.0,0.0
12724000,12644000,7.183557e-05,0.0,9.9772114e-05,2.3818293e-06,0.0,4.4940875e-06,0.0,0.0,0.0,0.0,0.0,0.0,0.0,1.8700042e-05,0.0,0.0,nan,0.0,0.0,0.0,0.0,0.0,0.0,0.0,0.0,0.002842942,0.0,0.0,0.0,0.0,0.0,0.0,0.0,0.0
13228000,13148000,4.164117e-05,0.0,3.6952372e-06,1.9488982e-06,0.0,7.666646e-06,0.0,0.0,0.0,0.0,0.0,0.0,0.0,3.454699e-05,0.0,0.0,nan,0.0,0.0,0.0,0.0,0.0,0.0,0.0,0.0,0.00061379,0.0,0.0,0.0,0.0,0.0,0.0,0.0,0.0
13732000,13652000,0.0004373729,0.0,0.00022141864,1.5956504e-06,0.0,1.370444e-05,0.0,0.0,0.0,0.0,0.0,0.0,0.0,3.0693725e-05,0.0,0.0,nan,0.0,0.0,0.0,0.0,0.0,0.0,0.0,0.0,0.0014040208,0.0,0.0,0.0,0.0,0.0,0.0,0.0,0.0
14228000,14148000,0.00012570986,0.0,6.6823915e-05,8.099625e-06,0.0,1.2365138e-05,0.0,0.0,0.0,0.0,0.0,0.0,0.0,8.616672e-06,0.0,0.0,nan,0.0,0.0,0.0,0.0,0.0,0.0,0.0,0.0,6.726858e-05,0.0,0.0,0.0,0.0,0.0,0.0,0.0,0.0
14724000,14644000,1.1805582e-06,0.0,8.506862e-05,7.337093e-09,0.0,1.2615407e-05,0.0,0.0,0.0,0.0,0.0,0.0,0.0,3.2262706e-06,0.0,0.0,nan,0.0,0.0,0.0,0.0,0.0,0.0,0.0,0.0,0.0004052853,0.0,0.0,0.0,0.0,0.0,0.0,0.0,0.0
15228000,15148000,0.00014368731,0.0,0.00014210674,2.3704154e-06,0.0,9.866979e-06,0.0,0.0,0.0,0.0,0.0,0.0,0.0,3.845046e-07,0.0,0.0,nan,0.0,0.0,0.0,0.0,0.0,0.0,0.0,0.0,0.001308074,0.0,0.0,0.0,0.0,0.0,0.0,0.0,0.0
15732000,15652000,5.7681857e-05,0.0,1.1644891e-05,2.245325e-06,0.0,2.0736841e-05,0.0,0.0,0.0,0.0,0.0,0.0,0.0,2.0726919e-05,0.0,0.0,nan,0.0,0.0,0.0,0.0,0.0,0.0,0.0,0.0,0.00034156448,0.0,0.0,0.0,0.0,0.0,0.0,0.0,0.0
16228000,16148000,2.0722516e-07,0.0,3.5188384e-07,2.2882546e-06,0.0,1.0415524e-06,0.0,0.0,0.0,0.0,0.0,0.0,0.0,2.5418813e-05,0.0,0.0,nan,0.0,0.0,0.0,0.0,0.0,0.0,0.0,0.0,1.47076225e-05,0.0,0.0,0.0,0.0,0.0,0.0,0.0,0.0
16732000,16652000,6.225755e-05,0.0,6.8338304e-05,5.647359e-09,0.0,3.3040544e-06,0.0,0.0,0.0,0.0,0.0,0.0,0.0,2.801235e-05,0.0,0.0,nan,0.0,0.0,0.0,0.0,0.0,0.0,0.0,0.0,0.00015362242,0.0,0.0,0.0,0.0,0.0,0.0,0.0,0.0
17228000,17148000,3.7281623e-06,0.0,2.9756207e-05,2.6734624e-06,0.0,9.083527e-07,0.0,0.0,0.0,0.0,0.0,0.0,0.0,1.14573295e-05,0.0,0.0,nan,0.0,0.0,0.0,0.0,0.0,0.0,0.0,0.0,0.00021475134,0.0,0.0,0.0,0.0,0.0,0.0,0.0,0.0
17724000,17644000,3.7346567e-06,0.0,1.0950703e-06,2.6767243e-06,0.0,4.5633087e-06,0.0,0.0,0.0,0.0,0.0,0.0,0.0,4.1343014e-08,0.0,0.0,nan,0.0,0.0,0.0,0.0,0.0,0.0,0.0,0.0,0.00017468494,0.0,0.0,0.0,0.0,0.0,0.0,0.0,0.0
18228000,18148000,3.0085881e-05,0.0,1.7123497e-05,2.4250376e-06,0.0,6.5257977e-06,0.0,0.0,0.0,0.0,0.0,0.0,0.0,8.9097176e-07,0.0,0.0,nan,0.0,0.0,0.0,0.0,0.0,0.0,0.0,0.0,0.00045608624,0.0,0.0,0.0,0.0,0.0,0.0,0.0,0.0
18724000,18644000,2.297551e-06,0.0,3.0671094e-05,2.3749221e-06,0.0,3.987608e-06,0.0,0.0,0.0,0.0,0.0,0.0,0.0,1.0364537e-05,0.0,0.0,nan,0.0,0.0,0.0,0.0,0.0,0.0,0.0,0.0,0.0003009325,0.0,0.0,0.0,0.0,0.0,0.0,0.0,0.0
19228000,19148000,4.296178e-05,0.0,3.6396377e-05,3.421667e-06,0.0,2.4124956e-06,0.0,0.0,0.0,0.0,0.0,0.0,0.0,2.2237211e-06,0.0,0.0,nan,0.0,0.0,0.0,0.0,0.0,0.0,0.0,0.0,8.3210216e-05,0.0,0.0,0.0,0.0,0.0,0.0,0.0,0.0
19732000,19652000,0.00017729253,0.0,3.1608968e-05,3.1795544e-06,0.0,5.271961e-06,0.0,0.0,0.0,0.0,0.0,0.0,0.0,2.696539e-05,0.0,0.0,nan,0.0,0.0,0.0,0.0,0.0,0.0,0.0,0.0,0.0005683189,0.0,0.0,0.0,0.0,0.0,0.0,0.0,0.0
20228000,20148000,2.6667726e-06,0.0,9.064628e-05,2.899442e-06,0.0,1.9256304e-06,0.0,0.0,0.0,0.0,0.0,0.0,0.0,8.696621e-07,0.0,0.0,nan,0.0,0.0,0.0,0.0,0.0,0.0,0.0,0.0,0.28673077,0.0,0.0,0.0,0.0,0.0,0.0,0.0,0.0
20724000,20644000,0.010710956,0.0,0.005273088,1.4516341e-05,0.0,2.5924606e-05,0.0,0.0,0.0,0.0,0.0,0.0,0.0,2.7929389e-05,0.0,0.0,nan,0.0,0.0,0.0,0.0,0.0,0.0,0.0,0.0,0.21472822,0.0,0.0,0.0,0.0,0.0,0.0,0.0,0.0
21228000,21148000,0.07706009,0.0,0.05623104,0.0030823809,0.0,0.0029954112,0.0,0.0,0.0,0.0,0.0,0.0,0.0,0.00028128628,0.0,0.0,nan,0.0,0.0,0.0,0.0,0.0,0.0,0.0,0.0,0.14324717,0.0,0.0,0.0,0.0,0.0,0.0,0.0,0.0
21724000,21644000,0.09132162,0.0,0.07825796,0.010025534,0.0,0.009201058,0.0,0.0,0.0,0.0,0.0,0.0,0.0,0.0007940416,0.0,0.0,nan,0.0,0.0,0.0,0.0,0.0,0.0,0.0,0.0,0.084627666,0.0,0.0,0.0,0.0,0.0,0.0,0.0,0.0
22228000,22148000,0.111666374,0.0,0.08891341,0.022735573,0.0,0.018364932,0.0,0.0,0.0,0.0,0.0,0.0,0.0,0.0018550938,0.0,0.0,nan,0.0,0.0,0.0,0.0,0.0,0.0,0.0,0.0,0.111447096,0.0,0.0,0.0,0.0,0.0,0.0,0.0,0.0
22732000,22652000,0.08172729,0.0,0.102824986,0.040723734,0.0,0.031278662,0.0,0.0,0.0,0.0,0.0,0.0,0.0,0.0032266907,0.0,0.0,nan,0.0,0.0,0.0,0.0,0.0,0.0,0.0,0.0,0.03276322,0.0,0.0,0.0,0.0,0.0,0.0,0.0,0.0
23228000,23148000,0.03159402,0.0,0.068054885,0.05950173,0.0,0.05384141,0.0,0.0,0.0,0.0,0.0,0.0,0.0,0.003270657,0.0,0.0,nan,0.0,0.0,0.0,0.0,0.0,0.0,0.0,0.0,0.45716786,0.0,0.0,0.0,0.0,0.0,0.0,0.0,0.0
23732000,23652000,0.015890123,0.0,0.03765528,0.056795344,0.0,0.05734575,0.0,0.0,0.0,0.0,0.0,0.0,0.0,0.0028788971,0.0,0.0,nan,0.0,0.0,0.0,0.0,0.0,0.0,0.0,0.0,0.36673418,0.0,0.0,0.0,0.0,0.0,0.0,0.0,0.0
24228000,24148000,0.03197968,0.0,0.0071251774,0.048609257,0.0,0.054067396,0.0,0.0,0.0,0.0,0.0,0.0,0.0,0.0015276956,0.0,0.0,nan,0.0,0.0,0.0,0.0,0.0,0.0,0.0,0.0,0.032549832,0.0,0.0,0.0,0.0,0.0,0.0,0.0,0.0
24724000,24644000,0.05206785,0.0,0.0016750881,0.0367113,0.0,0.044823784,0.0,0.0,0.0,0.0,0.0,0.0,0.0,0.00083607266,0.0,0.0,nan,0.0,0.0,0.0,0.0,0.0,0.0,0.0,0.0,0.076358505,0.0,0.0,0.0,0.0,0.0,0.0,0.0,0.0
25228000,25148000,0.029922131,0.0,0.04314911,0.013325713,0.0,0.015025532,0.0,0.0,0.0,0.0,0.0,0.0,0.0,7.570033e-05,0.0,0.0,nan,0.0,0.0,0.0,0.0,0.0,0.0,0.0,0.0,0.42092916,0.0,0.0,0.0,0.0,0.0,0.0,0.0,0.0
25732000,25652000,0.026992455,0.0,0.07742628,0.009321191,0.0,0.004503054,0.0,0.0,0.0,0.0,0.0,0.0,0.0,0.00019083319,0.0,0.0,nan,0.0,0.0,0.0,0.0,0.0,0.0,0.0,0.0,0.7842325,0.0,0.0,0.0,0.0,0.0,0.0,0.0,0.0
26228000,26148000,0.05229022,0.0,0.12884185,0.008269473,0.0,4.885233e-06,0.0,0.0,0.0,0.0,0.0,0.0,0.0,0.0012921902,0.0,0.0,nan,0.0,0.0,0.0,0.0,0.0,0.0,0.0,0.0,1.3224229,0.0,0.0,0.0,0.0,0.0,0.0,0.0,0.0
26724000,26644000,0.07874787,0.0,0.16746987,0.005511679,0.0,0.0050449977,0.0,0.0,0.0,0.0,0.0,0.0,0.0,0.0031888417,0.0,0.0,nan,0.0,0.0,0.0,0.0,0.0,0.0,0.0,0.0,2.0757856,0.0,0.0,0.0,0.0,0.0,0.0,0.0,0.0
27228000,27148000,0.2969207,0.0,0.21868026,0.00938795,0.0,0.04000143,0.0,0.0,0.0,0.0,0.0,0.0,0.0,0.005129675,0.0,0.0,nan,0.0,0.0,0.0,0.0,0.0,0.0,0.0,0.0,1.2565826,0.0,0.0,0.0,0.0,0.0,0.0,0.0,0.0
27724000,27644000,0.48031276,0.0,0.19149458,0.016187623,0.0,0.06539904,0.0,0.0,0.0,0.0,0.0,0.0,0.0,0.0078364,0.0,0.0,nan,0.0,0.0,0.0,0.0,0.0,0.0,0.0,0.0,0.2751545,0.0,0.0,0.0,0.0,0.0,0.0,0.0,0.0
28228000,28148000,0.5839967,0.0,0.16915496,0.022539632,0.0,0.08992215,0.0,0.0,0.0,0.0,0.0,0.0,0.0,0.008888715,0.0,0.0,nan,0.0,0.0,0.0,0.0,0.0,0.0,0.0,0.0,0.026147846,0.0,0.0,0.0,0.0,0.0,0.0,0.0,0.0
28724000,28644000,0.5617633,0.0,0.1163609,0.028496286,0.0,0.10578703,0.0,0.0,0.0,0.0,0.0,0.0,0.0,0.008720715,0.0,0.0,nan,0.0,0.0,0.0,0.0,0.0,0.0,0.0,0.0,0.374133,0.0,0.0,0.0,0.0,0.0,0.0,0.0,0.0
29228000,29148000,0.31168753,0.0,0.022159066,0.062400926,0.0,0.1101,0.0,0.0,0.0,0.0,0.0,0.0,0.0,0.0057238857,0.0,0.0,nan,0.0,0.0,0.0,0.0,0.0,0.0,0.0,0.0,0.7414839,0.0,0.0,0.0,0.0,0.0,0.0,0.0,0.0
29724000,29644000,0.17720586,0.0,0.0070237266,0.06970852,0.0,0.093276404,0.0,0.0,0.0,0.0,0.0,0.0,0.0,0.0039523393,0.0,0.0,nan,0.0,0.0,0.0,0.0,0.0,0.0,0.0,0.0,0.7174406,0.0,0.0,0.0,0.0,0.0,0.0,0.0,0.0
30228000,30148000,0.08823915,0.0,0.0020106444,0.070412025,0.0,0.06917523,0.0,0.0,0.0,0.0,0.0,0.0,0.0,0.0019199838,0.0,0.0,nan,0.0,0.0,0.0,0.0,0.0,0.0,0.0,0.0,0.059171442,0.0,0.0,0.0,0.0,0.0,0.0,0.0,0.0
30724000,30644000,0.03958865,0.0,0.018874992,0.06578543,0.0,0.042688847,0.0,0.0,0.0,0.0,0.0,0.0,0.0,0.00041313085,0.0,0.0,nan,0.0,0.0,0.0,0.0,0.0,0.0,0.0,0.0,0.3410748,0.0,0.0,0.0,0.0,0.0,0.0,0.0,0.0
31228000,31148000,0.0033804532,0.0,0.029477386,0.047484256,0.0,0.008868225,0.0,0.0,0.0,0.0,0.0,0.0,0.0,6.30968e-06,0.0,0.0,nan,0.0,0.0,0.0,0.0,0.0,0.0,0.0,0.0,0.24972494,0.0,0.0,0.0,0.0,0.0,0.0,0.0,0.0
31724000,31644000,0.026965186,0.0,0.04746709,0.035374846,0.0,0.0020210324,0.0,0.0,0.0,0.0,0.0,0.0,0.0,0.0003040653,0.0,0.0,nan,0.0,0.0,0.0,0.0,0.0,0.0,0.0,0.0,0.03195508,0.0,0.0,0.0,0.0,0.0,0.0,0.0,0.0
32228000,32148000,0.05042816,0.0,0.06240567,0.024070324,0.0,2.1181256e-06,0.0,0.0,0.0,0.0,0.0,0.0,0.0,0.0008155124,0.0,0.0,nan,0.0,0.0,0.0,0.0,0.0,0.0,0.0,0.0,0.005531316,0.0,0.0,0.0,0.0,0.0,0.0,0.0,0.0
32724000,32644000,0.05447977,0.0,0.060766723,0.015381477,0.0,0.0012279266,0.0,0.0,0.0,0.0,0.0,0.0,0.0,0.0014414958,0.0,0.0,nan,0.0,0.0,0.0,0.0,0.0,0.0,0.0,0.0,0.036523104,0.0,0.0,0.0,0.0,0.0,0.0,0.0,0.0
33228000,33148000,0.032051522,0.0,0.08181144,0.005424889,0.0,0.008098764,0.0,0.0,0.0,0.0,0.0,0.0,0.0,0.0022307045,0.0,0.0,nan,0.0,0.0,0.0,0.0,0.0,0.0,0.0,0.0,0.04236456,0.0,0.0,0.0,0.0,0.0,0.0,0.0,0.0
33724000,33644000,0.016619463,0.0,0.06706149,0.0031594224,0.0,0.012212392,0.0,0.0,0.0,0.0,0.0,0.0,0.0,0.0019153705,0.0,0.0,nan,0.0,0.0,0.0,0.0,0.0,0.0,0.0,0.0,0.048018653,0.0,0.0,0.0,0.0,0.0,0.0,0.0,0.0
34228000,34148000,0.006269852,0.0,0.093750305,0.0019846149,0.0,0.016631944,0.0,0.0,0.0,0.0,0.0,0.0,0.0,0.0025924775,0.0,0.0,nan,0.0,0.0,0.0,0.0,0.0,0.0,0.0,0.0,0.027928727,0.0,0.0,0.0,0.0,0.0,0.0,0.0,0.0
34732000,34652000,0.0019120543,0.0,0.065023646,0.0013494954,0.0,0.02142281,0.0,0.0,0.0,0.0,0.0,0.0,0.0,0.0027157487,0.0,0.0,nan,0.0,0.0,0.0,0.0,0.0,0.0,0.0,0.0,0.008288175,0.0,0.0,0.0,0.0,0.0,0.0,0.0,0.0
35228000,35148000,0.00021685587,0.0,0.053210042,0.0007114357,0.0,0.02616632,0.0,0.0,0.0,0.0,0.0,0.0,0.0,0.001845645,0.0,0.0,nan,0.0,0.0,0.0,0.0,0.0,0.0,0.0,0.0,0.0011105455,0.0,0.0,0.0,0.0,0.0,0.0,0.0,0.0
35732000,35652000,0.0002538279,0.0,0.044651683,0.0005669216,0.0,0.02748874,0.0,0.0,0.0,0.0,0.0,0.0,0.0,0.001925687,0.0,0.0,nan,0.0,0.0,0.0,0.0,0.0,0.0,0.0,0.0,0.0009664677,0.0,0.0,0.0,0.0,0.0,0.0,0.0,0.0
36228000,36148000,0.00082586886,0.0,0.050900627,0.00045048704,0.0,0.028128201,0.0,0.0,0.0,0.0,0.0,0.0,0.0,0.0016180894,0.0,0.0,nan,0.0,0.0,0.0,0.0,0.0,0.0,0.0,0.0,0.00096055854,0.0,0.0,0.0,0.0,0.0,0.0,0.0,0.0
36724000,36644000,0.0009667683,0.0,0.03939657,0.0003821241,0.0,0.0284862,0.0,0.0,0.0,0.0,0.0,0.0,0.0,0.0017920948,0.0,0.0,nan,0.0,0.0,0.0,0.0,0.0,0.0,0.0,0.0,0.0039417786,0.0,0.0,0.0,0.0,0.0,0.0,0.0,0.0
37228000,37148000,0.0004165488,0.0,0.0226086,0.00035713936,0.0,0.026069757,0.0,0.0,0.0,0.0,0.0,0.0,0.0,0.0010269679,0.0,0.0,nan,0.0,0.0,0.0,0.0,0.0,0.0,0.0,0.0,0.0014628242,0.0,0.0,0.0,0.0,0.0,0.0,0.0,0.0
37724000,37644000,0.0007747478,0.0,0.024141412,0.00040583417,0.0,0.024590041,0.0,0.0,0.0,0.0,0.0,0.0,0.0,0.0010365332,0.0,0.0,nan,0.0,0.0,0.0,0.0,0.0,0.0,0.0,0.0,0.003769778,0.0,0.0,0.0,0.0,0.0,0.0,0.0,0.0
38228000,38148000,0.0013870265,0.0,0.021533627,0.00044889963,0.0,0.022613456,0.0,0.0,0.0,0.0,0.0,0.0,0.0,0.0003936222,0.0,0.0,nan,0.0,0.0,0.0,0.0,0.0,0.0,0.0,0.0,0.0043203193,0.0,0.0,0.0,0.0,0.0,0.0,0.0,0.0
38732000,38652000,0.0013070822,0.0,0.01726559,0.0005401613,0.0,0.0216627,0.0,0.0,0.0,0.0,0.0,0.0,0.0,0.0004941837,0.0,0.0,nan,0.0,0.0,0.0,0.0,0.0,0.0,0.0,0.0,0.0035852375,0.0,0.0,0.0,0.0,0.0,0.0,0.0,0.0
39228000,39148000,0.0023399098,0.0,0.02052717,0.00067439576,0.0,0.018473236,0.0,0.0,0.0,0.0,0.0,0.0,0.0,0.00022698093,0.0,0.0,nan,0.0,0.0,0.0,0.0,0.0,0.0,0.0,0.0,0.0052384115,0.0,0.0,0.0,0.0,0.0,0.0,0.0,0.0
39724000,39644000,0.0030676874,0.0,0.0106418785,0.0007058901,0.0,0.016706994,0.0,0.0,0.0,0.0,0.0,0.0,0.0,0.00023174983,0.0,0.0,nan,0.0,0.0,0.0,0.0,0.0,0.0,0.0,0.0,0.0027014404,0.0,0.0,0.0,0.0,0.0,0.0,0.0,0.0
40228000,40148000,0.003255637,0.0,0.0098299915,0.00075796596,0.0,0.015292852,0.0,0.0,0.0,0.0,0.0,0.0,0.0,5.9137146e-05,0.0,0.0,nan,0.0,0.0,0.0,0.0,0.0,0.0,0.0,0.0,0.0009772336,0.0,0.0,0.0,0.0,0.0,0.0,0.0,0.0
40732000,40652000,0.0028264462,0.0,0.007012331,0.0008098924,0.0,0.013845434,0.0,0.0,0.0,0.0,0.0,0.0,0.0,9.840362e-06,0.0,0.0,nan,0.0,0.0,0.0,0.0,0.0,0.0,0.0,0.0,0.004311488,0.0,0.0,0.0,0.0,0.0,0.0,0.0,0.0
41228000,41148000,0.0036260963,0.0,0.0075547914,0.0008931451,0.0,0.01129786,0.0,0.0,0.0,0.0,0.0,0.0,0.0,5.9835256e-05,0.0,0.0,nan,0.0,0.0,0.0,0.0,0.0,0.0,0.0,0.0,0.0025587205,0.0,0.0,0.0,0.0,0.0,0.0,0.0,0.0
41724000,41644000,0.00415495,0.0,0.0034315488,0.0008948053,0.0,0.010512634,0.0,0.0,0.0,0.0,0.0,0.0,0.0,6.348968e-06,0.0,0.0,nan,0.0,0.0,0.0,0.0,0.0,0.0,0.0,0.0,0.0044781147,0.0,0.0,0.0,0.0,0.0,0.0,0.0,0.0
42228000,42148000,0.0050258175,0.0,0.003897013,0.0009302375,0.0,0.009997949,0.0,0.0,0.0,0.0,0.0,0.0,0.0,5.1895684e-05,0.0,0.0,nan,0.0,0.0,0.0,0.0,0.0,0.0,0.0,0.0,0.000887062,0.0,0.0,0.0,0.0,0.0,0.0,0.0,0.0
42724000,42644000,0.0048281453,0.0,0.003990132,0.0009678799,0.0,0.00892509,0.0,0.0,0.0,0.0,0.0,0.0,0.0,7.11586e-06,0.0,0.0,nan,0.0,0.0,0.0,0.0,0.0,0.0,0.0,0.0,0.003630734,0.0,0.0,0.0,0.0,0.0,0.0,0.0,0.0
43228000,43148000,0.0051128883,0.0,0.0033185245,0.0010254915,0.0,0.0076586884,0.0,0.0,0.0,0.0,0.0,0.0,0.0,3.774668e-05,0.0,0.0,nan,0.0,0.0,0.0,0.0,0.0,0.0,0.0,0.0,9.324439e-05,0.0,0.0,0.0,0.0,0.0,0.0,0.0,0.0
43724000,43644000,0.006291255,0.0,0.0032862448,0.0010356919,0.0,0.0066764327,0.0,0.0,0.0,0.0,0.0,0.0,0.0,5.398877e-06,0.0,0.0,nan,0.0,0.0,0.0,0.0,0.0,0.0,0.0,0.0,0.0015383569,0.0,0.0,0.0,0.0,0.0,0.0,0.0,0.0
44228000,44148000,0.006107498,0.0,0.0029862854,0.0010753452,0.0,0.0060143885,0.0,0.0,0.0,0.0,0.0,0.0,0.0,1.2377396e-08,0.0,0.0,nan,0.0,0.0,0.0,0.0,0.0,0.0,0.0,0.0,0.0011718954,0.0,0.0,0.0,0.0,0.0,0.0,0.0,0.0
44732000,44652000,0.005031909,0.0,0.0022729281,0.0011341049,0.0,0.005553519,0.0,0.0,0.0,0.0,0.0,0.0,0.0,3.6466696e-05,0.0,0.0,nan,0.0,0.0,0.0,0.0,0.0,0.0,0.0,0.0,0.00025764463,0.0,0.0,0.0,0.0,0.0,0.0,0.0,0.0
45228000,45148000,0.0036803735,0.0,0.0019372606,0.0013219774,0.0,0.004716774,0.0,0.0,0.0,0.0,0.0,0.0,0.0,1.7014324e-08,0.0,0.0,nan,0.0,0.0,0.0,0.0,0.0,0.0,0.0,0.0,0.0012412892,0.0,0.0,0.0,0.0,0.0,0.0,0.0,0.0
45732000,45652000,0.0029188783,0.0,0.0010845405,0.0012797797,0.0,0.004417973,0.0,0.0,0.0,0.0,0.0,0.0,0.0,1.827245e-05,0.0,0.0,nan,0.0,0.0,0.0,0.0,0.0,0.0,0.0,0.0,0.00042519902,0.0,0.0,0.0,0.0,0.0,0.0,0.0,0.0
46228000,46148000,0.0020260904,0.0,0.0013937936,0.0012742043,0.0,0.00396466,0.0,0.0,0.0,0.0,0.0,0.0,0.0,0.00011899433,0.0,0.0,nan,0.0,0.0,0.0,0.0,0.0,0.0,0.0,0.0,0.0005382869,0.0,0.0,0.0,0.0,0.0,0.0,0.0,0.0
46732000,46652000,0.0020028187,0.0,0.000497065,0.0011480432,0.0,0.0037518984,0.0,0.0,0.0,0.0,0.0,0.0,0.0,1.3513456e-05,0.0,0.0,nan,0.0,0.0,0.0,0.0,0.0,0.0,0.0,0.0,0.00045026268,0.0,0.0,0.0,0.0,0.0,0.0,0.0,0.0
47228000,47148000,0.0015322176,0.0,0.0006129572,0.0009544358,0.0,0.0030985642,0.0,0.0,0.0,0.0,0.0,0.0,0.0,5.1396375e-05,0.0,0.0,nan,0.0,0.0,0.0,0.0,0.0,0.0,0.0,0.0,0.0015159369,0.0,0.0,0.0,0.0,0.0,0.0,0.0,0.0
47732000,47652000,0.0019607001,0.0,0.00042501063,0.0008933685,0.0,0.0030859602,0.0,0.0,0.0,0.0,0.0,0.0,0.0,1.881916e-05,0.0,0.0,nan,0.0,0.0,0.0,0.0,0.0,0.0,0.0,0.0,0.0010989946,0.0,0.0,0.0,0.0,0.0,0.0,0.0,0.0
48228000,48148000,0.0014530236,0.0,0.0015261559,0.00083696085,0.0,0.002850846,0.0,0.0,0.0,0.0,0.0,0.0,0.0,7.2957973e-06,0.0,0.0,nan,0.0,0.0,0.0,0.0,0.0,0.0,0.0,0.0,0.0010225234,0.0,0.0,0.0,0.0,0.0,0.0,0.0,0.0
48724000,48644000,0.0021453644,0.0,0.00017500478,0.0007867863,0.0,0.0026992,0.0,0.0,0.0,0.0,0.0,0.0,0.0,2.4368292e-05,0.0,0.0,nan,0.0,0.0,0.0,0.0,0.0,0.0,0.0,0.0,0.0008425698,0.0,0.0,0.0,0.0,0.0,0.0,0.0,0.0
49228000,49148000,0.0020678416,0.0,0.00042804953,0.000702947,0.0,0.00219338,0.0,0.0,0.0,0.0,0.0,0.0,0.0,2.4381941e-05,0.0,0.0,nan,0.0,0.0,0.0,0.0,0.0,0.0,0.0,0.0,0.00016196808,0.0,0.0,0.0,0.0,0.0,0.0,0.0,0.0
49732000,49652000,0.0013910085,0.0,0.0004155193,0.00066093047,0.0,0.00230821,0.0,0.0,0.0,0.0,0.0,0.0,0.0,3.247788e-05,0.0,0.0,nan,0.0,0.0,0.0,0.0,0.0,0.0,0.0,0.0,0.0015061512,0.0,0.0,0.0,0.0,0.0,0.0,0.0,0.0
50228000,50148000,0.0014796227,0.0,0.0008001201,0.00068633584,0.0,0.0022722506,0.0,0.0,0.0,0.0,0.0,0.0,0.0,7.8533384e-07,0.0,0.0,nan,0.0,0.0,0.0,0.0,0.0,0.0,0.0,0.0,0.21743457,0.0,0.0,0.0,0.0,0.0,0.0,0.0,0.0
50732000,50652000,0.0010733339,0.0,0.008478911,0.000613475,0.0,0.0025788818,0.0,0.0,0.0,0.0,0.0,0.0,0.0,3.296438e-06,0.0,0.0,nan,0.0,0.0,0.0,0.0,0.0,0.0,0.0,0.0,0.015292481,0.0,0.0,0.0,0.0,0.0,0.0,0.0,0.0
51228000,51148000,0.024440441,0.0,0.051472075,0.00064006576,0.0,0.008105167,0.0,0.0,0.0,0.0,0.0,0.0,0.0,4.771039e-05,0.0,0.0,nan,0.0,0.0,0.0,0.0,0.0,0.0,0.0,0.0,0.019426616,0.0,0.0,0.0,0.0,0.0,0.0,0.0,0.0
51724000,51644000,0.04010354,0.0,0.07875707,0.0010065221,0.0,0.014330085,0.0,0.0,0.0,0.0,0.0,0.0,0.0,0.00041487074,0.0,0.0,nan,0.0,0.0,0.0,0.0,0.0,0.0,0.0,0.0,0.05529675,0.0,0.0,0.0,0.0,0.0,0.0,0.0,0.0
52228000,52148000,0.051894445,0.0,0.09607374,0.0015754311,0.0,0.022911914,0.0,0.0,0.0,0.0,0.0,0.0,0.0,0.0007432553,0.0,0.0,nan,0.0,0.0,0.0,0.0,0.0,0.0,0.0,0.0,0.12882543,0.0,0.0,0.0,0.0,0.0,0.0,0.0,0.0
52732000,52652000,0.06267671,0.0,0.11395286,0.003398183,0.0,0.031257242,0.0,0.0,0.0,0.0,0.0,0.0,0.0,0.0007884595,0.0,0.0,nan,0.0,0.0,0.0,0.0,0.0,0.0,0.0,0.0,0.16203265,0.0,0.0,0.0,0.0,0.0,0.0,0.0,0.0
53228000,53148000,0.05723556,0.0,0.069425315,0.008360313,0.0,0.045377627,0.0,0.0,0.0,0.0,0.0,0.0,0.0,0.0011354339,0.0,0.0,nan,0.0,0.0,0.0,0.0,0.0,0.0,0.0,0.0,0.13244638,0.0,0.0,0.0,0.0,0.0,0.0,0.0,0.0
53732000,53652000,0.070996724,0.0,0.041068986,0.010592939,0.0,0.04588038,0.0,0.0,0.0,0.0,0.0,0.0,0.0,0.0015265731,0.0,0.0,nan,0.0,0.0,0.0,0.0,0.0,0.0,0.0,0.0,0.032167524,0.0,0.0,0.0,0.0,0.0,0.0,0.0,0.0
54228000,54148000,0.10614986,0.0,0.010782243,0.011698715,0.0,0.03980847,0.0,0.0,0.0,0.0,0.0,0.0,0.0,0.00048599267,0.0,0.0,nan,0.0,0.0,0.0,0.0,0.0,0.0,0.0,0.0,0.01486936,0.0,0.0,0.0,0.0,0.0,0.0,0.0,0.0
54732000,54652000,0.13380773,0.0,1.2968747e-05,0.011606,0.0,0.03048933,0.0,0.0,0.0,0.0,0.0,0.0,0.0,0.0001419413,0.0,0.0,nan,0.0,0.0,0.0,0.0,0.0,0.0,0.0,0.0,0.09729895,0.0,0.0,0.0,0.0,0.0,0.0,0.0,0.0
55228000,55148000,0.10262765,0.0,0.046873208,0.008243897,0.0,0.0078000193,0.0,0.0,0.0,0.0,0.0,0.0,0.0,6.165666e-05,0.0,0.0,nan,0.0,0.0,0.0,0.0,0.0,0.0,0.0,0.0,0.2932323,0.0,0.0,0.0,0.0,0.0,0.0,0.0,0.0
55732000,55652000,0.0595781,0.0,0.1020175,0.008191899,0.0,0.0012064977,0.0,0.0,0.0,0.0,0.0,0.0,0.0,0.0005940566,0.0,0.0,nan,0.0,0.0,0.0,0.0,0.0,0.0,0.0,0.0,0.35172993,0.0,0.0,0.0,0.0,0.0,0.0,0.0,0.0
56228000,56148000,0.024804987,0.0,0.15103553,0.009867693,0.0,0.0005504834,0.0,0.0,0.0,0.0,0.0,0.0,0.0,0.0021027355,0.0,0.0,nan,0.0,0.0,0.0,0.0,0.0,0.0,0.0,0.0,0.3696435,0.0,0.0,0.0,0.0,0.0,0.0,0.0,0.0
56724000,56644000,0.046511017,0.0,0.1992513,0.010045195,0.0,0.0067315698,0.0,0.0,0.0,0.0,0.0,0.0,0.0,0.0053226585,0.0,0.0,nan,0.0,0.0,0.0,0.0,0.0,0.0,0.0,0.0,0.43439737,0.0,0.0,0.0,0.0,0.0,0.0,0.0,0.0
57228000,57148000,0.1025216,0.0,0.2355636,0.005372679,0.0,0.034210205,0.0,0.0,0.0,0.0,0.0,0.0,0.0,0.0050775604,0.0,0.0,nan,0.0,0.0,0.0,0.0,0.0,0.0,0.0,0.0,0.43796366,0.0,0.0,0.0,0.0,0.0,0.0,0.0,0.0
57732000,57652000,0.1566412,0.0,0.21445288,0.0071670045,0.0,0.048847325,0.0,0.0,0.0,0.0,0.0,0.0,0.0,0.006508759,0.0,0.0,nan,0.0,0.0,0.0,0.0,0.0,0.0,0.0,0.0,0.22069582,0.0,0.0,0.0,0.0,0.0,0.0,0.0,0.0
58228000,58148000,0.25385752,0.0,0.18371047,0.013020041,0.0,0.060281217,0.0,0.0,0.0,0.0,0.0,0.0,0.0,0.006207472,0.0,0.0,nan,0.0,0.0,0.0,0.0,0.0,0.0,0.0,0.0,0.06494973,0.0,0.0,0.0,0.0,0.0,0.0,0.0,0.0
58724000,58644000,0.36028054,0.0,0.12461853,0.01894021,0.0,0.06535017,0.0,0.0,0.0,0.0,0.0,0.0,0.0,0.0055535245,0.0,0.0,nan,0.0,0.0,0.0,0.0,0.0,0.0,0.0,0.0,0.00847248,0.0,0.0,0.0,0.0,0.0,0.0,0.0,0.0
59228000,59148000,0.46924224,0.0,0.027164286,0.025840301,0.0,0.0558226,0.0,0.0,0.0,0.0,0.0,0.0,0.0,0.0032500294,0.0,0.0,nan,0.0,0.0,0.0,0.0,0.0,0.0,0.0,0.0,0.029797887,0.0,0.0,0.0,0.0,0.0,0.0,0.0,0.0
59724000,59644000,0.47199365,0.0,0.0020971145,0.025495222,0.0,0.04331806,0.0,0.0,0.0,0.0,0.0,0.0,0.0,0.0020239723,0.0,0.0,nan,0.0,0.0,0.0,0.0,0.0,0.0,0.0,0.0,0.15745713,0.0,0.0,0.0,0.0,0.0,0.0,0.0,0.0
60228000,60148000,0.4032393,0.0,0.0038796184,0.034980476,0.0,0.02733777,0.0,0.0,0.0,0.0,0.0,0.0,0.0,0.00055719394,0.0,0.0,nan,0.0,0.0,0.0,0.0,0.0,0.0,0.0,0.0,0.011818386,0.0,0.0,0.0,0.0,0.0,0.0,0.0,0.0
60732000,60652000,0.31911907,0.0,0.012870923,0.04921364,0.0,0.013138812,0.0,0.0,0.0,0.0,0.0,0.0,0.0,5.2316616e-05,0.0,0.0,nan,0.0,0.0,0.0,0.0,0.0,0.0,0.0,0.0,0.42401165,0.0,0.0,0.0,0.0,0.0,0.0,0.0,0.0
61228000,61148000,0.05530292,0.0,0.027499413,0.05887152,0.0,0.0012294817,0.0,0.0,0.0,0.0,0.0,0.0,0.0,9.87387e-05,0.0,0.0,nan,0.0,0.0,0.0,0.0,0.0,0.0,0.0,0.0,0.48976228,0.0,0.0,0.0,0.0,0.0,0.0,0.0,0.0
61724000,61644000,0.0035482747,0.0,0.032554053,0.05308399,0.0,8.489615e-06,0.0,0.0,0.0,0.0,0.0,0.0,0.0,0.00012988136,0.0,0.0,nan,0.0,0.0,0.0,0.0,0.0,0.0,0.0,0.0,0.26653728,0.0,0.0,0.0,0.0,0.0,0.0,0.0,0.0
62228000,62148000,0.005659167,0.0,0.036691066,0.043087732,0.0,0.0005967973,0.0,0.0,0.0,0.0,0.0,0.0,0.0,0.0004956293,0.0,0.0,nan,0.0,0.0,0.0,0.0,0.0,0.0,0.0,0.0,0.06567607,0.0,0.0,0.0,0.0,0.0,0.0,0.0,0.0
62724000,62644000,0.024933375,0.0,0.043220676,0.032037076,0.0,0.0027367666,0.0,0.0,0.0,0.0,0.0,0.0,0.0,0.0009038585,0.0,0.0,nan,0.0,0.0,0.0,0.0,0.0,0.0,0.0,0.0,0.010901662,0.0,0.0,0.0,0.0,0.0,0.0,0.0,0.0
63228000,63148000,0.050916817,0.0,0.047235735,0.013394686,0.0,0.0085860435,0.0,0.0,0.0,0.0,0.0,0.0,0.0,0.0017849101,0.0,0.0,nan,0.0,0.0,0.0,0.0,0.0,0.0,0.0,0.0,0.00025631484,0.0,0.0,0.0,0.0,0.0,0.0,0.0,0.0
63724000,63644000,0.048318587,0.0,0.049288586,0.007604429,0.0,0.011922722,0.0,0.0,0.0,0.0,0.0,0.0,0.0,0.00097165524,0.0,0.0,nan,0.0,0.0,0.0,0.0,0.0,0.0,0.0,0.0,0.007032861,0.0,0.0,0.0,0.0,0.0,0.0,0.0,0.0
64228000,64148000,0.044233054,0.0,0.046776783,0.0039019105,0.0,0.015254777,0.0,0.0,0.0,0.0,0.0,0.0,0.0,0.0013836639,0.0,0.0,nan,0.0,0.0,0.0,0.0,0.0,0.0,0.0,0.0,0.014925327,0.0,0.0,0.0,0.0,0.0,0.0,0.0,0.0
64732000,64652000,0.03710443,0.0,0.04746776,0.0017793083,0.0,0.017556973,0.0,0.0,0.0,0.0,0.0,0.0,0.0,0.0013066136,0.0,0.0,nan,0.0,0.0,0.0,0.0,0.0,0.0,0.0,0.0,0.018158965,0.0,0.0,0.0,0.0,0.0,0.0,0.0,0.0
65228000,65148000,0.018178439,0.0,0.039812356,0.0008269656,0.0,0.021120885,0.0,0.0,0.0,0.0,0.0,0.0,0.0,0.0011856077,0.0,0.0,nan,0.0,0.0,0.0,0.0,0.0,0.0,0.0,0.0,0.005388662,0.0,0.0,0.0,0.0,0.0,0.0,0.0,0.0
65724000,65644000,0.016182765,0.0,0.043982077,0.00092488626,0.0,0.022048917,0.0,0.0,0.0,0.0,0.0,0.0,0.0,0.0013098519,0.0,0.0,nan,0.0,0.0,0.0,0.0,0.0,0.0,0.0,0.0,0.0043840106,0.0,0.0,0.0,0.0,0.0,0.0,0.0,0.0
66228000,66148000,0.012064081,0.0,0.027058804,0.0010030445,0.0,0.0223162,0.0,0.0,0.0,0.0,0.0,0.0,0.0,0.0012800054,0.0,0.0,nan,0.0,0.0,0.0,0.0,0.0,0.0,0.0,0.0,0.0012708,0.0,0.0,0.0,0.0,0.0,0.0,0.0,0.0
66724000,66644000,0.010724047,0.0,0.03487319,0.0010400111,0.0,0.022760322,0.0,0.0,0.0,0.0,0.0,0.0,0.0,0.00090763666,0.0,0.0,nan,0.0,0.0,0.0,0.0,0.0,0.0,0.0,0.0,0.006505939,0.0,0.0,0.0,0.0,0.0,0.0,0.0,0.0
67228000,67148000,0.00666735,0.0,0.01453635,0.0010502037,0.0,0.021972565,0.0,0.0,0.0,0.0,0.0,0.0,0.0,0.0006434219,0.0,0.0,nan,0.0,0.0,0.0,0.0,0.0,0.0,0.0,0.0,0.0010491204,0.0,0.0,0.0,0.0,0.0,0.0,0.0,0.0
67732000,67652000,0.0065252096,0.0,0.01620288,0.00096093153,0.0,0.020701287,0.0,0.0,0.0,0.0,0.0,0.0,0.0,0.00043505378,0.0,0.0,nan,0.0,0.0,0.0,0.0,0.0,0.0,0.0,0.0,0.0017204542,0.0,0.0,0.0,0.0,0.0,0.0,0.0,0.0
68228000,68148000,0.006131282,0.0,0.019501347,0.001064168,0.0,0.0195153,0.0,0.0,0.0,0.0,0.0,0.0,0.0,0.0003143236,0.0,0.0,nan,0.0,0.0,0.0,0.0,0.0,0.0,0.0,0.0,0.00020433549,0.0,0.0,0.0,0.0,0.0,0.0,0.0,0.0
68732000,68652000,0.005700756,0.0,0.008795462,0.0012493794,0.0,0.0185684,0.0,0.0,0.0,0.0,0.0,0.0,0.0,0.00027907224,0.0,0.0,nan,0.0,0.0,0.0,0.0,0.0,0.0,0.0,0.0,0.001062655,0.0,0.0,0.0,0.0,0.0,0.0,0.0,0.0
69228000,69148000,0.005886808,0.0,0.005358666,0.0016344367,0.0,0.013978979,0.0,0.0,0.0,0.0,0.0,0.0,0.0,0.000202052,0.0,0.0,nan,0.0,0.0,0.0,0.0,0.0,0.0,0.0,0.0,0.00077469664,0.0,0.0,0.0,0.0,0.0,0.0,0.0,0.0
69732000,69652000,0.005106344,0.0,0.0057090926,0.001828738,0.0,0.012644368,0.0,0.0,0.0,0.0,0.0,0.0,0.0,2.1111826e-05,0.0,0.0,nan,0.0,0.0,0.0,0.0,0.0,0.0,0.0,0.0,0.0013366401,0.0,0.0,0.0,0.0,0.0,0.0,0.0,0.0
70228000,70148000,0.0055984906,0.0,0.0052584186,0.001954314,0.0,0.010701086,0.0,0.0,0.0,0.0,0.0,0.0,0.0,0.00010758715,0.0,0.0,nan,0.0,0.0,0.0,0.0,0.0,0.0,0.0,0.0,0.0010775444,0.0,0.0,0.0,0.0,0.0,0.0,0.0,0.0
70732000,70652000,0.0047133034,0.0,0.0014659351,0.0021396405,0.0,0.008884952,0.0,0.0,0.0,0.0,0.0,0.0,0.0,0.00025856303,0.0,0.0,nan,0.0,0.0,0.0,0.0,0.0,0.0,0.0,0.0,0.01763317,0.0,0.0,0.0,0.0,0.0,0.0,0.0,0.0
71228000,71148000,0.003181076,0.0,0.3006509,0.0023224056,0.0,0.047400486,0.0,0.0,0.0,0.0,0.0,0.0,0.0,0.0014864298,0.0,0.0,nan,0.0,0.0,0.0,0.0,0.0,0.0,0.0,0.0,0.0018995663,0.0,0.0,0.0,0.0,0.0,0.0,0.0,0.0
71732000,71652000,0.0028652926,0.0,0.2732257,0.0023223807,0.0,0.07126844,0.0,0.0,0.0,0.0,0.0,0.0,0.0,0.0023309335,0.0,0.0,nan,0.0,0.0,0.0,0.0,0.0,0.0,0.0,0.0,0.0035343564,0.0,0.0,0.0,0.0,0.0,0.0,0.0,0.0
72228000,72148000,0.00077385374,0.0,0.24812889,0.0020913135,0.0,0.094612665,0.0,0.0,0.0,0.0,0.0,0.0,0.0,0.0026513766,0.0,0.0,nan,0.0,0.0,0.0,0.0,0.0,0.0,0.0,0.0,0.011485597,0.0,0.0,0.0,0.0,0.0,0.0,0.0,0.0
72732000,72652000,0.00038660897,0.0,0.1990984,0.0018314377,0.0,0.11047647,0.0,0.0,0.0,0.0,0.0,0.0,0.0,0.005008551,0.0,0.0,nan,0.0,0.0,0.0,0.0,0.0,0.0,0.0,0.0,0.01332048,0.0,0.0,0.0,0.0,0.0,0.0,0.0,0.0
73228000,73148000,0.0007531229,0.0,0.14356445,0.0013034137,0.0,0.12879583,0.0,0.0,0.0,0.0,0.0,0.0,0.0,0.004497633,0.0,0.0,nan,0.0,0.0,0.0,0.0,0.0,0.0,0.0,0.0,0.00019814257,0.0,0.0,0.0,0.0,0.0,0.0,0.0,0.0
73732000,73652000,0.00025699163,0.0,0.12594664,0.0011703183,0.0,0.13169317,0.0,0.0,0.0,0.0,0.0,0.0,0.0,0.002688883,0.0,0.0,nan,0.0,0.0,0.0,0.0,0.0,0.0,0.0,0.0,0.0012804961,0.0,0.0,0.0,0.0,0.0,0.0,0.0,0.0
74228000,74148000,0.00032083387,0.0,0.10514821,0.0009850295,0.0,0.13454163,0.0,0.0,0.0,0.0,0.0,0.0,0.0,0.0027282638,0.0,0.0,nan,0.0,0.0,0.0,0.0,0.0,0.0,0.0,0.0,0.0015267042,0.0,0.0,0.0,0.0,0.0,0.0,0.0,0.0
74724000,74644000,0.00016788658,0.0,0.08107176,0.00085566036,0.0,0.13135129,0.0,0.0,0.0,0.0,0.0,0.0,0.0,0.0027953521,0.0,0.0,nan,0.0,0.0,0.0,0.0,0.0,0.0,0.0,0.0,0.0017103114,0.0,0.0,0.0,0.0,0.0,0.0,0.0,0.0
