timestamp,timestamp_sample,ref_timestamp,ref_lat,ref_lon,x,y,z,delta_xy[0],delta_xy[1],delta_z,vx,vy,vz,z_deriv,delta_vxy[0],delta_vxy[1],delta_vz,ax,ay,az,heading,delta_heading,ref_alt,dist_bottom,eph,epv,evh,evv,vxy_max,vz_max,hagl_min,hagl_max,xy_valid,z_valid,v_xy_valid,v_z_valid,xy_reset_counter,z_reset_counter,vxy_reset_counter,vz_reset_counter,heading_reset_counter,heading_good_for_control,xy_global,z_global,dist_bottom_valid,dist_bottom_sensor_bitfield,dead_reckoning
3868000,3868000,0,nan,nan,0.00028362632,0.0010574495,-0.006739918,-5.255593e-08,1.3669487e-08,0.0,0.0014114826,0.004663853,-0.022015551,-0.017368397,-8.759322e-06,2.2782478e-06,0.0014087781,0.029071262,-0.011736293,-0.019779427,1.632283,-0.0034274475,nan,0.10674663,0.012925756,5.7735023,0.102639765,0.025004735,inf,inf,inf,inf,0,0,0,0,1,1,1,1,1,0,0,0,0,0,1
4364000,4364000,0,nan,nan,0.00041966772,0.0023803995,-0.040744122,-5.255593e-08,1.3669487e-08,0.0,0.00051918015,0.008693045,-0.015807347,-0.039890174,-8.759322e-06,2.2782478e-06,0.0014087781,-0.00089517556,0.011452531,0.01966208,1.6279199,-0.0034274475,nan,0.1,0.0259971,1.6517802,0.1582217,0.061651748,inf,inf,inf,inf,0,1,0,1,1,1,1,1,1,0,0,0,0,0,1
4868000,4868000,4392000,47.3977508,8.5456073,0.00065693073,0.0019736777,-0.05661882,-5.255593e-08,1.3669487e-08,0.0,0.0043629627,0.0033997425,-0.016841926,-0.036578536,-8.759322e-06,2.2782478e-06,0.0014087781,0.031973526,0.0023031896,-0.046172176,1.6260287,-0.0034274475,488.02798,0.11324382,0.01366345,0.953372,0.08213677,0.088094786,inf,inf,inf,inf,0,1,0,1,1,1,1,1,1,0,1,1,0,0,1
5364000,5364000,4392000,47.3977508,8.5456073,0.0013300927,-0.0004525887,-0.051903386,-5.255593e-08,1.3669487e-08,0.0,0.002717372,-0.0012559618,-0.015176087,-0.0171361,-8.759322e-06,2.2782478e-06,0.0014087781,-0.022420557,-0.020990206,-0.016945412,1.6245234,-0.0034274475,488.02798,0.109273225,0.01725873,0.75641316,0.07401893,0.09108053,inf,inf,inf,inf,0,1,0,1,1,1,1,1,1,0,1,1,0,0,1
5868000,5868000,4392000,47.3977508,8.5456073,-0.0010613427,-0.001081348,-0.04771012,-5.255593e-08,1.3669487e-08,0.0,-0.003588269,-0.0019119383,-0.012449263,-0.00522968,-8.759322e-06,2.2782478e-06,0.0014087781,-0.010279705,0.010707284,0.027446074,1.6218644,-0.0034274475,488.02798,0.10688622,0.021085143,0.6369242,0.071998194,0.09530412,inf,inf,inf,inf,0,1,0,1,1,1,1,1,1,0,1,1,0,0,1
6364000,6364000,4392000,47.3977508,8.5456073,-0.0009870292,-0.0008935072,-0.045752555,-5.255593e-08,1.3669487e-08,0.0,-0.0008355262,-0.0017999961,-0.009896881,2.7476752e-05,-8.759322e-06,2.2782478e-06,0.0014087781,0.022559222,-0.022206731,-0.013594515,1.624297,-0.0034274475,488.02798,0.10398027,0.013368337,0.56858677,0.048224688,0.08645284,inf,inf,inf,inf,0,1,0,1,1,1,1,1,1,0,1,1,0,0,1
6868000,6868000,4392000,47.3977508,8.5456073,-0.00048548926,-0.0021925857,-0.040791444,-5.255593e-08,1.3669487e-08,0.0,-0.002086612,-0.0062144813,-0.006498863,0.0059728976,-8.759322e-06,2.2782478e-06,0.0014087781,-0.02770673,0.006206435,0.016498378,1.6222976,-0.0034274475,488.02798,0.10119158,0.01647216,0.514591,0.052082364,0.08640892,inf,inf,inf,inf,0,1,0,1,1,1,1,1,1,0,1,1,0,0,1
7364000,7364000,4392000,47.3977508,8.5456073,-0.002237219,-0.0019142693,-0.037705697,-5.255593e-08,1.3669487e-08,0.0,-0.008391968,-0.002949411,-0.0011322077,0.0098438095,-8.759322e-06,2.2782478e-06,0.0014087781,-0.05076441,0.0132309785,-0.0008475035,1.6255822,-0.0034274475,488.02798,0.101406984,0.011607047,0.4792918,0.040101998,0.08557943,inf,inf,inf,inf,0,1,0,1,1,1,1,1,1,0,1,1,0,0,1
7868000,7868000,4392000,47.3977508,8.5456073,-0.0030000359,-0.0001801822,-0.033446502,-5.255593e-08,1.3669487e-08,0.0,-0.005635638,0.00044484303,0.0012834518,0.010780249,-8.759322e-06,2.2782478e-06,0.0014087781,0.0016785196,-0.02758276,0.011389143,1.6246269,-0.0034274475,488.02798,0.1,0.0141522065,0.45025885,0.044126723,0.0784345,inf,inf,inf,inf,0,1,0,1,1,1,1,1,1,0,1,1,0,0,1
8364000,8364000,4392000,47.3977508,8.5456073,-0.0011421532,-0.00012759207,-0.035011668,-5.255593e-08,1.3669487e-08,0.0,-0.0019123239,-0.0027077624,-0.000871834,0.00328312,-8.759322e-06,2.2782478e-06,0.0014087781,-0.009533308,-0.0037110439,-0.006104819,1.6195692,-0.0034274475,488.02798,0.1,0.01690322,0.42486054,0.047861986,0.07829578,inf,inf,inf,inf,0,1,0,1,1,1,1,1,1,0,1,1,0,0,1
8868000,8868000,4392000,47.3977508,8.5456073,0.0002369903,0.0074760406,-0.0717371,0.000113185844,0.007910394,-0.033320636,-0.0005259272,0.00023655151,-0.008305856,-0.007613339,0.0007932669,0.0009226135,-0.009320045,-0.010439194,0.020653183,0.009017996,1.621133,-0.0034274475,488.02798,0.101469584,1.4145437,0.9276655,0.42445064,0.45006868,inf,inf,inf,inf,1,1,1,1,2,2,2,2,1,0,1,1,0,0,0
9364000,9364000,4392000,47.3977508,8.5456073,-8.256501e-05,0.00845873,-0.07467248,0.000113185844,0.007910394,-0.033320636,-0.0032606092,0.0035297475,-0.007931889,-0.00654841,0.0007932669,0.0009226135,-0.009320045,-0.011485011,0.034312513,-0.0085989,1.6221783,-0.0034274475,488.02798,0.1,1.0078776,0.60593945,0.30122453,0.317072,inf,inf,inf,inf,1,1,1,1,2,2,2,2,1,0,1,1,0,0,0
9868000,9868000,4392000,47.3977508,8.5456073,-0.0009447194,0.0049611353,-0.07438623,0.000113185844,0.007910394,-0.033320636,-0.0052165836,0.0006404286,-0.0036524625,0.0008355435,0.0007932669,0.0009226135,-0.009320045,0.023156563,-0.02037153,0.010083429,1.6239746,-0.0034274475,488.02798,0.10366288,0.8346064,0.4954662,0.25004795,0.2571693,inf,inf,inf,inf,1,1,1,1,2,2,2,2,1,0,1,1,0,0,0
10364000,10364000,4392000,47.3977508,8.5456073,-0.0043598423,0.003136454,-0.0674349,0.000113185844,0.007910394,-0.033320636,-0.006996852,-0.0013304966,0.0028228688,0.010726224,0.0007932669,0.0009226135,-0.009320045,-0.0002090237,0.024841806,0.032243315,1.6224368,-0.0034274475,488.02798,0.1,0.73791105,0.4478456,0.225295,0.22110404,inf,inf,inf,inf,1,1,1,1,2,2,2,2,1,0,1,1,0,0,0
10868000,10868000,4392000,47.3977508,8.5456073,-0.0073419446,0.007929571,-0.0667805,0.000113185844,0.007910394,-0.033320636,-0.007380078,0.0025299934,0.005106343,0.008516222,0.0007932669,0.0009226135,-0.009320045,0.021052895,0.040774886,0.008923932,1.6225307,-0.0034274475,488.02798,0.1,0.60715854,0.38382173,0.1923275,0.17724508,inf,inf,inf,inf,1,1,1,1,2,2,2,2,1,0,1,1,0,0,0
11364000,11364000,4392000,47.3977508,8.5456073,-0.0054092016,0.006888442,-0.067875616,0.000113185844,0.007910394,-0.033320636,-0.0035686116,0.00023891393,0.010399717,0.009233539,0.0007932669,0.0009226135,-0.009320045,0.017300626,-0.011490148,0.0354005,1.6230049,-0.0034274475,488.02798,0.1,0.5786491,0.37247926,0.19560683,0.16305043,inf,inf,inf,inf,1,1,1,1,2,2,2,2,1,0,1,1,0,0,0
11868000,11868000,4392000,47.3977508,8.5456073,-0.0002344015,0.0035279752,-0.06058008,0.000113185844,0.007910394,-0.033320636,0.0023794903,-0.0037613455,0.019778077,0.019180479,0.0007932669,0.0009226135,-0.009320045,-0.011468975,-0.039357267,0.02366211,1.624783,-0.0034274475,488.02798,0.1,0.5617081,0.36929584,0.20573136,0.15255545,inf,inf,inf,inf,1,1,1,1,2,2,2,2,1,0,1,1,0,0,0
12364000,12364000,4392000,47.3977508,8.5456073,0.005839985,0.005197886,-0.056721743,0.000113185844,0.007910394,-0.033320636,0.007353249,-0.0031336865,0.021541331,0.016256463,0.0007932669,0.0009226135,-0.009320045,0.002897621,0.019937854,0.01665484,1.6242324,-0.0034274475,488.02798,0.1,0.5530727,0.3682746,0.21897493,0.14468056,inf,inf,inf,inf,1,1,1,1,2,2,2,2,1,0,1,1,0,0,0
12868000,12868000,4392000,47.3977508,8.5456073,0.01145236,0.0056703286,-0.054225393,0.000113185844,0.007910394,-0.033320636,0.0062973173,-0.0010698684,0.024079015,0.01473897,0.0007932669,0.0009226135,-0.009320045,-0.05454999,-0.008357106,-0.012570991,1.6233174,-0.0034274475,488.02798,0.1,0.5027909,0.33960396,0.2039684,0.12959395,inf,inf,inf,inf,1,1,1,1,2,2,2,2,1,0,1,1,0,0,0
13364000,13364000,4392000,47.3977508,8.5456073,0.016460912,0.0036315578,-0.048181493,0.000113185844,0.007910394,-0.033320636,0.008321053,-0.0023005977,0.028512686,0.017434292,0.0007932669,0.0009226135,-0.009320045,0.003465,0.0050694505,0.016037373,1.622544,-0.0034274475,488.02798,0.1,0.50449497,0.34050635,0.21494266,0.12638453,inf,inf,inf,inf,1,1,1,1,2,2,2,2,1,0,1,1,0,0,0
13868000,13868000,4392000,47.3977508,8.5456073,0.008808393,0.0045410665,-0.04532837,0.000113185844,0.007910394,-0.033320636,0.00013096092,0.0019126774,0.028280914,0.012325042,0.0007932669,0.0009226135,-0.009320045,0.026704887,0.03267925,-0.021751968,1.6213831,-0.0034274475,488.02798,0.1,0.5111866,0.34438744,0.22533561,0.12494183,inf,inf,inf,inf,1,1,1,1,2,2,2,2,1,0,1,1,0,0,0
14364000,14364000,4392000,47.3977508,8.5456073,0.009273064,0.0061763814,-0.040893268,0.000113185844,0.007910394,-0.033320636,0.002887812,0.0022620955,0.03072573,0.014101846,0.0007932669,0.0009226135,-0.009320045,0.009927447,-0.006206275,-0.0024801118,1.6194165,-0.0034274475,488.02798,0.1,0.5202817,0.34813485,0.23347819,0.12445594,inf,inf,inf,inf,1,1,1,1,2,2,2,2,1,0,1,1,0,0,0
14868000,14868000,4392000,47.3977508,8.5456073,0.009073052,0.008407454,-0.036489457,0.000113185844,0.007910394,-0.033320636,0.0025941925,0.006704003,0.029537754,0.011386285,0.0007932669,0.0009226135,-0.009320045,-0.03473737,-0.007928029,0.010456889,1.6179335,-0.0034274475,488.02798,0.1,0.47998965,0.32674468,0.20737496,0.11732766,inf,inf,inf,inf,1,1,1,1,2,2,2,2,1,0,1,1,0,0,0
15364000,15364000,4392000,47.3977508,8.5456073,0.011189172,0.014648095,-0.03708457,0.000113185844,0.007910394,-0.033320636,0.003108433,0.009212325,0.029936703,0.0070553306,0.0007932669,0.0009226135,-0.009320045,-0.0133195855,-0.009428462,0.0042086462,1.6173059,-0.0034274475,488.02798,0.1,0.48968434,0.33142772,0.2124316,0.11850759,inf,inf,inf,inf,1,1,1,1,2,2,2,2,1,0,1,1,0,0,0
15868000,15868000,4392000,47.3977508,8.5456073,0.011264566,0.0124933645,-0.03782974,0.000113185844,0.007910394,-0.033320636,0.003367688,0.007407096,0.030962177,0.005299665,0.0007932669,0.0009226135,-0.009320045,0.0129637625,0.009228199,0.017855315,1.6158717,-0.0034274475,488.02798,0.1,0.5018842,0.33572325,0.2172643,0.11999119,inf,inf,inf,inf,1,1,1,1,2,2,2,2,1,0,1,1,0,0,0
16364000,16364000,4392000,47.3977508,8.5456073,0.009301598,0.010652799,-0.03344045,0.000113185844,0.007910394,-0.033320636,0.0036946333,0.007201134,0.033212654,0.009496148,0.0007932669,0.0009226135,-0.009320045,0.02259176,0.0108601665,0.038095746,1.614636,-0.0034274475,488.02798,0.1,0.51421964,0.34137926,0.22090828,0.12182546,inf,inf,inf,inf,1,1,1,1,2,2,2,2,1,0,1,1,0,0,0
16868000,16868000,4392000,47.3977508,8.5456073,0.008309333,0.011613145,-0.03190047,0.000113185844,0.007910394,-0.033320636,0.006159622,0.0064811204,0.036955927,0.010612226,0.0007932669,0.0009226135,-0.009320045,0.0076035643,-0.016280375,0.0026775522,1.613842,-0.0034274475,488.02798,0.1,0.4753254,0.32262745,0.19565946,0.11640639,inf,inf,inf,inf,1,1,1,1,2,2,2,2,1,0,1,1,0,0,0
17364000,17364000,4392000,47.3977508,8.5456073,0.007615028,0.0081109395,-0.028788628,0.000113185844,0.007910394,-0.033320636,0.008593277,0.004029862,0.03855336,0.0107898945,0.0007932669,0.0009226135,-0.009320045,0.017815195,0.019197816,0.044862736,1.614408,-0.0034274475,488.02798,0.1,0.48644355,0.3287056,0.19889627,0.11843512,inf,inf,inf,inf,1,1,1,1,2,2,2,2,1,0,1,1,0,0,0
17868000,17868000,4392000,47.3977508,8.5456073,0.0068985466,0.0070962873,-0.023901578,0.000113185844,0.007910394,-0.033320636,0.0071848882,0.0012169604,0.037601516,0.009855426,0.0007932669,0.0009226135,-0.009320045,0.033855684,-0.031884685,0.012561678,1.6144073,-0.0034274475,488.02798,0.1,0.49923947,0.33435622,0.20247087,0.12036806,inf,inf,inf,inf,1,1,1,1,2,2,2,2,1,0,1,1,0,0,0
18364000,18364000,4392000,47.3977508,8.5456073,0.0031986425,0.0075271325,-0.015945308,0.000113185844,0.007910394,-0.033320636,0.008139498,0.004709531,0.04206608,0.016801376,0.0007932669,0.0009226135,-0.009320045,0.04281214,0.037119735,0.039934177,1.6136881,-0.0034274475,488.02798,0.1,0.51157427,0.34107655,0.20544775,0.122328855,inf,inf,inf,inf,1,1,1,1,2,2,2,2,1,0,1,1,0,0,0
18868000,18868000,4392000,47.3977508,8.5456073,0.0048004775,0.008312921,-0.010447144,0.000113185844,0.007910394,-0.033320636,0.013106629,0.006828925,0.044318836,0.017007835,0.0007932669,0.0009226135,-0.009320045,0.022341205,-0.007862676,0.016237607,1.6126328,-0.0034274475,488.02798,0.1,0.47399652,0.322854,0.1842172,0.116631605,inf,inf,inf,inf,1,1,1,1,2,2,2,2,1,0,1,1,0,0,0
19364000,19364000,4392000,47.3977508,8.5456073,0.009310613,0.007729597,-0.0050238366,0.000113185844,0.007910394,-0.033320636,0.017553868,0.0040181316,0.045575,0.015460907,0.0007932669,0.0009226135,-0.009320045,-0.007179056,-0.017252022,-0.0030808148,1.6118766,-0.0034274475,488.02798,0.1,0.48498124,0.3294116,0.187436,0.11846392,inf,inf,inf,inf,1,1,1,1,2,2,2,2,1,0,1,1,0,0,0
19868000,19868000,4392000,47.3977508,8.5456073,0.013582678,0.008027884,-0.0018106757,0.000113185844,0.007910394,-0.033320636,0.020651013,0.005028646,0.044580232,0.011288617,0.0007932669,0.0009226135,-0.009320045,0.0005784822,-0.0037131102,0.026410444,1.6110542,-0.0034274475,488.02798,0.1,0.49738812,0.33534893,0.19114186,0.12015487,inf,inf,inf,inf,1,1,1,1,2,2,2,2,1,0,1,1,0,0,0
20364000,20364000,4392000,47.3977508,8.5456073,-0.018806612,0.04024436,0.03313084,0.000113185844,0.007910394,-0.033320636,-0.16953689,0.17684317,0.22447324,0.18949866,0.0007932669,0.0009226135,-0.009320045,-0.51631665,0.45915782,0.4863385,1.6109055,-0.0034274475,488.02798,0.1,0.5091888,0.34230065,0.19394761,0.122000895,inf,inf,inf,inf,1,1,1,1,2,2,2,2,1,0,1,1,0,0,0
20868000,20868000,4392000,47.3977508,8.5456073,-0.08665114,0.09501254,0.1366475,0.000113185844,0.007910394,-0.033320636,-0.37003615,0.34697908,0.43582836,0.362275,0.0007932669,0.0009226135,-0.009320045,-0.44334438,0.37829128,0.43739563,1.6104714,-0.0034274475,488.02798,0.1,0.47298017,0.32516286,0.17598912,0.116651945,inf,inf,inf,inf,1,1,1,1,2,2,2,2,1,0,1,1,0,0,0
21364000,21364000,4392000,47.3977508,8.5456073,-0.13171929,0.13137132,0.26963007,0.000113185844,0.007910394,-0.033320636,-0.4735513,0.4287798,0.57730836,0.4353016,0.0007932669,0.0009226135,-0.009320045,-0.32182336,0.27442104,0.32089183,1.6101009,-0.0034274475,488.02798,0.1,0.4835057,0.33036909,0.17976528,0.11854955,inf,inf,inf,inf,1,1,1,1,2,2,2,2,1,0,1,1,0,0,0
21868000,21868000,4392000,47.3977508,8.5456073,-0.16328023,0.14445998,0.38557425,0.000113185844,0.007910394,-0.033320636,-0.49266088,0.36557758,0.4914656,0.27628756,0.0007932669,0.0009226135,-0.009320045,-0.12729922,-0.12552434,-0.22475792,1.6276624,-0.0034274475,488.02798,0.1,0.4954099,0.33632734,0.18416752,0.12049644,inf,inf,inf,inf,1,1,1,1,2,2,2,2,1,0,1,1,0,0,0
22364000,22364000,4392000,47.3977508,8.5456073,-0.13245505,0.058656942,0.42518485,0.000113185844,0.007910394,-0.033320636,-0.02986359,-0.10826154,0.53098774,0.26096046,0.0007932669,0.0009226135,-0.009320045,2.1774898,-1.8934097,0.17582996,1.6951729,-0.0034274475,488.02798,0.1,0.50684303,0.34321186,0.18732128,0.12370987,inf,inf,inf,inf,1,1,1,1,2,2,2,2,1,0,1,1,0,0,0
22868000,22868000,4392000,47.3977508,8.5456073,0.20775767,-0.29894307,0.32102612,0.000113185844,0.007910394,-0.033320636,0.41694635,-0.42871383,-0.06686047,-0.41062844,0.0007932669,0.0009226135,-0.009320045,-0.2984401,0.31643713,-0.99972814,1.6879662,-0.0034274475,488.02798,0.15829843,0.47172266,0.32579893,0.17463396,0.11742676,inf,inf,inf,inf,1,1,1,1,2,2,2,2,1,0,1,1,0,0,0
23364000,23364000,4392000,47.3977508,8.5456073,0.4903801,-0.5779447,-0.0537485,0.000113185844,0.007910394,-0.033320636,0.21734929,-0.21637112,-0.5075361,-0.8828607,0.0007932669,0.0009226135,-0.009320045,-0.6378708,0.6735822,-0.5367174,1.6722374,-0.0034274475,488.02798,0.53307307,0.48218265,0.33100483,0.1805762,0.11857339,inf,inf,inf,inf,1,1,1,1,2,2,2,2,1,0,1,1,0,0,0
23868000,23868000,4392000,47.3977508,8.5456073,0.558894,-0.64557904,-0.56301814,0.000113185844,0.007910394,-0.033320636,-0.041211415,0.05264103,-0.8098897,-1.1616002,0.0007932669,0.0009226135,-0.009320045,-0.39695296,0.37975368,-0.43491924,1.6620731,-0.0034274475,488.02798,1.0423427,0.49420163,0.3383811,0.1870742,0.119670354,inf,inf,inf,inf,1,1,1,1,2,2,2,2,1,0,1,1,0,0,0
24364000,24364000,4392000,47.3977508,8.5456073,0.42363933,-0.5260058,-1.0894706,0.000113185844,0.007910394,-0.033320636,-0.14478607,0.1669657,-0.8400368,-1.1191016,0.0007932669,0.0009226135,-0.009320045,0.11668898,-0.07162656,0.39264464,1.6540258,-0.0034274475,488.02798,1.5687952,0.5058291,0.34328336,0.19100183,0.12029225,inf,inf,inf,inf,1,1,1,1,2,2,2,2,1,0,1,1,0,0,0
24868000,24868000,4392000,47.3977508,8.5456073,0.124348335,-0.2583376,-1.5143595,0.000113185844,0.007910394,-0.033320636,-0.10472756,0.15539485,-0.73211616,-0.9178979,0.0007932669,0.0009226135,-0.009320045,0.46082765,-0.31920403,0.17266347,1.646178,-0.0034274475,488.02798,1.993684,0.47112298,0.32552552,0.17260498,0.1148342,inf,inf,inf,inf,1,1,1,1,2,2,2,2,1,0,1,1,0,0,0
25364000,25364000,4392000,47.3977508,8.5456073,-0.20794354,0.06453747,-1.7735443,0.000113185844,0.007910394,-0.033320636,0.035336796,0.039456405,-0.5805547,-0.6330398,0.0007932669,0.0009226135,-0.009320045,0.65645534,-0.5926809,0.5048774,1.6017325,-0.049393967,488.02798,2.252869,0.48137888,0.33155715,0.18863316,0.11727178,inf,inf,inf,inf,1,1,1,1,2,2,2,2,2,0,1,1,0,0,0
25868000,25868000,4392000,47.3977508,8.5456073,-0.5190047,0.37318054,-1.7999183,0.000113185844,0.007910394,-0.033320636,0.15221462,-0.053038627,-0.18311025,-0.10762932,0.0007932669,0.0009226135,-0.009320045,0.82836807,-0.7295635,-0.2791695,1.612854,-0.049393967,488.02798,2.2792428,0.49246812,0.33699945,0.279035,0.119643636,inf,inf,inf,inf,1,1,1,1,2,2,2,2,2,0,1,1,0,0,0
26364000,26364000,4392000,47.3977508,8.5456073,-0.79433465,0.6568755,-1.750067,0.000113185844,0.007910394,-0.033320636,0.25021124,-0.12869175,-0.4214047,-0.23657593,0.0007932669,0.0009226135,-0.009320045,1.057548,-0.9611249,-0.3685858,1.6223863,-0.049393967,488.02798,2.2293916,0.5074507,0.34352252,0.3540486,0.1220266,inf,inf,inf,inf,1,1,1,1,2,2,2,2,2,1,1,1,0,0,0
26868000,26868000,4392000,47.3977508,8.5456073,-0.9534223,0.81287766,-1.6850436,0.000113185844,0.007910394,-0.033320636,0.370258,-0.27783826,-0.52766454,-0.18887544,0.0007932669,0.0009226135,-0.009320045,0.69838953,-0.67392886,-0.33376178,1.622915,-0.049393967,488.02798,2.1643682,0.4703117,0.32460552,0.28687644,0.1162681,inf,inf,inf,inf,1,1,1,1,2,2,2,2,2,1,1,1,0,0,0
27364000,27364000,4392000,47.3977508,8.5456073,-0.8513235,0.69792116,-1.6261629,0.000113185844,0.007910394,-0.033320636,0.49900872,-0.43578333,-0.62731665,-0.15589067,0.0007932669,0.0009226135,-0.009320045,0.1820256,-0.12139012,-0.667219,1.6229032,-0.049393967,488.02798,2.1054873,0.48292407,0.33104888,0.28953034,0.117757164,inf,inf,inf,inf,1,1,1,1,2,2,2,2,2,1,1,1,0,0,0
27868000,27868000,4392000,47.3977508,8.5456073,-0.51397145,0.3778389,-1.6049116,0.000113185844,0.007910394,-0.033320636,0.48678696,-0.41985032,-0.72393906,-0.17310615,0.0007932669,0.0009226135,-0.009320045,-0.50968397,0.52628934,-0.52510476,1.6218085,-0.049393967,488.02798,2.0842361,0.49853578,0.33673692,0.2872076,0.11887961,inf,inf,inf,inf,1,1,1,1,2,2,2,2,2,1,1,1,0,0,0
28364000,28364000,4392000,47.3977508,8.5456073,-0.09204222,0.009309282,-1.6338727,0.000113185844,0.007910394,-0.033320636,0.27203164,-0.21169935,-0.7651901,-0.1916751,0.0007932669,0.0009226135,-0.009320045,-1.0344121,0.995316,-0.094550654,1.6185914,-0.049393967,488.02798,2.1131973,0.51394415,0.34319136,0.28339675,0.12044993,inf,inf,inf,inf,1,1,1,1,2,2,2,2,2,1,1,1,0,0,0
28868000,28868000,4392000,47.3977508,8.5456073,0.35106605,-0.36692348,-1.6581321,0.000113185844,0.007910394,-0.033320636,-0.029580172,0.059738964,-0.7060707,-0.11136162,0.0007932669,0.0009226135,-0.009320045,-1.1656071,1.0610173,-0.021169892,1.6167322,-0.049393967,488.02798,2.1374567,0.47327122,0.3242336,0.23344803,0.11520654,inf,inf,inf,inf,1,1,1,1,2,2,2,2,2,1,1,1,0,0,0
29364000,29364000,4392000,47.3977508,8.5456073,0.7085745,-0.6295269,-1.743511,0.000113185844,0.007910394,-0.033320636,-0.3440255,0.34719244,-0.64576966,-0.10082744,0.0007932669,0.0009226135,-0.009320045,-1.208943,1.0168587,-0.038608905,1.6159662,-0.049393967,488.02798,2.2228355,0.48567262,0.3305222,0.23468281,0.118051305,inf,inf,inf,inf,1,1,1,1,2,2,2,2,2,1,1,1,0,0,0
29868000,29868000,4392000,47.3977508,8.5456073,0.92899716,-0.7657257,-1.8863916,0.000113185844,0.007910394,-0.033320636,-0.6513727,0.5994008,-0.536735,-0.09589674,0.0007932669,0.0009226135,-0.009320045,-1.1741016,0.9130907,0.21000019,1.6161754,-0.049393967,488.02798,2.3657162,0.49968463,0.33775517,0.23598447,0.12128991,inf,inf,inf,inf,1,1,1,1,2,2,2,2,2,1,1,1,0,0,0
30364000,30364000,4392000,47.3977508,8.5456073,1.0637796,-0.8365175,-2.078377,0.000113185844,0.007910394,-0.033320636,-0.7339993,0.637119,-0.4560773,-0.146692,0.0007932669,0.0009226135,-0.009320045,-0.80712265,0.57781744,0.44394097,1.6160214,-0.049393967,488.02798,2.5577016,0.5128657,0.34292704,0.2318084,0.12316391,inf,inf,inf,inf,1,1,1,1,2,2,2,2,2,1,1,1,0,0,0
30868000,30868000,4392000,47.3977508,8.5456073,1.1732509,-0.8990137,-2.2807252,0.000113185844,0.007910394,-0.033320636,-0.8121029,0.6742851,-0.2524149,-0.08312106,0.0007932669,0.0009226135,-0.009320045,-0.64285696,0.46766794,0.3816392,1.616442,-0.049393967,488.02798,2.7600498,0.47422153,0.32551688,0.19799069,0.11712154,inf,inf,inf,inf,1,1,1,1,2,2,2,2,2,1,1,1,0,0,0
31364000,31364000,4392000,47.3977508,8.5456073,1.1194105,-0.8455157,-2.4359107,0.000113185844,0.007910394,-0.033320636,-0.8824373,0.71022594,-0.091481484,-0.038531754,0.0007932669,0.0009226135,-0.009320045,-0.37564862,0.23553067,0.39232892,1.616714,-0.049393967,488.02798,2.9152353,0.48527378,0.33194208,0.19625515,0.118522845,inf,inf,inf,inf,1,1,1,1,2,2,2,2,2,1,1,1,0,0,0
31868000,31868000,4392000,47.3977508,8.5456073,0.9329301,-0.70175,-2.562161,0.000113185844,0.007910394,-0.033320636,-0.88107437,0.6912345,0.041784815,-0.0062440177,0.0007932669,0.0009226135,-0.009320045,-0.16861358,0.09967537,0.38282385,1.6173155,-0.049393967,488.02798,3.0414855,0.49765334,0.33767587,0.19444357,0.11981971,inf,inf,inf,inf,1,1,1,1,2,2,2,2,2,1,1,1,0,0,0
32364000,32364000,4392000,47.3977508,8.5456073,0.68637365,-0.5151352,-2.662326,0.000113185844,0.007910394,-0.033320636,-0.79967874,0.62546957,0.15565854,0.024193397,0.0007932669,0.0009226135,-0.009320045,0.06256029,-0.02790088,0.27136782,1.6170352,-0.049393967,488.02798,3.1416507,0.5091045,0.34421492,0.19244552,0.121281005,inf,inf,inf,inf,1,1,1,1,2,2,2,2,2,1,1,1,0,0,0
32868000,32868000,4392000,47.3977508,8.5456073,0.48510584,-0.35495088,-2.7551744,0.000113185844,0.007910394,-0.033320636,-0.6346993,0.50474536,0.22625004,0.011652024,0.0007932669,0.0009226135,-0.009320045,0.22664176,-0.1738579,0.23081619,1.6170703,-0.049393967,488.02798,3.234499,0.4731022,0.32637233,0.17150109,0.11546239,inf,inf,inf,inf,1,1,1,1,2,2,2,2,2,1,1,1,0,0,0
33364000,33364000,4392000,47.3977508,8.5456073,0.32162893,-0.2207068,-2.8273182,0.000113185844,0.007910394,-0.033320636,-0.46917075,0.3732727,0.28955764,0.011226312,0.0007932669,0.0009226135,-0.009320045,0.22510256,-0.18764225,0.33342835,1.6170149,-0.049393967,488.02798,3.3066428,0.4831551,0.33114266,0.17282708,0.11692898,inf,inf,inf,inf,1,1,1,1,2,2,2,2,2,1,1,1,0,0,0
33868000,33868000,4392000,47.3977508,8.5456073,0.19041096,-0.1195966,-2.861007,0.000113185844,0.007910394,-0.033320636,-0.3259136,0.25823742,0.34774446,0.04035057,0.0007932669,0.0009226135,-0.009320045,0.1823767,-0.17606819,0.22541358,1.6170772,-0.049393967,488.02798,3.3403316,0.49425977,0.3381078,0.17574462,0.118919425,inf,inf,inf,inf,1,1,1,1,2,2,2,2,2,1,1,1,0,0,0
34364000,34364000,4392000,47.3977508,8.5456073,0.10797723,-0.060305472,-2.878486,0.000113185844,0.007910394,-0.033320636,-0.2131358,0.16769919,0.37538514,0.051258225,0.0007932669,0.0009226135,-0.009320045,0.12752128,-0.088936426,0.13357027,1.6170939,-0.049393967,488.02798,3.3578105,0.5047052,0.34289172,0.17930524,0.12045484,inf,inf,inf,inf,1,1,1,1,2,2,2,2,2,1,1,1,0,0,0
34868000,34868000,4392000,47.3977508,8.5456073,0.06617262,-0.025881464,-2.8919477,0.000113185844,0.007910394,-0.033320636,-0.13089378,0.10364896,0.37037906,0.029494392,0.0007932669,0.0009226135,-0.009320045,0.10795019,-0.07150701,0.015086493,1.6167825,-0.049393967,488.02798,3.3712723,0.47078118,0.3252905,0.16567905,0.115056686,inf,inf,inf,inf,1,1,1,1,2,2,2,2,2,1,1,1,0,0,0
35364000,35364000,4392000,47.3977508,8.5456073,0.043430727,-0.0039879982,-2.885938,0.000113185844,0.007910394,-0.033320636,-0.0778566,0.060036264,0.36453068,0.025580335,0.0007932669,0.0009226135,-0.009320045,0.08266152,-0.08604979,0.14746095,1.6174638,-0.049393967,488.02798,3.3652625,0.48034945,0.33151373,0.17010975,0.11697611,inf,inf,inf,inf,1,1,1,1,2,2,2,2,2,1,1,1,0,0,0
35868000,35868000,4392000,47.3977508,8.5456073,0.018886862,0.015718102,-2.8626757,0.000113185844,0.007910394,-0.033320636,-0.04849179,0.031052208,0.35713035,0.035559144,0.0007932669,0.0009226135,-0.009320045,0.049950812,-0.036960226,0.111120746,1.6176344,-0.049393967,488.02798,3.3420002,0.49126875,0.33707705,0.17522141,0.11880027,inf,inf,inf,inf,1,1,1,1,2,2,2,2,2,1,1,1,0,0,0
36364000,36364000,4392000,47.3977508,8.5456073,0.0014644404,0.04268673,-2.8373134,0.000113185844,0.007910394,-0.033320636,-0.021924336,0.012098225,0.34272665,0.040945992,0.0007932669,0.0009226135,-0.009320045,0.01393372,-0.103672646,0.02463348,1.6173929,-0.049393967,488.02798,3.316638,0.5018666,0.3435689,0.18027131,0.12071176,inf,inf,inf,inf,1,1,1,1,2,2,2,2,2,1,1,1,0,0,0
36868000,36868000,4392000,47.3977508,8.5456073,-0.017303756,0.069508724,-2.8214033,0.000113185844,0.007910394,-0.033320636,-0.0073421285,-0.0114161195,0.31108913,0.018716708,0.0007932669,0.0009226135,-0.009320045,0.027048094,-0.08101401,-0.036769543,1.6182239,-0.049393967,488.02798,3.3007278,0.4689804,0.32452554,0.1675052,0.115026966,inf,inf,inf,inf,1,1,1,1,2,2,2,2,2,1,1,1,0,0,0
37364000,37364000,4392000,47.3977508,8.5456073,-0.046482004,0.084791586,-2.7934146,0.000113185844,0.007910394,-0.033320636,0.008603626,-0.03251947,0.28179693,0.012226584,0.0007932669,0.0009226135,-0.009320045,0.050913654,-0.034003086,0.028615816,1.6176777,-0.049393967,488.02798,3.2727392,0.47879887,0.33077058,0.17268336,0.116940565,inf,inf,inf,inf,1,1,1,1,2,2,2,2,2,1,1,1,0,0,0
37868000,37868000,4392000,47.3977508,8.5456073,-0.075995654,0.10128706,-2.762683,0.000113185844,0.007910394,-0.033320636,0.029893138,-0.04724259,0.2553674,0.01275952,0.0007932669,0.0009226135,-0.009320045,0.05779914,-0.08225646,0.080836,1.6175691,-0.049393967,488.02798,3.2420075,0.49011248,0.3379047,0.1783432,0.11905136,inf,inf,inf,inf,1,1,1,1,2,2,2,2,2,1,1,1,0,0,0
38364000,38364000,4392000,47.3977508,8.5456073,-0.08866791,0.11943591,-2.7339518,0.000113185844,0.007910394,-0.033320636,0.055982377,-0.06283517,0.23479834,0.018155966,0.0007932669,0.0009226135,-0.009320045,0.08394499,-0.078537434,-0.0025201587,1.6176957,-0.049393967,488.02798,3.2132764,0.5011983,0.3428404,0.18361722,0.12063575,inf,inf,inf,inf,1,1,1,1,2,2,2,2,2,1,1,1,0,0,0
38868000,38868000,4392000,47.3977508,8.5456073,-0.09545963,0.13474819,-2.7145035,0.000113185844,0.007910394,-0.033320636,0.075167544,-0.08195402,0.20384619,0.003738862,0.0007932669,0.0009226135,-0.009320045,0.018806966,-0.073144674,-0.076897435,1.6176608,-0.049393967,488.02798,3.193828,0.4684593,0.32531223,0.17006353,0.11521386,inf,inf,inf,inf,1,1,1,1,2,2,2,2,2,1,1,1,0,0,0
39364000,39364000,4392000,47.3977508,8.5456073,-0.09648175,0.13481063,-2.6970506,0.000113185844,0.007910394,-0.033320636,0.083694324,-0.09493048,0.17390181,-0.010595221,0.0007932669,0.0009226135,-0.009320045,0.016549325,-0.045052037,0.07535423,1.6179432,-0.049393967,488.02798,3.1763752,0.4786422,0.33018965,0.1749757,0.11685886,inf,inf,inf,inf,1,1,1,1,2,2,2,2,2,1,1,1,0,0,0
39868000,39868000,4392000,47.3977508,8.5456073,-0.09662589,0.13284892,-2.678786,0.000113185844,0.007910394,-0.033320636,0.08600076,-0.09575771,0.16705206,0.0019274456,0.0007932669,0.0009226135,-0.009320045,0.03394867,-0.058451876,0.016869044,1.6180325,-0.049393967,488.02798,3.1581106,0.49032176,0.33736014,0.18009016,0.11896898,inf,inf,inf,inf,1,1,1,1,2,2,2,2,2,1,1,1,0,0,0
40364000,40364000,4392000,47.3977508,8.5456073,-0.09339373,0.1250796,-2.6548867,0.000113185844,0.007910394,-0.033320636,0.09101863,-0.103248335,0.14852643,0.006099881,0.0007932669,0.0009226135,-0.009320045,0.06466673,-0.048423637,-0.017242504,1.6179065,-0.049393967,488.02798,3.1342113,0.501709,0.34235996,0.18485706,0.1205656,inf,inf,inf,inf,1,1,1,1,2,2,2,2,2,1,1,1,0,0,0
40868000,40868000,4392000,47.3977508,8.5456073,-0.10339625,0.12165907,-2.6379838,0.000113185844,0.007910394,-0.033320636,0.09037047,-0.10072936,0.12285197,-0.004174933,0.0007932669,0.0009226135,-0.009320045,0.064169005,-0.05674962,-0.047079284,1.6182531,-0.049393967,488.02798,3.1173084,0.46870935,0.32504988,0.17050551,0.11520037,inf,inf,inf,inf,1,1,1,1,2,2,2,2,2,1,1,1,0,0,0
41364000,41364000,4392000,47.3977508,8.5456073,-0.107421644,0.11892491,-2.6274521,0.000113185844,0.007910394,-0.033320636,0.09173115,-0.09994962,0.10647362,-0.009221709,0.0007932669,0.0009226135,-0.009320045,0.030262802,-0.015482806,0.04858244,1.6181918,-0.049393967,488.02798,3.1067767,0.47906047,0.3314628,0.17494516,0.11713951,inf,inf,inf,inf,1,1,1,1,2,2,2,2,2,1,1,1,0,0,0
41868000,41868000,4392000,47.3977508,8.5456073,-0.10760675,0.10649218,-2.6127603,0.000113185844,0.007910394,-0.033320636,0.09191739,-0.098629564,0.09727509,-0.0030430409,0.0007932669,0.0009226135,-0.009320045,0.041906998,-0.0129616875,0.035285946,1.6180881,-0.049393967,488.02798,3.092085,0.49085158,0.3371384,0.17967929,0.118950196,inf,inf,inf,inf,1,1,1,1,2,2,2,2,2,1,1,1,0,0,0
42364000,42364000,4392000,47.3977508,8.5456073,-0.09662669,0.09877629,-2.601145,0.000113185844,0.007910394,-0.033320636,0.09547536,-0.08820497,0.087605886,-0.0006712212,0.0007932669,0.0009226135,-0.009320045,0.04850722,-0.010622351,0.01602154,1.6176397,-0.049393967,488.02798,3.0804696,0.50227535,0.34368986,0.18404037,0.12083631,inf,inf,inf,inf,1,1,1,1,2,2,2,2,2,1,1,1,0,0,0
42868000,42868000,4392000,47.3977508,8.5456073,-0.08760178,0.08919869,-2.5987055,0.000113185844,0.007910394,-0.033320636,0.09156644,-0.08401409,0.07781077,-0.007371547,0.0007932669,0.0009226135,-0.009320045,0.039246835,0.014818945,0.02406351,1.6180105,-0.049393967,488.02798,3.07803,0.46905297,0.32463384,0.1694776,0.1151056,inf,inf,inf,inf,1,1,1,1,2,2,2,2,2,1,1,1,0,0,0
43364000,43364000,4392000,47.3977508,8.5456073,-0.07380223,0.08341345,-2.5954893,0.000113185844,0.007910394,-0.033320636,0.08508888,-0.07450781,0.07487145,-0.006518164,0.0007932669,0.0009226135,-0.009320045,0.016649326,-0.005370014,0.04766043,1.6180288,-0.049393967,488.02798,3.0748138,0.47939226,0.3308985,0.17360729,0.11700604,inf,inf,inf,inf,1,1,1,1,2,2,2,2,2,1,1,1,0,0,0
43868000,43868000,4392000,47.3977508,8.5456073,-0.048871156,0.07567684,-2.5918608,0.000113185844,0.007910394,-0.033320636,0.07772312,-0.067293145,0.073722675,-0.0032763008,0.0007932669,0.0009226135,-0.009320045,-0.027796645,-0.02920567,-0.019948928,1.6179781,-0.049393967,488.02798,3.0711854,0.49112213,0.33798167,0.17812353,0.11909041,inf,inf,inf,inf,1,1,1,1,2,2,2,2,2,1,1,1,0,0,0
44364000,44364000,4392000,47.3977508,8.5456073,-0.022554416,0.058723472,-2.5834258,0.000113185844,0.007910394,-0.033320636,0.060205128,-0.06656636,0.07151607,0.0027462717,0.0007932669,0.0009226135,-0.009320045,-0.0058481307,-0.020049399,-0.018433666,1.6180358,-0.049393967,488.02798,3.0627503,0.5024412,0.34448478,0.18230309,0.12097715,inf,inf,inf,inf,1,1,1,1,2,2,2,2,2,1,1,1,0,0,0
44868000,44868000,4392000,47.3977508,8.5456073,-0.0068511143,0.05029761,-2.5817487,0.000113185844,0.007910394,-0.033320636,0.043176513,-0.05529644,0.0630217,-0.004022914,0.0007932669,0.0009226135,-0.009320045,-0.054689083,0.015270142,0.019615514,1.6180809,-0.049393967,488.02798,3.0610733,0.46918303,0.3252813,0.16804698,0.11523066,inf,inf,inf,inf,1,1,1,1,2,2,2,2,2,1,1,1,0,0,0
45364000,45364000,4392000,47.3977508,8.5456073,0.004028606,0.038927756,-2.579116,0.000113185844,0.007910394,-0.033320636,0.028594317,-0.046350557,0.059484363,-0.004540625,0.0007932669,0.0009226135,-0.009320045,-0.058357563,0.03572991,0.01733843,1.6184245,-0.049393967,488.02798,3.0584407,0.47944295,0.33019522,0.17214061,0.11690189,inf,inf,inf,inf,1,1,1,1,2,2,2,2,2,1,1,1,0,0,0
45868000,45868000,4392000,47.3977508,8.5456073,0.0068159606,0.02747608,-2.5741727,0.000113185844,0.007910394,-0.033320636,0.018249247,-0.03677117,0.056971896,-0.0018351588,0.0007932669,0.0009226135,-0.009320045,0.013986267,0.0076373103,0.028870067,1.618325,-0.049393967,488.02798,3.0534973,0.4910748,0.33738607,0.17663541,0.11903364,inf,inf,inf,inf,1,1,1,1,2,2,2,2,2,1,1,1,0,0,0
46364000,46364000,4392000,47.3977508,8.5456073,0.0038914357,0.025767224,-2.5680442,0.000113185844,0.007910394,-0.033320636,0.014541948,-0.026821041,0.055689443,0.0031219998,0.0007932669,0.0009226135,-0.009320045,-0.012214128,-0.0102174375,0.01913309,1.6177597,-0.049393967,488.02798,3.0473688,0.5022907,0.34244594,0.18081379,0.12066196,inf,inf,inf,inf,1,1,1,1,2,2,2,2,2,1,1,1,0,0,0
46868000,46868000,4392000,47.3977508,8.5456073,0.00085684774,0.025229285,-2.5663683,0.000113185844,0.007910394,-0.033320636,0.018323278,-0.023772966,0.046714466,-0.005128978,0.0007932669,0.0009226135,-0.009320045,-5.488982e-05,-0.002741035,0.02698507,1.6177137,-0.049393967,488.02798,3.045693,0.46911582,0.32516518,0.16687015,0.11530629,inf,inf,inf,inf,1,1,1,1,2,2,2,2,2,1,1,1,0,0,0
47364000,47364000,4392000,47.3977508,8.5456073,-0.0029543359,0.025918463,-2.5682235,0.000113185844,0.007910394,-0.033320636,0.016645752,-0.023227364,0.04876495,-0.0032523454,0.0007932669,0.0009226135,-0.009320045,0.028287154,0.0066879597,0.03128219,1.6185758,-0.049393967,488.02798,3.047548,0.47930503,0.33021918,0.17093448,0.11700192,inf,inf,inf,inf,1,1,1,1,2,2,2,2,2,1,1,1,0,0,0
47868000,47868000,4392000,47.3977508,8.5456073,-0.004754126,0.023525652,-2.5631087,0.000113185844,0.007910394,-0.033320636,0.017196331,-0.022848716,0.048809107,0.0014058778,0.0007932669,0.0009226135,-0.009320045,-0.015642216,-0.027606525,0.003586523,1.6183578,-0.049393967,488.02798,3.0424333,0.49085617,0.337493,0.1754311,0.119134404,inf,inf,inf,inf,1,1,1,1,2,2,2,2,2,1,1,1,0,0,0
48364000,48364000,4392000,47.3977508,8.5456073,-0.007584113,0.02149208,-2.563541,0.000113185844,0.007910394,-0.033320636,0.017439496,-0.021567604,0.04959773,0.0020645235,0.0007932669,0.0009226135,-0.009320045,0.0037942007,-0.0005332149,0.0013615935,1.6181705,-0.049393967,488.02798,3.0428655,0.5019947,0.3425647,0.17961994,0.12074137,inf,inf,inf,inf,1,1,1,1,2,2,2,2,2,1,1,1,0,0,0
48868000,48868000,4392000,47.3977508,8.5456073,-0.004005167,0.01969235,-2.5593007,0.000113185844,0.007910394,-0.033320636,0.020104077,-0.023468597,0.045421142,0.0013230299,0.0007932669,0.0009226135,-0.009320045,0.005840163,-0.03489851,-0.02121087,1.6180663,-0.049393967,488.02798,3.0386252,0.46895322,0.32518733,0.16596402,0.115330264,inf,inf,inf,inf,1,1,1,1,2,2,2,2,2,1,1,1,0,0,0
49364000,49364000,4392000,47.3977508,8.5456073,-0.0021359762,0.014674299,-2.5584307,0.000113185844,0.007910394,-0.033320636,0.01570445,-0.017197851,0.041638386,-0.0021580404,0.0007932669,0.0009226135,-0.009320045,-0.007975184,0.0062440992,0.03401376,1.6180863,-0.049393967,488.02798,3.0377553,0.47909015,0.33017087,0.1700967,0.116991654,inf,inf,inf,inf,1,1,1,1,2,2,2,2,2,1,1,1,0,0,0
49868000,49868000,4392000,47.3977508,8.5456073,-0.0025865708,0.019687766,-2.5590248,0.000113185844,0.007910394,-0.033320636,0.009643962,-0.015268674,0.04314396,-0.0010602704,0.0007932669,0.0009226135,-0.009320045,-0.024274718,-0.016236294,0.043657605,1.6179352,-0.049393967,488.02798,3.0383494,0.49058968,0.3373629,0.17461202,0.119093865,inf,inf,inf,inf,1,1,1,1,2,2,2,2,2,1,1,1,0,0,0
50364000,50364000,4392000,47.3977508,8.5456073,-0.03855971,0.050717402,-2.547072,0.000113185844,0.007910394,-0.033320636,-0.14634028,0.121615455,0.101744615,0.05355622,0.0007932669,0.0009226135,-0.009320045,-0.2041672,0.18581118,-0.03866944,1.6177076,-0.049393967,488.02798,3.0263965,0.5016616,0.3439522,0.1786974,0.120999604,inf,inf,inf,inf,1,1,1,1,2,2,2,2,2,1,1,1,0,0,0
50868000,50868000,4392000,47.3977508,8.5456073,-0.047333818,0.069211036,-2.5739214,0.000113185844,0.007910394,-0.033320636,-0.1697833,0.14286202,0.085201256,-0.0024259982,0.0007932669,0.0009226135,-0.009320045,-0.04006701,0.02676161,0.07405504,1.6174805,-0.049393967,488.02798,3.053246,0.4687646,0.32486227,0.16541752,0.115363106,inf,inf,inf,inf,1,1,1,1,2,2,2,2,2,1,1,1,0,0,0
51364000,51364000,4392000,47.3977508,8.5456073,0.05381953,-0.014539501,-2.6443048,0.000113185844,0.007910394,-0.033320636,-0.13297677,0.107228935,0.119665414,-0.031083848,0.0007932669,0.0009226135,-0.009320045,-0.09239368,0.104860544,0.30469614,1.6181052,-0.049393967,488.02798,3.1236293,0.4788654,0.33115378,0.16946419,0.117469035,inf,inf,inf,inf,1,1,1,1,2,2,2,2,2,1,1,1,0,0,0
51868000,51868000,4392000,47.3977508,8.5456073,0.2169222,-0.16247912,-2.7340791,0.000113185844,0.007910394,-0.033320636,-0.13415076,0.10267272,0.19994836,-0.02141241,0.0007932669,0.0009226135,-0.009320045,-0.29121947,0.25313476,0.37238836,1.618003,-0.049393967,488.02798,3.2134037,0.49030435,0.33828765,0.17377019,0.119775936,inf,inf,inf,inf,1,1,1,1,2,2,2,2,2,1,1,1,0,0,0
52364000,52364000,4392000,47.3977508,8.5456073,0.3823658,-0.30449957,-2.817001,0.000113185844,0.007910394,-0.033320636,-0.18107224,0.14388992,0.28267643,0.0014193133,0.0007932669,0.0009226135,-0.009320045,-0.35769597,0.31695825,0.25337094,1.6171948,-0.049393967,488.02798,3.2963257,0.5013111,0.3432222,0.17783678,0.121433064,inf,inf,inf,inf,1,1,1,1,2,2,2,2,2,1,1,1,0,0,0
52868000,52868000,4392000,47.3977508,8.5456073,0.5400166,-0.4369148,-2.919744,0.000113185844,0.007910394,-0.033320636,-0.22959599,0.18238343,0.33393806,-0.026526434,0.0007932669,0.0009226135,-0.009320045,-0.31026798,0.22433363,0.22427364,1.6171626,-0.049393967,488.02798,3.3990686,0.46856737,0.32559898,0.16460064,0.11579752,inf,inf,inf,inf,1,1,1,1,2,2,2,2,2,1,1,1,0,0,0
53364000,53364000,4392000,47.3977508,8.5456073,0.6007224,-0.47911677,-2.9726398,0.000113185844,0.007910394,-0.033320636,-0.26770994,0.21455193,0.37478256,-0.017186973,0.0007932669,0.0009226135,-0.009320045,-0.14670487,0.11963056,0.33940932,1.616822,-0.049393967,488.02798,3.4519644,0.47859836,0.33190146,0.16873716,0.11744674,inf,inf,inf,inf,1,1,1,1,2,2,2,2,2,1,1,1,0,0,0
53868000,53868000,4392000,47.3977508,8.5456073,0.5502332,-0.41908553,-2.9622235,0.000113185844,0.007910394,-0.033320636,-0.27058896,0.20608032,0.4075402,0.03345173,0.0007932669,0.0009226135,-0.009320045,0.013378739,-0.083869815,0.20838808,1.6170424,-0.049393967,488.02798,3.441548,0.48998454,0.3374276,0.17309153,0.11898547,inf,inf,inf,inf,1,1,1,1,2,2,2,2,2,1,1,1,0,0,0
54364000,54364000,4392000,47.3977508,8.5456073,0.41198802,-0.2908413,-2.8883247,0.000113185844,0.007910394,-0.033320636,-0.21489212,0.14321019,0.37389138,0.061458226,0.0007932669,0.0009226135,-0.009320045,0.25005582,-0.2719842,-0.10885484,1.6174463,-0.049393967,488.02798,3.3676493,0.5009808,0.3438038,0.1773004,0.12083536,inf,inf,inf,inf,1,1,1,1,2,2,2,2,2,1,1,1,0,0,0
54868000,54868000,4392000,47.3977508,8.5456073,0.17048892,-0.06304616,-2.7677221,0.000113185844,0.007910394,-0.033320636,-0.11477166,0.044884082,0.28172457,0.06569024,0.0007932669,0.0009226135,-0.009320045,0.4155734,-0.45262474,-0.29734147,1.6173898,-0.049393967,488.02798,3.2470467,0.4683544,0.32599866,0.16465887,0.11569383,inf,inf,inf,inf,1,1,1,1,2,2,2,2,2,1,1,1,0,0,0
55364000,55364000,4392000,47.3977508,8.5456073,-0.11594204,0.18829112,-2.603514,0.000113185844,0.007910394,-0.033320636,0.025749946,-0.09100459,0.14601502,0.062856115,0.0007932669,0.0009226135,-0.009320045,0.5486686,-0.5305843,-0.46168545,1.6179442,-0.049393967,488.02798,3.0828385,0.47842515,0.33075035,0.16999947,0.11795721,inf,inf,inf,inf,1,1,1,1,2,2,2,2,2,1,1,1,0,0,0
55868000,55868000,4392000,47.3977508,8.5456073,-0.39098626,0.41663134,-2.422204,0.000113185844,0.007910394,-0.033320636,0.21089138,-0.2540136,-0.03260523,0.031958755,0.0007932669,0.0009226135,-0.009320045,0.7562648,-0.6477687,-0.5004983,1.6181617,-0.049393967,488.02798,2.9015286,0.4899407,0.33782142,0.17667021,0.120826595,inf,inf,inf,inf,1,1,1,1,2,2,2,2,2,1,1,1,0,0,0
56364000,56364000,4392000,47.3977508,8.5456073,-0.61071897,0.5977581,-2.2645876,0.000113185844,0.007910394,-0.033320636,0.4033754,-0.417739,-0.21373999,-0.018176582,0.0007932669,0.0009226135,-0.009320045,0.8013699,-0.6850108,-0.37251782,1.6177955,-0.049393967,488.02798,2.7439122,0.5012211,0.34444937,0.18347219,0.12337049,inf,inf,inf,inf,1,1,1,1,2,2,2,2,2,1,1,1,0,0,0
56868000,56868000,4392000,47.3977508,8.5456073,-0.82877463,0.78350437,-2.0847018,0.000113185844,0.007910394,-0.033320636,0.5366286,-0.5245931,-0.3533833,0.0040803123,0.0007932669,0.0009226135,-0.009320045,0.59018755,-0.5241557,-0.48767027,1.6188352,-0.049393967,488.02798,2.5640264,0.46842176,0.32530308,0.17089257,0.11763523,inf,inf,inf,inf,1,1,1,1,2,2,2,2,2,1,1,1,0,0,0
57364000,57364000,4392000,47.3977508,8.5456073,-0.9494023,0.8942354,-1.9451977,0.000113185844,0.007910394,-0.033320636,0.6201151,-0.585472,-0.49978128,-0.016086759,0.0007932669,0.0009226135,-0.009320045,0.43620726,-0.39172238,-0.6743688,1.6193516,-0.049393967,488.02798,2.4245222,0.4787633,0.33177108,0.17602284,0.11934117,inf,inf,inf,inf,1,1,1,1,2,2,2,2,2,1,1,1,0,0,0
57868000,57868000,4392000,47.3977508,8.5456073,-0.9498241,0.8985039,-1.8729929,0.000113185844,0.007910394,-0.033320636,0.65764153,-0.61499316,-0.62188786,-0.06918293,0.0007932669,0.0009226135,-0.009320045,0.27197802,-0.25991312,-0.471713,1.6189687,-0.049393967,488.02798,2.3523173,0.49059394,0.33755234,0.18065575,0.12054093,inf,inf,inf,inf,1,1,1,1,2,2,2,2,2,1,1,1,0,0,0
58364000,58364000,4392000,47.3977508,8.5456073,-0.8562618,0.81265074,-1.8604038,0.000113185844,0.007910394,-0.033320636,0.6299767,-0.58890885,-0.6650045,-0.09305061,0.0007932669,0.0009226135,-0.009320045,0.073560216,-0.09664642,-0.07945112,1.6188612,-0.049393967,488.02798,2.3397284,0.50203305,0.34419385,0.18393204,0.12167369,inf,inf,inf,inf,1,1,1,1,2,2,2,2,2,1,1,1,0,0,0
58868000,58868000,4392000,47.3977508,8.5456073,-0.690868,0.6530237,-1.8564999,0.000113185844,0.007910394,-0.033320636,0.5270445,-0.49774966,-0.6193271,-0.039031267,0.0007932669,0.0009226135,-0.009320045,-0.21682644,0.17148238,0.0009629875,1.6185714,-0.049393967,488.02798,2.3358245,0.4688924,0.32506886,0.16787349,0.11528991,inf,inf,inf,inf,1,1,1,1,2,2,2,2,2,1,1,1,0,0,0
59364000,59364000,4392000,47.3977508,8.5456073,-0.44626153,0.40331808,-1.9137077,0.000113185844,0.007910394,-0.033320636,0.37534973,-0.361059,-0.56353426,-0.03879805,0.0007932669,0.0009226135,-0.009320045,-0.37905258,0.40871263,-0.038850117,1.6183391,-0.049393967,488.02798,2.3930323,0.47912213,0.33134466,0.17056364,0.11706422,inf,inf,inf,inf,1,1,1,1,2,2,2,2,2,1,1,1,0,0,0
59868000,59868000,4392000,47.3977508,8.5456073,-0.1406457,0.100861244,-2.0422611,0.000113185844,0.007910394,-0.033320636,0.18214022,-0.16327941,-0.45578447,-0.048836756,0.0007932669,0.0009226135,-0.009320045,-0.66917944,0.6486031,0.22125337,1.6182742,-0.049393967,488.02798,2.5215857,0.4905587,0.33683833,0.1742456,0.119257875,inf,inf,inf,inf,1,1,1,1,2,2,2,2,2,1,1,1,0,0,0
60364000,60364000,4392000,47.3977508,8.5456073,0.20087023,-0.21321504,-2.223578,0.000113185844,0.007910394,-0.033320636,0.09981752,-0.06803752,-0.3637282,-0.099802956,0.0007932669,0.0009226135,-0.009320045,-0.6121021,0.5446102,0.43980774,1.6186846,-0.049393967,488.02798,2.7029026,0.5014672,0.34331736,0.17833221,0.121686116,inf,inf,inf,inf,1,1,1,1,2,2,2,2,2,1,1,1,0,0,0
60868000,60868000,4392000,47.3977508,8.5456073,0.5536551,-0.5415435,-2.4139504,0.000113185844,0.007910394,-0.033320636,-0.092509,0.11783684,-0.17337419,-0.05638189,0.0007932669,0.0009226135,-0.009320045,-0.7476845,0.7057602,0.38499102,1.6177508,-0.049393967,488.02798,2.893275,0.46868408,0.3243696,0.16524248,0.116192505,inf,inf,inf,inf,1,1,1,1,2,2,2,2,2,1,1,1,0,0,0
61364000,61364000,4392000,47.3977508,8.5456073,0.7511612,-0.70774645,-2.5615535,0.000113185844,0.007910394,-0.033320636,-0.32313985,0.33227944,-0.013515577,-0.016980596,0.0007932669,0.0009226135,-0.009320045,-0.620549,0.6091452,0.42100155,1.6182846,-0.049393967,488.02798,3.040878,0.4785572,0.330717,0.17035332,0.118189774,inf,inf,inf,inf,1,1,1,1,2,2,2,2,2,1,1,1,0,0,0
61868000,61868000,4392000,47.3977508,8.5456073,0.77805483,-0.7189637,-2.663329,0.000113185844,0.007910394,-0.033320636,-0.50296336,0.49074262,0.11470215,0.023084898,0.0007932669,0.0009226135,-0.009320045,-0.45175737,0.42338705,0.33126023,1.6183075,-0.049393967,488.02798,3.1426535,0.48980135,0.33794063,0.17559338,0.12019824,inf,inf,inf,inf,1,1,1,1,2,2,2,2,2,1,1,1,0,0,0
62364000,62364000,4392000,47.3977508,8.5456073,0.68875927,-0.62791663,-2.727772,0.000113185844,0.007910394,-0.033320636,-0.58241713,0.55914575,0.20056188,0.048380166,0.0007932669,0.0009226135,-0.009320045,-0.22470933,0.22063194,0.17393938,1.6179527,-0.049393967,488.02798,3.2070966,0.50073117,0.34308642,0.1796834,0.121626936,inf,inf,inf,inf,1,1,1,1,2,2,2,2,2,1,1,1,0,0,0
62868000,62868000,4392000,47.3977508,8.5456073,0.5746562,-0.51995856,-2.790027,0.000113185844,0.007910394,-0.033320636,-0.5609571,0.5347358,0.2461233,0.030429274,0.0007932669,0.0009226135,-0.009320045,-0.02268511,0.025555547,0.22136791,1.6176808,-0.049393967,488.02798,3.2693515,0.46820775,0.32562056,0.16550295,0.115913495,inf,inf,inf,inf,1,1,1,1,2,2,2,2,2,1,1,1,0,0,0
63364000,63364000,4392000,47.3977508,8.5456073,0.43776464,-0.3978549,-2.832996,0.000113185844,0.007910394,-0.033320636,-0.4861013,0.4650034,0.2887623,0.02891887,0.0007932669,0.0009226135,-0.009320045,0.11786877,-0.0705878,0.2817623,1.6173291,-0.049393967,488.02798,3.3123205,0.47820792,0.33058175,0.1688529,0.11738384,inf,inf,inf,inf,1,1,1,1,2,2,2,2,2,1,1,1,0,0,0
63868000,63868000,4392000,47.3977508,8.5456073,0.30234027,-0.2784307,-2.8523064,0.000113185844,0.007910394,-0.033320636,-0.3893061,0.37431344,0.32580206,0.043839887,0.0007932669,0.0009226135,-0.009320045,0.1602414,-0.09747983,0.20777899,1.6173398,-0.049393967,488.02798,3.331631,0.4895589,0.33776155,0.17274453,0.11934723,inf,inf,inf,inf,1,1,1,1,2,2,2,2,2,1,1,1,0,0,0
64364000,64364000,4392000,47.3977508,8.5456073,0.18228923,-0.18797171,-2.8530624,0.000113185844,0.007910394,-0.033320636,-0.29400456,0.28806955,0.34269816,0.05499347,0.0007932669,0.0009226135,-0.009320045,0.1543772,-0.09388191,0.089756206,1.617411,-0.049393967,488.02798,3.332387,0.500504,0.34274918,0.17666444,0.12084393,inf,inf,inf,inf,1,1,1,1,2,2,2,2,2,1,1,1,0,0,0
64868000,64868000,4392000,47.3977508,8.5456073,0.08877523,-0.1294391,-2.8654501,0.000113185844,0.007910394,-0.033320636,-0.19556151,0.20981412,0.33637872,0.030130621,0.0007932669,0.0009226135,-0.009320045,0.1693676,-0.104184434,0.084297724,1.6174077,-0.049393967,488.02798,3.3447747,0.46806803,0.32526913,0.16371371,0.115358576,inf,inf,inf,inf,1,1,1,1,2,2,2,2,2,1,1,1,0,0,0
65364000,65364000,4392000,47.3977508,8.5456073,0.031586356,-0.08024176,-2.8649552,0.000113185844,0.007910394,-0.033320636,-0.10985237,0.15378003,0.33503854,0.024342736,0.0007932669,0.0009226135,-0.009320045,0.1499077,-0.07021616,0.15797931,1.617233,-0.049393967,488.02798,3.3442798,0.47807008,0.33160245,0.16798699,0.11724936,inf,inf,inf,inf,1,1,1,1,2,2,2,2,2,1,1,1,0,0,0
65868000,65868000,4392000,47.3977508,8.5456073,-0.0032197633,-0.033603843,-2.8490171,0.000113185844,0.007910394,-0.033320636,-0.05011245,0.10442032,0.33240458,0.03171195,0.0007932669,0.0009226135,-0.009320045,0.09408814,-0.08176993,0.1474805,1.6174419,-0.049393967,488.02798,3.3283417,0.4893096,0.33710653,0.17263354,0.11899152,inf,inf,inf,inf,1,1,1,1,2,2,2,2,2,1,1,1,0,0,0
66364000,66364000,4392000,47.3977508,8.5456073,-0.027684214,-0.0017461196,-2.8032322,0.000113185844,0.007910394,-0.033320636,-0.015045833,0.06166791,0.48494422,0.2100271,0.0007932669,0.0009226135,-0.009320045,0.04218955,-0.08606802,1.3981404,1.6167992,-0.049393967,488.02798,3.2825568,0.5003201,0.34359264,0.1768732,0.12086823,inf,inf,inf,inf,1,1,1,1,2,2,2,2,2,1,1,1,0,0,0
66868000,66868000,4392000,47.3977508,8.5456073,-0.056873124,0.011329015,-2.5092146,0.000113185844,0.007910394,-0.033320636,-0.0013622295,0.022936102,1.0745027,0.8000595,0.0007932669,0.0009226135,-0.009320045,0.05409841,-0.05130329,-0.2279058,1.6165833,-0.049393967,488.02798,2.9885392,0.4679531,0.3245588,0.16247508,0.11515149,inf,inf,inf,inf,1,1,1,1,2,2,2,2,2,1,1,1,0,0,0
67364000,67364000,4392000,47.3977508,8.5456073,-0.07523481,0.018879952,-2.1493487,0.000113185844,0.007910394,-0.033320636,0.025680458,0.0031441592,0.91451067,0.6574466,0.0007932669,0.0009226135,-0.009320045,0.049449414,-0.037623435,0.09544659,1.6167445,-0.049393967,488.02798,2.6286733,0.47788003,0.33084413,0.16734467,0.1170654,inf,inf,inf,inf,1,1,1,1,2,2,2,2,2,1,1,1,0,0,0
67868000,67868000,4392000,47.3977508,8.5456073,-0.089899115,0.025296744,-1.7854482,0.000113185844,0.007910394,-0.033320636,0.042772595,-0.006943538,0.91368747,0.6846271,0.0007932669,0.0009226135,-0.009320045,0.047836106,-0.017781736,0.07488671,1.6165935,-0.049393967,488.02798,2.2647727,0.4892463,0.33794913,0.1722401,0.119157866,inf,inf,inf,inf,1,1,1,1,2,2,2,2,2,1,1,1,0,0,0
68364000,68364000,4392000,47.3977508,8.5456073,-0.09963786,0.027641289,-1.4224964,0.000113185844,0.007910394,-0.033320636,0.059326615,-0.015010291,0.9096307,0.7038426,0.0007932669,0.0009226135,-0.009320045,0.046624377,-0.020737616,-0.0067912037,1.616748,-0.049393967,488.02798,1.901821,0.5002715,0.34288368,0.17681333,0.12074105,inf,inf,inf,inf,1,1,1,1,2,2,2,2,2,1,1,1,0,0,0
68868000,68868000,4392000,47.3977508,8.5456073,-0.10958643,0.031106273,-1.0532458,0.000113185844,0.007910394,-0.033320636,0.0711282,-0.020023422,0.8843961,0.69640464,0.0007932669,0.0009226135,-0.009320045,0.059716377,-0.054482024,-0.0321893,1.6167058,-0.049393967,488.02798,1.5325704,0.46790868,0.3253578,0.16416186,0.115311995,inf,inf,inf,inf,1,1,1,1,2,2,2,2,2,1,1,1,0,0,0
69364000,69364000,4392000,47.3977508,8.5456073,-0.11698364,0.029028844,-0.6807017,0.000113185844,0.007910394,-0.033320636,0.077470966,-0.02456807,0.85816,0.69523704,0.0007932669,0.0009226135,-0.009320045,0.02697318,-0.029698644,0.00012386589,1.6167119,-0.049393967,488.02798,1.1600262,0.47800183,0.33167407,0.16861655,0.11722818,inf,inf,inf,inf,1,1,1,1,2,2,2,2,2,1,1,1,0,0,0
69868000,69868000,4392000,47.3977508,8.5456073,-0.12050637,0.027537987,-0.3033818,0.000113185844,0.007910394,-0.033320636,0.08233618,-0.027934495,0.83528554,0.69695747,0.0007932669,0.0009226135,-0.009320045,0.062414985,-0.035102136,-0.004966743,1.6166552,-0.049393967,488.02798,0.7827064,0.489483,0.3372582,0.17344707,0.119021885,inf,inf,inf,inf,1,1,1,1,2,2,2,2,2,1,1,1,0,0,0
70364000,70364000,4392000,47.3977508,8.5456073,-0.12181308,0.024891956,0.065735206,0.000113185844,0.007910394,-0.033320636,0.08587743,-0.031206764,0.81967175,0.7030433,0.0007932669,0.0009226135,-0.009320045,0.03583863,0.0035709634,-0.044642944,1.6167904,-0.049393967,488.02798,0.41358936,0.5005964,0.3437395,0.17789054,0.12089751,inf,inf,inf,inf,1,1,1,1,2,2,2,2,2,1,1,1,0,0,0
70868000,70868000,4392000,47.3977508,8.5456073,-0.12297074,0.022298967,0.40842244,0.000113185844,0.007910394,-0.033320636,0.089473166,-0.03356608,0.6991589,0.54964596,0.0007932669,0.0009226135,-0.009320045,0.03670496,0.029056827,0.23941974,1.6162186,-0.049393967,488.02798,0.1,0.46806774,0.32576913,0.17879613,0.10875613,inf,inf,inf,inf,1,1,1,1,2,2,2,2,2,1,1,1,0,0,0
71364000,71364000,4392000,47.3977508,8.5456073,-0.114919975,0.042141076,0.51454055,0.000113185844,0.007910394,-0.033320636,0.083807535,-0.01689391,0.9053058,0.5789002,0.0007932669,0.0009226135,-0.009320045,0.017244076,-0.022653503,0.89189124,1.6164842,-0.049393967,488.02798,0.1,0.47832292,0.3288101,0.22604711,0.10392988,inf,inf,inf,inf,1,1,1,1,2,2,2,2,2,1,1,1,0,0,0
71868000,71868000,4392000,47.3977508,8.5456073,-0.10283912,0.07066386,0.6941939,0.000113185844,0.007910394,-0.033320636,0.0684988,-0.01973409,1.1419848,0.6849671,0.0007932669,0.0009226135,-0.009320045,0.02366863,-0.07224873,0.6921403,1.6168815,-0.049393967,488.02798,0.1,0.49172157,0.3327338,0.26967555,0.1019868,inf,inf,inf,inf,1,1,1,1,2,2,2,2,2,1,1,1,0,0,0
72364000,72364000,4392000,47.3977508,8.5456073,-0.07756277,0.092255555,0.9675763,0.000113185844,0.007910394,-0.033320636,0.06619166,-0.03645435,1.2810104,0.7618604,0.0007932669,0.0009226135,-0.009320045,0.0063395123,-0.12397796,0.27249378,1.61695,-0.049393967,488.02798,0.1,0.5072764,0.3339909,0.29491848,0.1019651,inf,inf,inf,inf,1,1,1,1,2,2,2,2,2,1,1,1,0,0,0
72868000,72868000,4392000,47.3977508,8.5456073,-0.050696235,0.09365937,1.18001,0.000113185844,0.007910394,-0.033320636,-0.015293304,-0.014043377,0.72387725,0.15374103,0.0007932669,0.0009226135,-0.009320045,-0.025798129,0.020710444,-0.00952091,1.6164744,-0.049393967,488.02798,0.1,0.46984947,0.3163856,0.24705565,0.098057464,inf,inf,inf,inf,1,1,1,1,2,2,2,2,2,1,1,1,0,0,0
73364000,73364000,4392000,47.3977508,8.5456073,-0.023141736,0.076387376,1.2177765,0.000113185844,0.007910394,-0.033320636,0.011433107,-0.018650098,0.62688905,0.051821895,0.0007932669,0.0009226135,-0.009320045,0.01679651,0.031157192,-0.05107559,1.6157897,-0.049393967,488.02798,0.113162756,0.48262638,0.3179247,0.24047036,0.09430753,inf,inf,inf,inf,1,1,1,1,2,2,2,2,2,1,1,1,0,0,0
73868000,73868000,4392000,47.3977508,8.5456073,-0.014739715,0.079811946,1.2169154,0.000113185844,0.007910394,-0.033320636,0.019526137,-0.008695149,0.5318907,-0.03722378,0.0007932669,0.0009226135,-0.009320045,-0.013297423,-0.01684726,-0.042644326,1.6153919,-0.049393967,488.02798,0.12865007,0.49710658,0.32103467,0.2538636,0.09295808,inf,inf,inf,inf,1,1,1,1,2,2,2,2,2,1,1,1,0,0,0
74364000,74364000,4392000,47.3977508,8.5456073,-0.013869776,0.08869572,1.1986883,0.000113185844,0.007910394,-0.033320636,0.020489734,0.0013466073,0.44507128,-0.093744844,0.0007932669,0.0009226135,-0.009320045,-0.045170844,0.015022327,-0.018779187,1.6150615,-0.049393967,488.02798,0.14687717,0.5114397,0.32349452,0.27222466,0.09379158,inf,inf,inf,inf,1,1,1,1,2,2,2,2,2,1,1,1,0,0,0
74868000,74868000,4392000,47.3977508,8.5456073,-0.017931486,0.08880556,1.1280019,0.000113185844,0.007910394,-0.033320636,0.019260418,-0.0012679738,0.35243788,-0.17637646,0.0007932669,0.0009226135,-0.009320045,0.0047191423,0.009963281,-0.052194107,1.6145854,-0.049393967,488.02798,0.21756351,0.47294152,0.30686328,0.2381372,0.09241732,inf,inf,inf,inf,1,1,1,1,2,2,2,2,2,1,1,1,0,0,0
