timestamp,timestamp_sample,time_last_fuse,device_id,observation[0],observation[1],observation_variance[0],observation_variance[1],innovation[0],innovation[1],innovation_variance[0],innovation_variance[1],test_ratio[0],test_ratio[1],estimator_instance,fusion_enabled,innovation_rejected,fused
3596000,3477124,0,0,0.0,0.0,1.0,1.0,-1.7963743e-05,0.00017858134,101.000145,101.000145,1.2780024e-13,1.2630196e-11,0,1,0,0
3996000,3877470,0,0,0.0,0.0,1.0,1.0,0.0002185659,0.00018838227,1.0004424,1.0004424,1.909997e-09,1.4188876e-09,0,1,0,0
4396000,4277680,0,0,0.0,0.0,1.0,1.0,2.2860111e-05,0.0005051138,1.0004834,1.0004834,2.0893289e-11,1.0200667e-08,0,1,0,0
4796000,4677806,0,0,0.0,0.0075268387,1.0,1.0,0.0001493776,-0.0073035047,1.0003622,1.0003622,8.9222363e-10,2.1328747e-06,0,1,0,0
5196000,5077883,0,0,0.0,0.0075268387,1.0,1.0,0.0003267732,-0.0076503903,1.0002259,1.0002259,4.2702646e-09,2.34061e-06,0,1,0,0
5596000,5477929,0,0,0.0,0.0075268387,1.0,1.0,-0.00013607442,-0.0075237467,1.0001614,1.0001614,7.4053036e-10,2.2639051e-06,0,1,0,0
5996000,5877958,0,0,0.0,0.0075268387,1.0,1.0,-0.00026846016,-0.0075504323,1.0001274,1.0001274,2.8824672e-09,2.2800705e-06,0,1,0,0
6396000,6277974,0,0,0.0,0.0075268387,1.0,1.0,-1.7828617e-05,-0.00753566,1.0001068,1.0001068,1.2713026e-11,2.2712045e-06,0,1,0,0
6796000,6677985,0,0,0.0,0.0075268387,1.0,1.0,-2.7002394e-05,-0.007960048,1.0000927,1.0000927,2.9162464e-11,2.5342592e-06,0,1,0,0
7196000,7077991,0,0,0.0,0.0075268387,1.0,1.0,-0.00034461002,-0.007877867,1.0000824,1.0000824,4.749851e-09,2.4822268e-06,0,1,0,0
7596000,7477995,0,0,0.0,0.0075268387,1.0,1.0,-0.0007350544,-0.0075930003,1.000075,1.000075,2.1610576e-08,2.3059733e-06,0,1,0,0
7996000,7877997,0,0,0.0,0.0075268387,1.0,1.0,-0.0004272378,-0.0074646594,1.0000681,1.0000681,7.3007884e-09,2.2286938e-06,0,1,0,0
8396000,8277998,0,0,-0.011119492,0.0075268387,1.0,1.0,0.010779559,-0.0077511086,1.0001657,1.0001657,4.647185e-06,2.4027893e-06,0,1,0,0
8796000,8677999,8716000,0,0.0,0.0075268387,1.0,1.0,-0.000113185844,-0.007910394,1.0001498,1.0001498,5.1236465e-10,2.5025984e-06,0,1,0,0
9196000,9078000,9116000,0,0.0,0.0075268387,1.0,1.0,-0.00050233444,0.00037911488,2.0144377,2.0144377,5.010627e-09,2.8539595e-09,0,1,0,1
9596000,9478000,9516000,0,0.0,0.0075268387,1.0,1.0,-0.00077480264,0.0007379423,1.5180739,1.5180738,1.5817916e-08,1.4348679e-08,0,1,0,1
9996000,9878000,9916000,0,0.0,0.0075268387,1.0,1.0,-0.0014008558,-0.00542662,1.354017,1.354017,5.79726e-08,8.699508e-07,0,1,0,1
10396000,10278000,10316000,0,0.0,0.015053677,1.0,1.0,-0.004821575,-0.011595584,1.2737257,1.2737257,7.300656e-07,4.222497e-06,0,1,0,1
10796000,10678000,10716000,0,0.0,0.0075268387,1.0,1.0,-0.007505005,0.0012889295,1.2270972,1.2270973,1.8360438e-06,5.4155095e-08,0,1,0,1
11196000,11078000,11116000,0,0.0,0.0075268387,1.0,1.0,-0.006925936,0.0019105324,1.1974374,1.1974376,1.6023747e-06,1.2193149e-07,0,1,0,1
11596000,11478000,11516000,0,0.0,0.0075268387,1.0,1.0,-0.0032877414,-0.004173563,1.1776133,1.1776136,3.671577e-07,5.916585e-07,0,1,0,1
11996000,11878000,11916000,0,-0.011119492,0.0075268387,1.0,1.0,0.011653534,-0.003914794,1.1640487,1.1640494,4.6666387e-06,5.2663097e-07,0,1,0,1
12396000,12278000,12316000,0,0.0,0.0075268387,1.0,1.0,0.0053183734,-0.0008079903,1.1547116,1.1547127,9.798151e-07,2.2615094e-08,0,1,0,1
12796000,12678000,12716000,0,0.0,0.0075268387,1.0,1.0,0.008661112,-0.0008295649,1.1483092,1.1483104,2.6130542e-06,2.3971841e-08,0,1,0,1
13196000,13078000,13116000,0,0.0,0.0075268387,1.0,1.0,0.014070266,-0.004244796,1.1439496,1.1439509,6.922416e-06,6.300372e-07,0,1,0,1
13596000,13478000,13516000,0,0.0,0.0075268387,1.0,1.0,0.016165026,-0.0036932433,1.1409938,1.1409951,9.160717e-06,4.7818065e-07,0,1,0,1
13996000,13878000,13916000,0,0.0,0.015053677,1.0,1.0,0.0025217957,-0.010108394,1.1389837,1.1389849,2.233378e-07,3.588445e-06,0,1,0,1
14396000,14278000,14316000,0,0.0,0.0,1.0,1.0,0.010201381,0.0060681934,1.1375974,1.1375986,3.6592264e-06,1.2947614e-06,0,1,0,1
14796000,14678000,14716000,0,0.0,0.0075268387,1.0,1.0,0.008969904,-0.0017761262,1.1366185,1.1366196,2.831528e-06,1.11017776e-07,0,1,0,1
15196000,15078000,15116000,0,0.0,0.0075268387,1.0,1.0,0.007847408,0.007163986,1.1359035,1.1359046,2.1685578e-06,1.807289e-06,0,1,0,1
15596000,15478000,15516000,0,0.0,0.0075268387,1.0,1.0,0.015109777,0.006499467,1.135356,1.135357,8.043482e-06,1.4882744e-06,0,1,0,1
15996000,15878000,15916000,0,0.0,0.0075268387,1.0,1.0,0.00920554,0.0019597863,1.1349171,1.1349182,2.9867188e-06,1.3536702e-07,0,1,0,1
16396000,16278000,16316000,0,0.0,0.0,1.0,1.0,0.00862162,0.009805624,1.1345485,1.1345494,2.620684e-06,3.3899014e-06,0,1,0,1
16796000,16678000,16716000,0,0.0,0.0075268387,1.0,1.0,0.008279262,0.0054970873,1.1342231,1.1342239,2.417379e-06,1.0656792e-06,0,1,0,1
17196000,17078000,17116000,0,0.0,0.0075268387,1.0,1.0,0.00776337,0.0006552967,1.1339248,1.1339256,2.1260637e-06,1.5147865e-08,0,1,0,1
17596000,17478000,17516000,0,0.0,0.0075268387,1.0,1.0,0.007588935,0.0005544401,1.1336434,1.1336441,2.0321006e-06,1.0846572e-08,0,1,0,1
17996000,17878000,17916000,0,0.0,0.0075268387,1.0,1.0,0.006576328,0.00040406128,1.1333728,1.1333735,1.52635e-06,5.7621086e-09,0,1,0,1
18396000,18278000,18316000,0,0.0,0.0075268387,1.0,1.0,0.0024106249,0.00087806163,1.1331064,1.1331071,2.0513916e-07,2.7216924e-08,0,1,0,1
18796000,18678000,18716000,0,0.0,0.0,1.0,1.0,0.003324931,0.008980006,1.1328428,1.1328435,3.903513e-07,2.8473662e-06,0,1,0,1
19196000,19078000,19116000,0,0.0,0.0075268387,1.0,1.0,0.012281077,0.00084045576,1.1325808,1.1325814,5.3267677e-06,2.4947115e-08,0,1,0,1
19596000,19478000,19516000,0,0.0,0.0075268387,1.0,1.0,0.007752585,0.0008738036,1.1323204,1.132321,2.1231651e-06,2.6972309e-08,0,1,0,1
19996000,19878000,19916000,0,0.0,0.0075268387,1.0,1.0,0.015794381,0.0012019523,1.1320623,1.1320629,8.814444e-06,5.104626e-08,0,1,0,1
20396000,20278000,20316000,0,0.0,0.0075268387,1.0,1.0,-0.011409749,0.025390474,1.1317784,1.131777,4.600985e-06,2.2784563e-05,0,1,0,1
20796000,20678000,20716000,0,0.0,0.0075268387,1.0,1.0,-0.056040026,0.06060344,1.1314842,1.1314796,0.00011102178,0.00012983978,0,1,0,1
21196000,21078000,21116000,0,0.0,0.0075268387,1.0,1.0,-0.09074898,0.09029098,1.1312034,1.1311961,0.00029120766,0.00028827752,0,1,0,1
21596000,21478000,21516000,0,0.0,0.0075268387,1.0,1.0,-0.11719041,0.11271901,1.1309404,1.1309311,0.00048574063,0.00044938453,0,1,0,1
21996000,21878000,21916000,0,0.0,0.0,1.0,1.0,-0.13832445,0.12096839,1.130724,1.1307185,0.0006768639,0.0005176656,0,1,0,1
22396000,22278000,22316000,0,0.011119493,-0.06021471,1.0,1.0,-0.12945117,0.11629775,1.1305023,1.1304967,0.000592926,0.0004785566,0,1,0,1
22796000,22678000,22716000,0,0.21127036,-0.30107355,1.0,1.0,-0.12008715,0.12027067,1.1303045,1.1303085,0.00051033765,0.00051189685,0,1,0,1
23196000,23078000,23116000,0,0.44477972,-0.55698603,1.0,1.0,-0.09727898,0.118747056,1.1302296,1.1302378,0.0003349125,0.0004990406,0,1,0,1
23596000,23478000,23516000,0,0.55597466,-0.68494225,1.0,1.0,-0.054744124,0.09598315,1.1301534,1.1301594,0.00010607123,0.0003260696,0,1,0,1
23996000,23878000,23916000,0,0.5114967,-0.64730805,1.0,1.0,-0.010123253,0.055318117,1.1300844,1.1300869,3.6273486e-06,0.00010831359,0,1,0,1
24396000,24278000,24316000,0,0.3224653,-0.4741908,1.0,1.0,0.042570293,-0.0019189715,1.1299844,1.1299862,6.415062e-05,1.3035387e-07,0,1,0,1
24796000,24678000,24716000,0,0.05559747,-0.22580516,1.0,1.0,0.08723611,-0.05580908,1.1298175,1.1298212,0.00026942894,0.000110270674,0,1,0,1
25196000,25078000,25116000,0,-0.25574833,0.08279523,1.0,1.0,0.14883418,-0.118956074,1.1295781,1.1295844,0.0007844208,0.0005010886,0,1,0,1
25596000,25478000,25516000,0,-0.57821363,0.39139566,1.0,1.0,0.2197794,-0.17855729,1.1290019,1.1290177,0.0017113519,0.0011295733,0,1,0,1
25996000,25878000,25916000,0,-0.8673204,0.6774156,1.0,1.0,0.25612903,-0.2121988,1.1296278,1.1296508,0.0023229625,0.0015944159,0,1,0,1
26396000,26278000,26316000,0,-1.0674713,0.88816714,1.0,1.0,0.22550428,-0.18780619,1.1313788,1.1313969,0.0017978834,0.0012469953,0,1,0,1
26796000,26678000,26716000,0,-1.1230687,0.94838184,1.0,1.0,0.17688298,-0.1422767,1.1329764,1.1329799,0.0011046157,0.00071466976,0,1,0,1
27196000,27078000,27116000,0,-1.0007542,0.8430061,1.0,1.0,0.103272736,-0.091756284,1.1339624,1.1339551,0.00037621206,0.00029698585,0,1,0,1
27596000,27478000,27516000,0,-0.7338865,0.5870935,1.0,1.0,0.04935682,-0.051168203,1.1344739,1.1344677,8.58934e-05,9.2314134e-05,0,1,0,1
27996000,27878000,27916000,0,-0.36694324,0.2483857,1.0,1.0,0.0069330037,-0.003578782,1.1347035,1.1347009,1.6944176e-06,4.51491e-07,0,1,0,1
28396000,28278000,28316000,0,0.022238987,-0.0978489,1.0,1.0,-0.014350323,0.02448938,1.1347759,1.1347736,7.258941e-06,2.1140067e-05,0,1,0,1
28796000,28678000,28716000,0,0.40030175,-0.40644926,1.0,1.0,-0.05590889,0.04079154,1.1347444,1.1347418,0.0001101853,5.8654747e-05,0,1,0,1
29196000,29078000,29116000,0,0.71164757,-0.63978124,1.0,1.0,-0.0738948,0.056260586,1.1346366,1.1346357,0.00019250008,0.000111586596,0,1,0,1
29596000,29478000,29516000,0,0.9562764,-0.81289846,1.0,1.0,-0.09748411,0.081694305,1.1344689,1.134477,0.00033506964,0.00023531406,0,1,0,1
29996000,29878000,29916000,0,1.1341883,-0.9333278,1.0,1.0,-0.13643867,0.12264633,1.1342424,1.1342683,0.00065649144,0.00053046085,0,1,0,1
30396000,30278000,30316000,0,1.2342638,-1.0085962,1.0,1.0,-0.114295006,0.12989628,1.1338974,1.1339056,0.00046083,0.0005952187,0,1,0,1
30796000,30678000,30716000,0,1.2787417,-1.016123,1.0,1.0,-0.1149956,0.1253128,1.1335261,1.1335311,0.00046664962,0.0005541374,0,1,0,1
31204000,31082000,31124000,0,1.2231443,-0.9634352,1.0,1.0,-0.10723424,0.11813176,1.1337063,1.133715,0.00040571994,0.0004923675,0,1,0,1
31596000,31478000,31516000,0,1.0897104,-0.85805947,1.0,1.0,-0.08882904,0.1146248,1.132613,1.1326262,0.00027866886,0.00046401346,0,1,0,1
31996000,31878000,31916000,0,0.90067893,-0.71504956,1.0,1.0,-0.08038145,0.10092187,1.1321694,1.1321858,0.00022827603,0.00035984284,0,1,0,1
32396000,32278000,32316000,0,0.71164757,-0.556986,1.0,1.0,-0.08908975,0.09461734,1.1316966,1.1317124,0.00028053398,0.00031642104,0,1,0,1
32796000,32678000,32716000,0,0.52261615,-0.4139761,1.0,1.0,-0.076949924,0.09125474,1.1312029,1.1312143,0.00020938032,0.00029445975,0,1,0,1
33196000,33078000,33116000,0,0.37806275,-0.28601986,1.0,1.0,-0.07843965,0.08547591,1.1307025,1.13071,0.00021766218,0.0002584617,0,1,0,1
33596000,33478000,33516000,0,0.25574833,-0.18817095,1.0,1.0,-0.07930426,0.08321705,1.1302085,1.1302153,0.00022258428,0.00024508877,0,1,0,1
33996000,33878000,33916000,0,0.17791188,-0.12042942,1.0,1.0,-0.08880522,0.08092289,1.129735,1.1297436,0.00027922893,0.0002318584,0,1,0,1
34396000,34278000,34316000,0,0.11119492,-0.06774155,1.0,1.0,-0.07412911,0.063882425,1.1292931,1.1293087,0.00019463948,0.00014454735,0,1,0,1
34796000,34678000,34716000,0,0.066716954,-0.037634194,1.0,1.0,-0.06574417,0.064284705,1.1288934,1.1289198,0.0001531516,0.00014642398,0,1,0,1
35196000,35078000,35116000,0,0.03335848,-0.015053677,1.0,1.0,-0.04844505,0.057068728,1.1285425,1.1285814,8.3184204e-05,0.00011543128,0,1,0,1
35596000,35478000,35516000,0,0.011119493,0.0075268387,1.0,1.0,-0.037138678,0.04687403,1.1282427,1.1282936,4.8900165e-05,7.7893725e-05,0,1,0,1
35996000,35878000,35916000,0,-0.011119492,0.030107355,1.0,1.0,-0.03045956,0.03384334,1.127995,1.1280562,3.2900316e-05,4.061399e-05,0,1,0,1
36396000,36278000,36316000,0,-0.022238985,0.052687872,1.0,1.0,-0.023467898,0.031662453,1.1277984,1.1278684,1.9533358e-05,3.5554178e-05,0,1,0,1
36796000,36678000,36716000,0,-0.04447797,0.07526839,1.0,1.0,-0.009637311,0.02685491,1.1276509,1.1277256,3.2945577e-06,2.55802e-05,0,1,0,1
37196000,37078000,37116000,0,-0.07783645,0.09784891,1.0,1.0,0.0050203055,0.010218263,1.1275507,1.1276278,8.940961e-07,3.703807e-06,0,1,0,1
37596000,37478000,37516000,0,-0.10007543,0.12042942,1.0,1.0,0.009517878,-0.0050034747,1.1274942,1.1275717,3.2138528e-06,8.880946e-07,0,1,0,1
37996000,37878000,37916000,0,-0.11119492,0.1354831,1.0,1.0,0.00079253316,-0.008225635,1.1274744,1.1275507,2.2283745e-08,2.4002845e-06,0,1,0,1
38396000,38278000,38316000,0,-0.13343391,0.15806362,1.0,1.0,0.019886576,-0.016196966,1.127485,1.1275597,1.4030373e-05,9.306531e-06,0,1,0,1
38796000,38678000,38716000,0,-0.13343391,0.15806362,1.0,1.0,0.01839064,-0.009260744,1.1275203,1.1275904,1.1998566e-05,3.0422882e-06,0,1,0,1
39196000,39078000,39116000,0,-0.14455341,0.1731173,1.0,1.0,0.035575263,-0.02610837,1.1275746,1.1276393,4.4896344e-05,2.4179608e-05,0,1,0,1
39596000,39478000,39516000,0,-0.14455341,0.16559045,1.0,1.0,0.03567797,-0.02789022,1.1276411,1.1276989,4.5153287e-05,2.7591208e-05,0,1,0,1
39996000,39878000,39916000,0,-0.14455341,0.16559045,1.0,1.0,0.03884615,-0.02613607,1.127712,1.1277624,5.352513e-05,2.42283e-05,0,1,0,1
40396000,40278000,40316000,0,-0.1556729,0.16559045,1.0,1.0,0.05301109,-0.03523794,1.1277865,1.1278299,9.9670484e-05,4.4038992e-05,0,1,0,1
40796000,40678000,40716000,0,-0.1556729,0.15806362,1.0,1.0,0.047593713,-0.035267904,1.1278605,1.1278974,8.033481e-05,4.4111282e-05,0,1,0,1
41196000,41078000,41116000,0,-0.1556729,0.15806362,1.0,1.0,0.050178386,-0.03921841,1.1279315,1.1279621,8.9291614e-05,5.454381e-05,0,1,0,1
41596000,41478000,41516000,0,-0.1556729,0.14300995,1.0,1.0,0.04886873,-0.03086365,1.1279947,1.1280198,8.468667e-05,3.3778302e-05,0,1,0,1
41996000,41878000,41916000,0,-0.14455341,0.1354831,1.0,1.0,0.040091462,-0.03747485,1.1280499,1.1280699,5.6994835e-05,4.9797065e-05,0,1,0,1
42396000,42278000,42316000,0,-0.13343391,0.12795626,1.0,1.0,0.039289437,-0.03137654,1.1280965,1.1281118,5.473503e-05,3.4907436e-05,0,1,0,1
42796000,42678000,42716000,0,-0.122314416,0.12795626,1.0,1.0,0.03771946,-0.044717565,1.1281326,1.1281439,5.0446466e-05,7.0900904e-05,0,1,0,1
43196000,43078000,43116000,0,-0.08895594,0.11290258,1.0,1.0,0.016698748,-0.03661575,1.1281586,1.1281661,9.886844e-06,4.7536025e-05,0,1,0,1
43596000,43478000,43516000,0,-0.066716954,0.105375744,1.0,1.0,0.008604169,-0.033268534,1.128175,1.1281793,2.624831e-06,3.9241826e-05,0,1,0,1
43996000,43878000,43916000,0,-0.05559746,0.09784891,1.0,1.0,0.021974608,-0.033242933,1.1281826,1.128184,1.7120752e-05,3.918129e-05,0,1,0,1
44396000,44278000,44316000,0,-0.04447797,0.082795225,1.0,1.0,0.030946283,-0.032929584,1.128182,1.1281809,3.3954533e-05,3.844623e-05,0,1,0,1
44796000,44674000,44716000,0,-0.022238985,0.06774155,1.0,1.0,0.020470541,-0.02430885,1.1281759,1.1281726,1.4857365e-05,2.095141e-05,0,1,0,1
45196000,45078000,45116000,0,-0.022238985,0.06021471,1.0,1.0,0.03295497,-0.024228048,1.1281633,1.1281586,3.8506125e-05,2.0812617e-05,0,1,0,1
45596000,45478000,45516000,0,-0.022238985,0.052687872,1.0,1.0,0.036384903,-0.029940696,1.1281456,1.1281396,4.6939374e-05,3.1784904e-05,0,1,0,1
45996000,45878000,45916000,0,-0.011119492,0.04516103,1.0,1.0,0.025211224,-0.027900217,1.1281238,1.1281173,2.253674e-05,2.760075e-05,0,1,0,1
46396000,46278000,46316000,0,-0.022238987,0.037634194,1.0,1.0,0.03125062,-0.018025592,1.128098,1.128091,3.462824e-05,1.1521127e-05,0,1,0,1
46796000,46678000,46716000,0,-0.022238987,0.037634194,1.0,1.0,0.029430822,-0.021097947,1.1280692,1.1280621,3.071348e-05,1.5783648e-05,0,1,0,1
47196000,47078000,47116000,0,-0.033358477,0.037634194,1.0,1.0,0.039429072,-0.016985994,1.1280389,1.128032,5.5127595e-05,1.0231057e-05,0,1,0,1
47596000,47478000,47516000,0,-0.033358477,0.037634194,1.0,1.0,0.03290096,-0.02086085,1.1280048,1.1279986,3.838541e-05,1.543176e-05,0,1,0,1
47996000,47878000,47916000,0,-0.033358477,0.030107355,1.0,1.0,0.034335125,-0.013087457,1.1279709,1.1279655,4.180607e-05,6.073999e-06,0,1,0,1
48396000,48278000,48316000,0,-0.033358477,0.037634194,1.0,1.0,0.028960675,-0.020869657,1.1279362,1.1279316,2.974355e-05,1.544571e-05,0,1,0,1
48796000,48678000,48716000,0,-0.04447797,0.030107355,1.0,1.0,0.04568356,-0.0127295535,1.1279006,1.1278968,7.401317e-05,5.746679e-06,0,1,0,1
49196000,49078000,49116000,0,-0.033358477,0.030107355,1.0,1.0,0.033808112,-0.023714602,1.127867,1.1278641,4.0536284e-05,1.9945039e-05,0,1,0,1
49596000,49478000,49516000,0,-0.033358477,0.037634194,1.0,1.0,0.038066573,-0.025367014,1.1278332,1.1278311,5.1392846e-05,2.2822049e-05,0,1,0,1
49996000,49874000,49916000,0,-0.033358477,0.04516103,1.0,1.0,0.03350181,-0.028180262,1.1278001,1.1277989,3.980746e-05,2.816556e-05,0,1,0,1
50396000,50278000,50316000,0,-0.022238987,0.04516103,1.0,1.0,-0.0060776304,-0.0040644407,1.1277573,1.1277536,1.3101255e-06,5.859322e-07,0,1,0,1
50796000,50678000,50716000,0,0.011119493,0.015053677,1.0,1.0,-0.052677136,0.047188323,1.1277299,1.1277232,9.8423596e-05,7.898171e-05,0,1,0,1
51196000,51078000,51116000,0,0.12231442,-0.06774154,1.0,1.0,-0.10581438,0.08686586,1.1276983,1.1276888,0.00039715174,0.00026765105,0,1,0,1
51596000,51478000,51516000,0,0.28910682,-0.1956978,1.0,1.0,-0.16234826,0.1135521,1.127662,1.127649,0.000934924,0.00045737924,0,1,0,1
51996000,51878000,51916000,0,0.4558992,-0.3537614,1.0,1.0,-0.19149813,0.14632195,1.1276209,1.1276035,0.0013008462,0.0007594908,0,1,0,1
52396000,52278000,52316000,0,0.61157215,-0.48924446,1.0,1.0,-0.20636153,0.16578573,1.1275784,1.1275561,0.001510674,0.0009750259,0,1,0,1
52796000,52678000,52716000,0,0.72276706,-0.5795665,1.0,1.0,-0.21066451,0.16573063,1.1275373,1.1275109,0.0015743884,0.0009744168,0,1,0,1
53196000,53078000,53116000,0,0.76724505,-0.60214704,1.0,1.0,-0.20054865,0.14268011,1.1274981,1.1274706,0.0014268674,0.0007222401,0,1,0,1
53596000,53478000,53516000,0,0.72276706,-0.556986,1.0,1.0,-0.16024917,0.11927661,1.1274632,1.127438,0.0009110646,0.00050475186,0,1,0,1
53996000,53878000,53916000,0,0.5893331,-0.42902976,1.0,1.0,-0.10218668,0.067302495,1.1274284,1.1274098,0.00037047558,0.00016070911,0,1,0,1
54396000,54278000,54316000,0,0.40030175,-0.24838565,1.0,1.0,-0.044785857,0.008160442,1.1274,1.1273907,7.116455e-05,2.3627235e-06,0,1,0,1
54796000,54678000,54716000,0,0.14455341,-0.022580516,1.0,1.0,0.026637733,-0.04188003,1.1273824,1.1273828,2.5175797e-05,6.22304e-05,0,1,0,1
55196000,55078000,55116000,0,-0.1445534,0.24085884,1.0,1.0,0.09950222,-0.11547564,1.1273825,1.1273903,0.00035128067,0.00047311472,0,1,0,1
55596000,55478000,55516000,0,-0.43366018,0.4967714,1.0,1.0,0.16319284,-0.1812005,1.1274071,1.1274179,0.0009448904,0.001164914,0,1,0,1
55996000,55878000,55916000,0,-0.7116475,0.7376303,1.0,1.0,0.22696903,-0.24672487,1.1274617,1.1274714,0.0018276431,0.0021596346,0,1,0,1
56396000,56278000,56316000,0,-0.9562763,0.95590866,1.0,1.0,0.28140527,-0.3048343,1.1275444,1.1275506,0.0028092526,0.0032964891,0,1,0,1
56796000,56674000,56716000,0,-1.1341882,1.1064456,1.0,1.0,0.31810266,-0.3393455,1.1276462,1.1276485,0.003589399,0.004084797,0,1,0,1
57196000,57078000,57116000,0,-1.245383,1.2042944,1.0,1.0,0.3369531,-0.35512328,1.1277564,1.1277567,0.004027019,0.004473041,0,1,0,1
57596000,57478000,57516000,0,-1.289861,1.2419287,1.0,1.0,0.35308415,-0.36118108,1.127857,1.1278582,0.0044214264,0.004626531,0,1,0,1
57996000,57878000,57916000,0,-1.2342635,1.1892408,1.0,1.0,0.33138824,-0.3384233,1.1279337,1.1279385,0.0038944897,0.004061581,0,1,0,1
58396000,58278000,58316000,0,-1.1119492,1.0537577,1.0,1.0,0.29543245,-0.28186905,1.1279731,1.1279835,0.0030951211,0.0028174229,0,1,0,1
58796000,58678000,58716000,0,-0.91179836,0.8505329,1.0,1.0,0.24308598,-0.21902597,1.1279663,1.1279837,0.0020954807,0.0017011726,0,1,0,1
59196000,59078000,59116000,0,-0.63381106,0.5720398,1.0,1.0,0.15534824,-0.12970173,1.1279185,1.1279433,0.0008558447,0.0005965739,0,1,0,1
59596000,59478000,59516000,0,-0.32246527,0.2709662,1.0,1.0,0.069875,-0.063481495,1.1278346,1.1278647,0.00017316426,0.00014292142,0,1,0,1
59996000,59878000,59916000,0,0.022238987,-0.06021471,1.0,1.0,-0.0110872155,0.015884012,1.1277263,1.1277577,4.360148e-06,8.948797e-06,0,1,0,1
60396000,60278000,60316000,0,0.36694327,-0.3989224,1.0,1.0,-0.061269104,0.08711499,1.1276294,1.127655,0.00013316088,0.00026919655,0,1,0,1
60796000,60678000,60716000,0,0.6671696,-0.66236174,1.0,1.0,-0.1065563,0.10746509,1.1275184,1.1275293,0.00040280476,0.00040970094,0,1,0,1
61196000,61078000,61116000,0,0.8673205,-0.82795215,1.0,1.0,-0.13280356,0.12911868,1.1274247,1.1274145,0.00062573707,0.00059149973,0,1,0,1
61596000,61478000,61516000,0,0.94515693,-0.89569366,1.0,1.0,-0.14194524,0.14679182,1.1273594,1.1273274,0.00071489013,0.00076456356,0,1,0,1
61996000,61878000,61916000,0,0.93403745,-0.88064,1.0,1.0,-0.15232784,0.16004592,1.1273195,1.1272702,0.0008233254,0.00090891065,0,1,0,1
62396000,62278000,62316000,0,0.8673205,-0.79784477,1.0,1.0,-0.16585529,0.15790194,1.1272945,1.1272345,0.00097607065,0.0008847502,0,1,0,1
62796000,62678000,62716000,0,0.745006,-0.69246906,1.0,1.0,-0.14907783,0.15447766,1.1272731,1.1272084,0.0007886004,0.00084681227,0,1,0,1
63196000,63078000,63116000,0,0.61157215,-0.57203966,1.0,1.0,-0.14006722,0.14393672,1.1272495,1.1271847,0.00069616624,0.00073520443,0,1,0,1
63596000,63478000,63516000,0,0.4781382,-0.4591371,1.0,1.0,-0.12565324,0.13976538,1.1272231,1.1271619,0.0005602701,0.000693223,0,1,0,1
63996000,63878000,63916000,0,0.35582379,-0.3537614,1.0,1.0,-0.10914329,0.12572879,1.1271945,1.1271392,0.00042272234,0.0005609858,0,1,0,1
64396000,64278000,64316000,0,0.25574833,-0.27096617,1.0,1.0,-0.10687797,0.11008735,1.1271683,1.1271198,0.00040536624,0.00043009536,0,1,0,1
64796000,64678000,64716000,0,0.1667924,-0.1956978,1.0,1.0,-0.09976184,0.0904644,1.1271462,1.127104,0.0003531902,0.0002904366,0,1,0,1
65196000,65078000,65116000,0,0.11119493,-0.15053678,1.0,1.0,-0.1017402,0.083337925,1.127131,1.1270947,0.00036734215,0.00024648185,0,1,0,1
65604000,65482000,65524000,0,0.066716954,-0.10537574,1.0,1.0,-0.08528942,0.08713032,1.1276026,1.1275724,0.00025804428,0.00026931107,0,1,0,1
65996000,65878000,65916000,0,0.022238987,-0.06774155,1.0,1.0,-0.06564233,0.075231686,1.1270502,1.1270269,0.00015292718,0.00020087566,0,1,0,1
66396000,66278000,66316000,0,-0.011119492,-0.04516103,1.0,1.0,-0.048829112,0.07517728,1.12706,1.1270435,8.4619525e-05,0.00020058229,0,1,0,1
66796000,66678000,66716000,0,-0.04447797,-0.022580516,1.0,1.0,-0.03627962,0.06039601,1.1269767,1.126967,4.671652e-05,0.00012946886,0,1,0,1
67196000,67078000,67116000,0,-0.066716954,-0.015053677,1.0,1.0,-0.02554024,0.060944982,1.1269667,1.126962,2.3152552e-05,0.00013183376,0,1,0,1
67596000,67478000,67516000,0,-0.08895594,0.0075268387,1.0,1.0,-0.011959843,0.036710043,1.1269813,1.1269802,5.076849e-06,4.7831443e-05,0,1,0,1
67996000,67878000,67916000,0,-0.11119492,0.0075268387,1.0,1.0,0.0006559938,0.041634366,1.1270013,1.1270031,1.5273377e-08,6.1523184e-05,0,1,0,1
68396000,68278000,68316000,0,-0.122314416,0.015053677,1.0,1.0,0.0052363724,0.031010676,1.1270269,1.127031,9.731656e-07,3.413081e-05,0,1,0,1
68796000,68678000,68716000,0,-0.13343391,0.015053677,1.0,1.0,0.013082139,0.03288167,1.1270574,1.1270632,6.073954e-06,3.8372444e-05,0,1,0,1
69196000,69078000,69116000,0,-0.14455341,0.015053677,1.0,1.0,0.023862086,0.026643023,1.1270919,1.1270988,2.0207728e-05,2.5192137e-05,0,1,0,1
69596000,69482000,69516000,0,-0.1556729,0.030107355,1.0,1.0,0.030124381,0.009783426,1.127129,1.1271366,3.220495e-05,3.3967642e-06,0,1,0,1
69996000,69878000,69916000,0,-0.1556729,0.037634194,1.0,1.0,0.031352967,-0.0013412349,1.1271658,1.1271739,3.4884255e-05,6.383792e-08,0,1,0,1
70396000,70278000,70316000,0,-0.1667924,0.045161035,1.0,1.0,0.03970337,-0.011579361,1.1272,1.1272081,5.5938875e-05,4.758007e-06,0,1,0,1
70796000,70678000,70716000,0,-0.1667924,0.045161035,1.0,1.0,0.043173768,-0.017073695,1.1272181,1.1272261,6.6144225e-05,1.0344368e-05,0,1,0,1
71196000,71078000,71116000,0,-0.1556729,0.06021471,1.0,1.0,0.03763131,-0.024638712,1.1276054,1.127624,5.0234434e-05,2.1534346e-05,0,1,0,1
71596000,71478000,71516000,0,-0.14455341,0.07526839,1.0,1.0,0.04103373,-0.016791489,1.1285415,1.1285828,5.9679398e-05,9.993209e-06,0,1,0,1
71996000,71878000,71916000,0,-0.11119492,0.09784891,1.0,1.0,0.015314139,-0.018618807,1.1298609,1.129924,8.302717e-06,1.2271974e-05,0,1,0,1
72396000,72278000,72316000,0,-0.08895594,0.09784891,1.0,1.0,0.019995123,-0.0013504624,1.1311727,1.1312453,1.4137716e-05,6.4486414e-08,0,1,0,1
72796000,72678000,72716000,0,-0.04447797,0.09784891,1.0,1.0,-0.0012353472,-0.0014321804,1.1322321,1.1323028,5.3914135e-08,7.245909e-08,0,1,0,1
73196000,73078000,73116000,0,-0.05559746,0.09032206,1.0,1.0,0.047096528,-0.024000883,1.1325141,1.1325749,7.834191e-05,2.0344522e-05,0,1,0,1
73596000,73478000,73516000,0,-0.05559746,0.09032206,1.0,1.0,0.04177107,-0.019820482,1.1327382,1.1327949,6.1614315e-05,1.3871937e-05,0,1,0,1
73996000,73878000,73916000,0,-0.04447797,0.09032206,1.0,1.0,0.03472767,-0.011717476,1.1330016,1.1330572,4.257756e-05,4.8470365e-06,0,1,0,1
74396000,74278000,74316000,0,-0.04447797,0.09784891,1.0,1.0,0.03075613,-0.012543507,1.1332693,1.1333245,3.3387987e-05,5.5532046e-06,0,1,0,1
74796000,74678000,74716000,0,-0.04447797,0.09784891,1.0,1.0,0.02755271,-0.015146248,1.1335052,1.1335589,2.6789532e-05,8.095171e-06,0,1,0,1
