timestamp,timestamp_sample,states[0],states[1],states[2],states[3],states[4],states[5],states[6],states[7],states[8],states[9],states[10],states[11],states[12],states[13],states[14],states[15],states[16],states[17],states[18],states[19],states[20],states[21],states[22],states[23],covariances[0],covariances[1],covariances[2],covariances[3],covariances[4],covariances[5],covariances[6],covariances[7],covariances[8],covariances[9],covariances[10],covariances[11],covariances[12],covariances[13],covariances[14],covariances[15],covariances[16],covariances[17],covariances[18],covariances[19],covariances[20],covariances[21],covariances[22],covariances[23],n_states
4172000,4092000,0.999884,-0.009815019,-0.0116486335,-0.00016073612,0.004217914,-0.0004208,-0.011451222,0.00040377473,-2.9884275e-05,-0.033796195,-7.659526e-06,-1.6746566e-05,2.2321045e-08,-1.3053981e-05,1.8445055e-05,-0.0009465956,0.0,0.0,0.0,0.0,0.0,0.0,0.0,0.0,1.3823514e-07,0.0005517355,0.0005518724,0.000448507,0.012134616,0.012135379,0.0023818081,0.00042792576,0.00042794837,8.2214985,2.6926753e-07,2.6940006e-07,2.8027782e-07,3.7711795e-06,3.7714249e-06,4.037879e-07,0.0,0.0,0.0,0.0,0.0,0.0,0.0,0.0,24
5172000,5092000,0.9998948,-0.009557048,-0.010913059,-0.000103348066,0.0004822862,-0.0026991174,-0.013735466,0.0001509916,-0.00039973282,-0.04738856,-1.1445551e-05,-4.194233e-05,4.5497148e-07,-2.2037813e-05,2.2005604e-05,-0.0010149875,0.0,0.0,0.0,0.0,0.0,0.0,0.0,0.0,5.2109637e-08,0.00019283209,0.00019289838,0.0007051164,0.0026710485,0.0026710453,0.008122686,0.0001593939,0.00015939359,0.6640727,6.989503e-09,6.98963e-09,6.850452e-08,3.7583318e-06,3.7586492e-06,2.2604466e-07,0.0,0.0,0.0,0.0,0.0,0.0,0.0,0.0,24
6172000,6092000,0.99990255,-0.009227208,-0.01048362,-0.00017538035,0.00069386483,-0.00055313366,-0.010296389,0.000104890634,4.8653183e-05,-0.04229267,-1.2908624e-05,-4.454835e-05,6.010677e-07,-2.5603453e-05,2.3424756e-05,-0.0010626063,0.0,0.0,0.0,0.0,0.0,0.0,0.0,0.0,4.3702315e-08,0.00016424923,0.00016430308,0.0005089585,0.0012275401,0.0012275112,0.007803987,9.764207e-05,9.764177e-05,0.34961602,9.72115e-10,9.712166e-10,1.9335005e-08,3.7536172e-06,3.7539942e-06,9.912809e-08,0.0,0.0,0.0,0.0,0.0,0.0,0.0,0.0,24
7172000,7092000,0.999906,-0.008792093,-0.010528051,-0.00011397218,-0.0011942206,0.0038957612,-0.0050422396,-0.00027147567,0.00028472193,-0.038317755,-1.2545433e-05,-4.360088e-05,7.064993e-07,-2.4569916e-05,2.2987837e-05,-0.0010803152,0.0,0.0,0.0,0.0,0.0,0.0,0.0,0.0,4.046579e-08,0.00015885661,0.000158899,0.00044979397,0.00084780034,0.00084777793,0.007685385,7.2902796e-05,7.290245e-05,0.2417851,3.191639e-10,3.184583e-10,9.071298e-09,3.7522927e-06,3.7526902e-06,5.8783677e-08,0.0,0.0,0.0,0.0,0.0,0.0,0.0,0.0,24
8172000,8092000,0.9999055,-0.008955976,-0.01042264,-0.00033594485,0.00035949156,0.0022882079,-0.0011479259,0.000108814806,0.0008047859,-0.037019588,-1.04460205e-05,-4.355487e-05,5.167082e-07,-2.464778e-05,1.9906987e-05,-0.001084249,0.0,0.0,0.0,0.0,0.0,0.0,0.0,0.0,3.91157e-08,0.00015799107,0.00015804422,0.00034392043,0.0011925198,0.0011925097,0.006341673,0.00015390411,0.00015390414,0.1902048,1.703978e-10,1.7022934e-10,4.3264543e-09,3.7519715e-06,3.75237e-06,5.000026e-08,0.0,0.0,0.0,0.0,0.0,0.0,0.0,0.0,24
9172000,9092000,0.99990886,-0.0087811425,-0.010249387,-0.00042543936,0.0019365912,0.0028256006,-0.00028320402,0.00023323305,0.00047472506,-0.06809568,-9.89934e-06,-4.334983e-05,3.5380854e-08,-2.4266426e-05,1.8437539e-05,-0.0010855994,0.0,0.0,0.0,0.0,0.0,0.0,0.0,0.0,3.7121346e-08,0.00015661033,0.00015666286,0.00027763928,0.0009756906,0.0009757153,0.0056322017,0.00012132987,0.000121330384,0.6368979,9.582351e-11,9.571059e-11,2.39704e-09,3.7514637e-06,3.7518582e-06,5.0000036e-08,0.0,0.0,0.0,0.0,0.0,0.0,0.0,0.0,24
10172000,10092000,0.9999126,-0.0088243475,-0.00984279,-0.00036652983,0.0015480894,0.0013229271,0.003299497,0.000670684,0.0004749766,-0.06296958,-9.258783e-06,-4.400355e-05,-2.5267846e-07,-2.6756898e-05,1.7031474e-05,-0.0010841746,0.0,0.0,0.0,0.0,0.0,0.0,0.0,0.0,3.573121e-08,0.0001558506,0.00015590584,0.00023262037,0.00083109335,0.00083111605,0.0052683814,9.824771e-05,9.824898e-05,0.16998635,6.2233024e-11,6.21941e-11,1.4700104e-09,3.751125e-06,3.7515392e-06,5.0000075e-08,0.0,0.0,0.0,0.0,0.0,0.0,0.0,0.0,24
11172000,11092000,0.9999158,-0.008639845,-0.009682339,-0.0004226731,-0.0003551476,-0.0027311337,0.008453146,-7.986092e-05,-0.00044040685,-0.066152975,-9.281577e-06,-4.4082113e-05,-4.8583547e-07,-2.7512146e-05,1.7554019e-05,-0.0010769673,0.0,0.0,0.0,0.0,0.0,0.0,0.0,0.0,3.4673505e-08,0.00015545027,0.00015550155,0.00020016367,0.0007222714,0.00072231475,0.005038914,8.079476e-05,8.079694e-05,0.113147534,4.4607935e-11,4.456537e-11,9.698146e-10,3.750942e-06,3.7513828e-06,5.0000185e-08,0.0,0.0,0.0,0.0,0.0,0.0,0.0,0.0,24
12172000,12092000,0.9999189,-0.008400538,-0.009569747,-0.0004547373,-0.0032902088,0.000104069106,0.012539977,-0.0005013231,-0.00040426105,-0.06530114,-9.774301e-06,-4.3789914e-05,-6.3776787e-07,-2.8169788e-05,1.9606536e-05,-0.00106172,0.0,0.0,0.0,0.0,0.0,0.0,0.0,0.0,3.367027e-08,0.0001552861,0.00015533334,0.00018903166,0.00063383946,0.0006337485,0.0048464932,6.7178924e-05,6.717664e-05,0.08057797,3.432167e-11,3.4259397e-11,7.2398315e-10,3.7508566e-06,3.7512607e-06,5e-08,0.0,0.0,0.0,0.0,0.0,0.0,0.0,0.0,24
13172000,13092000,0.9999195,-0.008212296,-0.009676339,-0.00040531773,0.0004555139,0.005181675,0.0138825625,3.6867923e-06,0.0011310928,-0.062458098,-9.81383e-06,-4.3535405e-05,-7.9212936e-07,-2.800243e-05,2.0994059e-05,-0.0010490485,0.0,0.0,0.0,0.0,0.0,0.0,0.0,0.0,3.318464e-08,0.00015534164,0.00015538638,0.00016722702,0.0009312255,0.00093104737,0.0053590494,0.00013750083,0.00013748795,0.07018921,2.895386e-11,2.890455e-11,5.22783e-10,3.7506616e-06,3.7510235e-06,5.000022e-08,0.0,0.0,0.0,0.0,0.0,0.0,0.0,0.0,24
14172000,14092000,0.99992007,-0.008352388,-0.00948618,-0.0004019525,0.0011748017,-0.00015805635,0.0102381855,0.0005724031,0.0004299454,-0.06524686,-9.440434e-06,-4.364818e-05,-9.0026697e-07,-3.0002762e-05,1.9660569e-05,-0.0010340412,0.0,0.0,0.0,0.0,0.0,0.0,0.0,0.0,3.25067e-08,0.00015507317,0.00015511924,0.00014998505,0.0008392913,0.00083911524,0.005186596,0.00011499859,0.00011498734,0.059981924,2.4189357e-11,2.4164743e-11,3.913729e-10,3.750327e-06,3.7506927e-06,5.0000185e-08,0.0,0.0,0.0,0.0,0.0,0.0,0.0,0.0,24
15172000,15092000,0.99992424,-0.008223126,-0.009159406,-0.00035533766,0.0018498945,5.6904566e-05,0.0068816245,0.0005450626,-0.00017577535,-0.06412223,-9.489078e-06,-4.3817836e-05,-9.777689e-07,-3.27387e-05,2.088444e-05,-0.0010230866,0.0,0.0,0.0,0.0,0.0,0.0,0.0,0.0,3.1347e-08,0.00015481393,0.00015485722,0.00013602097,0.0007574373,0.0007572421,0.005069456,9.634126e-05,9.633042e-05,0.05657172,2.085673e-11,2.0843759e-11,3.0180347e-10,3.749909e-06,3.7503144e-06,5.0000146e-08,0.0,0.0,0.0,0.0,0.0,0.0,0.0,0.0,24
16172000,16092000,0.9999301,-0.008048312,-0.008670713,-0.00022749188,0.0005107144,-0.002447682,0.007535711,0.00011019344,-0.0002152,-0.066442885,-9.491453e-06,-4.3942404e-05,-1.0216289e-06,-3.5039393e-05,2.1559257e-05,-0.0010133475,0.0,0.0,0.0,0.0,0.0,0.0,0.0,0.0,2.9374611e-08,0.00015461279,0.00015465105,0.00012449015,0.0006827155,0.000682541,0.0049180356,8.0848105e-05,8.084078e-05,0.051786415,1.8436436e-11,1.8432365e-11,2.3857907e-10,3.7495236e-06,3.7500254e-06,5.000011e-08,0.0,0.0,0.0,0.0,0.0,0.0,0.0,0.0,24
17172000,17092000,0.99993175,-0.0080622155,-0.008454922,-0.00016347363,-0.00040418433,-0.0024160398,0.01237642,-0.00011583662,-0.0005865066,-0.06746278,-9.683902e-06,-4.3949694e-05,-1.0332041e-06,-3.7653394e-05,2.3525328e-05,-0.0010003343,0.0,0.0,0.0,0.0,0.0,0.0,0.0,0.0,2.8958874e-08,0.00015453085,0.00015456158,0.00012034262,0.0006135879,0.0006134106,0.0048173973,6.805008e-05,6.804294e-05,0.05078672,1.6627949e-11,1.6627182e-11,2.008401e-10,3.7492166e-06,3.7498482e-06,5.0000036e-08,0.0,0.0,0.0,0.0,0.0,0.0,0.0,0.0,24
18172000,18092000,0.9999355,-0.0077698412,-0.008283232,-0.00010806203,-0.00040046638,-3.7968537e-05,0.010248786,-0.00021589072,-0.000119734905,-0.06548802,-9.860804e-06,-4.3873515e-05,-1.0179842e-06,-3.959972e-05,2.563966e-05,-0.0009891049,0.0,0.0,0.0,0.0,0.0,0.0,0.0,0.0,2.7765195e-08,0.000154456,0.00015447833,0.00011135673,0.00055811234,0.00055797864,0.0053173993,5.7926707e-05,5.7922538e-05,0.049298327,1.5244373e-11,1.5247092e-11,1.6459883e-10,3.748922e-06,3.7496557e-06,5e-08,0.0,0.0,0.0,0.0,0.0,0.0,0.0,0.0,24
19172000,19092000,0.99993837,-0.0076896613,-0.008005414,-4.4761044e-05,1.1323225e-05,-0.006900815,0.013327624,0.00071213045,-0.0015582385,-0.06442156,-1.00123e-05,-4.397044e-05,-9.900817e-07,-4.3108652e-05,2.7617498e-05,-0.0009752865,0.0,0.0,0.0,0.0,0.0,0.0,0.0,0.0,2.7168731e-08,0.00015453031,0.00015454274,0.00010366437,0.0008187891,0.0008185614,0.005220064,0.0001163106,0.00011629417,0.04927582,1.4435996e-11,1.4442791e-11,1.3713607e-10,3.7485204e-06,3.7494249e-06,5e-08,0.0,0.0,0.0,0.0,0.0,0.0,0.0,0.0,24
20172000,20092000,0.99994177,-0.0074962415,-0.0077622957,-7.224879e-05,0.046859033,0.04590804,0.05771637,0.0023431377,0.0015843604,-0.062111508,-1.0284722e-05,-4.400217e-05,-9.706423e-07,-4.6845693e-05,3.0675976e-05,-0.0009614913,0.0,0.0,0.0,0.0,0.0,0.0,0.0,0.0,2.6511051e-08,0.00015444365,0.00015444681,9.701001e-05,0.0007464683,0.00074647745,0.005076873,9.811389e-05,9.8110446e-05,0.047230653,1.3522193e-11,1.35308344e-11,1.1593183e-10,3.7481234e-06,3.7491657e-06,5.0000075e-08,0.0,0.0,0.0,0.0,0.0,0.0,0.0,0.0,24
21172000,21092000,0.9999448,-0.0075611407,-0.007309517,9.864334e-05,0.47650024,0.49873,0.50529087,0.26605836,0.27431595,0.19099355,-1.0021856e-05,-4.429973e-05,-9.733933e-07,-4.366149e-05,3.8351707e-05,-0.0009337332,0.0,0.0,0.0,0.0,0.0,0.0,0.0,0.0,2.555754e-08,0.0001551728,0.00015514136,0.000110103036,0.04175156,0.04183873,0.008265049,0.008312882,0.008332434,0.055810176,1.377372e-11,1.3786144e-11,1.16410825e-10,3.746342e-06,3.7480631e-06,5.000004e-08,0.0,0.0,0.0,0.0,0.0,0.0,0.0,0.0,24
22172000,22092000,0.99401736,-0.07297968,0.07316062,0.035371564,0.58681256,0.75799364,0.525749,0.8383315,0.92379045,0.6387089,-1.0017289e-05,-4.431361e-05,-9.747843e-07,-4.366149e-05,3.8351707e-05,-0.00089080754,0.0,0.0,0.0,0.0,0.0,0.0,0.0,0.0,1.7097027e-06,0.00015456193,0.00015478957,0.0001241184,0.19853285,0.19874145,0.012512263,0.16798884,0.16840924,0.071707964,1.42852405e-11,1.4297603e-11,1.1692095e-10,3.746342e-06,3.7480631e-06,5e-08,0.0,0.0,0.0,0.0,0.0,0.0,0.0,0.0,24
23172000,23092000,0.9983093,0.021801693,-0.03754294,0.03864858,0.06839672,0.18154235,-0.08942828,0.88430446,1.1472785,0.7466316,-1.0000038e-05,-4.434797e-05,-9.779419e-07,-4.366149e-05,3.8351707e-05,-0.00088846637,0.0,0.0,0.0,0.0,0.0,0.0,0.0,0.0,5.677467e-07,0.00015265544,0.0001517998,0.00013877345,0.48059034,0.48172528,0.011943291,0.92763734,0.93056136,0.09603735,1.4794017e-11,1.4806436e-11,1.1742649e-10,3.746342e-06,3.7480631e-06,5.000281e-08,0.0,0.0,0.0,0.0,0.0,0.0,0.0,0.0,24
24172000,24092000,0.9978173,0.03324578,-0.048322268,0.030338183,0.51992327,0.6740888,-0.66039485,0.9849123,1.4806055,-0.14885184,-9.979e-06,-4.439385e-05,-9.812004e-07,-4.366149e-05,3.8351707e-05,-0.0008717824,0.0,0.0,0.0,0.0,0.0,0.0,0.0,0.0,7.678303e-07,0.00014312717,0.00014179137,0.00015463824,0.82968366,0.83473796,0.01206703,2.9402676,2.9573712,0.10593118,1.5297633e-11,1.531036e-11,1.1792971e-10,3.746342e-06,3.7480631e-06,5e-08,0.0,0.0,0.0,0.0,0.0,0.0,0.0,0.0,24
25172000,25092000,0.9995619,0.00011900372,-0.01749974,0.02387036,0.15055282,0.2629929,-0.48833612,0.9988617,1.6261489,-1.0186368,-9.923055e-06,-4.4449047e-05,-9.734662e-07,-4.366149e-05,3.8351707e-05,-0.0008459608,0.0,0.0,0.0,0.0,0.0,0.0,0.0,0.0,1.8376731e-07,0.00011731843,0.00011633981,0.00017133498,1.0466475,1.0545834,0.013291336,6.0401335,6.0846395,0.121816866,1.57866e-11,1.5800434e-11,1.1841998e-10,3.746342e-06,3.7480631e-06,5.0000185e-08,0.0,0.0,0.0,0.0,0.0,0.0,0.0,0.0,24
26172000,26092000,0.9988771,-0.036756214,0.022813674,0.019319657,-0.82608056,-0.8065518,-0.17688447,0.3677372,0.8882853,-1.391782,-9.868356e-06,-4.4487093e-05,-9.617874e-07,-4.366149e-05,3.8351707e-05,-0.0008303933,0.0,0.0,0.0,0.0,0.0,0.0,0.0,0.0,1.5658551e-07,8.255489e-05,8.2251936e-05,0.00018866172,1.0378356,1.0447325,0.014870432,8.799595,8.861312,0.12026622,1.6264467e-11,1.6279733e-11,1.1891128e-10,3.746342e-06,3.7480631e-06,5.000015e-08,0.0,0.0,0.0,0.0,0.0,0.0,0.0,0.0,24
27172000,27092000,0.995851,-0.07243255,0.053638715,0.012542565,-2.2047477,-2.2719622,-0.5525512,-1.0014551,-0.73534966,-1.6519787,-9.856724e-06,-4.4481614e-05,-9.598042e-07,-4.366149e-05,3.8351707e-05,-0.0008583319,0.0,0.0,0.0,0.0,0.0,0.0,0.0,0.0,3.6066785e-07,5.2873376e-05,5.3288644e-05,0.00020615314,0.89481115,0.89739627,0.018841604,10.178454,10.220296,0.13451941,1.6741395e-11,1.675706e-11,1.1941972e-10,3.746342e-06,3.7480631e-06,5.000011e-08,0.0,0.0,0.0,0.0,0.0,0.0,0.0,0.0,24
28172000,28092000,0.9993537,-0.034193985,0.010192835,0.004390042,-2.454787,-2.666128,-0.7782552,-2.5976791,-2.621692,-1.8270763,-9.859998e-06,-4.4473778e-05,-9.639642e-07,-4.366149e-05,3.8351707e-05,-0.00098482,0.0,0.0,0.0,0.0,0.0,0.0,0.0,0.0,3.2525104e-08,3.318747e-05,3.3334905e-05,0.00022665724,0.7036781,0.70332974,0.019400906,10.328373,10.341123,0.13378626,1.7221587e-11,1.7235645e-11,1.1991419e-10,3.746342e-06,3.7480631e-06,5.0000075e-08,0.0,0.0,0.0,0.0,0.0,0.0,0.0,0.0,24
29172000,29092000,0.99981886,-0.00045217632,-0.018736146,0.0033250812,-1.6333253,-1.8799647,-0.93945503,-3.5878997,-3.8415592,-2.2728865,-9.877618e-06,-4.445796e-05,-9.646045e-07,-4.366149e-05,3.8351707e-05,-0.0011124554,0.0,0.0,0.0,0.0,0.0,0.0,0.0,0.0,1.6054242e-08,2.4301056e-05,2.4126119e-05,0.00024696856,0.5934296,0.5929235,0.020039411,10.94418,10.943901,0.1495283,1.7709655e-11,1.7721598e-11,1.2038373e-10,3.746342e-06,3.7480631e-06,5.0000075e-08,0.0,0.0,0.0,0.0,0.0,0.0,0.0,0.0,24
30172000,30092000,0.99992996,-0.0035366116,-0.009681643,0.0058301296,-0.636549,-0.7437947,-0.7118498,-3.2038343,-3.5309587,-2.4658542,-9.929349e-06,-4.440906e-05,-9.618052e-07,-4.366149e-05,3.8351707e-05,-0.0012993887,0.0,0.0,0.0,0.0,0.0,0.0,0.0,0.0,1.0492e-08,1.756691e-05,1.7491639e-05,0.000268296,0.4511309,0.45116496,0.019187696,10.120515,10.1168995,0.14291319,1.819181e-11,1.8201355e-11,1.2084117e-10,3.746342e-06,3.7480631e-06,5e-08,0.0,0.0,0.0,0.0,0.0,0.0,0.0,0.0,24
31172000,31092000,0.9992339,0.021305574,-0.031546995,0.009076241,-0.054608244,0.021381624,-0.26435077,-2.2846146,-2.4952676,-2.7184222,-1.0039593e-05,-4.4299442e-05,-9.610158e-07,-4.366149e-05,3.8351707e-05,-0.0013793089,0.0,0.0,0.0,0.0,0.0,0.0,0.0,0.0,4.0677413e-08,1.4543973e-05,1.4340748e-05,0.00028992532,0.35289422,0.35287654,0.020093918,9.287634,9.286269,0.1574282,1.866934e-11,1.8677223e-11,1.2132825e-10,3.746342e-06,3.7480631e-06,5.0000185e-08,0.0,0.0,0.0,0.0,0.0,0.0,0.0,0.0,24
32172000,32092000,0.99983656,-0.0019479347,-0.014941204,0.009993493,0.23741016,0.39278927,0.10632714,-1.3573366,-1.3863742,-2.7255938,-1.0127e-05,-4.4209428e-05,-9.590476e-07,-4.366149e-05,3.8351707e-05,-0.001398127,0.0,0.0,0.0,0.0,0.0,0.0,0.0,0.0,3.0331957e-08,1.2722657e-05,1.2595676e-05,0.00031367247,0.28836986,0.28812551,0.01884417,8.531306,8.531288,0.14685248,1.9134722e-11,1.9141928e-11,1.2183683e-10,3.746342e-06,3.7480631e-06,5.0000075e-08,0.0,0.0,0.0,0.0,0.0,0.0,0.0,0.0,24
33172000,33092000,0.9998509,-0.012145206,-0.0055037974,0.010976744,0.17527512,0.29332915,0.37739298,-0.7274521,-0.642295,-2.6896696,-1.0153025e-05,-4.417406e-05,-9.551896e-07,-4.366149e-05,3.8351707e-05,-0.0013411707,0.0,0.0,0.0,0.0,0.0,0.0,0.0,0.0,3.9486995e-08,1.2148368e-05,1.2133259e-05,0.00033797193,0.24674225,0.24655688,0.019287623,7.8815937,7.881413,0.15723798,1.9580053e-11,1.958762e-11,1.2234659e-10,3.746342e-06,3.7480631e-06,5e-08,0.0,0.0,0.0,0.0,0.0,0.0,0.0,0.0,24
34172000,34092000,0.9998182,-0.014097742,-0.0047148056,0.0119459145,0.027171459,0.10532911,0.4965342,-0.47196063,-0.3395976,-2.6487179,-1.0129942e-05,-4.4186803e-05,-9.5026405e-07,-4.366149e-05,3.8351707e-05,-0.00123321,0.0,0.0,0.0,0.0,0.0,0.0,0.0,0.0,5.061452e-08,1.2578659e-05,1.2581623e-05,0.0003631183,0.23696089,0.23682117,0.01825591,7.9238286,7.922969,0.14683256,2.0017519e-11,2.00259e-11,1.2285202e-10,3.746342e-06,3.7480631e-06,5.000022e-08,0.0,0.0,0.0,0.0,0.0,0.0,0.0,0.0,24
35172000,35092000,0.99982494,-0.009289196,-0.009144795,0.013420248,-0.037990984,0.009313344,0.57960963,-0.35392085,-0.22517495,-2.501347,-1.0118976e-05,-4.4186752e-05,-9.4369807e-07,-4.366149e-05,3.8351707e-05,-0.0011276284,0.0,0.0,0.0,0.0,0.0,0.0,0.0,0.0,6.658525e-08,1.3109914e-05,1.3050606e-05,0.00038918795,0.22339992,0.22327349,0.018941827,7.41873,7.417599,0.15663339,2.0400244e-11,2.040991e-11,1.233522e-10,3.746342e-06,3.7480631e-06,5.0000146e-08,0.0,0.0,0.0,0.0,0.0,0.0,0.0,0.0,24
36172000,36092000,0.99981266,-0.008270341,-0.010156508,0.014253638,-0.051659744,-0.013283216,0.5230476,-0.30682883,-0.19257857,-2.4772635,-1.0120574e-05,-4.4178178e-05,-9.359777e-07,-4.366149e-05,3.8351707e-05,-0.0009878881,0.0,0.0,0.0,0.0,0.0,0.0,0.0,0.0,8.03034e-08,1.38571795e-05,1.3785788e-05,0.00041622447,0.22105369,0.22091004,0.018051287,7.023852,7.0225525,0.14481565,2.0725902e-11,2.073717e-11,1.2385115e-10,3.746342e-06,3.7480631e-06,5.000011e-08,0.0,0.0,0.0,0.0,0.0,0.0,0.0,0.0,24
37172000,37092000,0.9998166,-0.008483964,-0.008793109,0.014748386,-0.079655424,-0.016528346,0.50280887,-0.2808991,-0.16523635,-2.3477936,-1.0142459e-05,-4.4148503e-05,-9.2921414e-07,-4.366149e-05,3.8351707e-05,-0.00088485016,0.0,0.0,0.0,0.0,0.0,0.0,0.0,0.0,9.180867e-08,1.47032215e-05,1.4652045e-05,0.00044424552,0.22681308,0.2266341,0.018865312,6.7285004,6.7271433,0.15479007,2.0973705e-11,2.0987004e-11,1.2434975e-10,3.746342e-06,3.7480631e-06,5e-08,0.0,0.0,0.0,0.0,0.0,0.0,0.0,0.0,24
38172000,38092000,0.99980015,-0.010142205,-0.0081157675,0.015194889,-0.10511372,-0.05604434,0.39758316,-0.2829165,-0.15784708,-2.3521101,-1.017758e-05,-4.410293e-05,-9.215769e-07,-4.366149e-05,3.8351707e-05,-0.0007653649,0.0,0.0,0.0,0.0,0.0,0.0,0.0,0.0,1.0443502e-07,1.5586407e-05,1.5556703e-05,0.0004732163,0.238975,0.23880334,0.018197646,6.5225825,6.5211577,0.1453678,2.1121065e-11,2.1136795e-11,1.2484871e-10,3.746342e-06,3.7480631e-06,5.0000253e-08,0.0,0.0,0.0,0.0,0.0,0.0,0.0,0.0,24
39172000,39092000,0.9998132,-0.009040826,-0.0068259775,0.015664078,-0.15452303,-0.09167214,0.3482035,-0.3315636,-0.19122446,-2.2723882,-1.021274e-05,-4.405518e-05,-9.159231e-07,-4.366149e-05,3.8351707e-05,-0.00068663654,0.0,0.0,0.0,0.0,0.0,0.0,0.0,0.0,1.1761594e-07,1.6697582e-05,1.6677513e-05,0.00050319004,0.26613325,0.2659495,0.019041609,6.8330927,6.83145,0.15583083,2.1254571e-11,2.1272402e-11,1.2535133e-10,3.746342e-06,3.7480631e-06,5.000022e-08,0.0,0.0,0.0,0.0,0.0,0.0,0.0,0.0,24
40172000,40092000,0.9998092,-0.008696431,-0.0071867644,0.015948988,-0.17755826,-0.10648154,0.27334392,-0.37958303,-0.22305438,-2.3077805,-1.0267019e-05,-4.397858e-05,-9.0889e-07,-4.366149e-05,3.8351707e-05,-0.00059555384,0.0,0.0,0.0,0.0,0.0,0.0,0.0,0.0,1.2942418e-07,1.7450739e-05,1.743049e-05,0.0005341191,0.28520358,0.28502923,0.01821692,6.768519,6.7668815,0.14488253,2.1171077e-11,2.1191462e-11,1.2585369e-10,3.746342e-06,3.7480631e-06,5.000018e-08,0.0,0.0,0.0,0.0,0.0,0.0,0.0,0.0,24
41172000,41092000,0.9997928,-0.010088455,-0.0073938323,0.016057834,-0.1981846,-0.12642278,0.22473368,-0.42936638,-0.2566608,-2.2593286,-1.0323216e-05,-4.388987e-05,-9.02562e-07,-4.366149e-05,3.8351707e-05,-0.00054207817,0.0,0.0,0.0,0.0,0.0,0.0,0.0,0.0,1.3956846e-07,1.802101e-05,1.801651e-05,0.0005660293,0.30472058,0.30456674,0.019066023,6.761963,6.7603827,0.15571594,2.094488e-11,2.0967485e-11,1.2635856e-10,3.746342e-06,3.7480631e-06,5.0000185e-08,0.0,0.0,0.0,0.0,0.0,0.0,0.0,0.0,24
42172000,42092000,0.99978286,-0.010332663,-0.008434676,0.01601485,-0.20493555,-0.14741795,0.1623808,-0.47288722,-0.29567274,-2.3135839,-1.0393913e-05,-4.3780048e-05,-8.958559e-07,-4.366149e-05,3.8351707e-05,-0.00047622848,0.0,0.0,0.0,0.0,0.0,0.0,0.0,0.0,1.4703548e-07,1.8376999e-05,1.8370134e-05,0.00059893716,0.3225891,0.32246256,0.018202748,6.793951,6.792525,0.14473617,2.0580902e-11,2.0605231e-11,1.268658e-10,3.746342e-06,3.7480631e-06,5.0000114e-08,0.0,0.0,0.0,0.0,0.0,0.0,0.0,0.0,24
43172000,43092000,0.99979204,-0.009722813,-0.0076944856,0.016194921,-0.20360994,-0.15134552,0.14508899,-0.5023659,-0.3335472,-2.3038127,-1.0470679e-05,-4.3660242e-05,-8.898902e-07,-4.366149e-05,3.8351707e-05,-0.00043856158,0.0,0.0,0.0,0.0,0.0,0.0,0.0,0.0,1.58359e-07,1.8472889e-05,1.8474237e-05,0.0006328692,0.3370122,0.33691055,0.018982586,6.8440437,6.8428106,0.15506205,2.009882e-11,2.012417e-11,1.2737496e-10,3.746342e-06,3.7480631e-06,5e-08,0.0,0.0,0.0,0.0,0.0,0.0,0.0,0.0,24
44172000,44092000,0.9998095,-0.007324078,-0.007871504,0.016292695,-0.19611011,-0.12930104,0.11453813,-0.51351357,-0.35118067,-2.354361,-1.0558704e-05,-4.3528744e-05,-8.8421126e-07,-4.366149e-05,3.8351707e-05,-0.00039154664,0.0,0.0,0.0,0.0,0.0,0.0,0.0,0.0,1.680854e-07,1.8351111e-05,1.8331386e-05,0.00066781056,0.34705606,0.3469837,0.018234307,6.8932915,6.8922787,0.14556511,1.9530249e-11,1.9555886e-11,1.2788533e-10,3.746342e-06,3.7480631e-06,5.000012e-08,0.0,0.0,0.0,0.0,0.0,0.0,0.0,0.0,24
45172000,45092000,0.99981064,-0.0064168912,-0.008650908,0.016205123,-0.18603843,-0.0874959,0.10250361,-0.54832053,-0.354436,-2.3462641,-1.06275875e-05,-4.3422093e-05,-8.8000525e-07,-4.366149e-05,3.8351707e-05,-0.0003651185,0.0,0.0,0.0,0.0,0.0,0.0,0.0,0.0,1.7485327e-07,1.856162e-05,1.852786e-05,0.0007037354,0.37020317,0.37014955,0.019034984,7.450773,7.4498262,0.1559788,1.914138e-11,1.9166781e-11,1.2839632e-10,3.746342e-06,3.7480631e-06,5.0000224e-08,0.0,0.0,0.0,0.0,0.0,0.0,0.0,0.0,24
46172000,46092000,0.9998108,-0.006738332,-0.009317236,0.015692843,-0.15608704,-0.05378246,0.07560524,-0.52106476,-0.3008127,-2.3909478,-1.0704674e-05,-4.3291137e-05,-8.75014e-07,-4.366149e-05,3.8351707e-05,-0.00032996814,0.0,0.0,0.0,0.0,0.0,0.0,0.0,0.0,1.7232189e-07,1.812218e-05,1.8086072e-05,0.00074066326,0.37152952,0.37149158,0.018195273,7.469336,7.4686117,0.14500207,1.8514352e-11,1.853912e-11,1.2890702e-10,3.746342e-06,3.7480631e-06,5.000022e-08,0.0,0.0,0.0,0.0,0.0,0.0,0.0,0.0,24
47172000,47092000,0.9998173,-0.0068173218,-0.008216734,0.015857194,-0.14207876,-0.047434103,0.06691059,-0.4808481,-0.2487895,-2.3904207,-1.0766754e-05,-4.3170203e-05,-8.706011e-07,-4.366149e-05,3.8351707e-05,-0.0003113473,0.0,0.0,0.0,0.0,0.0,0.0,0.0,0.0,1.8453315e-07,1.7562139e-05,1.7545473e-05,0.0007786084,0.36855763,0.36853382,0.018897727,7.454337,7.453805,0.15395243,1.790465e-11,1.792857e-11,1.294175e-10,3.746342e-06,3.7480631e-06,5.000004e-08,0.0,0.0,0.0,0.0,0.0,0.0,0.0,0.0,24
48172000,48092000,0.9998182,-0.0071158465,-0.008797812,0.015345107,-0.13623536,-0.04167411,0.051712137,-0.44434446,-0.20741485,-2.4297452,-1.0817241e-05,-4.3059925e-05,-8.6691176e-07,-4.366149e-05,3.8351707e-05,-0.00028497886,0.0,0.0,0.0,0.0,0.0,0.0,0.0,0.0,1.8101662e-07,1.6982991e-05,1.696433e-05,0.0008175542,0.36223978,0.36222744,0.018084677,7.4059396,7.40556,0.1434105,1.7338212e-11,1.736106e-11,1.2992789e-10,3.746342e-06,3.7480631e-06,5e-08,0.0,0.0,0.0,0.0,0.0,0.0,0.0,0.0,24
49172000,49092000,0.9998182,-0.006947509,-0.009563287,0.014965735,-0.13172968,-0.034200814,0.048563108,-0.4142403,-0.17546128,-2.429538,-1.0858308e-05,-4.2959622e-05,-8.6393226e-07,-4.366149e-05,3.8351707e-05,-0.000270912,0.0,0.0,0.0,0.0,0.0,0.0,0.0,0.0,1.8011049e-07,1.641053e-05,1.6379416e-05,0.0008575123,0.35364702,0.35364193,0.019050146,7.3281603,7.327903,0.15585524,1.6831451e-11,1.6852974e-11,1.3043801e-10,3.746342e-06,3.7480631e-06,5.0000146e-08,0.0,0.0,0.0,0.0,0.0,0.0,0.0,0.0,24
50172000,50092000,0.99982214,-0.00812936,-0.008336137,0.014839027,-0.08379756,0.028914858,0.080094844,-0.41288337,-0.15174302,-2.4680374,-1.0885499e-05,-4.2885942e-05,-8.6205773e-07,-4.366149e-05,3.8351707e-05,-0.0002489903,0.0,0.0,0.0,0.0,0.0,0.0,0.0,0.0,1.8511085e-07,1.6326938e-05,1.6334709e-05,0.0008984954,0.36238217,0.3623599,0.018192854,7.797162,7.796958,0.1448772,1.6576771e-11,1.6597064e-11,1.3094832e-10,3.746342e-06,3.7480631e-06,5.000015e-08,0.0,0.0,0.0,0.0,0.0,0.0,0.0,0.0,24
51172000,51092000,0.9994714,-0.026647083,0.010635766,0.0152910175,0.07734095,0.21722347,0.14007002,-0.2533937,0.03157999,-2.4531963,-1.0898888e-05,-4.2814016e-05,-8.604196e-07,-4.366149e-05,3.8351707e-05,-0.0002255593,0.0,0.0,0.0,0.0,0.0,0.0,0.0,0.0,2.1726686e-07,1.5818354e-05,1.6405105e-05,0.000939845,0.35098818,0.35086203,0.018982116,7.6670165,7.6667123,0.15523854,1.6191952e-11,1.621116e-11,1.3145847e-10,3.746342e-06,3.7480631e-06,5.0000036e-08,0.0,0.0,0.0,0.0,0.0,0.0,0.0,0.0,24
52172000,52092000,0.9998035,-0.0036216243,-0.012265328,0.015152225,0.27278206,0.44840425,0.30602118,-0.042677917,0.2793375,-2.5600865,-1.0861059e-05,-4.279042e-05,-8.5970225e-07,-4.366149e-05,3.8351707e-05,-0.00014000044,0.0,0.0,0.0,0.0,0.0,0.0,0.0,0.0,2.1035002e-07,1.5465512e-05,1.5300491e-05,0.0009834381,0.33882397,0.3384528,0.018250592,7.521798,7.5211787,0.14572814,1.5872423e-11,1.5892215e-11,1.3196852e-10,3.746342e-06,3.7480631e-06,5.000022e-08,0.0,0.0,0.0,0.0,0.0,0.0,0.0,0.0,24
53172000,53092000,0.9989989,0.02215538,-0.03517256,0.016537353,0.5719222,0.804656,0.54384756,0.3213379,0.7056798,-2.51792,-1.0745443e-05,-4.2838557e-05,-8.596443e-07,-4.366149e-05,3.8351707e-05,-3.64447e-05,0.0,0.0,0.0,0.0,0.0,0.0,0.0,0.0,2.865697e-07,1.6184546e-05,1.5346746e-05,0.001025788,0.32799923,0.32699028,0.019065756,7.3672924,7.3657184,0.15604515,1.5612556e-11,1.5635979e-11,1.3247155e-10,3.746342e-06,3.7480631e-06,5.0000146e-08,0.0,0.0,0.0,0.0,0.0,0.0,0.0,0.0,24
54172000,54092000,0.99885213,0.024960978,-0.036670852,0.018072909,0.63813406,0.92789155,0.54903233,0.7213403,1.1905243,-2.5309417,-1.050846e-05,-4.2996497e-05,-8.5969197e-07,-4.366149e-05,3.8351707e-05,0.00011542513,0.0,0.0,0.0,0.0,0.0,0.0,0.0,0.0,3.5818496e-07,1.5937585e-05,1.510768e-05,0.0010701896,0.31891918,0.3174062,0.018165868,7.2130237,7.2095623,0.14464955,1.5404292e-11,1.5436045e-11,1.329463e-10,3.746342e-06,3.7480631e-06,5.0000036e-08,0.0,0.0,0.0,0.0,0.0,0.0,0.0,0.0,24
55172000,55092000,0.9995547,0.008680922,-0.021142107,0.019191053,0.3086933,0.623427,0.31734425,0.9543465,1.5622531,-2.332365,-1.027744e-05,-4.315487e-05,-8.60114e-07,-4.366149e-05,3.8351707e-05,0.00018456552,0.0,0.0,0.0,0.0,0.0,0.0,0.0,0.0,3.969955e-07,1.5142257e-05,1.4761468e-05,0.0011170836,0.32709995,0.32616884,0.019055758,7.6071916,7.6013346,0.15667357,1.537174e-11,1.541288e-11,1.3340114e-10,3.746342e-06,3.7480631e-06,5.000022e-08,0.0,0.0,0.0,0.0,0.0,0.0,0.0,0.0,24
56172000,56092000,0.99975365,-0.0076828576,-0.0072866464,0.019506676,-0.33706173,-0.08034804,-0.12077194,0.6401518,1.3089435,-2.208735,-1.001795e-05,-4.3314958e-05,-8.6142745e-07,-4.366149e-05,3.8351707e-05,0.00017743143,0.0,0.0,0.0,0.0,0.0,0.0,0.0,0.0,4.2025502e-07,1.4563435e-05,1.471519e-05,0.0011637806,0.32233903,0.32272276,0.018204385,7.4539733,7.4490614,0.14512192,1.5236075e-11,1.5288583e-11,1.3384455e-10,3.746342e-06,3.7480631e-06,5.0000146e-08,0.0,0.0,0.0,0.0,0.0,0.0,0.0,0.0,24
57172000,57092000,0.9992639,-0.030262185,0.013290447,0.019480057,-1.0132184,-0.84724414,-0.58988327,-0.16010337,0.48798478,-2.1806684,-9.845036e-06,-4.338478e-05,-8.6225486e-07,-4.366149e-05,3.8351707e-05,7.410201e-05,0.0,0.0,0.0,0.0,0.0,0.0,0.0,0.0,4.4681414e-07,1.4649389e-05,1.5812646e-05,0.0012102224,0.3247412,0.32526717,0.019115156,7.3160553,7.315207,0.1553271,1.512949e-11,1.5187167e-11,1.3433599e-10,3.746342e-06,3.7480631e-06,5.0000036e-08,0.0,0.0,0.0,0.0,0.0,0.0,0.0,0.0,24
58172000,58092000,0.99904704,-0.03446018,0.01988105,0.017953197,-1.4806485,-1.3556482,-0.8167536,-1.2418953,-0.66557187,-2.1503437,-9.770662e-06,-4.335622e-05,-8.596606e-07,-4.366149e-05,3.8351707e-05,-0.00012679896,0.0,0.0,0.0,0.0,0.0,0.0,0.0,0.0,3.9909224e-07,1.4747868e-05,1.5989974e-05,0.0012585216,0.3279908,0.3280471,0.018330183,7.1995664,7.2024317,0.14433302,1.5044166e-11,1.5096086e-11,1.3481637e-10,3.746342e-06,3.7480631e-06,5.000007e-08,0.0,0.0,0.0,0.0,0.0,0.0,0.0,0.0,24
59172000,59092000,0.9991532,-0.03374823,0.017090634,0.016186891,-1.5005106,-1.3783458,-0.85582083,-2.1974323,-1.6912209,-2.3742676,-9.863673e-06,-4.315666e-05,-8.601999e-07,-4.366149e-05,3.8351707e-05,-0.0002966039,0.0,0.0,0.0,0.0,0.0,0.0,0.0,0.0,3.3361462e-07,1.4418528e-05,1.5701346e-05,0.001307121,0.32357395,0.3235232,0.01909193,7.0981345,7.1022663,0.1550978,1.4976732e-11,1.5011195e-11,1.3514302e-10,3.746342e-06,3.7480631e-06,5.000012e-08,0.0,0.0,0.0,0.0,0.0,0.0,0.0,0.0,24
60172000,60092000,0.999673,-0.020493194,0.0018690124,0.015180318,-1.0746554,-0.9792875,-0.6095035,-2.84601,-2.367838,-2.5017664,-1.00171565e-05,-4.2918073e-05,-8.611087e-07,-4.366149e-05,3.8351707e-05,-0.00045816763,0.0,0.0,0.0,0.0,0.0,0.0,0.0,0.0,2.897971e-07,1.4330507e-05,1.4905746e-05,0.0013565873,0.32743102,0.32707086,0.018148012,7.5206275,7.5244865,0.14433604,1.503616e-11,1.5050723e-11,1.353698e-10,3.746342e-06,3.7480631e-06,5.0000114e-08,0.0,0.0,0.0,0.0,0.0,0.0,0.0,0.0,24
61172000,61092000,0.9988065,0.023936555,-0.039614,0.015604867,-0.4153326,-0.32173958,-0.1793282,-2.6494222,-2.2427974,-2.7394319,-1.0363793e-05,-4.2471125e-05,-8.78129e-07,-4.366149e-05,3.8351707e-05,-0.000506679,0.0,0.0,0.0,0.0,0.0,0.0,0.0,0.0,3.408543e-07,1.6690312e-05,1.5014189e-05,0.0014014574,0.31423303,0.3141673,0.018940257,7.388563,7.3902974,0.15470004,1.4998412e-11,1.4986639e-11,1.354808e-10,3.746342e-06,3.7480631e-06,5e-08,0.0,0.0,0.0,0.0,0.0,0.0,0.0,0.0,24
62172000,62092000,0.999405,0.013451573,-0.027916703,0.015146506,0.19799237,0.32597962,0.14205655,-1.8894827,-1.5125363,-2.7884572,-1.066722e-05,-4.2081934e-05,-8.964609e-07,-4.366149e-05,3.8351707e-05,-0.00049535366,0.0,0.0,0.0,0.0,0.0,0.0,0.0,0.0,3.0983497e-07,1.5452377e-05,1.4398209e-05,0.0014529066,0.3071642,0.30728194,0.01816176,7.2424965,7.2433057,0.14371315,1.4972112e-11,1.4938842e-11,1.3572164e-10,3.746342e-06,3.7480631e-06,5.000004e-08,0.0,0.0,0.0,0.0,0.0,0.0,0.0,0.0,24
63172000,63092000,0.99976826,0.001424363,-0.015664078,0.014697056,0.38866827,0.52437633,0.34931648,-1.0506035,-0.67568886,-2.7228706,-1.0824591e-05,-4.1850963e-05,-9.070267e-07,-4.366149e-05,3.8351707e-05,-0.00044630296,0.0,0.0,0.0,0.0,0.0,0.0,0.0,0.0,2.8812218e-07,1.4570634e-05,1.4109195e-05,0.0015068466,0.3026276,0.30270228,0.019132134,7.1047516,7.105375,0.15613087,1.4951103e-11,1.490548e-11,1.3614142e-10,3.746342e-06,3.7480631e-06,5.0000224e-08,0.0,0.0,0.0,0.0,0.0,0.0,0.0,0.0,24
64172000,64092000,0.99982303,-0.006080369,-0.009444055,0.015093699,0.35614198,0.46892235,0.4243774,-0.44269323,-0.07899985,-2.6985102,-1.0832282e-05,-4.1779338e-05,-9.066821e-07,-4.366149e-05,3.8351707e-05,-0.00034814805,0.0,0.0,0.0,0.0,0.0,0.0,0.0,0.0,3.1317316e-07,1.4270749e-05,1.4138263e-05,0.001561908,0.2981928,0.29835242,0.018230373,6.980855,6.9812465,0.14506832,1.4931905e-11,1.4882264e-11,1.366421e-10,3.746342e-06,3.7480631e-06,5.000015e-08,0.0,0.0,0.0,0.0,0.0,0.0,0.0,0.0,24
65172000,65092000,0.99978733,-0.007827216,-0.011153403,0.0154855605,0.29837897,0.33950064,0.4864949,-0.07383354,0.26456144,-2.5778646,-1.0777692e-05,-4.1789663e-05,-9.004782e-07,-4.366149e-05,3.8351707e-05,-0.0002579062,0.0,0.0,0.0,0.0,0.0,0.0,0.0,0.0,3.4398406e-07,1.4657622e-05,1.4492559e-05,0.0016178433,0.30899963,0.30943865,0.019024426,7.375425,7.375846,0.15566416,1.502022e-11,1.4971493e-11,1.371528e-10,3.746342e-06,3.7480631e-06,5.000015e-08,0.0,0.0,0.0,0.0,0.0,0.0,0.0,0.0,24
66172000,66092000,0.99980354,-0.0049980665,-0.010645787,0.015954494,0.2564063,0.241225,0.4598238,0.16130418,0.39661768,-2.5498054,-1.0686624e-05,-4.1841417e-05,-8.89559e-07,-4.366149e-05,3.8351707e-05,-0.00013924864,0.0,0.0,0.0,0.0,0.0,0.0,0.0,0.0,3.80784e-07,1.4618688e-05,1.4409285e-05,0.0016749069,0.30605334,0.30658397,0.01813743,7.2610188,7.2619424,0.14440739,1.5003918e-11,1.4959268e-11,1.3765436e-10,3.746342e-06,3.7480631e-06,5.000004e-08,0.0,0.0,0.0,0.0,0.0,0.0,0.0,0.0,24
67172000,67092000,0.99978435,-0.005586824,-0.011580527,0.016307732,0.20469205,0.19012071,1.1093947,0.28707635,0.44453114,-1.9724368,-1.0603207e-05,-4.190248e-05,-8.7972035e-07,-4.366149e-05,3.8351707e-05,-5.019587e-05,0.0,0.0,0.0,0.0,0.0,0.0,0.0,0.0,4.1485723e-07,1.4642655e-05,1.44073465e-05,0.0017327615,0.29920045,0.2996021,0.018936818,7.145166,7.1466284,0.15472889,1.4988765e-11,1.4949937e-11,1.3814647e-10,3.746342e-06,3.7480631e-06,5e-08,0.0,0.0,0.0,0.0,0.0,0.0,0.0,0.0,24
68172000,68092000,0.9997805,-0.0050458563,-0.011135774,0.017015442,0.20433421,0.13533801,1.0306259,0.36089993,0.4351689,-1.3120441,-1.0525286e-05,-4.1972096e-05,-8.6980907e-07,-4.366149e-05,3.8351707e-05,5.4692417e-05,0.0,0.0,0.0,0.0,0.0,0.0,0.0,0.0,4.7096069e-07,1.4607477e-05,1.4388159e-05,0.0017916646,0.29800394,0.29848257,0.018220585,7.0372357,7.0392265,0.14539094,1.4975268e-11,1.4942884e-11,1.3863395e-10,3.746342e-06,3.7480631e-06,5.000026e-08,0.0,0.0,0.0,0.0,0.0,0.0,0.0,0.0,24
69172000,69092000,0.99976474,-0.005684489,-0.011143274,0.0177256,0.20825344,0.08329499,1.0020672,0.42203182,0.39186382,-0.5453073,-1.0460216e-05,-4.2043375e-05,-8.6248303e-07,-4.366149e-05,3.8351707e-05,0.0001224565,0.0,0.0,0.0,0.0,0.0,0.0,0.0,0.0,5.319157e-07,1.4588492e-05,1.439248e-05,0.0018515445,0.2969839,0.29750744,0.019034827,6.938873,6.9414864,0.15588437,1.4960842e-11,1.4935015e-11,1.3911997e-10,3.746342e-06,3.7480631e-06,5.000015e-08,0.0,0.0,0.0,0.0,0.0,0.0,0.0,0.0,24
70172000,70092000,0.999746,-0.006021759,-0.011599571,0.018361285,0.21234488,0.03628709,0.91494477,0.46978673,0.3230115,0.13367389,-1.0408839e-05,-4.212208e-05,-8.561217e-07,-4.366149e-05,3.8351707e-05,0.00019523493,0.0,0.0,0.0,0.0,0.0,0.0,0.0,0.0,5.930359e-07,1.4581114e-05,1.4383276e-05,0.001912465,0.2963978,0.29691923,0.018162185,6.8483872,6.85155,0.14463769,1.4943753e-11,1.4924208e-11,1.3960634e-10,3.746342e-06,3.7480631e-06,5e-08,0.0,0.0,0.0,0.0,0.0,0.0,0.0,0.0,24
71172000,71092000,0.999736,-0.0074267914,-0.010618944,0.018972842,0.2186979,-0.008225372,0.91636515,0.53409463,0.25659218,0.8079161,-1.0379396e-05,-4.2189204e-05,-8.5174344e-07,-4.366149e-05,3.8351707e-05,0.00021588895,0.0,0.0,0.0,0.0,0.0,0.0,0.0,0.0,6.561847e-07,1.4844663e-05,1.4743443e-05,0.0019746039,0.30989978,0.31039813,0.015717603,7.261006,7.264958,0.15452862,1.5030092e-11,1.5015154e-11,1.4009892e-10,3.746342e-06,3.7480631e-06,5.000227e-08,0.0,0.0,0.0,0.0,0.0,0.0,0.0,0.0,24
72172000,72092000,0.9997523,-0.008079809,-0.004975738,0.020134585,0.13403001,-0.04553478,1.3566912,0.5346741,0.1665086,1.2213302,-1.03711645e-05,-4.2278185e-05,-8.4483713e-07,-4.366149e-05,3.8351707e-05,0.00022951535,0.0,0.0,0.0,0.0,0.0,0.0,0.0,0.0,7.660035e-07,1.4617143e-05,1.4730479e-05,0.0020378253,0.30451077,0.3046289,0.012728363,7.166354,7.170086,0.13505055,1.5007474e-11,1.4997534e-11,1.4058843e-10,3.746342e-06,3.7480631e-06,5e-08,0.0,0.0,0.0,0.0,0.0,0.0,0.0,0.0,24
73172000,73092000,0.9997388,-0.005488896,-0.009001309,0.02028291,0.08677871,0.020172719,0.9007086,0.45690414,0.111623034,1.8239063,-1.0373924e-05,-4.2358355e-05,-8.388984e-07,-4.366149e-05,3.8351707e-05,0.00024726734,0.0,0.0,0.0,0.0,0.0,0.0,0.0,0.0,8.041984e-07,1.4689775e-05,1.4604301e-05,0.002102127,0.30582735,0.30588853,0.012143093,7.072861,7.07543,0.1381925,1.498477e-11,1.4978525e-11,1.410831e-10,3.746342e-06,3.7480631e-06,5.0000114e-08,0.0,0.0,0.0,0.0,0.0,0.0,0.0,0.0,24
74172000,74092000,0.9997406,-0.0053700483,-0.008835258,0.020293681,0.049535982,-0.009133518,0.6918164,0.3861492,0.09538949,1.738433,-1.0379834e-05,-4.242358e-05,-8.328075e-07,-4.366149e-05,3.8351707e-05,0.00025291732,0.0,0.0,0.0,0.0,0.0,0.0,0.0,0.0,8.3124394e-07,1.4625174e-05,1.45478425e-05,0.0021676354,0.3047837,0.30475116,0.010441092,6.989557,6.991182,0.12331706,1.4960156e-11,1.4956529e-11,1.4158359e-10,3.746342e-06,3.7480631e-06,5.0000185e-08,0.0,0.0,0.0,0.0,0.0,0.0,0.0,0.0,24
