timestamp,timestamp_sample,q[0],q[1],q[2],q[3],delta_q_reset[0],delta_q_reset[1],delta_q_reset[2],delta_q_reset[3],quat_reset_counter
3660000,3660000,0.68374956,0.0018634066,-0.015328002,0.72955346,1.0,0.0,0.0,0.0,0
3664000,3664000,0.68375045,0.0018497268,-0.015325519,0.7295527,1.0,0.0,0.0,0.0,0
3668000,3668000,0.68375134,0.0018374549,-0.015319976,0.729552,1.0,0.0,0.0,0.0,0
3676000,3676000,0.68499804,0.0017820311,-0.015314315,0.7283818,0.9999986,-9.313227e-10,-5.8207666e-10,-0.0017137232,1
3680000,3680000,0.68499404,0.0017676601,-0.015310634,0.7283857,0.9999986,-9.313227e-10,-5.8207666e-10,-0.0017137232,1
3684000,3684000,0.68499285,0.001750584,-0.015302885,0.728387,0.9999986,-9.313227e-10,-5.8207666e-10,-0.0017137232,1
3692000,3692000,0.6849931,0.0017211661,-0.015289022,0.7283871,0.9999986,-9.313227e-10,-5.8207666e-10,-0.0017137232,1
3696000,3696000,0.6849896,0.0017070911,-0.015279192,0.7283907,0.9999986,-9.313227e-10,-5.8207666e-10,-0.0017137232,1
3700000,3700000,0.6849845,0.0016884434,-0.015268749,0.72839576,0.9999986,-9.313227e-10,-5.8207666e-10,-0.0017137232,1
3708000,3708000,0.6849734,0.001657658,-0.01526146,0.7284063,0.9999986,-9.313227e-10,-5.8207666e-10,-0.0017137232,1
3716000,3716000,0.6849721,0.0016329418,-0.015246647,0.7284079,0.9999986,-9.313227e-10,-5.8207666e-10,-0.0017137232,1
3720000,3720000,0.684974,0.0016191149,-0.01523787,0.7284063,0.9999986,-9.313227e-10,-5.8207666e-10,-0.0017137232,1
3724000,3724000,0.68497443,0.0016050473,-0.01522232,0.7284063,0.9999986,-9.313227e-10,-5.8207666e-10,-0.0017137232,1
3728000,3728000,0.68497366,0.0015910489,-0.015209117,0.7284074,0.9999986,-9.313227e-10,-5.8207666e-10,-0.0017137232,1
3736000,3736000,0.6849693,0.0015598162,-0.01519577,0.7284118,0.9999986,-9.313227e-10,-5.8207666e-10,-0.0017137232,1
3740000,3740000,0.6849635,0.0015430783,-0.015188834,0.72841746,0.9999986,-9.313227e-10,-5.8207666e-10,-0.0017137232,1
3744000,3744000,0.68496454,0.0015256885,-0.0151805505,0.72841674,0.9999986,-9.313227e-10,-5.8207666e-10,-0.0017137232,1
3748000,3748000,0.68496627,0.0015101618,-0.015171078,0.7284153,0.9999986,-9.313227e-10,-5.8207666e-10,-0.0017137232,1
3756000,3756000,0.68496877,0.0014894777,-0.015159608,0.72841316,0.9999986,-9.313227e-10,-5.8207666e-10,-0.0017137232,1
3760000,3760000,0.6849721,0.0014785903,-0.015153633,0.72841024,0.9999986,-9.313227e-10,-5.8207666e-10,-0.0017137232,1
3764000,3764000,0.68497425,0.0014651017,-0.015149624,0.72840834,0.9999986,-9.313227e-10,-5.8207666e-10,-0.0017137232,1
3772000,3772000,0.6849792,0.0014546473,-0.015152624,0.7284037,0.9999986,-9.313227e-10,-5.8207666e-10,-0.0017137232,1
3776000,3776000,0.68498397,0.0014545685,-0.015155197,0.72839904,0.9999986,-9.313227e-10,-5.8207666e-10,-0.0017137232,1
3780000,3780000,0.6849892,0.0014518054,-0.01515597,0.7283941,0.9999986,-9.313227e-10,-5.8207666e-10,-0.0017137232,1
3784000,3784000,0.6849942,0.0014476986,-0.015156884,0.7283894,0.9999986,-9.313227e-10,-5.8207666e-10,-0.0017137232,1
3788000,3788000,0.6849985,0.0014398347,-0.01515867,0.7283854,0.9999986,-9.313227e-10,-5.8207666e-10,-0.0017137232,1
3792000,3792000,0.6850025,0.0014280016,-0.015161048,0.7283816,0.9999986,-9.313227e-10,-5.8207666e-10,-0.0017137232,1
3796000,3796000,0.68500525,0.0014187675,-0.01516297,0.72837895,0.9999986,-9.313227e-10,-5.8207666e-10,-0.0017137232,1
3800000,3800000,0.68500733,0.0014122599,-0.015163016,0.728377,0.9999986,-9.313227e-10,-5.8207666e-10,-0.0017137232,1
3804000,3804000,0.68501216,0.0014035272,-0.015162372,0.72837245,0.9999986,-9.313227e-10,-5.8207666e-10,-0.0017137232,1
3808000,3808000,0.68501604,0.0013992236,-0.015163556,0.7283688,0.9999986,-9.313227e-10,-5.8207666e-10,-0.0017137232,1
3812000,3812000,0.6850183,0.001400499,-0.01516344,0.7283667,0.9999986,-9.313227e-10,-5.8207666e-10,-0.0017137232,1
3820000,3820000,0.6850237,0.0014001309,-0.015167601,0.7283615,0.9999986,-9.313227e-10,-5.8207666e-10,-0.0017137232,1
3824000,3824000,0.6850254,0.0014031423,-0.015168819,0.7283599,0.9999986,-9.313227e-10,-5.8207666e-10,-0.0017137232,1
3828000,3828000,0.6850263,0.0014076433,-0.015169992,0.72835904,0.9999986,-9.313227e-10,-5.8207666e-10,-0.0017137232,1
3832000,3832000,0.68502736,0.001409061,-0.015178405,0.72835785,0.9999986,-9.313227e-10,-5.8207666e-10,-0.0017137232,1
3840000,3840000,0.68502975,0.0014163812,-0.015192773,0.72835535,0.9999986,-9.313227e-10,-5.8207666e-10,-0.0017137232,1
3844000,3844000,0.6850288,0.0014187898,-0.015196956,0.7283562,0.9999986,-9.313227e-10,-5.8207666e-10,-0.0017137232,1
3848000,3848000,0.68502843,0.0014253247,-0.015200533,0.7283564,0.9999986,-9.313227e-10,-5.8207666e-10,-0.0017137232,1
3852000,3852000,0.6850296,0.001434035,-0.015200274,0.7283553,0.9999986,-9.313227e-10,-5.8207666e-10,-0.0017137232,1
3856000,3856000,0.68503106,0.0014438888,-0.0152035,0.72835386,0.9999986,-9.313227e-10,-5.8207666e-10,-0.0017137232,1
3860000,3860000,0.6850324,0.0014527171,-0.015210148,0.72835237,0.9999986,-9.313227e-10,-5.8207666e-10,-0.0017137232,1
3864000,3864000,0.68503606,0.0014607067,-0.015215871,0.72834885,0.9999986,-9.313227e-10,-5.8207666e-10,-0.0017137232,1
3868000,3868000,0.6850416,0.0014664093,-0.015219401,0.7283435,0.9999986,-9.313227e-10,-5.8207666e-10,-0.0017137232,1
3872000,3872000,0.68504435,0.0014722382,-0.015221564,0.7283409,0.9999986,-9.313227e-10,-5.8207666e-10,-0.0017137232,1
3876000,3876000,0.6850435,0.0014802985,-0.015225168,0.7283416,0.9999986,-9.313227e-10,-5.8207666e-10,-0.0017137232,1
3880000,3880000,0.68505,0.0014872809,-0.015229299,0.7283354,0.9999986,-9.313227e-10,-5.8207666e-10,-0.0017137232,1
3884000,3884000,0.6850592,0.0014920848,-0.015234245,0.7283266,0.9999986,-9.313227e-10,-5.8207666e-10,-0.0017137232,1
3888000,3888000,0.6850694,0.0014982577,-0.01524184,0.7283169,0.9999986,-9.313227e-10,-5.8207666e-10,-0.0017137232,1
3892000,3892000,0.68507916,0.0015036464,-0.015248704,0.7283075,0.9999986,-9.313227e-10,-5.8207666e-10,-0.0017137232,1
3900000,3900000,0.6850932,0.0015161486,-0.015267694,0.7282939,0.9999986,-9.313227e-10,-5.8207666e-10,-0.0017137232,1
3908000,3908000,0.68510395,0.001536556,-0.015286015,0.7282834,0.9999986,-9.313227e-10,-5.8207666e-10,-0.0017137232,1
3912000,3912000,0.68511075,0.0015446696,-0.015295388,0.7282767,0.9999986,-9.313227e-10,-5.8207666e-10,-0.0017137232,1
3920000,3920000,0.68512344,0.0015503215,-0.015304969,0.7282646,0.9999986,-9.313227e-10,-5.8207666e-10,-0.0017137232,1
3924000,3924000,0.6851308,0.0015517252,-0.015307316,0.7282576,0.9999986,-9.313227e-10,-5.8207666e-10,-0.0017137232,1
3932000,3932000,0.6851472,0.0015638513,-0.015316404,0.728242,0.9999986,-9.313227e-10,-5.8207666e-10,-0.0017137232,1
3940000,3940000,0.6851635,0.0015753923,-0.015330126,0.72822624,0.9999986,-9.313227e-10,-5.8207666e-10,-0.0017137232,1
3944000,3944000,0.685162,0.0015782272,-0.015340311,0.7282275,0.9999986,-9.313227e-10,-5.8207666e-10,-0.0017137232,1
3948000,3948000,0.685162,0.001584037,-0.015348143,0.7282273,0.9999986,-9.313227e-10,-5.8207666e-10,-0.0017137232,1
3952000,3952000,0.685162,0.0015906788,-0.015354663,0.7282272,0.9999986,-9.313227e-10,-5.8207666e-10,-0.0017137232,1
3960000,3960000,0.6851592,0.0016017407,-0.015367968,0.7282295,0.9999986,-9.313227e-10,-5.8207666e-10,-0.0017137232,1
3964000,3964000,0.6851553,0.0016060905,-0.0153732505,0.7282331,0.9999986,-9.313227e-10,-5.8207666e-10,-0.0017137232,1
3968000,3968000,0.6851505,0.0016099124,-0.015383994,0.72823733,0.9999986,-9.313227e-10,-5.8207666e-10,-0.0017137232,1
3972000,3972000,0.68514967,0.0016130635,-0.015394752,0.7282379,0.9999986,-9.313227e-10,-5.8207666e-10,-0.0017137232,1
3976000,3976000,0.68514836,0.0016207319,-0.015404011,0.7282389,0.9999986,-9.313227e-10,-5.8207666e-10,-0.0017137232,1
3980000,3980000,0.6851447,0.001632937,-0.0154153975,0.7282421,0.9999986,-9.313227e-10,-5.8207666e-10,-0.0017137232,1
3984000,3984000,0.68513787,0.0016422337,-0.015431525,0.7282481,0.9999986,-9.313227e-10,-5.8207666e-10,-0.0017137232,1
3988000,3988000,0.68513036,0.0016465865,-0.015446676,0.72825485,0.9999986,-9.313227e-10,-5.8207666e-10,-0.0017137232,1
3992000,3992000,0.6851268,0.0016512353,-0.01545627,0.728258,0.9999986,-9.313227e-10,-5.8207666e-10,-0.0017137232,1
4000000,4000000,0.6851238,0.0016752387,-0.015473211,0.7282604,0.9999986,-9.313227e-10,-5.8207666e-10,-0.0017137232,1
4004000,4004000,0.685124,0.0016876289,-0.015487177,0.72825986,0.9999986,-9.313227e-10,-5.8207666e-10,-0.0017137232,1
4008000,4008000,0.685122,0.0016897508,-0.015500409,0.7282615,0.9999986,-9.313227e-10,-5.8207666e-10,-0.0017137232,1
4012000,4012000,0.6851186,0.0016871621,-0.015508511,0.7282645,0.9999986,-9.313227e-10,-5.8207666e-10,-0.0017137232,1
4020000,4020000,0.6851154,0.0017017868,-0.0155174965,0.72826725,0.9999986,-9.313227e-10,-5.8207666e-10,-0.0017137232,1
4028000,4028000,0.6851105,0.0017201261,-0.015541169,0.7282713,0.9999986,-9.313227e-10,-5.8207666e-10,-0.0017137232,1
4032000,4032000,0.68510956,0.0017245421,-0.015545982,0.7282721,0.9999986,-9.313227e-10,-5.8207666e-10,-0.0017137232,1
4036000,4036000,0.685109,0.0017322736,-0.015548056,0.72827256,0.9999986,-9.313227e-10,-5.8207666e-10,-0.0017137232,1
4040000,4040000,0.6851067,0.0017406644,-0.015550853,0.7282747,0.9999986,-9.313227e-10,-5.8207666e-10,-0.0017137232,1
4044000,4044000,0.6851009,0.0017444866,-0.015554549,0.72828007,0.9999986,-9.313227e-10,-5.8207666e-10,-0.0017137232,1
4048000,4048000,0.685096,0.0017471048,-0.015557878,0.72828454,0.9999986,-9.313227e-10,-5.8207666e-10,-0.0017137232,1
4052000,4052000,0.6850943,0.001752025,-0.015560379,0.72828615,0.9999986,-9.313227e-10,-5.8207666e-10,-0.0017137232,1
4056000,4056000,0.68509424,0.0017587884,-0.015563167,0.72828615,0.9999986,-9.313227e-10,-5.8207666e-10,-0.0017137232,1
4060000,4060000,0.68509364,0.0017690115,-0.015568484,0.7282865,0.9999986,-9.313227e-10,-5.8207666e-10,-0.0017137232,1
4064000,4064000,0.6850925,0.0017811848,-0.015573633,0.72828746,0.9999986,-9.313227e-10,-5.8207666e-10,-0.0017137232,1
4068000,4068000,0.685091,0.0017936918,-0.015577643,0.72828877,0.9999986,-9.313227e-10,-5.8207666e-10,-0.0017137232,1
4072000,4072000,0.685087,0.0018018165,-0.015579093,0.7282924,0.9999986,-9.313227e-10,-5.8207666e-10,-0.0017137232,1
4076000,4076000,0.68508124,0.0018030556,-0.015578498,0.7282978,0.9999986,-9.313227e-10,-5.8207666e-10,-0.0017137232,1
4084000,4084000,0.6850778,0.001807982,-0.015584623,0.728301,0.9999986,-9.313227e-10,-5.8207666e-10,-0.0017137232,1
4092000,4092000,0.685092,0.0018163958,-0.015584146,0.72828764,0.9999986,-9.313227e-10,-5.8207666e-10,-0.0017137232,1
4096000,4096000,0.68510175,0.0018192049,-0.015582928,0.7282785,0.9999986,-9.313227e-10,-5.8207666e-10,-0.0017137232,1
4100000,4100000,0.6851122,0.0018258403,-0.015583098,0.7282686,0.9999986,-9.313227e-10,-5.8207666e-10,-0.0017137232,1
4104000,4104000,0.68511957,0.0018357364,-0.015584228,0.72826165,0.9999986,-9.313227e-10,-5.8207666e-10,-0.0017137232,1
4108000,4108000,0.6851254,0.0018436828,-0.01558429,0.7282561,0.9999986,-9.313227e-10,-5.8207666e-10,-0.0017137232,1
4112000,4112000,0.6851306,0.0018507895,-0.015585051,0.72825116,0.9999986,-9.313227e-10,-5.8207666e-10,-0.0017137232,1
4116000,4116000,0.6851357,0.0018606345,-0.01558912,0.7282463,0.9999986,-9.313227e-10,-5.8207666e-10,-0.0017137232,1
4120000,4120000,0.6851429,0.0018719125,-0.015592599,0.7282394,0.9999986,-9.313227e-10,-5.8207666e-10,-0.0017137232,1
4124000,4124000,0.6851489,0.0018826398,-0.0155911995,0.72823375,0.9999986,-9.313227e-10,-5.8207666e-10,-0.0017137232,1
4128000,4128000,0.68515503,0.0018943745,-0.015588852,0.72822803,0.9999986,-9.313227e-10,-5.8207666e-10,-0.0017137232,1
4132000,4132000,0.6851627,0.0019028122,-0.015588484,0.7282208,0.9999986,-9.313227e-10,-5.8207666e-10,-0.0017137232,1
4136000,4136000,0.68516904,0.001903901,-0.015585919,0.7282149,0.9999986,-9.313227e-10,-5.8207666e-10,-0.0017137232,1
4144000,4144000,0.6851891,0.0019047887,-0.015585552,0.728196,0.9999986,-9.313227e-10,-5.8207666e-10,-0.0017137232,1
4148000,4148000,0.6852004,0.0019102866,-0.015590969,0.72818524,0.9999986,-9.313227e-10,-5.8207666e-10,-0.0017137232,1
4152000,4152000,0.68520904,0.0019161534,-0.015598542,0.72817695,0.9999986,-9.313227e-10,-5.8207666e-10,-0.0017137232,1
4156000,4156000,0.68521297,0.0019245209,-0.015604919,0.7281731,0.9999986,-9.313227e-10,-5.8207666e-10,-0.0017137232,1
4164000,4164000,0.6852425,0.00193472,-0.015611724,0.7281451,0.9999986,-9.313227e-10,-5.8207666e-10,-0.0017137232,1
4168000,4168000,0.6852618,0.0019365079,-0.015614749,0.7281269,0.9999986,-9.313227e-10,-5.8207666e-10,-0.0017137232,1
4172000,4172000,0.68527997,0.001942012,-0.01561691,0.7281097,0.9999986,-9.313227e-10,-5.8207666e-10,-0.0017137232,1
4176000,4176000,0.68529737,0.0019482535,-0.015618581,0.7280933,0.9999986,-9.313227e-10,-5.8207666e-10,-0.0017137232,1
4180000,4180000,0.68531674,0.0019545364,-0.015620247,0.7280751,0.9999986,-9.313227e-10,-5.8207666e-10,-0.0017137232,1
4184000,4184000,0.6853364,0.0019590997,-0.015626395,0.7280564,0.9999986,-9.313227e-10,-5.8207666e-10,-0.0017137232,1
4188000,4188000,0.6853538,0.0019614003,-0.015634125,0.7280398,0.9999986,-9.313227e-10,-5.8207666e-10,-0.0017137232,1
4192000,4192000,0.6853701,0.0019651693,-0.0156406,0.7280243,0.9999986,-9.313227e-10,-5.8207666e-10,-0.0017137232,1
4200000,4200000,0.6854042,0.0019768402,-0.015651083,0.727992,0.9999986,-9.313227e-10,-5.8207666e-10,-0.0017137232,1
4204000,4204000,0.6854197,0.0019820456,-0.015654799,0.7279773,0.9999986,-9.313227e-10,-5.8207666e-10,-0.0017137232,1
4208000,4208000,0.68543524,0.0019827767,-0.015658934,0.7279625,0.9999986,-9.313227e-10,-5.8207666e-10,-0.0017137232,1
4212000,4212000,0.6854505,0.001980511,-0.015663914,0.72794807,0.9999986,-9.313227e-10,-5.8207666e-10,-0.0017137232,1
4220000,4220000,0.68547666,0.0019838526,-0.01567307,0.7279233,0.9999986,-9.313227e-10,-5.8207666e-10,-0.0017137232,1
4224000,4224000,0.6855137,0.0019862766,-0.015678925,0.7278883,0.9999986,-9.313227e-10,-5.8207666e-10,-0.0017137232,1
4228000,4228000,0.685551,0.0019939784,-0.01568462,0.72785294,0.9999986,-9.313227e-10,-5.8207666e-10,-0.0017137232,1
4236000,4236000,0.68562436,0.002007957,-0.015684137,0.7277838,0.9999986,-9.313227e-10,-5.8207666e-10,-0.0017137232,1
4244000,4244000,0.68570083,0.0019958962,-0.015677452,0.72771186,0.9999986,-9.313227e-10,-5.8207666e-10,-0.0017137232,1
4248000,4248000,0.68573576,0.0019932252,-0.015675647,0.72767913,0.9999986,-9.313227e-10,-5.8207666e-10,-0.0017137232,1
4252000,4252000,0.685771,0.0019904955,-0.01567158,0.727646,0.9999986,-9.313227e-10,-5.8207666e-10,-0.0017137232,1
4256000,4256000,0.6858073,0.001992327,-0.015668232,0.72761184,0.9999986,-9.313227e-10,-5.8207666e-10,-0.0017137232,1
4260000,4260000,0.6858432,0.0019937628,-0.01566452,0.7275781,0.9999986,-9.313227e-10,-5.8207666e-10,-0.0017137232,1
4264000,4264000,0.68588024,0.0019903374,-0.015661418,0.7275432,0.9999986,-9.313227e-10,-5.8207666e-10,-0.0017137232,1
4268000,4268000,0.6859189,0.0019805573,-0.015658878,0.72750676,0.9999986,-9.313227e-10,-5.8207666e-10,-0.0017137232,1
4276000,4276000,0.6859891,0.0019511654,-0.015651941,0.7274409,0.9999986,-9.313227e-10,-5.8207666e-10,-0.0017137232,1
4280000,4280000,0.6860231,0.0019384357,-0.015646756,0.7274089,0.9999986,-9.313227e-10,-5.8207666e-10,-0.0017137232,1
4284000,4284000,0.6860556,0.0019272005,-0.015642283,0.72737837,0.9999986,-9.313227e-10,-5.8207666e-10,-0.0017137232,1
4292000,4292000,0.68611884,0.0019017756,-0.015626313,0.72731924,0.9999986,-9.313227e-10,-5.8207666e-10,-0.0017137232,1
4300000,4300000,0.686185,0.0018963871,-0.0156143345,0.7272571,0.9999986,-9.313227e-10,-5.8207666e-10,-0.0017137232,1
4304000,4304000,0.68622047,0.0018879737,-0.015612076,0.72722363,0.9999986,-9.313227e-10,-5.8207666e-10,-0.0017137232,1
4308000,4308000,0.6862588,0.0018754237,-0.015608051,0.72718763,0.9999986,-9.313227e-10,-5.8207666e-10,-0.0017137232,1
4316000,4316000,0.6863305,0.0018526578,-0.015593477,0.72712034,0.9999986,-9.313227e-10,-5.8207666e-10,-0.0017137232,1
4320000,4320000,0.68635845,0.0018445832,-0.015582865,0.7270942,0.9999986,-9.313227e-10,-5.8207666e-10,-0.0017137232,1
4324000,4324000,0.68638635,0.0018399075,-0.015572534,0.72706807,0.9999986,-9.313227e-10,-5.8207666e-10,-0.0017137232,1
4332000,4332000,0.6864411,0.0018257739,-0.015557151,0.7270167,0.9999986,-9.313227e-10,-5.8207666e-10,-0.0017137232,1
4336000,4336000,0.686468,0.0018204683,-0.015552352,0.7269914,0.9999986,-9.313227e-10,-5.8207666e-10,-0.0017137232,1
4340000,4340000,0.6864944,0.0018208334,-0.015548521,0.7269666,0.9999986,-9.313227e-10,-5.8207666e-10,-0.0017137232,1
4344000,4344000,0.6865184,0.0018230588,-0.015545882,0.726944,0.9999986,-9.313227e-10,-5.8207666e-10,-0.0017137232,1
4348000,4348000,0.68654317,0.0018200955,-0.015545651,0.7269206,0.9999986,-9.313227e-10,-5.8207666e-10,-0.0017137232,1
4356000,4356000,0.68659467,0.0017962122,-0.015535739,0.72687215,0.9999986,-9.313227e-10,-5.8207666e-10,-0.0017137232,1
4360000,4360000,0.6866128,0.0017917138,-0.015527573,0.72685534,0.9999986,-9.313227e-10,-5.8207666e-10,-0.0017137232,1
4364000,4364000,0.6866285,0.0017902198,-0.015520832,0.7268406,0.9999986,-9.313227e-10,-5.8207666e-10,-0.0017137232,1
4368000,4368000,0.68664086,0.0017864499,-0.015512125,0.7268292,0.9999986,-9.313227e-10,-5.8207666e-10,-0.0017137232,1
4372000,4372000,0.6866544,0.0017785962,-0.015504661,0.72681653,0.9999986,-9.313227e-10,-5.8207666e-10,-0.0017137232,1
4380000,4380000,0.686678,0.0017702876,-0.015505796,0.72679424,0.9999986,-9.313227e-10,-5.8207666e-10,-0.0017137232,1
4384000,4384000,0.6866878,0.0017652584,-0.015512262,0.72678477,0.9999986,-9.313227e-10,-5.8207666e-10,-0.0017137232,1
4388000,4388000,0.6867013,0.0017578102,-0.015510503,0.72677207,0.9999986,-9.313227e-10,-5.8207666e-10,-0.0017137232,1
4392000,4392000,0.6867147,0.0017526051,-0.015503628,0.72675955,0.9999986,-9.313227e-10,-5.8207666e-10,-0.0017137232,1
4396000,4396000,0.6867238,0.0017499977,-0.015498573,0.7267511,0.9999986,-9.313227e-10,-5.8207666e-10,-0.0017137232,1
4400000,4400000,0.68672943,0.0017490002,-0.015495205,0.72674584,0.9999986,-9.313227e-10,-5.8207666e-10,-0.0017137232,1
4404000,4404000,0.6867366,0.001745841,-0.015494157,0.72673917,0.9999986,-9.313227e-10,-5.8207666e-10,-0.0017137232,1
4408000,4408000,0.68674266,0.0017402136,-0.015495287,0.72673345,0.9999986,-9.313227e-10,-5.8207666e-10,-0.0017137232,1
4412000,4412000,0.6867491,0.0017371337,-0.015492954,0.7267274,0.9999986,-9.313227e-10,-5.8207666e-10,-0.0017137232,1
4420000,4420000,0.6867618,0.0017413605,-0.015488015,0.7267155,0.9999986,-9.313227e-10,-5.8207666e-10,-0.0017137232,1
4424000,4424000,0.6867659,0.0017426199,-0.015487066,0.72671163,0.9999986,-9.313227e-10,-5.8207666e-10,-0.0017137232,1
4428000,4428000,0.6867704,0.0017435004,-0.01548575,0.7267074,0.9999986,-9.313227e-10,-5.8207666e-10,-0.0017137232,1
4432000,4432000,0.6867755,0.0017441198,-0.015484209,0.72670263,0.9999986,-9.313227e-10,-5.8207666e-10,-0.0017137232,1
4436000,4436000,0.6867821,0.0017451379,-0.015482277,0.72669643,0.9999986,-9.313227e-10,-5.8207666e-10,-0.0017137232,1
4440000,4440000,0.686786,0.0017462218,-0.015482731,0.7266927,0.9999986,-9.313227e-10,-5.8207666e-10,-0.0017137232,1
4444000,4444000,0.6867881,0.0017416076,-0.015482975,0.7266907,0.9999986,-9.313227e-10,-5.8207666e-10,-0.0017137232,1
4448000,4448000,0.68679035,0.0017262835,-0.015469692,0.7266889,0.9999986,-9.313227e-10,-5.8207666e-10,-0.0017137232,1
4452000,4452000,0.6867929,0.001715893,-0.015457398,0.7266867,0.9999986,-9.313227e-10,-5.8207666e-10,-0.0017137232,1
4460000,4460000,0.68679273,0.0016959136,-0.015445518,0.7266872,0.9999986,-9.313227e-10,-5.8207666e-10,-0.0017137232,1
4464000,4464000,0.6867932,0.0016876383,-0.0154375695,0.726687,0.9999986,-9.313227e-10,-5.8207666e-10,-0.0017137232,1
4468000,4468000,0.6867933,0.001680367,-0.015425447,0.7266872,0.9999986,-9.313227e-10,-5.8207666e-10,-0.0017137232,1
4472000,4472000,0.68679243,0.0016752037,-0.015413916,0.72668827,0.9999986,-9.313227e-10,-5.8207666e-10,-0.0017137232,1
4476000,4476000,0.68678963,0.0016700417,-0.015403895,0.7266911,0.9999986,-9.313227e-10,-5.8207666e-10,-0.0017137232,1
4480000,4480000,0.6867853,0.0016632801,-0.015390605,0.72669554,0.9999986,-9.313227e-10,-5.8207666e-10,-0.0017137232,1
4484000,4484000,0.68678594,0.001658067,-0.015375003,0.72669524,0.9999986,-9.313227e-10,-5.8207666e-10,-0.0017137232,1
4488000,4488000,0.68678933,0.0016497433,-0.015361567,0.7266923,0.9999986,-9.313227e-10,-5.8207666e-10,-0.0017137232,1
4492000,4492000,0.6867897,0.0016380198,-0.015350117,0.7266923,0.9999986,-9.313227e-10,-5.8207666e-10,-0.0017137232,1
4496000,4496000,0.6867885,0.0016272009,-0.015340318,0.72669363,0.9999986,-9.313227e-10,-5.8207666e-10,-0.0017137232,1
4500000,4500000,0.6867873,0.0016179091,-0.015331231,0.726695,0.9999986,-9.313227e-10,-5.8207666e-10,-0.0017137232,1
4504000,4504000,0.6867882,0.0016116295,-0.015322205,0.7266943,0.9999986,-9.313227e-10,-5.8207666e-10,-0.0017137232,1
4508000,4508000,0.6867888,0.0016049339,-0.015312064,0.72669405,0.9999986,-9.313227e-10,-5.8207666e-10,-0.0017137232,1
4512000,4512000,0.6867892,0.0015944968,-0.015299881,0.72669387,0.9999986,-9.313227e-10,-5.8207666e-10,-0.0017137232,1
4520000,4520000,0.68678933,0.0015724878,-0.015273749,0.72669435,0.9999986,-9.313227e-10,-5.8207666e-10,-0.0017137232,1
4524000,4524000,0.68679166,0.0015662215,-0.015258892,0.7266925,0.9999986,-9.313227e-10,-5.8207666e-10,-0.0017137232,1
4528000,4528000,0.68679434,0.0015593384,-0.015247128,0.72669023,0.9999986,-9.313227e-10,-5.8207666e-10,-0.0017137232,1
4532000,4532000,0.68679506,0.0015543712,-0.01523795,0.72668976,0.9999986,-9.313227e-10,-5.8207666e-10,-0.0017137232,1
4536000,4536000,0.6867943,0.0015502716,-0.015227542,0.7266907,0.9999986,-9.313227e-10,-5.8207666e-10,-0.0017137232,1
4540000,4540000,0.6867951,0.0015409131,-0.0152165275,0.7266902,0.9999986,-9.313227e-10,-5.8207666e-10,-0.0017137232,1
4544000,4544000,0.68679905,0.0015307408,-0.015208451,0.7266866,0.9999986,-9.313227e-10,-5.8207666e-10,-0.0017137232,1
4548000,4548000,0.6868042,0.0015210647,-0.015203749,0.7266819,0.9999986,-9.313227e-10,-5.8207666e-10,-0.0017137232,1
4556000,4556000,0.68681073,0.0015081777,-0.015188302,0.72667605,0.9999986,-9.313227e-10,-5.8207666e-10,-0.0017137232,1
4560000,4560000,0.6868123,0.0015011063,-0.015174636,0.72667485,0.9999986,-9.313227e-10,-5.8207666e-10,-0.0017137232,1
4564000,4564000,0.6868146,0.001491533,-0.015165184,0.72667295,0.9999986,-9.313227e-10,-5.8207666e-10,-0.0017137232,1
4572000,4572000,0.6868215,0.0014679777,-0.015146636,0.72666687,0.9999986,-9.313227e-10,-5.8207666e-10,-0.0017137232,1
4576000,4576000,0.6868279,0.001453322,-0.015143585,0.72666085,0.9999986,-9.313227e-10,-5.8207666e-10,-0.0017137232,1
4580000,4580000,0.6868347,0.001441018,-0.015143484,0.7266545,0.9999986,-9.313227e-10,-5.8207666e-10,-0.0017137232,1
4584000,4584000,0.6868424,0.0014311376,-0.015141337,0.7266473,0.9999986,-9.313227e-10,-5.8207666e-10,-0.0017137232,1
4588000,4588000,0.6868509,0.0014189087,-0.0151354885,0.72663933,0.9999986,-9.313227e-10,-5.8207666e-10,-0.0017137232,1
4592000,4592000,0.6868587,0.00140653,-0.015131055,0.72663206,0.9999986,-9.313227e-10,-5.8207666e-10,-0.0017137232,1
4596000,4596000,0.6868649,0.0013968071,-0.015128433,0.7266263,0.9999986,-9.313227e-10,-5.8207666e-10,-0.0017137232,1
4600000,4600000,0.68687,0.0013887299,-0.015124534,0.72662157,0.9999986,-9.313227e-10,-5.8207666e-10,-0.0017137232,1
4608000,4608000,0.68687546,0.0013772417,-0.015118389,0.72661656,0.9999986,-9.313227e-10,-5.8207666e-10,-0.0017137232,1
4612000,4612000,0.68687814,0.0013742871,-0.015117256,0.72661406,0.9999986,-9.313227e-10,-5.8207666e-10,-0.0017137232,1
4616000,4616000,0.68688166,0.0013726681,-0.0151159745,0.7266108,0.9999986,-9.313227e-10,-5.8207666e-10,-0.0017137232,1
4620000,4620000,0.68688554,0.0013688621,-0.015117014,0.7266071,0.9999986,-9.313227e-10,-5.8207666e-10,-0.0017137232,1
4624000,4624000,0.68689054,0.0013682215,-0.015116689,0.7266023,0.9999986,-9.313227e-10,-5.8207666e-10,-0.0017137232,1
4628000,4628000,0.68689483,0.0013696753,-0.015111031,0.7265984,0.9999986,-9.313227e-10,-5.8207666e-10,-0.0017137232,1
4636000,4636000,0.68690014,0.0013582115,-0.015103918,0.7265936,0.9999986,-9.313227e-10,-5.8207666e-10,-0.0017137232,1
4644000,4644000,0.68692577,0.0013498964,-0.015107232,0.72656935,0.9999986,-9.313227e-10,-5.8207666e-10,-0.0017137232,1
4652000,4652000,0.686946,0.0013386771,-0.015112412,0.7265501,0.9999986,-9.313227e-10,-5.8207666e-10,-0.0017137232,1
4660000,4660000,0.6869726,0.0013152447,-0.015083287,0.7265256,0.9999986,-9.313227e-10,-5.8207666e-10,-0.0017137232,1
4664000,4664000,0.6869863,0.0013052959,-0.015071878,0.7265129,0.9999986,-9.313227e-10,-5.8207666e-10,-0.0017137232,1
4668000,4668000,0.6869985,0.0012968419,-0.015061185,0.7265017,0.9999986,-9.313227e-10,-5.8207666e-10,-0.0017137232,1
4672000,4672000,0.68701005,0.0012876109,-0.015051987,0.726491,0.9999986,-9.313227e-10,-5.8207666e-10,-0.0017137232,1
4676000,4676000,0.6870212,0.0012750574,-0.01504552,0.72648054,0.9999986,-9.313227e-10,-5.8207666e-10,-0.0017137232,1
4680000,4680000,0.68703026,0.0012631078,-0.015038221,0.7264721,0.9999986,-9.313227e-10,-5.8207666e-10,-0.0017137232,1
4684000,4684000,0.6870378,0.0012545035,-0.015030456,0.72646517,0.9999986,-9.313227e-10,-5.8207666e-10,-0.0017137232,1
4688000,4688000,0.6870472,0.0012449741,-0.015020336,0.7264565,0.9999986,-9.313227e-10,-5.8207666e-10,-0.0017137232,1
4692000,4692000,0.68705773,0.001234224,-0.015006105,0.72644687,0.9999986,-9.313227e-10,-5.8207666e-10,-0.0017137232,1
4696000,4696000,0.687067,0.0012256206,-0.014993939,0.7264384,0.9999986,-9.313227e-10,-5.8207666e-10,-0.0017137232,1
4700000,4700000,0.6870777,0.0012160143,-0.014985189,0.72642845,0.9999986,-9.313227e-10,-5.8207666e-10,-0.0017137232,1
4708000,4708000,0.68710166,0.0011932756,-0.014959908,0.72640634,0.9999986,-9.313227e-10,-5.8207666e-10,-0.0017137232,1
4712000,4712000,0.68711156,0.0011869812,-0.0149491895,0.7263972,0.9999986,-9.313227e-10,-5.8207666e-10,-0.0017137232,1
4716000,4716000,0.6871206,0.0011807756,-0.014942235,0.72638875,0.9999986,-9.313227e-10,-5.8207666e-10,-0.0017137232,1
4720000,4720000,0.6871288,0.0011717574,-0.014937767,0.7263811,0.9999986,-9.313227e-10,-5.8207666e-10,-0.0017137232,1
4724000,4724000,0.6871358,0.0011627572,-0.014934808,0.7263746,0.9999986,-9.313227e-10,-5.8207666e-10,-0.0017137232,1
4728000,4728000,0.6871427,0.0011580054,-0.014930716,0.7263681,0.9999986,-9.313227e-10,-5.8207666e-10,-0.0017137232,1
4732000,4732000,0.68715006,0.0011528331,-0.014924753,0.7263613,0.9999986,-9.313227e-10,-5.8207666e-10,-0.0017137232,1
4736000,4736000,0.6871543,0.0011447011,-0.014918969,0.7263574,0.9999986,-9.313227e-10,-5.8207666e-10,-0.0017137232,1
4740000,4740000,0.68715787,0.0011356543,-0.014907937,0.72635424,0.9999986,-9.313227e-10,-5.8207666e-10,-0.0017137232,1
4744000,4744000,0.68716335,0.0011266955,-0.014895515,0.7263494,0.9999986,-9.313227e-10,-5.8207666e-10,-0.0017137232,1
4748000,4748000,0.6871707,0.0011172114,-0.014889885,0.7263426,0.9999986,-9.313227e-10,-5.8207666e-10,-0.0017137232,1
4752000,4752000,0.68717635,0.0011100887,-0.0148865525,0.7263373,0.9999986,-9.313227e-10,-5.8207666e-10,-0.0017137232,1
4756000,4756000,0.6871793,0.0011058801,-0.014881635,0.72633463,0.9999986,-9.313227e-10,-5.8207666e-10,-0.0017137232,1
4760000,4760000,0.6871834,0.0011028905,-0.014877143,0.7263309,0.9999986,-9.313227e-10,-5.8207666e-10,-0.0017137232,1
4764000,4764000,0.6871902,0.0010973106,-0.014872344,0.72632456,0.9999986,-9.313227e-10,-5.8207666e-10,-0.0017137232,1
4768000,4768000,0.68719697,0.0010891255,-0.014867309,0.7263182,0.9999986,-9.313227e-10,-5.8207666e-10,-0.0017137232,1
4772000,4772000,0.68720347,0.0010805248,-0.014861154,0.7263122,0.9999986,-9.313227e-10,-5.8207666e-10,-0.0017137232,1
4776000,4776000,0.6872056,0.0010730046,-0.014854709,0.7263103,0.9999986,-9.313227e-10,-5.8207666e-10,-0.0017137232,1
4780000,4780000,0.6872058,0.0010704114,-0.0148507655,0.72631025,0.9999986,-9.313227e-10,-5.8207666e-10,-0.0017137232,1
4788000,4788000,0.6872207,0.0010633204,-0.014844627,0.72629625,0.9999986,-9.313227e-10,-5.8207666e-10,-0.0017137232,1
4796000,4796000,0.6872323,0.0010458699,-0.01483255,0.7262855,0.9999986,-9.313227e-10,-5.8207666e-10,-0.0017137232,1
4800000,4800000,0.687239,0.0010412021,-0.014828927,0.72627926,0.9999986,-9.313227e-10,-5.8207666e-10,-0.0017137232,1
4804000,4804000,0.68724614,0.001037682,-0.01482565,0.72627264,0.9999986,-9.313227e-10,-5.8207666e-10,-0.0017137232,1
4808000,4808000,0.6872513,0.0010341528,-0.014823198,0.7262678,0.9999986,-9.313227e-10,-5.8207666e-10,-0.0017137232,1
4816000,4816000,0.6872544,0.0010201716,-0.014818559,0.72626495,0.9999986,-9.313227e-10,-5.8207666e-10,-0.0017137232,1
4820000,4820000,0.68725383,0.0010171968,-0.01481315,0.7262656,0.9999986,-9.313227e-10,-5.8207666e-10,-0.0017137232,1
4824000,4824000,0.6872541,0.0010161696,-0.014809632,0.7262655,0.9999986,-9.313227e-10,-5.8207666e-10,-0.0017137232,1
4828000,4828000,0.6872542,0.0010189897,-0.014809019,0.7262654,0.9999986,-9.313227e-10,-5.8207666e-10,-0.0017137232,1
4836000,4836000,0.6872654,0.001025656,-0.014811599,0.72625476,0.9999986,-9.313227e-10,-5.8207666e-10,-0.0017137232,1
4840000,4840000,0.6872734,0.0010263838,-0.014814101,0.72624713,0.9999986,-9.313227e-10,-5.8207666e-10,-0.0017137232,1
4844000,4844000,0.68728065,0.0010262807,-0.014814367,0.7262402,0.9999986,-9.313227e-10,-5.8207666e-10,-0.0017137232,1
4852000,4852000,0.6872831,0.0010182352,-0.014818115,0.72623783,0.9999986,-9.313227e-10,-5.8207666e-10,-0.0017137232,1
4856000,4856000,0.6872906,0.0010117643,-0.014819273,0.7262307,0.9999986,-9.313227e-10,-5.8207666e-10,-0.0017137232,1
4864000,4864000,0.68730944,0.001002879,-0.014814843,0.726213,0.9999986,-9.313227e-10,-5.8207666e-10,-0.0017137232,1
4868000,4868000,0.6873161,0.0009965639,-0.014807859,0.7262068,0.9999986,-9.313227e-10,-5.8207666e-10,-0.0017137232,1
4876000,4876000,0.68734115,0.0009879471,-0.014790134,0.72618353,0.9999986,-9.313227e-10,-5.8207666e-10,-0.0017137232,1
4880000,4880000,0.6873582,0.0009886337,-0.014780039,0.7261676,0.9999986,-9.313227e-10,-5.8207666e-10,-0.0017137232,1
4884000,4884000,0.6873702,0.0009862271,-0.014770784,0.72615635,0.9999986,-9.313227e-10,-5.8207666e-10,-0.0017137232,1
4888000,4888000,0.6873778,0.0009847353,-0.014763225,0.7261494,0.9999986,-9.313227e-10,-5.8207666e-10,-0.0017137232,1
4892000,4892000,0.687385,0.0009832355,-0.014755664,0.7261427,0.9999986,-9.313227e-10,-5.8207666e-10,-0.0017137232,1
4900000,4900000,0.6874,0.0009741763,-0.014733271,0.72612894,0.9999986,-9.313227e-10,-5.8207666e-10,-0.0017137232,1
4904000,4904000,0.68740845,0.0009710445,-0.014724826,0.7261211,0.9999986,-9.313227e-10,-5.8207666e-10,-0.0017137232,1
4908000,4908000,0.6874157,0.00096612034,-0.014720576,0.72611433,0.9999986,-9.313227e-10,-5.8207666e-10,-0.0017137232,1
4912000,4912000,0.6874209,0.000964343,-0.014717127,0.7261095,0.9999986,-9.313227e-10,-5.8207666e-10,-0.0017137232,1
4916000,4916000,0.6874264,0.00096780254,-0.014712028,0.7261044,0.9999986,-9.313227e-10,-5.8207666e-10,-0.0017137232,1
4924000,4924000,0.6874343,0.0009648339,-0.014691024,0.72609735,0.9999986,-9.313227e-10,-5.8207666e-10,-0.0017137232,1
4932000,4932000,0.68749326,0.00095974235,-0.014677074,0.72604185,0.9999986,-9.313227e-10,-5.8207666e-10,-0.0017137232,1
4936000,4936000,0.68752396,0.000956822,-0.014665661,0.726013,0.9999986,-9.313227e-10,-5.8207666e-10,-0.0017137232,1
4940000,4940000,0.68755585,0.0009519916,-0.014652415,0.7259831,0.9999986,-9.313227e-10,-5.8207666e-10,-0.0017137232,1
4944000,4944000,0.6875883,0.00094802206,-0.014639202,0.7259527,0.9999986,-9.313227e-10,-5.8207666e-10,-0.0017137232,1
4952000,4952000,0.6876474,0.00093889685,-0.014612801,0.7258972,0.9999986,-9.313227e-10,-5.8207666e-10,-0.0017137232,1
4956000,4956000,0.6876814,0.0009389563,-0.014605872,0.7258651,0.9999986,-9.313227e-10,-5.8207666e-10,-0.0017137232,1
4960000,4960000,0.68772054,0.00093962275,-0.014601916,0.7258281,0.9999986,-9.313227e-10,-5.8207666e-10,-0.0017137232,1
4968000,4968000,0.68778855,0.0009467549,-0.014591938,0.72576386,0.9999986,-9.313227e-10,-5.8207666e-10,-0.0017137232,1
4972000,4972000,0.6878221,0.00095026195,-0.014584485,0.7257322,0.9999986,-9.313227e-10,-5.8207666e-10,-0.0017137232,1
4980000,4980000,0.68789124,0.0009423418,-0.014571401,0.72566694,0.9999986,-9.313227e-10,-5.8207666e-10,-0.0017137232,1
4984000,4984000,0.6879241,0.0009415863,-0.01455987,0.725636,0.9999986,-9.313227e-10,-5.8207666e-10,-0.0017137232,1
4988000,4988000,0.6879577,0.00094571005,-0.014547077,0.7256044,0.9999986,-9.313227e-10,-5.8207666e-10,-0.0017137232,1
4992000,4992000,0.68798995,0.0009505625,-0.0145353805,0.7255741,0.9999986,-9.313227e-10,-5.8207666e-10,-0.0017137232,1
4996000,4996000,0.688021,0.0009587898,-0.014523971,0.72554487,0.9999986,-9.313227e-10,-5.8207666e-10,-0.0017137232,1
5000000,5000000,0.6880529,0.0009674826,-0.014517046,0.7255147,0.9999986,-9.313227e-10,-5.8207666e-10,-0.0017137232,1
5004000,5004000,0.68808675,0.0009733024,-0.014513965,0.72548264,0.9999986,-9.313227e-10,-5.8207666e-10,-0.0017137232,1
5008000,5008000,0.68812346,0.000981041,-0.014511555,0.7254479,0.9999986,-9.313227e-10,-5.8207666e-10,-0.0017137232,1
5012000,5012000,0.68816173,0.0009891375,-0.014507251,0.72541165,0.9999986,-9.313227e-10,-5.8207666e-10,-0.0017137232,1
5020000,5020000,0.6882249,0.0009860821,-0.014493063,0.725352,0.9999986,-9.313227e-10,-5.8207666e-10,-0.0017137232,1
5028000,5028000,0.6882849,0.0009808192,-0.01448338,0.7252953,0.9999986,-9.313227e-10,-5.8207666e-10,-0.0017137232,1
5036000,5036000,0.6883389,0.0009812135,-0.014464429,0.7252444,0.9999986,-9.313227e-10,-5.8207666e-10,-0.0017137232,1
5044000,5044000,0.6883928,0.0009837855,-0.01444304,0.7251936,0.9999986,-9.313227e-10,-5.8207666e-10,-0.0017137232,1
5052000,5052000,0.6884454,0.0009862924,-0.014435438,0.7251439,0.9999986,-9.313227e-10,-5.8207666e-10,-0.0017137232,1
5056000,5056000,0.68846565,0.0009872471,-0.014432497,0.7251247,0.9999986,-9.313227e-10,-5.8207666e-10,-0.0017137232,1
5060000,5060000,0.6884894,0.0009890238,-0.014429531,0.72510225,0.9999986,-9.313227e-10,-5.8207666e-10,-0.0017137232,1
5064000,5064000,0.68851525,0.000990371,-0.014423449,0.72507775,0.9999986,-9.313227e-10,-5.8207666e-10,-0.0017137232,1
5068000,5068000,0.6885392,0.0009938801,-0.014415052,0.72505516,0.9999986,-9.313227e-10,-5.8207666e-10,-0.0017137232,1
5072000,5072000,0.68853194,0.0010038563,-0.014404333,0.7250623,0.9999986,-9.313227e-10,-5.8207666e-10,-0.0017137232,1
5076000,5076000,0.6885239,0.0010093775,-0.014396744,0.72507006,0.9999986,-9.313227e-10,-5.8207666e-10,-0.0017137232,1
5080000,5080000,0.6885148,0.0010127057,-0.014391673,0.7250788,0.9999986,-9.313227e-10,-5.8207666e-10,-0.0017137232,1
5084000,5084000,0.68850607,0.0010168334,-0.014388085,0.72508717,0.9999986,-9.313227e-10,-5.8207666e-10,-0.0017137232,1
5088000,5088000,0.6884951,0.0010209472,-0.01438468,0.72509766,0.9999986,-9.313227e-10,-5.8207666e-10,-0.0017137232,1
5092000,5092000,0.6884837,0.0010261341,-0.0143793635,0.72510856,0.9999986,-9.313227e-10,-5.8207666e-10,-0.0017137232,1
5100000,5100000,0.68845844,0.0010400914,-0.014361431,0.7251329,0.9999986,-9.313227e-10,-5.8207666e-10,-0.0017137232,1
5104000,5104000,0.6884469,0.0010485885,-0.014356682,0.7251439,0.9999986,-9.313227e-10,-5.8207666e-10,-0.0017137232,1
5108000,5108000,0.68843496,0.0010611116,-0.014347685,0.7251554,0.9999986,-9.313227e-10,-5.8207666e-10,-0.0017137232,1
5112000,5112000,0.688421,0.0010720829,-0.014337352,0.7251689,0.9999986,-9.313227e-10,-5.8207666e-10,-0.0017137232,1
5116000,5116000,0.68840706,0.0010793679,-0.014330128,0.7251823,0.9999986,-9.313227e-10,-5.8207666e-10,-0.0017137232,1
5120000,5120000,0.68839145,0.0010881408,-0.014322224,0.7251972,0.9999986,-9.313227e-10,-5.8207666e-10,-0.0017137232,1
5124000,5124000,0.6883762,0.0010995468,-0.014313876,0.7252118,0.9999986,-9.313227e-10,-5.8207666e-10,-0.0017137232,1
5128000,5128000,0.6883629,0.0011069321,-0.01430761,0.72522455,0.9999986,-9.313227e-10,-5.8207666e-10,-0.0017137232,1
5132000,5132000,0.68835044,0.0011079621,-0.014302639,0.7252365,0.9999986,-9.313227e-10,-5.8207666e-10,-0.0017137232,1
5140000,5140000,0.68831795,0.0011023133,-0.014289301,0.7252676,0.9999986,-9.313227e-10,-5.8207666e-10,-0.0017137232,1
5144000,5144000,0.68829817,0.0011037396,-0.014281829,0.72528654,0.9999986,-9.313227e-10,-5.8207666e-10,-0.0017137232,1
5148000,5148000,0.6882795,0.0011108455,-0.014274584,0.72530437,0.9999986,-9.313227e-10,-5.8207666e-10,-0.0017137232,1
5152000,5152000,0.68825865,0.0011179241,-0.01426664,0.7253242,0.9999986,-9.313227e-10,-5.8207666e-10,-0.0017137232,1
5156000,5156000,0.68823403,0.0011229755,-0.014256118,0.7253478,0.9999986,-9.313227e-10,-5.8207666e-10,-0.0017137232,1
5160000,5160000,0.6882071,0.001132263,-0.0142480405,0.7253735,0.9999986,-9.313227e-10,-5.8207666e-10,-0.0017137232,1
5164000,5164000,0.6881801,0.0011423628,-0.014242202,0.7253992,0.9999986,-9.313227e-10,-5.8207666e-10,-0.0017137232,1
5168000,5168000,0.68815374,0.0011461128,-0.014235309,0.7254244,0.9999986,-9.313227e-10,-5.8207666e-10,-0.0017137232,1
5172000,5172000,0.6881281,0.0011499571,-0.014231426,0.7254488,0.9999986,-9.313227e-10,-5.8207666e-10,-0.0017137232,1
5180000,5180000,0.6880869,0.0011602574,-0.014224129,0.725488,0.9999986,-9.313227e-10,-5.8207666e-10,-0.0017137232,1
5184000,5184000,0.68806535,0.0011605282,-0.01421937,0.7255086,0.9999986,-9.313227e-10,-5.8207666e-10,-0.0017137232,1
5188000,5188000,0.6880422,0.0011629676,-0.014212295,0.7255306,0.9999986,-9.313227e-10,-5.8207666e-10,-0.0017137232,1
5192000,5192000,0.6880198,0.0011669011,-0.014202802,0.72555196,0.9999986,-9.313227e-10,-5.8207666e-10,-0.0017137232,1
5200000,5200000,0.6879856,0.0011723398,-0.01418262,0.7255848,0.9999986,-9.313227e-10,-5.8207666e-10,-0.0017137232,1
5204000,5204000,0.687974,0.0011782034,-0.014179723,0.7255959,0.9999986,-9.313227e-10,-5.8207666e-10,-0.0017137232,1
5208000,5208000,0.6879594,0.0011844853,-0.0141793275,0.7256097,0.9999986,-9.313227e-10,-5.8207666e-10,-0.0017137232,1
5212000,5212000,0.68793863,0.0011875343,-0.014175258,0.72562945,0.9999986,-9.313227e-10,-5.8207666e-10,-0.0017137232,1
5216000,5216000,0.68791926,0.001187799,-0.014166989,0.725648,0.9999986,-9.313227e-10,-5.8207666e-10,-0.0017137232,1
5220000,5220000,0.6879034,0.0011891706,-0.014155298,0.72566324,0.9999986,-9.313227e-10,-5.8207666e-10,-0.0017137232,1
5224000,5224000,0.6878916,0.0011944531,-0.014144867,0.7256747,0.9999986,-9.313227e-10,-5.8207666e-10,-0.0017137232,1
5228000,5228000,0.68788004,0.0012024686,-0.014137751,0.7256857,0.9999986,-9.313227e-10,-5.8207666e-10,-0.0017137232,1
5232000,5232000,0.6878691,0.0012059723,-0.014129865,0.72569627,0.9999986,-9.313227e-10,-5.8207666e-10,-0.0017137232,1
5236000,5236000,0.68785465,0.0012048909,-0.014122105,0.72571003,0.9999986,-9.313227e-10,-5.8207666e-10,-0.0017137232,1
5244000,5244000,0.6878288,0.0012029557,-0.014111565,0.7257348,0.9999986,-9.313227e-10,-5.8207666e-10,-0.0017137232,1
5248000,5248000,0.6878193,0.0012031526,-0.014103844,0.72574395,0.9999986,-9.313227e-10,-5.8207666e-10,-0.0017137232,1
5252000,5252000,0.6878113,0.0012053121,-0.0140979495,0.72575164,0.9999986,-9.313227e-10,-5.8207666e-10,-0.0017137232,1
5256000,5256000,0.687803,0.0012083035,-0.014093369,0.72575957,0.9999986,-9.313227e-10,-5.8207666e-10,-0.0017137232,1
5260000,5260000,0.6877947,0.0012087305,-0.014091496,0.7257675,0.9999986,-9.313227e-10,-5.8207666e-10,-0.0017137232,1
5264000,5264000,0.6877899,0.0012056016,-0.014092542,0.72577196,0.9999986,-9.313227e-10,-5.8207666e-10,-0.0017137232,1
5268000,5268000,0.6877848,0.0012072481,-0.014089318,0.725777,0.9999986,-9.313227e-10,-5.8207666e-10,-0.0017137232,1
5272000,5272000,0.68777966,0.0012141381,-0.014081984,0.725782,0.9999986,-9.313227e-10,-5.8207666e-10,-0.0017137232,1
5276000,5276000,0.68777376,0.0012184691,-0.014078111,0.72578764,0.9999986,-9.313227e-10,-5.8207666e-10,-0.0017137232,1
5280000,5280000,0.68776864,0.0012239913,-0.014077715,0.7257925,0.9999986,-9.313227e-10,-5.8207666e-10,-0.0017137232,1
5288000,5288000,0.68776447,0.001242852,-0.014071585,0.72579646,0.9999986,-9.313227e-10,-5.8207666e-10,-0.0017137232,1
5292000,5292000,0.68776554,0.0012495358,-0.014070554,0.72579545,0.9999986,-9.313227e-10,-5.8207666e-10,-0.0017137232,1
5300000,5300000,0.6877727,0.0012530712,-0.014066376,0.7257888,0.9999986,-9.313227e-10,-5.8207666e-10,-0.0017137232,1
5304000,5304000,0.68777627,0.0012557774,-0.014057789,0.72578555,0.9999986,-9.313227e-10,-5.8207666e-10,-0.0017137232,1
5308000,5308000,0.6877798,0.0012596636,-0.014051053,0.72578233,0.9999986,-9.313227e-10,-5.8207666e-10,-0.0017137232,1
5312000,5312000,0.6877819,0.0012626644,-0.014045121,0.7257804,0.9999986,-9.313227e-10,-5.8207666e-10,-0.0017137232,1
5320000,5320000,0.68779075,0.0012641744,-0.014037234,0.72577214,0.9999986,-9.313227e-10,-5.8207666e-10,-0.0017137232,1
5324000,5324000,0.6877956,0.0012645787,-0.014037114,0.7257676,0.9999986,-9.313227e-10,-5.8207666e-10,-0.0017137232,1
5328000,5328000,0.68779916,0.0012674972,-0.014038892,0.72576416,0.9999986,-9.313227e-10,-5.8207666e-10,-0.0017137232,1
5332000,5332000,0.68780357,0.0012703497,-0.014037659,0.72576004,0.9999986,-9.313227e-10,-5.8207666e-10,-0.0017137232,1
5336000,5336000,0.68781024,0.0012728911,-0.014028216,0.7257539,0.9999986,-9.313227e-10,-5.8207666e-10,-0.0017137232,1
5340000,5340000,0.6878181,0.0012761875,-0.014017995,0.72574663,0.9999986,-9.313227e-10,-5.8207666e-10,-0.0017137232,1
5348000,5348000,0.68783677,0.001282789,-0.014018396,0.7257289,0.9999986,-9.313227e-10,-5.8207666e-10,-0.0017137232,1
5356000,5356000,0.68785506,0.001289386,-0.014012495,0.72571164,0.9999986,-9.313227e-10,-5.8207666e-10,-0.0017137232,1
5360000,5360000,0.6878584,0.0012907876,-0.014011899,0.72570854,0.9999986,-9.313227e-10,-5.8207666e-10,-0.0017137232,1
5364000,5364000,0.68786174,0.0012906633,-0.0140105905,0.72570544,0.9999986,-9.313227e-10,-5.8207666e-10,-0.0017137232,1
5368000,5368000,0.6878658,0.0012944158,-0.0140089085,0.7257016,0.9999986,-9.313227e-10,-5.8207666e-10,-0.0017137232,1
5376000,5376000,0.6878698,0.0013087364,-0.014005097,0.7256979,0.9999986,-9.313227e-10,-5.8207666e-10,-0.0017137232,1
5380000,5380000,0.68787086,0.0013171084,-0.01400453,0.72569686,0.9999986,-9.313227e-10,-5.8207666e-10,-0.0017137232,1
5384000,5384000,0.6878739,0.0013237764,-0.014004103,0.7256939,0.9999986,-9.313227e-10,-5.8207666e-10,-0.0017137232,1
5392000,5392000,0.6878883,0.0013276624,-0.014004715,0.7256803,0.9999986,-9.313227e-10,-5.8207666e-10,-0.0017137232,1
5400000,5400000,0.68790156,0.0013358222,-0.0139997415,0.72566783,0.9999986,-9.313227e-10,-5.8207666e-10,-0.0017137232,1
5404000,5404000,0.6879093,0.0013375754,-0.0139981145,0.7256605,0.9999986,-9.313227e-10,-5.8207666e-10,-0.0017137232,1
5408000,5408000,0.687917,0.0013394817,-0.013996191,0.72565323,0.9999986,-9.313227e-10,-5.8207666e-10,-0.0017137232,1
5416000,5416000,0.6879272,0.0013527989,-0.013992931,0.72564363,0.9999986,-9.313227e-10,-5.8207666e-10,-0.0017137232,1
5420000,5420000,0.68793356,0.0013578341,-0.013989873,0.72563756,0.9999986,-9.313227e-10,-5.8207666e-10,-0.0017137232,1
5428000,5428000,0.68794584,0.0013614527,-0.013983336,0.72562605,0.9999986,-9.313227e-10,-5.8207666e-10,-0.0017137232,1
5432000,5432000,0.687952,0.0013588691,-0.013983283,0.7256202,0.9999986,-9.313227e-10,-5.8207666e-10,-0.0017137232,1
5436000,5436000,0.6879523,0.0013618708,-0.013984972,0.72561985,0.9999986,-9.313227e-10,-5.8207666e-10,-0.0017137232,1
5444000,5444000,0.6879572,0.0013642631,-0.013991219,0.7256151,0.9999986,-9.313227e-10,-5.8207666e-10,-0.0017137232,1
5448000,5448000,0.6879621,0.001358896,-0.01398686,0.72561055,0.9999986,-9.313227e-10,-5.8207666e-10,-0.0017137232,1
5452000,5452000,0.68796617,0.0013576249,-0.013981264,0.72560686,0.9999986,-9.313227e-10,-5.8207666e-10,-0.0017137232,1
5456000,5456000,0.68796813,0.0013611028,-0.013978246,0.7256051,0.9999986,-9.313227e-10,-5.8207666e-10,-0.0017137232,1
5460000,5460000,0.68797237,0.0013695094,-0.013974715,0.72560114,0.9999986,-9.313227e-10,-5.8207666e-10,-0.0017137232,1
5464000,5464000,0.6879792,0.0013785354,-0.013970469,0.7255947,0.9999986,-9.313227e-10,-5.8207666e-10,-0.0017137232,1
5468000,5468000,0.6879861,0.0013841832,-0.013966689,0.7255882,0.9999986,-9.313227e-10,-5.8207666e-10,-0.0017137232,1
5472000,5472000,0.687996,0.0013905298,-0.013964451,0.7255789,0.9999986,-9.313227e-10,-5.8207666e-10,-0.0017137232,1
5476000,5476000,0.6880097,0.0013973571,-0.013963323,0.7255659,0.9999986,-9.313227e-10,-5.8207666e-10,-0.0017137232,1
5484000,5484000,0.6880367,0.0013975127,-0.013960391,0.7255403,0.9999986,-9.313227e-10,-5.8207666e-10,-0.0017137232,1
5488000,5488000,0.68804497,0.0013961813,-0.013957243,0.7255325,0.9999986,-9.313227e-10,-5.8207666e-10,-0.0017137232,1
5496000,5496000,0.6880598,0.001398316,-0.013952743,0.7255185,0.9999986,-9.313227e-10,-5.8207666e-10,-0.0017137232,1
5500000,5500000,0.688066,0.0014012883,-0.013947258,0.7255127,0.9999986,-9.313227e-10,-5.8207666e-10,-0.0017137232,1
5504000,5504000,0.6880911,0.0014049483,-0.013940677,0.7254891,0.9999986,-9.313227e-10,-5.8207666e-10,-0.0017137232,1
5508000,5508000,0.68811846,0.0014090192,-0.013933703,0.7254632,0.9999986,-9.313227e-10,-5.8207666e-10,-0.0017137232,1
5512000,5512000,0.68814665,0.0014107489,-0.013926819,0.7254366,0.9999986,-9.313227e-10,-5.8207666e-10,-0.0017137232,1
5516000,5516000,0.68817204,0.0014128726,-0.013922566,0.7254126,0.9999986,-9.313227e-10,-5.8207666e-10,-0.0017137232,1
5520000,5520000,0.688193,0.0014158265,-0.013920342,0.72539276,0.9999986,-9.313227e-10,-5.8207666e-10,-0.0017137232,1
5524000,5524000,0.68821245,0.0014194441,-0.0139158415,0.7253744,0.9999986,-9.313227e-10,-5.8207666e-10,-0.0017137232,1
5528000,5528000,0.68823296,0.0014214031,-0.0139076365,0.72535515,0.9999986,-9.313227e-10,-5.8207666e-10,-0.0017137232,1
5532000,5532000,0.6882543,0.0014192063,-0.013898408,0.72533506,0.9999986,-9.313227e-10,-5.8207666e-10,-0.0017137232,1
5536000,5536000,0.6882731,0.0014173449,-0.013891828,0.72531736,0.9999986,-9.313227e-10,-5.8207666e-10,-0.0017137232,1
5540000,5540000,0.6882887,0.0014182274,-0.013891584,0.7253025,0.9999986,-9.313227e-10,-5.8207666e-10,-0.0017137232,1
5544000,5544000,0.68830484,0.0014215038,-0.013898071,0.725287,0.9999986,-9.313227e-10,-5.8207666e-10,-0.0017137232,1
5548000,5548000,0.6883241,0.0014263651,-0.013905266,0.72526866,0.9999986,-9.313227e-10,-5.8207666e-10,-0.0017137232,1
5552000,5552000,0.688344,0.0014277158,-0.013909171,0.72524965,0.9999986,-9.313227e-10,-5.8207666e-10,-0.0017137232,1
5556000,5556000,0.68836397,0.0014266896,-0.013908618,0.7252307,0.9999986,-9.313227e-10,-5.8207666e-10,-0.0017137232,1
5560000,5560000,0.6883846,0.0014281641,-0.013903862,0.7252112,0.9999986,-9.313227e-10,-5.8207666e-10,-0.0017137232,1
5564000,5564000,0.68840593,0.0014300789,-0.013900977,0.725191,0.9999986,-9.313227e-10,-5.8207666e-10,-0.0017137232,1
5568000,5568000,0.68842757,0.0014316395,-0.013899989,0.72517055,0.9999986,-9.313227e-10,-5.8207666e-10,-0.0017137232,1
5572000,5572000,0.6884511,0.001434953,-0.013892546,0.72514826,0.9999986,-9.313227e-10,-5.8207666e-10,-0.0017137232,1
5576000,5576000,0.6884806,0.0014392239,-0.013883262,0.7251204,0.9999986,-9.313227e-10,-5.8207666e-10,-0.0017137232,1
5580000,5580000,0.6885092,0.0014440614,-0.013881876,0.7250933,0.9999986,-9.313227e-10,-5.8207666e-10,-0.0017137232,1
5584000,5584000,0.68853694,0.001448528,-0.013883952,0.72506696,0.9999986,-9.313227e-10,-5.8207666e-10,-0.0017137232,1
5588000,5588000,0.68856394,0.0014494652,-0.013881222,0.7250414,0.9999986,-9.313227e-10,-5.8207666e-10,-0.0017137232,1
5592000,5592000,0.6885881,0.0014476568,-0.013877494,0.7250185,0.9999986,-9.313227e-10,-5.8207666e-10,-0.0017137232,1
5600000,5600000,0.6886295,0.0014508405,-0.01387671,0.7249791,0.9999986,-9.313227e-10,-5.8207666e-10,-0.0017137232,1
5604000,5604000,0.6886493,0.0014518992,-0.013871466,0.7249605,0.9999986,-9.313227e-10,-5.8207666e-10,-0.0017137232,1
5608000,5608000,0.6886704,0.0014525702,-0.013865145,0.72494054,0.9999986,-9.313227e-10,-5.8207666e-10,-0.0017137232,1
5612000,5612000,0.68869495,0.0014544853,-0.01386067,0.7249173,0.9999986,-9.313227e-10,-5.8207666e-10,-0.0017137232,1
5616000,5616000,0.68871856,0.0014549303,-0.01385854,0.7248949,0.9999986,-9.313227e-10,-5.8207666e-10,-0.0017137232,1
5620000,5620000,0.6887406,0.0014534923,-0.01385759,0.7248739,0.9999986,-9.313227e-10,-5.8207666e-10,-0.0017137232,1
5624000,5624000,0.6887615,0.0014534374,-0.013852887,0.7248543,0.9999986,-9.313227e-10,-5.8207666e-10,-0.0017137232,1
5628000,5628000,0.6887827,0.0014555908,-0.013845864,0.72483426,0.9999986,-9.313227e-10,-5.8207666e-10,-0.0017137232,1
5632000,5632000,0.6888029,0.001457089,-0.013843425,0.72481513,0.9999986,-9.313227e-10,-5.8207666e-10,-0.0017137232,1
5636000,5636000,0.6888235,0.0014582851,-0.01384363,0.7247955,0.9999986,-9.313227e-10,-5.8207666e-10,-0.0017137232,1
5640000,5640000,0.68884283,0.0014579151,-0.013842414,0.72477716,0.9999986,-9.313227e-10,-5.8207666e-10,-0.0017137232,1
5644000,5644000,0.6888599,0.0014552418,-0.013841259,0.724761,0.9999986,-9.313227e-10,-5.8207666e-10,-0.0017137232,1
5648000,5648000,0.68887746,0.0014517297,-0.0138409315,0.72474426,0.9999986,-9.313227e-10,-5.8207666e-10,-0.0017137232,1
5652000,5652000,0.68889505,0.0014478506,-0.013840989,0.7247275,0.9999986,-9.313227e-10,-5.8207666e-10,-0.0017137232,1
5656000,5656000,0.68891406,0.0014477889,-0.013841746,0.7247095,0.9999986,-9.313227e-10,-5.8207666e-10,-0.0017137232,1
5660000,5660000,0.68893415,0.0014489071,-0.013843599,0.7246903,0.9999986,-9.313227e-10,-5.8207666e-10,-0.0017137232,1
5664000,5664000,0.6889528,0.0014485477,-0.01384704,0.7246725,0.9999986,-9.313227e-10,-5.8207666e-10,-0.0017137232,1
5668000,5668000,0.68897265,0.0014474193,-0.013848991,0.7246536,0.9999986,-9.313227e-10,-5.8207666e-10,-0.0017137232,1
5672000,5672000,0.68899226,0.001444724,-0.013848005,0.724635,0.9999986,-9.313227e-10,-5.8207666e-10,-0.0017137232,1
5680000,5680000,0.6890319,0.0014457373,-0.013844776,0.7245974,0.9999986,-9.313227e-10,-5.8207666e-10,-0.0017137232,1
5684000,5684000,0.6890493,0.0014422506,-0.013843093,0.7245809,0.9999986,-9.313227e-10,-5.8207666e-10,-0.0017137232,1
5688000,5688000,0.68906534,0.001438799,-0.013842949,0.7245656,0.9999986,-9.313227e-10,-5.8207666e-10,-0.0017137232,1
5692000,5692000,0.68908256,0.0014379387,-0.0138401,0.7245493,0.9999986,-9.313227e-10,-5.8207666e-10,-0.0017137232,1
5696000,5696000,0.6890992,0.0014346893,-0.013837014,0.72453356,0.9999986,-9.313227e-10,-5.8207666e-10,-0.0017137232,1
5700000,5700000,0.6891158,0.001429529,-0.013832845,0.72451776,0.9999986,-9.313227e-10,-5.8207666e-10,-0.0017137232,1
5708000,5708000,0.68913925,0.0014158833,-0.013833341,0.72449553,0.9999986,-9.313227e-10,-5.8207666e-10,-0.0017137232,1
5712000,5712000,0.68915147,0.0014111911,-0.013834885,0.7244839,0.9999986,-9.313227e-10,-5.8207666e-10,-0.0017137232,1
5716000,5716000,0.68916637,0.0014097787,-0.013829938,0.72446984,0.9999986,-9.313227e-10,-5.8207666e-10,-0.0017137232,1
5720000,5720000,0.6891819,0.001407553,-0.013825047,0.7244551,0.9999986,-9.313227e-10,-5.8207666e-10,-0.0017137232,1
5724000,5724000,0.6891967,0.0014043051,-0.013825079,0.72444105,0.9999986,-9.313227e-10,-5.8207666e-10,-0.0017137232,1
5728000,5728000,0.6892111,0.001403192,-0.0138252815,0.72442734,0.9999986,-9.313227e-10,-5.8207666e-10,-0.0017137232,1
5732000,5732000,0.68922555,0.0014027571,-0.013822455,0.7244137,0.9999986,-9.313227e-10,-5.8207666e-10,-0.0017137232,1
5736000,5736000,0.68923724,0.0014007662,-0.013818942,0.72440267,0.9999986,-9.313227e-10,-5.8207666e-10,-0.0017137232,1
5740000,5740000,0.68924737,0.0013995175,-0.013816166,0.72439307,0.9999986,-9.313227e-10,-5.8207666e-10,-0.0017137232,1
5744000,5744000,0.6892578,0.0014005746,-0.013814107,0.7243832,0.9999986,-9.313227e-10,-5.8207666e-10,-0.0017137232,1
5748000,5748000,0.68927014,0.0014028071,-0.013812393,0.7243715,0.9999986,-9.313227e-10,-5.8207666e-10,-0.0017137232,1
5752000,5752000,0.6892829,0.0014020561,-0.013810773,0.72435933,0.9999986,-9.313227e-10,-5.8207666e-10,-0.0017137232,1
5756000,5756000,0.6892957,0.001396806,-0.013810019,0.7243471,0.9999986,-9.313227e-10,-5.8207666e-10,-0.0017137232,1
5760000,5760000,0.6893075,0.0013903973,-0.013808186,0.72433597,0.9999986,-9.313227e-10,-5.8207666e-10,-0.0017137232,1
5764000,5764000,0.6893193,0.0013835096,-0.013802219,0.7243248,0.9999986,-9.313227e-10,-5.8207666e-10,-0.0017137232,1
5768000,5768000,0.6893301,0.0013774668,-0.013800019,0.7243147,0.9999986,-9.313227e-10,-5.8207666e-10,-0.0017137232,1
5772000,5772000,0.6893396,0.0013746,-0.013805275,0.72430557,0.9999986,-9.313227e-10,-5.8207666e-10,-0.0017137232,1
5776000,5776000,0.68934804,0.0013747062,-0.013808967,0.7242974,0.9999986,-9.313227e-10,-5.8207666e-10,-0.0017137232,1
5784000,5784000,0.6893687,0.0013735973,-0.013817048,0.72427756,0.9999986,-9.313227e-10,-5.8207666e-10,-0.0017137232,1
5788000,5788000,0.6893786,0.0013696748,-0.013820378,0.7242681,0.9999986,-9.313227e-10,-5.8207666e-10,-0.0017137232,1
5792000,5792000,0.6893511,0.0013668431,-0.013820159,0.7242943,0.9999986,-9.313227e-10,-5.8207666e-10,-0.0017137232,1
5796000,5796000,0.68932354,0.0013670418,-0.01382062,0.72432053,0.9999986,-9.313227e-10,-5.8207666e-10,-0.0017137232,1
5800000,5800000,0.6892974,0.0013684846,-0.013820585,0.72434545,0.9999986,-9.313227e-10,-5.8207666e-10,-0.0017137232,1
5808000,5808000,0.6892532,0.0013723441,-0.013818884,0.7243875,0.9999986,-9.313227e-10,-5.8207666e-10,-0.0017137232,1
5812000,5812000,0.68923175,0.0013710608,-0.01382259,0.72440785,0.9999986,-9.313227e-10,-5.8207666e-10,-0.0017137232,1
5820000,5820000,0.68918073,0.0013583604,-0.013828935,0.7244563,0.9999986,-9.313227e-10,-5.8207666e-10,-0.0017137232,1
5824000,5824000,0.6891542,0.0013556135,-0.013829468,0.72448146,0.9999986,-9.313227e-10,-5.8207666e-10,-0.0017137232,1
5828000,5828000,0.6891266,0.0013538892,-0.013826588,0.72450775,0.9999986,-9.313227e-10,-5.8207666e-10,-0.0017137232,1
5832000,5832000,0.6890969,0.0013519392,-0.013827007,0.72453606,0.9999986,-9.313227e-10,-5.8207666e-10,-0.0017137232,1
5836000,5836000,0.6890684,0.0013466699,-0.01382939,0.7245632,0.9999986,-9.313227e-10,-5.8207666e-10,-0.0017137232,1
5840000,5840000,0.68904084,0.0013437648,-0.013830855,0.7245893,0.9999986,-9.313227e-10,-5.8207666e-10,-0.0017137232,1
5844000,5844000,0.6890125,0.0013460969,-0.013831438,0.7246162,0.9999986,-9.313227e-10,-5.8207666e-10,-0.0017137232,1
5852000,5852000,0.6889539,0.0013447702,-0.013827272,0.724672,0.9999986,-9.313227e-10,-5.8207666e-10,-0.0017137232,1
5856000,5856000,0.68892586,0.0013406127,-0.013830823,0.7246986,0.9999986,-9.313227e-10,-5.8207666e-10,-0.0017137232,1
5860000,5860000,0.68889713,0.0013356494,-0.01383289,0.72472596,0.9999986,-9.313227e-10,-5.8207666e-10,-0.0017137232,1
5864000,5864000,0.68886185,0.0013299922,-0.013832607,0.7247595,0.9999986,-9.313227e-10,-5.8207666e-10,-0.0017137232,1
5868000,5868000,0.6888258,0.001325421,-0.013831167,0.72479385,0.9999986,-9.313227e-10,-5.8207666e-10,-0.0017137232,1
5872000,5872000,0.68879044,0.0013216964,-0.013828847,0.7248274,0.9999986,-9.313227e-10,-5.8207666e-10,-0.0017137232,1
5880000,5880000,0.68872666,0.0013133556,-0.013827523,0.72488815,0.9999986,-9.313227e-10,-5.8207666e-10,-0.0017137232,1
5884000,5884000,0.68869436,0.0013084733,-0.013820995,0.72491896,0.9999986,-9.313227e-10,-5.8207666e-10,-0.0017137232,1
5888000,5888000,0.68866307,0.0013036272,-0.013814376,0.72494876,0.9999986,-9.313227e-10,-5.8207666e-10,-0.0017137232,1
5892000,5892000,0.68863016,0.0012996012,-0.0138115045,0.72498006,0.9999986,-9.313227e-10,-5.8207666e-10,-0.0017137232,1
5900000,5900000,0.68857425,0.0012951588,-0.013805866,0.7250333,0.9999986,-9.313227e-10,-5.8207666e-10,-0.0017137232,1
5904000,5904000,0.68854886,0.00129306,-0.013808701,0.72505736,0.9999986,-9.313227e-10,-5.8207666e-10,-0.0017137232,1
5908000,5908000,0.68852264,0.0012903104,-0.013816074,0.7250821,0.9999986,-9.313227e-10,-5.8207666e-10,-0.0017137232,1
5916000,5916000,0.6884666,0.0012840142,-0.013832221,0.72513497,0.9999986,-9.313227e-10,-5.8207666e-10,-0.0017137232,1
5920000,5920000,0.68844235,0.0012852554,-0.0138329575,0.72515804,0.9999986,-9.313227e-10,-5.8207666e-10,-0.0017137232,1
5924000,5924000,0.68841803,0.0012868242,-0.013831801,0.7251811,0.9999986,-9.313227e-10,-5.8207666e-10,-0.0017137232,1
5928000,5928000,0.68839455,0.0012858238,-0.013833294,0.7252034,0.9999986,-9.313227e-10,-5.8207666e-10,-0.0017137232,1
5932000,5932000,0.68837184,0.0012825596,-0.013834091,0.7252249,0.9999986,-9.313227e-10,-5.8207666e-10,-0.0017137232,1
5940000,5940000,0.68831295,0.0012802812,-0.013839386,0.7252807,0.9999986,-9.313227e-10,-5.8207666e-10,-0.0017137232,1
5944000,5944000,0.6882838,0.0012779607,-0.013840892,0.7253084,0.9999986,-9.313227e-10,-5.8207666e-10,-0.0017137232,1
5948000,5948000,0.688252,0.0012724979,-0.013839468,0.72533864,0.9999986,-9.313227e-10,-5.8207666e-10,-0.0017137232,1
5956000,5956000,0.68818635,0.0012667874,-0.01383867,0.7254009,0.9999986,-9.313227e-10,-5.8207666e-10,-0.0017137232,1
5964000,5964000,0.6881339,0.0012643711,-0.013842222,0.72545063,0.9999986,-9.313227e-10,-5.8207666e-10,-0.0017137232,1
5968000,5968000,0.6881096,0.0012616676,-0.01384476,0.72547364,0.9999986,-9.313227e-10,-5.8207666e-10,-0.0017137232,1
5972000,5972000,0.6880837,0.0012593011,-0.013846913,0.72549814,0.9999986,-9.313227e-10,-5.8207666e-10,-0.0017137232,1
5976000,5976000,0.6880571,0.0012599065,-0.013849718,0.7255233,0.9999986,-9.313227e-10,-5.8207666e-10,-0.0017137232,1
5980000,5980000,0.6880282,0.0012623598,-0.013852852,0.72555065,0.9999986,-9.313227e-10,-5.8207666e-10,-0.0017137232,1
5984000,5984000,0.68800396,0.0012618634,-0.013856793,0.72557354,0.9999986,-9.313227e-10,-5.8207666e-10,-0.0017137232,1
5988000,5988000,0.6879837,0.0012573298,-0.013861968,0.72559273,0.9999986,-9.313227e-10,-5.8207666e-10,-0.0017137232,1
5992000,5992000,0.687964,0.0012524817,-0.013866645,0.7256112,0.9999986,-9.313227e-10,-5.8207666e-10,-0.0017137232,1
5996000,5996000,0.6879441,0.0012490521,-0.013868275,0.72563016,0.9999986,-9.313227e-10,-5.8207666e-10,-0.0017137232,1
6000000,6000000,0.68792754,0.0012426133,-0.013865335,0.7256459,0.9999986,-9.313227e-10,-5.8207666e-10,-0.0017137232,1
6004000,6004000,0.6879114,0.0012331703,-0.013862477,0.7256612,0.9999986,-9.313227e-10,-5.8207666e-10,-0.0017137232,1
6008000,6008000,0.6878981,0.0012279602,-0.013865044,0.72567385,0.9999986,-9.313227e-10,-5.8207666e-10,-0.0017137232,1
6012000,6012000,0.6878832,0.0012253859,-0.013868672,0.7256879,0.9999986,-9.313227e-10,-5.8207666e-10,-0.0017137232,1
6016000,6016000,0.6878715,0.0012254564,-0.013867965,0.725699,0.9999986,-9.313227e-10,-5.8207666e-10,-0.0017137232,1
6020000,6020000,0.68786097,0.0012323656,-0.013868581,0.725709,0.9999986,-9.313227e-10,-5.8207666e-10,-0.0017137232,1
6024000,6024000,0.6878516,0.001242842,-0.013873126,0.7257178,0.9999986,-9.313227e-10,-5.8207666e-10,-0.0017137232,1
6028000,6028000,0.6878431,0.0012487753,-0.013876285,0.72572577,0.9999986,-9.313227e-10,-5.8207666e-10,-0.0017137232,1
6032000,6032000,0.68783706,0.0012513197,-0.013876027,0.7257315,0.9999986,-9.313227e-10,-5.8207666e-10,-0.0017137232,1
6036000,6036000,0.6878302,0.0012568205,-0.013874184,0.725738,0.9999986,-9.313227e-10,-5.8207666e-10,-0.0017137232,1
6040000,6040000,0.68782294,0.0012619935,-0.013872614,0.72574484,0.9999986,-9.313227e-10,-5.8207666e-10,-0.0017137232,1
6044000,6044000,0.6878157,0.0012657215,-0.013873344,0.7257517,0.9999986,-9.313227e-10,-5.8207666e-10,-0.0017137232,1
6048000,6048000,0.6878111,0.0012684687,-0.013875869,0.72575605,0.9999986,-9.313227e-10,-5.8207666e-10,-0.0017137232,1
6052000,6052000,0.6878076,0.0012719708,-0.013877618,0.72575927,0.9999986,-9.313227e-10,-5.8207666e-10,-0.0017137232,1
6060000,6060000,0.6878046,0.0012776244,-0.013880172,0.72576207,0.9999986,-9.313227e-10,-5.8207666e-10,-0.0017137232,1
6068000,6068000,0.68779224,0.0012781589,-0.013877011,0.7257739,0.9999986,-9.313227e-10,-5.8207666e-10,-0.0017137232,1
6076000,6076000,0.68778807,0.0012819924,-0.013874288,0.72577786,0.9999986,-9.313227e-10,-5.8207666e-10,-0.0017137232,1
6080000,6080000,0.6877811,0.0012801827,-0.013874614,0.7257845,0.9999986,-9.313227e-10,-5.8207666e-10,-0.0017137232,1
