timestamp,timestamp_sample,control_mode_flags,output_tracking_error[0],output_tracking_error[1],output_tracking_error[2],filter_fault_flags,pos_horiz_accuracy,pos_vert_accuracy,mag_test_ratio,vel_test_ratio,pos_test_ratio,hgt_test_ratio,tas_test_ratio,hagl_test_ratio,beta_test_ratio,time_slip,accel_device_id,gyro_device_id,baro_device_id,mag_device_id,gps_check_fail_flags,innovation_check_flags,solution_status_flags,reset_count_vel_ne,reset_count_vel_d,reset_count_pos_ne,reset_count_pod_d,reset_count_quat,pre_flt_fail_innov_heading,pre_flt_fail_innov_vel_horiz,pre_flt_fail_innov_vel_vert,pre_flt_fail_innov_height,pre_flt_fail_mag_field_disturbed,health_flags,timeout_flags
3428000,3348000,13488881664,0.0006092646,0.014153969,0.0011702278,0,14.172738,10.008659,nan,nan,nan,nan,0.0,0.0,0.0,0.0,1310988,1310988,6620172,197388,0,0,128,1,1,1,1,0,0,0,0,0,0,0,0
3436000,3356000,13488881664,0.00055480294,0.004893209,0.0013911615,0,14.142143,10.0,nan,nan,nan,nan,0.0,0.0,0.0,0.0,1310988,1310988,6620172,197388,0,0,128,1,1,1,1,0,0,0,0,0,0,0,0
3444000,3364000,13488881664,0.0005052871,0.0047968845,0.0013923572,0,14.142143,10.0,nan,nan,nan,nan,0.0,0.0,0.0,0.0,1310988,1310988,6620172,197388,0,0,128,1,1,1,1,0,0,0,0,0,0,0,0
3452000,3372000,13488881664,8.5139654e-05,0.0011228634,4.546361e-05,0,14.142143,10.0,nan,nan,nan,nan,0.0,0.0,0.0,0.0,1310988,1310988,6620172,197388,0,0,128,1,1,1,1,0,0,0,0,0,0,0,0
3460000,3380000,13488881664,0.00013021959,0.0011346058,7.619089e-05,0,14.142143,10.0,nan,nan,nan,nan,0.0,0.0,0.0,0.0,1310988,1310988,6620172,197388,0,0,128,1,1,1,1,0,0,0,0,0,0,0,0
3468000,3388000,13488881664,0.00017412673,0.001130605,0.00010663686,0,14.142143,10.0,nan,nan,nan,nan,0.0,0.0,0.0,0.0,1310988,1310988,6620172,197388,0,0,128,1,1,1,1,0,0,0,0,0,0,0,0
3476000,3396000,13488881664,0.00021718528,0.0011823262,0.00013680047,0,14.142143,10.0,nan,nan,nan,nan,0.0,0.0,0.0,0.0,1310988,1310988,6620172,197388,0,0,128,1,1,1,1,0,0,0,0,0,0,0,0
3484000,3404000,13488881664,0.00025960905,0.0013716237,0.00016644828,0,14.142143,10.0,nan,nan,nan,nan,0.0,0.0,0.0,0.0,1310988,1310988,6620172,197388,0,0,128,1,1,1,1,0,0,0,0,0,0,0,0
3492000,3412000,13488881664,0.00030154956,0.0018049735,0.00019573144,0,14.142143,10.0,nan,nan,nan,nan,0.0,0.0,0.0,0.0,1310988,1310988,6620172,197388,0,0,128,1,1,1,1,0,0,0,0,0,0,0,0
3500000,3420000,13488881664,0.00033962575,0.0020593698,0.00022554687,0,14.142143,10.0,nan,nan,nan,nan,0.0,0.0,0.0,0.0,1310988,1310988,6620172,197388,0,0,128,1,1,1,1,0,0,0,0,0,0,0,0
3508000,3428000,13488881664,0.00037327045,0.0023826205,0.00025658472,0,14.142143,10.0,nan,nan,nan,nan,0.0,0.0,0.0,0.0,1310988,1310988,6620172,197388,0,0,128,1,1,1,1,0,0,0,0,0,0,0,0
3516000,3436000,13488881664,0.0004037564,0.0023836666,0.00028941358,0,14.142142,10.0,nan,nan,nan,nan,0.0,0.0,0.0,0.0,1310988,1310988,6620172,197388,0,0,128,1,1,1,1,0,0,0,0,0,0,0,0
3524000,3444000,13488881664,0.00043150331,0.0022934717,0.00032075797,0,14.142142,10.0,nan,nan,nan,nan,0.0,0.0,0.0,0.0,1310988,1310988,6620172,197388,0,0,128,1,1,1,1,0,0,0,0,0,0,0,0
3532000,3452000,13488881664,0.000390362,0.002139571,0.00021481546,0,14.142142,10.0,nan,nan,nan,nan,0.0,0.0,0.0,0.0,1310988,1310988,6620172,197388,0,0,128,1,1,1,1,0,0,0,0,0,0,0,0
3540000,3460000,13488881664,0.00038610853,0.0020433923,0.0002171772,0,14.142142,10.0,nan,nan,nan,nan,0.0,0.0,0.0,0.0,1310988,1310988,6620172,197388,0,0,128,1,1,1,1,0,0,0,0,0,0,0,0
3548000,3468000,13488881664,0.00037960298,0.0019504932,0.00022057831,0,14.142142,10.0,nan,nan,nan,nan,0.0,0.0,0.0,0.0,1310988,1310988,6620172,197388,0,0,128,1,1,1,1,0,0,0,0,0,0,0,0
3556000,3476000,13488881664,0.00037091787,0.0018607144,0.00022481912,0,14.142142,10.0,nan,nan,nan,nan,0.0,0.0,0.0,0.0,1310988,1310988,6620172,197388,0,0,128,1,1,1,1,0,0,0,0,0,0,0,0
3564000,3484000,13488881664,0.0003600754,0.0017738852,0.00022975738,0,14.142142,10.0,nan,nan,nan,nan,0.0,0.0,0.0,0.0,1310988,1310988,6620172,197388,0,0,128,1,1,1,1,0,0,0,0,0,0,0,0
3572000,3492000,13488881664,0.00034710343,0.001690857,0.00023487191,0,14.142142,10.0,nan,nan,nan,nan,0.0,0.0,0.0,0.0,1310988,1310988,6620172,197388,0,0,128,1,1,1,1,0,0,0,0,0,0,0,0
3580000,3500000,13488881664,0.00033204176,0.0016107755,0.00024005774,0,14.142143,10.0,nan,nan,nan,nan,0.0,0.0,0.0,0.0,1310988,1310988,6620172,197388,0,0,128,1,1,1,1,0,0,0,0,0,0,0,0
3588000,3508000,13488881664,0.0003150844,0.0015349683,0.000245395,0,14.142145,10.0,nan,nan,nan,nan,0.0,0.0,0.0,0.0,1310988,1310988,6620172,197388,0,0,128,1,1,1,1,0,0,0,0,0,0,0,0
3596000,3516000,13488881664,0.0002968562,0.0014630358,0.00025017248,0,14.142146,10.0,nan,nan,nan,nan,0.0,0.0,0.0,0.0,1310988,1310988,6620172,197388,0,0,128,1,1,1,1,0,0,0,0,0,0,0,0
3604000,3524000,13488881664,0.00027709763,0.0013943232,0.00025465133,0,14.142147,10.0,nan,nan,nan,nan,0.0,0.0,0.0,0.0,1310988,1310988,6620172,197388,0,0,128,1,1,1,1,0,0,0,0,0,0,0,0
3612000,3532000,13488881664,0.0002559772,0.0013299907,0.00058164913,0,0.014084185,7.071068,nan,nan,nan,nan,0.0,0.0,0.0,0.0,1310988,1310988,6620172,197388,0,0,128,1,1,1,1,0,0,0,0,0,0,0,0
3620000,3540000,13488881664,0.00023687935,0.0012686148,0.00056412973,0,0.014298603,7.071068,nan,nan,nan,nan,0.0,0.0,0.0,0.0,1310988,1310988,6620172,197388,0,0,128,1,1,1,1,0,0,0,0,0,0,0,0
3628000,3548000,13488881664,0.00021799906,0.0012107223,0.00054753193,0,0.014960912,7.071068,nan,nan,nan,nan,0.0,0.0,0.0,0.0,1310988,1310988,6620172,197388,0,0,128,1,1,1,1,0,0,0,0,0,0,0,0
3636000,3556000,13488881664,0.00019944129,0.0011563861,0.000531703,0,0.01606968,7.071068,nan,nan,nan,nan,0.0,0.0,0.0,0.0,1310988,1310988,6620172,197388,0,0,128,1,1,1,1,0,0,0,0,0,0,0,0
3644000,3564000,13488881664,0.0020924364,0.027661357,0.0026003825,0,0.0140868025,7.071067,nan,nan,nan,nan,0.0,0.0,0.0,0.0,1310988,1310988,6620172,197388,0,0,128,1,1,1,1,0,0,0,0,0,0,0,0
3652000,3572000,13488881665,0.0020785823,0.027580408,0.0027402947,0,0.014086874,7.071067,nan,nan,nan,nan,0.0,0.0,0.0,0.0,1310988,1310988,6620172,197388,0,0,128,1,1,1,1,0,0,0,0,0,0,0,0
3660000,3580000,13488881665,0.0020653734,0.02750073,0.002882011,0,0.01408693,7.071067,nan,nan,nan,nan,0.0,0.0,0.0,0.0,1310988,1310988,6620172,197388,0,0,128,1,1,1,1,0,0,0,0,0,0,0,0
3668000,3588000,13488881683,0.0020598297,0.027422015,0.0030251232,0,0.014087176,7.071067,0.0024266047,nan,nan,nan,0.0,0.0,0.0,0.0,1310988,1310988,6620172,197388,0,0,129,1,1,1,1,1,0,0,0,0,0,0,0
3676000,3596000,13488881683,0.0020481665,0.027344598,0.003169893,0,0.014087884,7.071067,0.0024266047,nan,nan,nan,0.0,0.0,0.0,0.0,1310988,1310988,6620172,197388,0,0,129,1,1,1,1,1,0,0,0,0,0,0,0
3684000,3604000,13488881683,0.0020374209,0.027268028,0.0033161065,0,0.014089388,7.071067,0.0024266047,nan,nan,nan,0.0,0.0,0.0,0.0,1310988,1310988,6620172,197388,0,0,129,1,1,1,1,1,0,0,0,0,0,0,0
3692000,3612000,13488881683,0.0020276245,0.02719241,0.003463762,0,0.014092215,7.071067,0.0024266047,nan,nan,nan,0.0,0.0,0.0,0.0,1310988,1310988,6620172,197388,0,0,129,1,1,1,1,1,0,0,0,0,0,0,0
3700000,3620000,13488881683,0.0020188398,0.02711778,0.0036129232,0,0.014097263,7.071067,0.0024266047,nan,nan,nan,0.0,0.0,0.0,0.0,1310988,1310988,6620172,197388,0,0,129,1,1,1,1,1,0,0,0,0,0,0,0
3708000,3628000,13488881683,0.0020110016,0.027043562,0.0037633672,0,0.014105788,7.071067,0.0024266047,nan,nan,nan,0.0,0.0,0.0,0.0,1310988,1310988,6620172,197388,0,0,129,1,1,1,1,1,0,0,0,0,0,0,0
3716000,3636000,13488881683,0.0020040825,0.026970334,0.0039150333,0,0.014119406,7.071067,0.0024266047,nan,nan,nan,0.0,0.0,0.0,0.0,1310988,1310988,6620172,197388,0,0,129,1,1,1,1,1,0,0,0,0,0,0,0
3724000,3644000,13488881683,0.001998043,0.026898343,0.0040681325,0,0.014140077,7.071067,0.0024266047,nan,nan,nan,0.0,0.0,0.0,0.0,1310988,1310988,6620172,197388,0,0,129,1,1,1,1,1,0,0,0,0,0,0,0
3732000,3652000,13488881683,0.0018944711,0.02605166,0.004212062,0,0.014170101,7.071067,0.0024266047,nan,nan,nan,0.0,0.0,0.0,0.0,1310988,1310988,6620172,197388,0,0,129,1,1,1,1,1,0,0,0,0,0,0,0
3740000,3660000,13488881683,0.0018111304,0.025228897,0.004344463,0,0.014212097,7.071067,0.0064597144,nan,nan,nan,0.0,0.0,0.0,0.0,1310988,1310988,6620172,197388,0,0,129,1,1,1,1,1,0,0,0,0,0,0,0
3748000,3668000,13488881683,0.0017096937,0.02442944,0.004465235,0,0.014268984,7.071067,0.0064597144,nan,nan,nan,0.0,0.0,0.0,0.0,1310988,1310988,6620172,197388,0,0,129,1,1,1,1,1,0,0,0,0,0,0,0
3756000,3676000,13488881683,0.001610991,0.023652742,0.0045749433,0,0.014343931,7.071067,0.0064597144,nan,nan,nan,0.0,0.0,0.0,0.0,1310988,1310988,6620172,197388,0,0,129,1,1,1,1,1,0,0,0,0,0,0,0
3764000,3684000,13488881683,0.0015133234,0.022897683,0.004673783,0,0.014440346,7.071067,0.0064597144,nan,nan,nan,0.0,0.0,0.0,0.0,1310988,1310988,6620172,197388,0,0,129,1,1,1,1,1,0,0,0,0,0,0,0
3772000,3692000,13488881683,0.0014167957,0.02216394,0.0047622756,0,0.014561816,7.071067,0.0064597144,nan,nan,nan,0.0,0.0,0.0,0.0,1310988,1310988,6620172,197388,0,0,129,1,1,1,1,1,0,0,0,0,0,0,0
3780000,3700000,13488881683,0.0013214926,0.021450398,0.0048406655,0,0.0147120645,7.071067,0.0064597144,nan,nan,nan,0.0,0.0,0.0,0.0,1310988,1310988,6620172,197388,0,0,129,1,1,1,1,1,0,0,0,0,0,0,0
3788000,3708000,13488881683,0.0012274446,0.020756466,0.004909421,0,0.014894836,7.071067,0.0064597144,nan,nan,nan,0.0,0.0,0.0,0.0,1310988,1310988,6620172,197388,0,0,129,1,1,1,1,1,0,0,0,0,0,0,0
3796000,3716000,13488881683,0.0011348922,0.020081328,0.004968428,0,0.015113853,7.071067,0.0064597144,nan,nan,nan,0.0,0.0,0.0,0.0,1310988,1310988,6620172,197388,0,0,129,1,1,1,1,1,0,0,0,0,0,0,0
3804000,3724000,13488881683,0.0009855143,0.01942461,0.0050183483,0,0.015372731,7.071067,0.0033877103,nan,nan,nan,0.0,0.0,0.0,0.0,1310988,1310988,6620172,197388,0,0,129,1,1,1,1,1,0,0,0,0,0,0,0
3812000,3732000,13488881683,0.0008887371,0.018785771,0.0050590243,0,0.015674904,7.071067,0.0033877103,nan,nan,nan,0.0,0.0,0.0,0.0,1310988,1310988,6620172,197388,0,0,129,1,1,1,1,1,0,0,0,0,0,0,0
3820000,3740000,13488881683,0.0007753774,0.018156094,0.0049444116,0,0.010603107,5.7735023,0.0033877103,nan,nan,nan,0.0,0.0,0.0,0.0,1310988,1310988,6620172,197388,0,0,129,1,1,1,1,1,0,0,0,0,0,0,0
3828000,3748000,13488881683,0.0006854696,0.017551003,0.0049734074,0,0.010880016,5.7735023,0.0033877103,nan,nan,nan,0.0,0.0,0.0,0.0,1310988,1310988,6620172,197388,0,0,129,1,1,1,1,1,0,0,0,0,0,0,0
3836000,3756000,13488881683,0.0006007142,0.016962277,0.004994873,0,0.011219387,5.7735023,0.0033877103,nan,nan,nan,0.0,0.0,0.0,0.0,1310988,1310988,6620172,197388,0,0,129,1,1,1,1,1,0,0,0,0,0,0,0
3844000,3764000,13488881683,0.00052108936,0.016389573,0.005008723,0,0.011623895,5.7735023,0.0033877103,nan,nan,nan,0.0,0.0,0.0,0.0,1310988,1310988,6620172,197388,0,0,129,1,1,1,1,1,0,0,0,0,0,0,0
3852000,3772000,13488881683,0.00048141633,0.015934814,0.0050246306,0,0.0118846735,5.7735023,0.0033877103,nan,nan,nan,0.0,0.0,0.0,0.0,1310988,1310988,6620172,197388,0,0,129,1,1,1,1,1,0,0,0,0,0,0,0
3860000,3780000,13488881683,0.00041469777,0.0153920315,0.0050255745,0,0.012373531,5.7735023,0.0033877103,nan,nan,nan,0.0,0.0,0.0,0.0,1310988,1310988,6620172,197388,0,0,129,1,1,1,1,1,0,0,0,0,0,0,0
3868000,3788000,13488881683,0.00035405913,0.0148639195,0.0050206864,0,0.012925756,5.7735023,0.0033877103,nan,nan,nan,0.0,0.0,0.0,0.0,1310988,1310988,6620172,197388,0,0,129,1,1,1,1,1,0,0,0,0,0,0,0
3876000,3796000,13488881683,0.00088736834,0.014350008,0.005009824,0,0.013541309,5.7735023,0.012488501,nan,nan,nan,0.0,0.0,0.0,0.0,1310988,1310988,6620172,197388,0,0,129,1,1,1,1,1,0,0,0,0,0,0,0
3884000,3804000,13488881683,0.0008559322,0.013850252,0.0049933675,0,0.014219678,5.7735023,0.012488501,nan,nan,nan,0.0,0.0,0.0,0.0,1310988,1310988,6620172,197388,0,0,129,1,1,1,1,1,0,0,0,0,0,0,0
3892000,3812000,13488881683,0.00083920703,0.013364292,0.004972142,0,0.014960074,5.7735023,0.012488501,nan,nan,nan,0.0,0.0,0.0,0.0,1310988,1310988,6620172,197388,0,0,129,1,1,1,1,1,0,0,0,0,0,0,0
3900000,3820000,13488881683,0.00082555093,0.012891735,0.004945785,0,0.015761452,5.7735023,0.012488501,nan,nan,nan,0.0,0.0,0.0,0.0,1310988,1310988,6620172,197388,0,0,129,1,1,1,1,1,0,0,0,0,0,0,0
3908000,3828000,13488881683,0.00081323815,0.01243238,0.004915043,0,0.016622636,5.7735023,0.012488501,nan,nan,nan,0.0,0.0,0.0,0.0,1310988,1310988,6620172,197388,0,0,129,1,1,1,1,1,0,0,0,0,0,0,0
3916000,3836000,13488881683,0.0008037719,0.0119858775,0.004879793,0,0.01754237,5.7735023,0.012488501,nan,nan,nan,0.0,0.0,0.0,0.0,1310988,1310988,6620172,197388,0,0,129,1,1,1,1,1,0,0,0,0,0,0,0
3924000,3844000,13488881683,0.0007965521,0.011551832,0.004840652,0,0.01851949,5.7735023,0.012488501,nan,nan,nan,0.0,0.0,0.0,0.0,1310988,1310988,6620172,197388,0,0,129,1,1,1,1,1,0,0,0,0,0,0,0
3932000,3852000,13488881683,0.0007909859,0.011129993,0.004797935,0,0.019552942,5.7735023,0.012488501,nan,nan,nan,0.0,0.0,0.0,0.0,1310988,1310988,6620172,197388,0,0,129,1,1,1,1,1,0,0,0,0,0,0,0
3940000,3860000,13488881683,0.0003473768,0.010718911,0.0047516227,0,0.020641683,5.7735023,0.018190332,nan,nan,nan,0.0,0.0,0.0,0.0,1310988,1310988,6620172,197388,0,0,129,1,1,1,1,1,0,0,0,0,0,0,0
3948000,3868000,13488881683,0.00035098236,0.010318937,0.0047020935,0,0.02178476,5.7735023,0.018190332,nan,nan,nan,0.0,0.0,0.0,0.0,1310988,1310988,6620172,197388,0,0,129,1,1,1,1,1,0,0,0,0,0,0,0
3956000,3876000,13488881683,0.0003543663,0.0099303145,0.0046494715,0,0.022981348,5.7735023,0.018190332,nan,nan,nan,0.0,0.0,0.0,0.0,1310988,1310988,6620172,197388,0,0,129,1,1,1,1,1,0,0,0,0,0,0,0
3964000,3884000,13488881683,0.00039537964,0.009552805,0.0045940345,0,0.024230713,5.7735023,0.018190332,nan,nan,nan,0.0,0.0,0.0,0.0,1310988,1310988,6620172,197388,0,0,129,1,1,1,1,1,0,0,0,0,0,0,0
3972000,3892000,13488881683,0.0004360298,0.00918612,0.004535797,0,0.025532247,5.7735023,0.018190332,nan,nan,nan,0.0,0.0,0.0,0.0,1310988,1310988,6620172,197388,0,0,129,1,1,1,1,1,0,0,0,0,0,0,0
3980000,3900000,13488881683,0.00047660468,0.008830052,0.004475313,0,0.026885502,5.7735023,0.018190332,nan,nan,nan,0.0,0.0,0.0,0.0,1310988,1310988,6620172,197388,0,0,129,1,1,1,1,1,0,0,0,0,0,0,0
3988000,3908000,13488881683,0.00051683927,0.008484313,0.0044128494,0,0.028290112,5.7735023,0.018190332,nan,nan,nan,0.0,0.0,0.0,0.0,1310988,1310988,6620172,197388,0,0,129,1,1,1,1,1,0,0,0,0,0,0,0
3996000,3916000,13488881683,0.00055652065,0.008148592,0.004347857,0,0.02974567,5.7735033,0.018190332,nan,nan,nan,0.0,0.0,0.0,0.0,1310988,1310988,6620172,197388,0,0,129,1,1,1,1,1,0,0,0,0,0,0,0
4004000,3924000,13488881683,0.00059615273,0.007822468,0.0042812754,0,0.031251952,5.773504,0.018190332,nan,nan,nan,0.0,0.0,0.0,0.0,1310988,1310988,6620172,197388,0,0,129,1,1,1,1,1,0,0,0,0,0,0,0
4012000,3932000,13488881683,0.00020919634,0.007505505,0.004212955,0,0.03280888,5.7735047,0.007883252,nan,nan,nan,0.0,0.0,0.0,0.0,1310988,1310988,6620172,197388,0,0,129,1,1,1,1,1,0,0,0,0,0,0,0
4020000,3940000,13488881683,0.00024135472,0.0071982606,0.004143044,0,0.03441638,5.773505,0.007883252,nan,nan,nan,0.0,0.0,0.0,0.0,1310988,1310988,6620172,197388,0,0,129,1,1,1,1,1,0,0,0,0,0,0,0
4028000,3948000,13488881683,0.0004329948,0.0073905163,0.004428374,0,0.013166531,5.000002,0.007883252,nan,nan,nan,0.0,0.0,0.0,0.0,1310988,1310988,6620172,197388,0,0,129,1,1,1,1,1,0,0,0,0,0,0,0
4036000,3956000,13488881683,0.00042520693,0.007104389,0.0043469965,0,0.013800665,5.0000024,0.007883252,nan,nan,nan,0.0,0.0,0.0,0.0,1310988,1310988,6620172,197388,0,0,129,1,1,1,1,1,0,0,0,0,0,0,0
4044000,3964000,13488881683,0.00041854728,0.006826969,0.0042654006,0,0.014474136,5.000003,0.007883252,nan,nan,nan,0.0,0.0,0.0,0.0,1310988,1310988,6620172,197388,0,0,129,1,1,1,1,1,0,0,0,0,0,0,0
4052000,3972000,13488881683,0.00041238428,0.0065584644,0.0041828165,0,0.015186678,5.0000033,0.007883252,nan,nan,nan,0.0,0.0,0.0,0.0,1310988,1310988,6620172,197388,0,0,129,1,1,1,1,1,0,0,0,0,0,0,0
4060000,3980000,13488881683,0.00046643295,0.0067450665,0.004171183,0,0.015265161,5.0000033,0.007883252,nan,nan,nan,0.0,0.0,0.0,0.0,1310988,1310988,6620172,197388,0,0,129,1,1,1,1,1,0,0,0,0,0,0,0
4068000,3988000,13488881683,0.00046559892,0.006486585,0.004088919,0,0.01598645,5.000004,0.007883252,nan,nan,nan,0.0,0.0,0.0,0.0,1310988,1310988,6620172,197388,0,0,129,1,1,1,1,1,0,0,0,0,0,0,0
4076000,3996000,13488881683,0.0004663006,0.0062363325,0.0040063816,0,0.016744044,5.0000043,0.007883252,nan,nan,nan,0.0,0.0,0.0,0.0,1310988,1310988,6620172,197388,0,0,129,1,1,1,1,1,0,0,0,0,0,0,0
4084000,4004000,4898947603,0.0009156614,0.005993317,0.0039236476,0,0.01753808,5.000005,0.014981295,nan,nan,0.0018986744,0.0,0.0,0.0,0.0,1310988,1310988,6620172,197388,0,0,165,1,1,1,1,1,0,0,0,0,0,0,0
4092000,4012000,4898947603,0.0009453444,0.0057593286,0.0038408274,0,0.018368678,5.0000057,0.014981295,nan,nan,0.0018986744,0.0,0.0,0.0,0.0,1310988,1310988,6620172,197388,0,0,165,1,1,1,1,1,0,0,0,0,0,0,0
4100000,4020000,4898947603,0.0009569832,0.005533059,0.0037581152,0,0.01923607,5.000006,0.014981295,nan,nan,0.0018986744,0.0,0.0,0.0,0.0,1310988,1310988,6620172,197388,0,0,165,1,1,1,1,1,0,0,0,0,0,0,0
4108000,4028000,4898947603,0.0009704674,0.0053145676,0.0036753004,0,0.020140499,5.000007,0.014981295,nan,nan,0.0018986744,0.0,0.0,0.0,0.0,1310988,1310988,6620172,197388,0,0,165,1,1,1,1,1,0,0,0,0,0,0,0
4116000,4036000,4898947603,0.00097164785,0.0050977096,0.00359262,0,0.021082236,5.0000076,0.014981295,nan,nan,0.0018986744,0.0,0.0,0.0,0.0,1310988,1310988,6620172,197388,0,0,165,1,1,1,1,1,0,0,0,0,0,0,0
4124000,4044000,4898947603,0.00097235944,0.0048872163,0.0035102502,0,0.022061685,5.0000086,0.014981295,nan,nan,0.0018986744,0.0,0.0,0.0,0.0,1310988,1310988,6620172,197388,0,0,165,1,1,1,1,1,0,0,0,0,0,0,0
4132000,4052000,4898947603,0.00097276457,0.004683082,0.0034277728,0,0.023079243,5.0000095,0.014981295,nan,nan,0.0018986744,0.0,0.0,0.0,0.0,1310988,1310988,6620172,197388,0,0,165,1,1,1,1,1,0,0,0,0,0,0,0
4140000,4060000,4898947603,0.0009727632,0.0044852644,0.0033457605,0,0.02413536,5.00001,0.014981295,nan,nan,0.0018986744,0.0,0.0,0.0,0.0,1310988,1310988,6620172,197388,0,0,165,1,1,1,1,1,0,0,0,0,0,0,0
4148000,4068000,4898947603,0.00096972764,0.0042885696,0.028413441,0,0.025230601,2.8673136,0.014981295,nan,nan,0.0015393667,0.0,0.0,0.0,0.0,1310988,1310988,6620172,197388,0,0,165,1,1,1,1,1,0,0,0,0,0,0,0
4156000,4076000,4898947603,0.0019526639,0.0040948377,0.027484376,0,0.026365452,2.8673143,0.01919049,nan,nan,0.0015393667,0.0,0.0,0.0,0.0,1310988,1310988,6620172,197388,0,0,165,1,1,1,1,1,0,0,0,0,0,0,0
4164000,4084000,4898947603,0.0019547713,0.0039095487,0.026584348,0,0.027540438,2.8673148,0.01919049,nan,nan,0.0015393667,0.0,0.0,0.0,0.0,1310988,1310988,6620172,197388,0,0,165,1,1,1,1,1,0,0,0,0,0,0,0
4172000,4092000,4898947603,0.0019136163,0.003729319,0.025712246,0,0.028756147,2.8673155,0.01919049,nan,nan,0.0015393667,0.0,0.0,0.0,0.0,1310988,1310988,6620172,197388,0,0,165,1,1,1,1,1,0,0,0,0,0,0,0
4180000,4100000,4898947603,0.0018708261,0.0035541255,0.024867197,0,0.030013192,2.8673162,0.01919049,nan,nan,0.0015393667,0.0,0.0,0.0,0.0,1310988,1310988,6620172,197388,0,0,165,1,1,1,1,1,0,0,0,0,0,0,0
4188000,4108000,4898947603,0.0018278765,0.0033837652,0.024048489,0,0.031312164,2.867317,0.01919049,nan,nan,0.0015393667,0.0,0.0,0.0,0.0,1310988,1310988,6620172,197388,0,0,165,1,1,1,1,1,0,0,0,0,0,0,0
4196000,4116000,4898947603,0.001784555,0.0032181889,0.02325556,0,0.032653637,2.8673182,0.01919049,nan,nan,0.0015393667,0.0,0.0,0.0,0.0,1310988,1310988,6620172,197388,0,0,165,1,1,1,1,1,0,0,0,0,0,0,0
4204000,4124000,4898947603,0.0017409096,0.0030562766,0.064248264,0,0.03403829,2.2180383,0.01919049,nan,nan,0.0045976816,0.0,0.0,0.0,0.0,1310988,1310988,6620172,197388,0,0,165,1,1,1,1,1,0,0,0,0,0,0,0
4212000,4132000,4898947603,0.0016971045,0.002900084,0.062162682,0,0.035466883,2.2180393,0.01919049,nan,nan,0.0045976816,0.0,0.0,0.0,0.0,1310988,1310988,6620172,197388,0,0,165,1,1,1,1,1,0,0,0,0,0,0,0
4220000,4140000,4898947603,0.003775066,0.0027383466,0.060139135,0,0.036940046,2.2180402,0.040956,nan,nan,0.0045976816,0.0,0.0,0.0,0.0,1310988,1310988,6620172,197388,0,0,165,1,1,1,1,1,0,0,0,0,0,0,0
4228000,4148000,4898947603,0.003737078,0.0025907354,0.0581756,0,0.038458455,2.2180412,0.040956,nan,nan,0.0045976816,0.0,0.0,0.0,0.0,1310988,1310988,6620172,197388,0,0,165,1,1,1,1,1,0,0,0,0,0,0,0
4236000,4156000,4898947603,0.0038433527,0.0049393172,0.056283936,0,0.013334182,2.2180424,0.040956,nan,nan,0.0045976816,0.0,0.0,0.0,0.0,1310988,1310988,6620172,197388,0,0,165,1,1,1,1,1,0,0,0,0,0,0,0
4244000,4164000,4898947603,0.003753663,0.004815323,0.054436192,0,0.013884238,2.2180438,0.040956,nan,nan,0.0045976816,0.0,0.0,0.0,0.0,1310988,1310988,6620172,197388,0,0,165,1,1,1,1,1,0,0,0,0,0,0,0
4252000,4172000,4898947603,0.0036640503,0.004696851,0.032647908,0,0.014477245,1.8735132,0.040956,nan,nan,0.003370229,0.0,0.0,0.0,0.0,1310988,1310988,6620172,197388,0,0,165,1,1,1,1,1,0,0,0,0,0,0,0
4260000,4180000,4898947603,0.0035766447,0.004582354,0.031550974,0,0.01511415,1.8735145,0.040956,nan,nan,0.003370229,0.0,0.0,0.0,0.0,1310988,1310988,6620172,197388,0,0,165,1,1,1,1,1,0,0,0,0,0,0,0
4268000,4188000,4898947603,0.003560163,0.0051763686,0.030390572,0,0.0152166635,1.8735154,0.040956,nan,nan,0.003370229,0.0,0.0,0.0,0.0,1310988,1310988,6620172,197388,0,0,165,1,1,1,1,1,0,0,0,0,0,0,0
4276000,4196000,4898947603,0.0034797862,0.005050469,0.029354675,0,0.015870534,1.8735168,0.040956,nan,nan,0.003370229,0.0,0.0,0.0,0.0,1310988,1310988,6620172,197388,0,0,165,1,1,1,1,1,0,0,0,0,0,0,0
4284000,4204000,4898947603,0.0034020913,0.0049305647,0.028349863,0,0.016566865,1.8735185,0.040956,nan,nan,0.003370229,0.0,0.0,0.0,0.0,1310988,1310988,6620172,197388,0,0,165,1,1,1,1,1,0,0,0,0,0,0,0
4292000,4212000,4898947603,0.0038447941,0.004813518,0.027376007,0,0.017306317,1.8735201,0.010777345,nan,nan,0.003370229,0.0,0.0,0.0,0.0,1310988,1310988,6620172,197388,0,0,165,1,1,1,1,1,0,0,0,0,0,0,0
4300000,4220000,4898947603,0.0037718737,0.0047040964,0.02643148,0,0.018089537,1.873522,0.010777345,nan,nan,0.003370229,0.0,0.0,0.0,0.0,1310988,1310988,6620172,197388,0,0,165,1,1,1,1,1,0,0,0,0,0,0,0
4308000,4228000,4898947603,0.0035965368,0.004599564,0.025515588,0,0.018917164,1.873524,0.010777345,nan,nan,0.003370229,0.0,0.0,0.0,0.0,1310988,1310988,6620172,197388,0,0,165,1,1,1,1,1,0,0,0,0,0,0,0
4316000,4236000,4898947603,0.0034245092,0.0044996287,0.028010316,0,0.019789705,1.6517652,0.010777345,nan,nan,0.00076625316,0.0,0.0,0.0,0.0,1310988,1310988,6620172,197388,0,0,165,1,1,1,1,1,0,0,0,0,0,0,0
4324000,4244000,4898947603,0.003235569,0.0043997015,0.027040398,0,0.020707732,1.6517673,0.010777345,nan,nan,0.00076625316,0.0,0.0,0.0,0.0,1310988,1310988,6620172,197388,0,0,165,1,1,1,1,1,0,0,0,0,0,0,0
4332000,4252000,4898947603,0.003051224,0.0043009254,0.026099691,0,0.021671765,1.6517695,0.010777345,nan,nan,0.00076625316,0.0,0.0,0.0,0.0,1310988,1310988,6620172,197388,0,0,165,1,1,1,1,1,0,0,0,0,0,0,0
4340000,4260000,4898947603,0.0028713897,0.004202876,0.025187531,0,0.022682311,1.6517719,0.010777345,nan,nan,0.00076625316,0.0,0.0,0.0,0.0,1310988,1310988,6620172,197388,0,0,165,1,1,1,1,1,0,0,0,0,0,0,0
4348000,4268000,4898947603,0.0026961495,0.004105221,0.02430286,0,0.023739725,1.6517745,0.010777345,nan,nan,0.00076625316,0.0,0.0,0.0,0.0,1310988,1310988,6620172,197388,0,0,165,1,1,1,1,1,0,0,0,0,0,0,0
4356000,4276000,4898947603,0.0019508069,0.0040113265,0.023445355,0,0.024844483,1.6517773,0.012625165,nan,nan,0.00076625316,0.0,0.0,0.0,0.0,1310988,1310988,6620172,197388,0,0,165,1,1,1,1,1,0,0,0,0,0,0,0
4364000,4284000,4898947603,0.0017791524,0.003914325,0.022613997,0,0.0259971,1.6517802,0.012625165,nan,nan,0.00076625316,0.0,0.0,0.0,0.0,1310988,1310988,6620172,197388,0,0,165,1,1,1,1,1,0,0,0,0,0,0,0
4372000,4292000,4898947603,0.0016118664,0.003816971,0.033218056,0,0.02719792,1.4937867,0.012625165,nan,nan,0.0032412068,0.0,0.0,0.0,0.0,1310988,1310988,6620172,197388,0,0,165,1,1,1,1,1,0,0,0,0,0,0,0
4380000,4300000,4898947603,0.0014244294,0.00372082,0.032069713,0,0.028447507,1.4937898,0.012625165,nan,nan,0.0032412068,0.0,0.0,0.0,0.0,1310988,1310988,6620172,197388,0,0,165,1,1,1,1,1,0,0,0,0,0,0,0
4388000,4308000,4898947603,0.0012419975,0.0036243096,0.030956075,0,0.029746255,1.4937931,0.012625165,nan,nan,0.0032412068,0.0,0.0,0.0,0.0,1310988,1310988,6620172,197388,0,0,165,1,1,1,1,1,0,0,0,0,0,0,0
4396000,4316000,4898947603,0.0010694702,0.0035276483,0.029875755,0,0.031094698,1.4937966,0.012625165,nan,nan,0.0032412068,0.0,0.0,0.0,0.0,1310988,1310988,6620172,197388,0,0,165,1,1,1,1,1,0,0,0,0,0,0,0
4404000,4324000,4898947603,0.00090714917,0.003431185,0.028827948,0,0.032493237,1.4938004,0.012625165,nan,nan,0.0032412068,0.0,0.0,0.0,0.0,1310988,1310988,6620172,197388,0,0,165,1,1,1,1,1,0,0,0,0,0,0,0
4412000,4332000,4898947603,0.00075785955,0.0033350599,0.02781186,0,0.03394229,1.4938043,0.012625165,nan,nan,0.0032412068,0.0,0.0,0.0,0.0,1310988,1310988,6620172,197388,0,0,165,1,1,1,1,1,0,0,0,0,0,0,0
4420000,4340000,4898947603,0.00062329334,0.003239908,0.026826376,0,0.03544225,1.4938086,0.012625165,nan,nan,0.0032412068,0.0,0.0,0.0,0.0,1310988,1310988,6620172,197388,0,0,165,1,1,1,1,1,0,0,0,0,0,0,0
4428000,4348000,4898947603,0.0004710483,0.0031464633,0.02587062,0,0.03699364,1.493813,0.0018518431,nan,nan,0.0032412068,0.0,0.0,0.0,0.0,1310988,1310988,6620172,197388,0,0,165,1,1,1,1,1,0,0,0,0,0,0,0
4436000,4356000,4898947603,0.00039861017,0.0030520563,0.0024197132,0,0.038596988,1.3739123,0.0018518431,nan,nan,0.0091977175,0.0,0.0,0.0,0.0,1310988,1310988,6620172,197388,0,0,165,1,1,1,1,1,0,0,0,0,0,0,0
4444000,4364000,4898947603,0.0014552845,0.0060587605,0.0028140733,0,0.01334262,1.373917,0.0018518431,nan,nan,0.0091977175,0.0,0.0,0.0,0.0,1310988,1310988,6620172,197388,0,0,165,1,1,1,1,1,0,0,0,0,0,0,0
4452000,4372000,4898947603,0.0014267102,0.00594562,0.0028304777,0,0.013923907,1.3739219,0.0018518431,nan,nan,0.0091977175,0.0,0.0,0.0,0.0,1310988,1310988,6620172,197388,0,0,165,1,1,1,1,1,0,0,0,0,0,0,0
4460000,4380000,4898947603,0.0014043798,0.005835127,0.002845369,0,0.014552592,1.373927,0.0018518431,nan,nan,0.0091977175,0.0,0.0,0.0,0.0,1310988,1310988,6620172,197388,0,0,165,1,1,1,1,1,0,0,0,0,0,0,0
4468000,4388000,4898947603,0.0013869557,0.005725992,0.0028593717,0,0.015228735,1.3739325,0.0018518431,nan,nan,0.0091977175,0.0,0.0,0.0,0.0,1310988,1310988,6620172,197388,0,0,165,1,1,1,1,1,0,0,0,0,0,0,0
4476000,4396000,4898947603,0.0015058275,0.0059931087,0.0031409692,0,0.015276778,1.3739309,0.0018518431,nan,nan,0.0091977175,0.0,0.0,0.0,0.0,1310988,1310988,6620172,197388,0,0,165,1,1,1,1,1,0,0,0,0,0,0,0
4484000,4404000,4898947603,0.0014953928,0.0058631115,0.003156781,0,0.015962658,1.3739363,0.0018518431,nan,nan,0.0091977175,0.0,0.0,0.0,0.0,1310988,1310988,6620172,197388,0,0,165,1,1,1,1,1,0,0,0,0,0,0,0
4492000,4412000,4898947603,0.0014871175,0.005736004,0.0019063494,0,0.01669191,1.2789301,0.0018518431,nan,nan,0.0008399962,0.0,0.0,0.0,0.0,1310988,1310988,6620172,197388,0,0,165,1,1,1,1,1,0,0,0,0,0,0,0
4500000,4420000,4898947603,0.0014219714,0.0056118127,0.0019209246,0,0.0174644,1.2789356,0.0081618745,nan,nan,0.0008399962,0.0,0.0,0.0,0.0,1310988,1310988,6620172,197388,0,0,165,1,1,1,1,1,0,0,0,0,0,0,0
4508000,4428000,4898947603,0.0014106656,0.0054923575,0.0019387543,0,0.0182801,1.2789414,0.0081618745,nan,nan,0.0008399962,0.0,0.0,0.0,0.0,1310988,1310988,6620172,197388,0,0,165,1,1,1,1,1,0,0,0,0,0,0,0
4516000,4436000,4898947603,0.001401961,0.0053765816,0.001958934,0,0.019138848,1.2789476,0.0081618745,nan,nan,0.0008399962,0.0,0.0,0.0,0.0,1310988,1310988,6620172,197388,0,0,165,1,1,1,1,1,0,0,0,0,0,0,0
4524000,4444000,4898947603,0.0013957031,0.0052646305,0.0019811476,0,0.020040512,1.2789541,0.0081618745,nan,nan,0.0008399962,0.0,0.0,0.0,0.0,1310988,1310988,6620172,197388,0,0,165,1,1,1,1,1,0,0,0,0,0,0,0
4532000,4452000,4898947603,0.0013250666,0.0051589026,0.0020043543,0,0.020984989,1.2789608,0.0081618745,nan,nan,0.0008399962,0.0,0.0,0.0,0.0,1310988,1310988,6620172,197388,0,0,165,1,1,1,1,1,0,0,0,0,0,0,0
4540000,4460000,4898947603,0.0012560767,0.005052273,0.00202832,0,0.021972153,1.278968,0.0081618745,nan,nan,0.0008399962,0.0,0.0,0.0,0.0,1310988,1310988,6620172,197388,0,0,165,1,1,1,1,1,0,0,0,0,0,0,0
4548000,4468000,4898947603,0.001188631,0.0049444907,0.0020523088,0,0.023001881,1.2789755,0.0081618745,nan,nan,0.0008399962,0.0,0.0,0.0,0.0,1310988,1310988,6620172,197388,0,0,165,1,1,1,1,1,0,0,0,0,0,0,0
4556000,4476000,4898947603,0.0011226891,0.004835407,0.007251615,0,0.024074173,1.2012889,0.0081618745,nan,nan,0.0037089596,0.0,0.0,0.0,0.0,1310988,1310988,6620172,197388,0,0,165,1,1,1,1,1,0,0,0,0,0,0,0
4564000,4484000,4898947603,0.0010498932,0.004726123,0.0069314055,0,0.025188992,1.2012966,0.0081618745,nan,nan,0.0037089596,0.0,0.0,0.0,0.0,1310988,1310988,6620172,197388,0,0,165,1,1,1,1,1,0,0,0,0,0,0,0
4572000,4492000,4898947603,0.0010397602,0.0046144566,0.0066219955,0,0.02634628,1.2013047,0.0062217326,nan,nan,0.0037089596,0.0,0.0,0.0,0.0,1310988,1310988,6620172,197388,0,0,165,1,1,1,1,1,0,0,0,0,0,0,0
4580000,4500000,4898947603,0.0009811154,0.004503334,0.0063233054,0,0.027546074,1.201313,0.0062217326,nan,nan,0.0037089596,0.0,0.0,0.0,0.0,1310988,1310988,6620172,197388,0,0,165,1,1,1,1,1,0,0,0,0,0,0,0
4588000,4508000,4898947603,0.00091673597,0.0043917163,0.006034607,0,0.028788438,1.2013218,0.0062217326,nan,nan,0.0037089596,0.0,0.0,0.0,0.0,1310988,1310988,6620172,197388,0,0,165,1,1,1,1,1,0,0,0,0,0,0,0
4596000,4516000,4898947603,0.0008542707,0.004278916,0.005755617,0,0.030073518,1.201331,0.0062217326,nan,nan,0.0037089596,0.0,0.0,0.0,0.0,1310988,1310988,6620172,197388,0,0,165,1,1,1,1,1,0,0,0,0,0,0,0
4604000,4524000,4898947603,0.0007935714,0.004165309,0.005486201,0,0.03140136,1.2013406,0.0062217326,nan,nan,0.0037089596,0.0,0.0,0.0,0.0,1310988,1310988,6620172,197388,0,0,165,1,1,1,1,1,0,0,0,0,0,0,0
4612000,4532000,4898947603,0.00073465094,0.004051682,0.0056047067,0,0.032771964,1.1362782,0.0062217326,nan,nan,0.00020369004,0.0,0.0,0.0,0.0,1310988,1310988,6620172,197388,0,0,165,1,1,1,1,1,0,0,0,0,0,0,0
4620000,4540000,4898947603,0.0006804802,0.003937704,0.0053400444,0,0.034185503,1.1362879,0.0062217326,nan,nan,0.00020369004,0.0,0.0,0.0,0.0,1310988,1310988,6620172,197388,0,0,165,1,1,1,1,1,0,0,0,0,0,0,0
4628000,4548000,4898947603,0.0006310475,0.0038238673,0.0050842976,0,0.03564215,1.1362983,0.0062217326,nan,nan,0.00020369004,0.0,0.0,0.0,0.0,1310988,1310988,6620172,197388,0,0,165,1,1,1,1,1,0,0,0,0,0,0,0
4636000,4556000,4898947603,0.0010381859,0.0037079605,0.0048373085,0,0.037142057,1.1363089,0.011103243,nan,nan,0.00020369004,0.0,0.0,0.0,0.0,1310988,1310988,6620172,197388,0,0,165,1,1,1,1,1,0,0,0,0,0,0,0
4644000,4564000,4898947603,0.0010179692,0.003595158,0.00459884,0,0.03868551,1.1363201,0.011103243,nan,nan,0.00020369004,0.0,0.0,0.0,0.0,1310988,1310988,6620172,197388,0,0,165,1,1,1,1,1,0,0,0,0,0,0,0
4652000,4572000,4898947603,0.0014604739,0.005813522,0.004565408,0,0.013343342,1.1363318,0.011103243,nan,nan,0.00020369004,0.0,0.0,0.0,0.0,1310988,1310988,6620172,197388,0,0,165,1,1,1,1,1,0,0,0,0,0,0,0
4660000,4580000,4898947603,0.0014186156,0.0056744544,0.0052464153,0,0.013894415,1.0808066,0.011103243,nan,nan,0.0049625505,0.0,0.0,0.0,0.0,1310988,1310988,6620172,197388,0,0,165,1,1,1,1,1,0,0,0,0,0,0,0
4668000,4588000,4898947603,0.0013790762,0.0055389013,0.005185291,0,0.014481149,1.0808185,0.011103243,nan,nan,0.0049625505,0.0,0.0,0.0,0.0,1310988,1310988,6620172,197388,0,0,165,1,1,1,1,1,0,0,0,0,0,0,0
4676000,4596000,4898947603,0.0013421011,0.0054054083,0.0051247105,0,0.01510326,1.080831,0.011103243,nan,nan,0.0049625505,0.0,0.0,0.0,0.0,1310988,1310988,6620172,197388,0,0,165,1,1,1,1,1,0,0,0,0,0,0,0
4684000,4604000,4898947603,0.0013663315,0.0055872584,0.0056497264,0,0.015184054,1.0808154,0.011103243,nan,nan,0.0049625505,0.0,0.0,0.0,0.0,1310988,1310988,6620172,197388,0,0,165,1,1,1,1,1,0,0,0,0,0,0,0
4692000,4612000,4898947603,0.0013348191,0.005419857,0.0055901688,0,0.01581636,1.080827,0.011103243,nan,nan,0.0049625505,0.0,0.0,0.0,0.0,1310988,1310988,6620172,197388,0,0,165,1,1,1,1,1,0,0,0,0,0,0,0
4700000,4620000,4898947603,0.0013058174,0.0052565834,0.0055307066,0,0.01648106,1.080839,0.011103243,nan,nan,0.0049625505,0.0,0.0,0.0,0.0,1310988,1310988,6620172,197388,0,0,165,1,1,1,1,1,0,0,0,0,0,0,0
4708000,4628000,4898947603,0.0012980305,0.005097602,0.0054723383,0,0.017177934,1.0808514,0.0005642895,nan,nan,0.0049625505,0.0,0.0,0.0,0.0,1310988,1310988,6620172,197388,0,0,165,1,1,1,1,1,0,0,0,0,0,0,0
4716000,4636000,4898947603,0.0012738742,0.0049427347,0.0054143965,0,0.017906807,1.0808644,0.0005642895,nan,nan,0.0049625505,0.0,0.0,0.0,0.0,1310988,1310988,6620172,197388,0,0,165,1,1,1,1,1,0,0,0,0,0,0,0
4724000,4644000,4898947603,0.0012323894,0.0047923382,0.006001474,0,0.018667467,1.0327518,0.0005642895,nan,nan,0.0004276489,0.0,0.0,0.0,0.0,1310988,1310988,6620172,197388,0,0,165,1,1,1,1,1,0,0,0,0,0,0,0
4732000,4652000,4898947603,0.0011936749,0.0046462854,0.005924091,0,0.019459635,1.032765,0.0005642895,nan,nan,0.0004276489,0.0,0.0,0.0,0.0,1310988,1310988,6620172,197388,0,0,165,1,1,1,1,1,0,0,0,0,0,0,0
4740000,4660000,4898947603,0.0011214989,0.004508346,0.00584803,0,0.020283133,1.0327789,0.0005642895,nan,nan,0.0004276489,0.0,0.0,0.0,0.0,1310988,1310988,6620172,197388,0,0,165,1,1,1,1,1,0,0,0,0,0,0,0
4748000,4668000,4898947603,0.0010514273,0.0043714447,0.0057732407,0,0.02113786,1.0327932,0.0005642895,nan,nan,0.0004276489,0.0,0.0,0.0,0.0,1310988,1310988,6620172,197388,0,0,165,1,1,1,1,1,0,0,0,0,0,0,0
4756000,4676000,4898947603,0.0009835565,0.0042358516,0.005699256,0,0.022023598,1.032808,0.0005642895,nan,nan,0.0004276489,0.0,0.0,0.0,0.0,1310988,1310988,6620172,197388,0,0,165,1,1,1,1,1,0,0,0,0,0,0,0
4764000,4684000,4898947603,0.00091753545,0.004101615,0.0056263534,0,0.022940218,1.0328233,0.0005642895,nan,nan,0.0004276489,0.0,0.0,0.0,0.0,1310988,1310988,6620172,197388,0,0,165,1,1,1,1,1,0,0,0,0,0,0,0
4772000,4692000,4898947603,0.00084962876,0.00396784,0.005554134,0,0.02388766,1.0328392,0.0005642895,nan,nan,0.0004276489,0.0,0.0,0.0,0.0,1310988,1310988,6620172,197388,0,0,165,1,1,1,1,1,0,0,0,0,0,0,0
4780000,4700000,4898947603,0.0008315794,0.0038371482,0.013110049,0,0.024865793,0.99062175,0.0014905871,nan,nan,0.0053276126,0.0,0.0,0.0,0.0,1310988,1310988,6620172,197388,0,0,165,1,1,1,1,1,0,0,0,0,0,0,0
4788000,4708000,4898947603,0.0007668233,0.0037068247,0.012792731,0,0.025874551,0.990638,0.0014905871,nan,nan,0.0053276126,0.0,0.0,0.0,0.0,1310988,1310988,6620172,197388,0,0,165,1,1,1,1,1,0,0,0,0,0,0,0
4796000,4716000,4898947603,0.00070234406,0.0035789753,0.012483081,0,0.02691394,0.9906549,0.0014905871,nan,nan,0.0053276126,0.0,0.0,0.0,0.0,1310988,1310988,6620172,197388,0,0,165,1,1,1,1,1,0,0,0,0,0,0,0
4804000,4724000,4898947603,0.00063906825,0.0034532964,0.0121809775,0,0.027983945,0.99067235,0.0014905871,nan,nan,0.0053276126,0.0,0.0,0.0,0.0,1310988,1310988,6620172,197388,0,0,165,1,1,1,1,1,0,0,0,0,0,0,0
4812000,4732000,4898947603,0.0005777818,0.0033299192,0.011886239,0,0.029084597,0.99069035,0.0014905871,nan,nan,0.0053276126,0.0,0.0,0.0,0.0,1310988,1310988,6620172,197388,0,0,165,1,1,1,1,1,0,0,0,0,0,0,0
4820000,4740000,4898947603,0.0005184339,0.0032086053,0.011598735,0,0.030215843,0.99070895,0.0014905871,nan,nan,0.0053276126,0.0,0.0,0.0,0.0,1310988,1310988,6620172,197388,0,0,165,1,1,1,1,1,0,0,0,0,0,0,0
4828000,4748000,4898947603,0.00046268507,0.0030895686,0.01131814,0,0.03137776,0.9907282,0.0014905871,nan,nan,0.0053276126,0.0,0.0,0.0,0.0,1310988,1310988,6620172,197388,0,0,165,1,1,1,1,1,0,0,0,0,0,0,0
4836000,4756000,4898947603,0.00041053767,0.0029738534,0.011044385,0,0.03257033,0.99074805,0.0014905871,nan,nan,0.0053276126,0.0,0.0,0.0,0.0,1310988,1310988,6620172,197388,0,0,165,1,1,1,1,1,0,0,0,0,0,0,0
4844000,4764000,4898947603,0.0003618919,0.002860228,0.013287737,0,0.033793654,0.953309,0.0014905871,nan,nan,0.0018749303,0.0,0.0,0.0,0.0,1310988,1310988,6620172,197388,0,0,165,1,1,1,1,1,0,0,0,0,0,0,0
4852000,4772000,4898947603,0.00076102896,0.002750421,0.012946154,0,0.035047766,0.9533294,0.009904885,nan,nan,0.0018749303,0.0,0.0,0.0,0.0,1310988,1310988,6620172,197388,0,0,165,1,1,1,1,1,0,0,0,0,0,0,0
4860000,4780000,4898947603,0.0009408684,0.0039222594,0.012648503,0,0.013178981,0.95335037,0.009904885,nan,nan,0.0018749303,0.0,0.0,0.0,0.0,1310988,1310988,6620172,197388,0,0,165,1,1,1,1,1,0,0,0,0,0,0,0
4868000,4788000,4898947603,0.00090643635,0.0038009433,0.012324465,0,0.01366345,0.953372,0.009904885,nan,nan,0.0018749303,0.0,0.0,0.0,0.0,1310988,1310988,6620172,197388,0,0,165,1,1,1,1,1,0,0,0,0,0,0,0
4876000,4796000,4898947603,0.0008752827,0.0036829126,0.01200889,0,0.014173094,0.95339435,0.009904885,nan,nan,0.0018749303,0.0,0.0,0.0,0.0,1310988,1310988,6620172,197388,0,0,165,1,1,1,1,1,0,0,0,0,0,0,0
4884000,4804000,4898947603,0.000847285,0.003569046,0.011701212,0,0.014707699,0.9534174,0.009904885,nan,nan,0.0018749303,0.0,0.0,0.0,0.0,1310988,1310988,6620172,197388,0,0,165,1,1,1,1,1,0,0,0,0,0,0,0
4892000,4812000,4898947603,0.00086557126,0.004018855,0.012353997,0,0.014844943,0.953358,0.009904885,nan,nan,0.0018749303,0.0,0.0,0.0,0.0,1310988,1310988,6620172,197388,0,0,165,1,1,1,1,1,0,0,0,0,0,0,0
4900000,4820000,4898947603,0.0008447359,0.0038411103,0.009396093,0,0.01539227,0.91986275,0.009904885,nan,nan,0.0021441232,0.0,0.0,0.0,0.0,1310988,1310988,6620172,197388,0,0,165,1,1,1,1,1,0,0,0,0,0,0,0
4908000,4828000,4898947603,0.00082667253,0.0036723954,0.009188704,0,0.015962943,0.91988295,0.009904885,nan,nan,0.0021441232,0.0,0.0,0.0,0.0,1310988,1310988,6620172,197388,0,0,165,1,1,1,1,1,0,0,0,0,0,0,0
4916000,4836000,4898947603,0.00081122725,0.0035091809,0.008986588,0,0.016556794,0.9199038,0.009904885,nan,nan,0.0021441232,0.0,0.0,0.0,0.0,1310988,1310988,6620172,197388,0,0,165,1,1,1,1,1,0,0,0,0,0,0,0
4924000,4844000,4898947603,0.0031851584,0.0033560789,0.008789394,0,0.017173665,0.9199253,0.04983094,nan,nan,0.0021441232,0.0,0.0,0.0,0.0,1310988,1310988,6620172,197388,0,0,165,1,1,1,1,1,0,0,0,0,0,0,0
4932000,4852000,4898947603,0.0031842187,0.0032033205,0.00859685,0,0.01781334,0.9199474,0.04983094,nan,nan,0.0021441232,0.0,0.0,0.0,0.0,1310988,1310988,6620172,197388,0,0,165,1,1,1,1,1,0,0,0,0,0,0,0
4940000,4860000,4898947603,0.0031579107,0.0030555043,0.008408973,0,0.018475635,0.9199701,0.04983094,nan,nan,0.0021441232,0.0,0.0,0.0,0.0,1310988,1310988,6620172,197388,0,0,165,1,1,1,1,1,0,0,0,0,0,0,0
4948000,4868000,4898947603,0.0031281174,0.0029161202,0.008225502,0,0.019160448,0.9199935,0.04983094,nan,nan,0.0021441232,0.0,0.0,0.0,0.0,1310988,1310988,6620172,197388,0,0,165,1,1,1,1,1,0,0,0,0,0,0,0
4956000,4876000,4898947603,0.0030996932,0.0027801748,0.008046626,0,0.01986772,0.9200176,0.04983094,nan,nan,0.0021441232,0.0,0.0,0.0,0.0,1310988,1310988,6620172,197388,0,0,165,1,1,1,1,1,0,0,0,0,0,0,0
4964000,4884000,4898947603,0.0030730127,0.0026460069,0.006524741,0,0.020597326,0.8898127,0.04983094,nan,nan,0.0011719413,0.0,0.0,0.0,0.0,1310988,1310988,6620172,197388,0,0,165,1,1,1,1,1,0,0,0,0,0,0,0
4972000,4892000,4898947603,0.0030474677,0.002517369,0.0063972105,0,0.021349145,0.8898373,0.04983094,nan,nan,0.0011719413,0.0,0.0,0.0,0.0,1310988,1310988,6620172,197388,0,0,165,1,1,1,1,1,0,0,0,0,0,0,0
4980000,4900000,4898947603,0.0030226626,0.0023892543,0.006272262,0,0.022123087,0.88986266,0.04983094,nan,nan,0.0011719413,0.0,0.0,0.0,0.0,1310988,1310988,6620172,197388,0,0,165,1,1,1,1,1,0,0,0,0,0,0,0
4988000,4908000,4898947603,0.0029989965,0.0022665686,0.006149015,0,0.0229191,0.88988864,0.04983094,nan,nan,0.0011719413,0.0,0.0,0.0,0.0,1310988,1310988,6620172,197388,0,0,165,1,1,1,1,1,0,0,0,0,0,0,0
4996000,4916000,4898947603,0.0030105999,0.0021484008,0.0060278787,0,0.023737095,0.8899154,0.0006595018,nan,nan,0.0011719413,0.0,0.0,0.0,0.0,1310988,1310988,6620172,197388,0,0,165,1,1,1,1,1,0,0,0,0,0,0,0
5004000,4924000,4898947603,0.0029891415,0.0020347408,0.005908723,0,0.024577042,0.8899429,0.0006595018,nan,nan,0.0011719413,0.0,0.0,0.0,0.0,1310988,1310988,6620172,197388,0,0,165,1,1,1,1,1,0,0,0,0,0,0,0
5012000,4932000,4898947603,0.0028301028,0.001927112,0.0057915105,0,0.025438929,0.88997114,0.0006595018,nan,nan,0.0011719413,0.0,0.0,0.0,0.0,1310988,1310988,6620172,197388,0,0,165,1,1,1,1,1,0,0,0,0,0,0,0
5020000,4940000,4898947603,0.0026710809,0.0018266889,0.012733813,0,0.026322724,0.8625501,0.0006595018,nan,nan,0.00648843,0.0,0.0,0.0,0.0,1310988,1310988,6620172,197388,0,0,165,1,1,1,1,1,0,0,0,0,0,0,0
5028000,4948000,4898947603,0.0025136138,0.0017274824,0.012395172,0,0.02722849,0.8625789,0.0006595018,nan,nan,0.00648843,0.0,0.0,0.0,0.0,1310988,1310988,6620172,197388,0,0,165,1,1,1,1,1,0,0,0,0,0,0,0
5036000,4956000,4898947603,0.0023575833,0.0016343989,0.012064847,0,0.028156186,0.8626086,0.0006595018,nan,nan,0.00648843,0.0,0.0,0.0,0.0,1310988,1310988,6620172,197388,0,0,165,1,1,1,1,1,0,0,0,0,0,0,0
5044000,4964000,4898947603,0.00220268,0.00154833,0.011742621,0,0.029105801,0.862639,0.0006595018,nan,nan,0.00648843,0.0,0.0,0.0,0.0,1310988,1310988,6620172,197388,0,0,165,1,1,1,1,1,0,0,0,0,0,0,0
5052000,4972000,4898947603,0.0020493073,0.0014689264,0.011428766,0,0.030077342,0.86267024,0.0006595018,nan,nan,0.00648843,0.0,0.0,0.0,0.0,1310988,1310988,6620172,197388,0,0,165,1,1,1,1,1,0,0,0,0,0,0,0
5060000,4980000,4898947603,0.0018971068,0.0013963036,0.011122731,0,0.031070884,0.8627023,0.0006595018,nan,nan,0.00648843,0.0,0.0,0.0,0.0,1310988,1310988,6620172,197388,0,0,165,1,1,1,1,1,0,0,0,0,0,0,0
5068000,4988000,4898947603,0.0012640998,0.003163884,0.010852357,0,0.012940924,0.8627352,0.053480625,nan,nan,0.00648843,0.0,0.0,0.0,0.0,1310988,1310988,6620172,197388,0,0,165,1,1,1,1,1,0,0,0,0,0,0,0
5076000,4996000,4898947603,0.0013970966,0.003090624,0.010562295,0,0.013364308,0.86276895,0.053480625,nan,nan,0.00648843,0.0,0.0,0.0,0.0,1310988,1310988,6620172,197388,0,0,165,1,1,1,1,1,0,0,0,0,0,0,0
5084000,5004000,4898947603,0.001536765,0.0030238628,0.007782843,0,0.013806305,0.8377247,0.053480625,nan,nan,0.0024375005,0.0,0.0,0.0,0.0,1310988,1310988,6620172,197388,0,0,165,1,1,1,1,1,0,0,0,0,0,0,0
5092000,5012000,4898947603,0.0016799592,0.0029603557,0.0075873095,0,0.014266764,0.83775914,0.053480625,nan,nan,0.0024375005,0.0,0.0,0.0,0.0,1310988,1310988,6620172,197388,0,0,165,1,1,1,1,1,0,0,0,0,0,0,0
5100000,5020000,4898947603,0.0018304373,0.003723499,0.0085667875,0,0.01443737,0.8376337,0.053480625,nan,nan,0.0024375005,0.0,0.0,0.0,0.0,1310988,1310988,6620172,197388,0,0,165,1,1,1,1,1,0,0,0,0,0,0,0
5108000,5028000,4898947603,0.00196392,0.0035765928,0.008366642,0,0.014911157,0.8376633,0.053480625,nan,nan,0.0024375005,0.0,0.0,0.0,0.0,1310988,1310988,6620172,197388,0,0,165,1,1,1,1,1,0,0,0,0,0,0,0
5116000,5036000,4898947603,0.0020916802,0.0034360124,0.008171128,0,0.01540246,0.8376936,0.053480625,nan,nan,0.0024375005,0.0,0.0,0.0,0.0,1310988,1310988,6620172,197388,0,0,165,1,1,1,1,1,0,0,0,0,0,0,0
5124000,5044000,4898947603,0.0022137137,0.0033016705,0.007980478,0,0.015911138,0.83772457,0.053480625,nan,nan,0.0024375005,0.0,0.0,0.0,0.0,1310988,1310988,6620172,197388,0,0,165,1,1,1,1,1,0,0,0,0,0,0,0
5132000,5052000,4898947603,0.0023292128,0.0031739469,0.007794502,0,0.016437093,0.83775634,0.053480625,nan,nan,0.0024375005,0.0,0.0,0.0,0.0,1310988,1310988,6620172,197388,0,0,165,1,1,1,1,1,0,0,0,0,0,0,0
5140000,5060000,4898947603,0.0028367909,0.003046687,0.005373273,0,0.016980214,0.81477195,0.007704106,nan,nan,0.0023245246,0.0,0.0,0.0,0.0,1310988,1310988,6620172,197388,0,0,165,1,1,1,1,1,0,0,0,0,0,0,0
5148000,5068000,4898947603,0.0029419588,0.0029320568,0.0052686157,0,0.017540451,0.8148044,0.007704106,nan,nan,0.0023245246,0.0,0.0,0.0,0.0,1310988,1310988,6620172,197388,0,0,165,1,1,1,1,1,0,0,0,0,0,0,0
5156000,5076000,4898947603,0.0028847633,0.0028277284,0.0051659704,0,0.018117705,0.81483763,0.007704106,nan,nan,0.0023245246,0.0,0.0,0.0,0.0,1310988,1310988,6620172,197388,0,0,165,1,1,1,1,1,0,0,0,0,0,0,0
5164000,5084000,4898947603,0.0028200226,0.0027279912,0.0050656535,0,0.018711878,0.8148717,0.007704106,nan,nan,0.0023245246,0.0,0.0,0.0,0.0,1310988,1310988,6620172,197388,0,0,165,1,1,1,1,1,0,0,0,0,0,0,0
5172000,5092000,4898947603,0.002747395,0.0026327686,0.0049675317,0,0.01932289,0.81490654,0.007704106,nan,nan,0.0023245246,0.0,0.0,0.0,0.0,1310988,1310988,6620172,197388,0,0,165,1,1,1,1,1,0,0,0,0,0,0,0
5180000,5100000,4898947603,0.002667006,0.0025418138,0.0048716874,0,0.019950682,0.8149422,0.007704106,nan,nan,0.0023245246,0.0,0.0,0.0,0.0,1310988,1310988,6620172,197388,0,0,165,1,1,1,1,1,0,0,0,0,0,0,0
5188000,5108000,4898947603,0.0025789896,0.0024507935,0.0047769737,0,0.020595187,0.8149787,0.007704106,nan,nan,0.0023245246,0.0,0.0,0.0,0.0,1310988,1310988,6620172,197388,0,0,165,1,1,1,1,1,0,0,0,0,0,0,0
5196000,5116000,4898947603,0.0024840995,0.0023652727,0.004683691,0,0.021256346,0.81501603,0.007704106,nan,nan,0.0023245246,0.0,0.0,0.0,0.0,1310988,1310988,6620172,197388,0,0,165,1,1,1,1,1,0,0,0,0,0,0,0
5204000,5124000,4898947603,0.0023826074,0.002290092,0.007881479,0,0.021934157,0.79381424,0.007704106,nan,nan,0.0035945075,0.0,0.0,0.0,0.0,1310988,1310988,6620172,197388,0,0,165,1,1,1,1,1,0,0,0,0,0,0,0
5212000,5132000,4898947603,0.0020470624,0.002214837,0.0076850597,0,0.02262854,0.7938523,0.0043068756,nan,nan,0.0035945075,0.0,0.0,0.0,0.0,1310988,1310988,6620172,197388,0,0,165,1,1,1,1,1,0,0,0,0,0,0,0
5220000,5140000,4898947603,0.0019321834,0.0021447435,0.0074930964,0,0.023339467,0.7938913,0.0043068756,nan,nan,0.0035945075,0.0,0.0,0.0,0.0,1310988,1310988,6620172,197388,0,0,165,1,1,1,1,1,0,0,0,0,0,0,0
5228000,5148000,4898947603,0.0017900072,0.0020797977,0.007305214,0,0.024066895,0.7939312,0.0043068756,nan,nan,0.0035945075,0.0,0.0,0.0,0.0,1310988,1310988,6620172,197388,0,0,165,1,1,1,1,1,0,0,0,0,0,0,0
5236000,5156000,4898947603,0.0016424144,0.0020199022,0.0071216384,0,0.02481082,0.7939719,0.0043068756,nan,nan,0.0035945075,0.0,0.0,0.0,0.0,1310988,1310988,6620172,197388,0,0,165,1,1,1,1,1,0,0,0,0,0,0,0
5244000,5164000,4898947603,0.0014976775,0.001965208,0.0069421646,0,0.025571274,0.79401356,0.0043068756,nan,nan,0.0035945075,0.0,0.0,0.0,0.0,1310988,1310988,6620172,197388,0,0,165,1,1,1,1,1,0,0,0,0,0,0,0
5252000,5172000,4898947603,0.0013562476,0.001916392,0.006766728,0,0.026348239,0.79405624,0.0043068756,nan,nan,0.0035945075,0.0,0.0,0.0,0.0,1310988,1310988,6620172,197388,0,0,165,1,1,1,1,1,0,0,0,0,0,0,0
5260000,5180000,4898947603,0.0012182371,0.0018733398,0.0059607183,0,0.027141718,0.77441746,0.0043068756,nan,nan,0.0007273329,0.0,0.0,0.0,0.0,1310988,1310988,6620172,197388,0,0,165,1,1,1,1,1,0,0,0,0,0,0,0
5268000,5188000,4898947603,0.0010843963,0.0018357374,0.0058136354,0,0.027951745,0.7744609,0.0043068756,nan,nan,0.0007273329,0.0,0.0,0.0,0.0,1310988,1310988,6620172,197388,0,0,165,1,1,1,1,1,0,0,0,0,0,0,0
5276000,5196000,4898947603,0.0010444782,0.0031846971,0.0057280716,0,0.012692388,0.7745053,0.0043068756,nan,nan,0.0007273329,0.0,0.0,0.0,0.0,1310988,1310988,6620172,197388,0,0,165,1,1,1,1,1,0,0,0,0,0,0,0
5284000,5204000,4898947603,0.0005235982,0.0031276355,0.0055883094,0,0.013067906,0.7745507,0.009542504,nan,nan,0.0007273329,0.0,0.0,0.0,0.0,1310988,1310988,6620172,197388,0,0,165,1,1,1,1,1,0,0,0,0,0,0,0
5292000,5212000,4898947603,0.00044744834,0.0030739894,0.005451794,0,0.013458006,0.77459705,0.009542504,nan,nan,0.0007273329,0.0,0.0,0.0,0.0,1310988,1310988,6620172,197388,0,0,165,1,1,1,1,1,0,0,0,0,0,0,0
5300000,5220000,4898947603,0.00039960357,0.0030240337,0.00531832,0,0.013862586,0.7746445,0.009542504,nan,nan,0.0007273329,0.0,0.0,0.0,0.0,1310988,1310988,6620172,197388,0,0,165,1,1,1,1,1,0,0,0,0,0,0,0
5308000,5228000,4898947603,0.00038271898,0.003720702,0.006525425,0,0.014047987,0.774414,0.009542504,nan,nan,0.0007273329,0.0,0.0,0.0,0.0,1310988,1310988,6620172,197388,0,0,165,1,1,1,1,1,0,0,0,0,0,0,0
5316000,5236000,4898947603,0.00038364643,0.0035817777,0.0063763964,0,0.014465335,0.7744539,0.009542504,nan,nan,0.0007273329,0.0,0.0,0.0,0.0,1310988,1310988,6620172,197388,0,0,165,1,1,1,1,1,0,0,0,0,0,0,0
5324000,5244000,4898947603,0.00040343986,0.0034616436,0.009543116,0,0.014896597,0.7562015,0.009542504,nan,nan,0.003995509,0.0,0.0,0.0,0.0,1310988,1310988,6620172,197388,0,0,165,1,1,1,1,1,0,0,0,0,0,0,0
5332000,5252000,4898947603,0.000435334,0.0033342834,0.009294052,0,0.015341694,0.75624204,0.009542504,nan,nan,0.003995509,0.0,0.0,0.0,0.0,1310988,1310988,6620172,197388,0,0,165,1,1,1,1,1,0,0,0,0,0,0,0
5340000,5260000,4898947603,0.00047339225,0.0032133218,0.00905092,0,0.015800508,0.75628346,0.009542504,nan,nan,0.003995509,0.0,0.0,0.0,0.0,1310988,1310988,6620172,197388,0,0,165,1,1,1,1,1,0,0,0,0,0,0,0
5348000,5268000,4898947603,0.000513727,0.0030988597,0.008814711,0,0.016273001,0.75632584,0.009542504,nan,nan,0.003995509,0.0,0.0,0.0,0.0,1310988,1310988,6620172,197388,0,0,165,1,1,1,1,1,0,0,0,0,0,0,0
5356000,5276000,4898947603,0.00035236857,0.0029900703,0.008584597,0,0.016759114,0.75636905,0.005764116,nan,nan,0.003995509,0.0,0.0,0.0,0.0,1310988,1310988,6620172,197388,0,0,165,1,1,1,1,1,0,0,0,0,0,0,0
5364000,5284000,4898947603,0.00035382394,0.0028895338,0.008360309,0,0.01725873,0.75641316,0.005764116,nan,nan,0.003995509,0.0,0.0,0.0,0.0,1310988,1310988,6620172,197388,0,0,165,1,1,1,1,1,0,0,0,0,0,0,0
5372000,5292000,4898947603,0.00034322406,0.0027939698,0.008141619,0,0.017771764,0.7564582,0.005764116,nan,nan,0.003995509,0.0,0.0,0.0,0.0,1310988,1310988,6620172,197388,0,0,165,1,1,1,1,1,0,0,0,0,0,0,0
5380000,5300000,4898947603,0.0003312554,0.002705688,0.008489452,0,0.018298192,0.7394289,0.005764116,nan,nan,0.0007067331,0.0,0.0,0.0,0.0,1310988,1310988,6620172,197388,0,0,165,1,1,1,1,1,0,0,0,0,0,0,0
5388000,5308000,4898947603,0.00031749756,0.0026205028,0.008263809,0,0.01883795,0.7394747,0.005764116,nan,nan,0.0007067331,0.0,0.0,0.0,0.0,1310988,1310988,6620172,197388,0,0,165,1,1,1,1,1,0,0,0,0,0,0,0
5396000,5316000,4898947603,0.00030131816,0.002536622,0.00804375,0,0.019391,0.7395215,0.005764116,nan,nan,0.0007067331,0.0,0.0,0.0,0.0,1310988,1310988,6620172,197388,0,0,165,1,1,1,1,1,0,0,0,0,0,0,0
5404000,5324000,4898947603,0.0002830045,0.0024589486,0.007828426,0,0.019957326,0.7395692,0.005764116,nan,nan,0.0007067331,0.0,0.0,0.0,0.0,1310988,1310988,6620172,197388,0,0,165,1,1,1,1,1,0,0,0,0,0,0,0
5412000,5332000,4898947603,0.00026247447,0.002387124,0.007618125,0,0.020536881,0.7396179,0.005764116,nan,nan,0.0007067331,0.0,0.0,0.0,0.0,1310988,1310988,6620172,197388,0,0,165,1,1,1,1,1,0,0,0,0,0,0,0
5420000,5340000,4898947603,0.00023957089,0.0023212864,0.007412726,0,0.021129647,0.7396676,0.005764116,nan,nan,0.0007067331,0.0,0.0,0.0,0.0,1310988,1310988,6620172,197388,0,0,165,1,1,1,1,1,0,0,0,0,0,0,0
5428000,5348000,4898947603,0.0005300174,0.0022614584,0.007211928,0,0.0217356,0.73971826,0.006512269,nan,nan,0.0007067331,0.0,0.0,0.0,0.0,1310988,1310988,6620172,197388,0,0,165,1,1,1,1,1,0,0,0,0,0,0,0
5436000,5356000,4898947603,0.00050640985,0.0022074273,0.00701581,0,0.022354728,0.7397699,0.006512269,nan,nan,0.0007067331,0.0,0.0,0.0,0.0,1310988,1310988,6620172,197388,0,0,165,1,1,1,1,1,0,0,0,0,0,0,0
5444000,5364000,4898947603,0.000496758,0.0021579815,0.0046005775,0,0.022986993,0.72382873,0.006512269,nan,nan,0.0029517666,0.0,0.0,0.0,0.0,1310988,1310988,6620172,197388,0,0,165,1,1,1,1,1,0,0,0,0,0,0,0
5452000,5372000,4898947603,0.0004855828,0.002116057,0.0044861357,0,0.0236324,0.7238813,0.006512269,nan,nan,0.0029517666,0.0,0.0,0.0,0.0,1310988,1310988,6620172,197388,0,0,165,1,1,1,1,1,0,0,0,0,0,0,0
5460000,5380000,4898947603,0.00047406205,0.0020793816,0.0043741325,0,0.02429091,0.7239349,0.006512269,nan,nan,0.0029517666,0.0,0.0,0.0,0.0,1310988,1310988,6620172,197388,0,0,165,1,1,1,1,1,0,0,0,0,0,0,0
5468000,5388000,4898947603,0.0004627095,0.0020484193,0.004264311,0,0.024962517,0.7239895,0.006512269,nan,nan,0.0029517666,0.0,0.0,0.0,0.0,1310988,1310988,6620172,197388,0,0,165,1,1,1,1,1,0,0,0,0,0,0,0
5476000,5396000,4898947603,0.00045169774,0.0020228438,0.0041564577,0,0.0256472,0.7240452,0.006512269,nan,nan,0.0029517666,0.0,0.0,0.0,0.0,1310988,1310988,6620172,197388,0,0,165,1,1,1,1,1,0,0,0,0,0,0,0
5484000,5404000,4898947603,0.00046648987,0.0023071982,0.0040792543,0,0.0124603445,0.72410196,0.006512269,nan,nan,0.0029517666,0.0,0.0,0.0,0.0,1310988,1310988,6620172,197388,0,0,165,1,1,1,1,1,0,0,0,0,0,0,0
5492000,5412000,4898947603,0.000455364,0.0022734127,0.0039759255,0,0.012799524,0.72415984,0.006512269,nan,nan,0.0029517666,0.0,0.0,0.0,0.0,1310988,1310988,6620172,197388,0,0,165,1,1,1,1,1,0,0,0,0,0,0,0
5500000,5420000,4898947603,0.0021191975,0.0022377502,0.00792358,0,0.013150736,0.70919555,0.030838719,nan,nan,0.00562166,0.0,0.0,0.0,0.0,1310988,1310988,6620172,197388,0,0,165,1,1,1,1,1,0,0,0,0,0,0,0
5508000,5428000,4898947603,0.0021181419,0.0022119875,0.0076914486,0,0.013513891,0.7092544,0.030838719,nan,nan,0.00562166,0.0,0.0,0.0,0.0,1310988,1310988,6620172,197388,0,0,165,1,1,1,1,1,0,0,0,0,0,0,0
5516000,5436000,4898947603,0.002098099,0.002889574,0.008859221,0,0.013704076,0.7089209,0.030838719,nan,nan,0.00562166,0.0,0.0,0.0,0.0,1310988,1310988,6620172,197388,0,0,165,1,1,1,1,1,0,0,0,0,0,0,0
5524000,5444000,4898947603,0.0020796738,0.0027581293,0.008614057,0,0.014079196,0.70896995,0.030838719,nan,nan,0.00562166,0.0,0.0,0.0,0.0,1310988,1310988,6620172,197388,0,0,165,1,1,1,1,1,0,0,0,0,0,0,0
5532000,5452000,4898947603,0.002061812,0.0026339598,0.008375423,0,0.014465862,0.70901996,0.030838719,nan,nan,0.00562166,0.0,0.0,0.0,0.0,1310988,1310988,6620172,197388,0,0,165,1,1,1,1,1,0,0,0,0,0,0,0
5540000,5460000,4898947603,0.0020443844,0.0025163244,0.008142866,0,0.014864015,0.70907086,0.030838719,nan,nan,0.00562166,0.0,0.0,0.0,0.0,1310988,1310988,6620172,197388,0,0,165,1,1,1,1,1,0,0,0,0,0,0,0
5548000,5468000,4898947603,0.0020273288,0.0024050747,0.007916418,0,0.015273606,0.70912266,0.030838719,nan,nan,0.00562166,0.0,0.0,0.0,0.0,1310988,1310988,6620172,197388,0,0,165,1,1,1,1,1,0,0,0,0,0,0,0
5556000,5476000,4898947603,0.0020109403,0.0023005607,0.0076959063,0,0.015694588,0.70917547,0.030838719,nan,nan,0.00562166,0.0,0.0,0.0,0.0,1310988,1310988,6620172,197388,0,0,165,1,1,1,1,1,0,0,0,0,0,0,0
5564000,5484000,4898947603,0.0019948594,0.002199947,0.0068175457,0,0.01612688,0.69510174,0.030838719,nan,nan,0.0009512872,0.0,0.0,0.0,0.0,1310988,1310988,6620172,197388,0,0,165,1,1,1,1,1,0,0,0,0,0,0,0
5572000,5492000,4898947603,0.0023987063,0.0021115555,0.006629811,0,0.016570434,0.69515544,0.0076290923,nan,nan,0.0009512872,0.0,0.0,0.0,0.0,1310988,1310988,6620172,197388,0,0,165,1,1,1,1,1,0,0,0,0,0,0,0
5580000,5500000,4898947603,0.002385297,0.0020292383,0.0064470214,0,0.017025214,0.69521004,0.0076290923,nan,nan,0.0009512872,0.0,0.0,0.0,0.0,1310988,1310988,6620172,197388,0,0,165,1,1,1,1,1,0,0,0,0,0,0,0
5588000,5508000,4898947603,0.0022806535,0.001953473,0.0062688002,0,0.017491147,0.6952657,0.0076290923,nan,nan,0.0009512872,0.0,0.0,0.0,0.0,1310988,1310988,6620172,197388,0,0,165,1,1,1,1,1,0,0,0,0,0,0,0
5596000,5516000,4898947603,0.0021761933,0.0018849022,0.006095326,0,0.017968206,0.69532233,0.0076290923,nan,nan,0.0009512872,0.0,0.0,0.0,0.0,1310988,1310988,6620172,197388,0,0,165,1,1,1,1,1,0,0,0,0,0,0,0
5604000,5524000,4898947603,0.0020726887,0.0018201325,0.005925495,0,0.018456329,0.69538003,0.0076290923,nan,nan,0.0009512872,0.0,0.0,0.0,0.0,1310988,1310988,6620172,197388,0,0,165,1,1,1,1,1,0,0,0,0,0,0,0
5612000,5532000,4898947603,0.0019699584,0.0017640917,0.0057593416,0,0.018955491,0.69543874,0.0076290923,nan,nan,0.0009512872,0.0,0.0,0.0,0.0,1310988,1310988,6620172,197388,0,0,165,1,1,1,1,1,0,0,0,0,0,0,0
5620000,5540000,4898947603,0.0018681827,0.0017138454,0.0046623726,0,0.019465666,0.68216056,0.0076290923,nan,nan,0.0014036094,0.0,0.0,0.0,0.0,1310988,1310988,6620172,197388,0,0,165,1,1,1,1,1,0,0,0,0,0,0,0
5628000,5548000,4898947603,0.0017672426,0.0016741564,0.0045344303,0,0.019986842,0.68222016,0.0076290923,nan,nan,0.0014036094,0.0,0.0,0.0,0.0,1310988,1310988,6620172,197388,0,0,165,1,1,1,1,1,0,0,0,0,0,0,0
5636000,5556000,4898947603,0.0016670177,0.0016429743,0.004408757,0,0.020518972,0.6822809,0.0076290923,nan,nan,0.0014036094,0.0,0.0,0.0,0.0,1310988,1310988,6620172,197388,0,0,165,1,1,1,1,1,0,0,0,0,0,0,0
5644000,5564000,4898947603,0.001874284,0.0016206154,0.0042859204,0,0.021062031,0.68234265,0.005556772,nan,nan,0.0014036094,0.0,0.0,0.0,0.0,1310988,1310988,6620172,197388,0,0,165,1,1,1,1,1,0,0,0,0,0,0,0
5652000,5572000,4898947603,0.001776987,0.0016042616,0.004165672,0,0.021616025,0.68240553,0.005556772,nan,nan,0.0014036094,0.0,0.0,0.0,0.0,1310988,1310988,6620172,197388,0,0,165,1,1,1,1,1,0,0,0,0,0,0,0
5660000,5580000,4898947603,0.0016579877,0.0015952227,0.004047936,0,0.022180937,0.68246955,0.005556772,nan,nan,0.0014036094,0.0,0.0,0.0,0.0,1310988,1310988,6620172,197388,0,0,165,1,1,1,1,1,0,0,0,0,0,0,0
5668000,5588000,4898947603,0.0015394065,0.0015922058,0.003932807,0,0.022756755,0.6825346,0.005556772,nan,nan,0.0014036094,0.0,0.0,0.0,0.0,1310988,1310988,6620172,197388,0,0,165,1,1,1,1,1,0,0,0,0,0,0,0
5676000,5596000,4898947603,0.0014264284,0.0015954006,0.0038200433,0,0.023343483,0.6826008,0.005556772,nan,nan,0.0014036094,0.0,0.0,0.0,0.0,1310988,1310988,6620172,197388,0,0,165,1,1,1,1,1,0,0,0,0,0,0,0
5684000,5604000,4898947603,0.0013183973,0.0016062055,0.002890353,0,0.023941133,0.6700416,0.005556772,nan,nan,0.0013071487,0.0,0.0,0.0,0.0,1310988,1310988,6620172,197388,0,0,165,1,1,1,1,1,0,0,0,0,0,0,0
5692000,5612000,4898947603,0.0012282226,0.0018226912,0.0027956225,0,0.01225428,0.67010885,0.005556772,nan,nan,0.0013071487,0.0,0.0,0.0,0.0,1310988,1310988,6620172,197388,0,0,165,1,1,1,1,1,0,0,0,0,0,0,0
5700000,5620000,4898947603,0.001132264,0.0018484147,0.002719315,0,0.012565984,0.6701772,0.005556772,nan,nan,0.0013071487,0.0,0.0,0.0,0.0,1310988,1310988,6620172,197388,0,0,165,1,1,1,1,1,0,0,0,0,0,0,0
5708000,5628000,4898947603,0.0010414962,0.0018767877,0.002644653,0,0.012888053,0.6702468,0.005556772,nan,nan,0.0013071487,0.0,0.0,0.0,0.0,1310988,1310988,6620172,197388,0,0,165,1,1,1,1,1,0,0,0,0,0,0,0
5716000,5636000,4898947603,0.0011808209,0.001906882,0.0025718347,0,0.013220423,0.67031753,0.0041377814,nan,nan,0.0013071487,0.0,0.0,0.0,0.0,1310988,1310988,6620172,197388,0,0,165,1,1,1,1,1,0,0,0,0,0,0,0
5724000,5644000,4898947603,0.0011039709,0.0026076294,0.004066467,0,0.01341068,0.6698508,0.0041377814,nan,nan,0.0013071487,0.0,0.0,0.0,0.0,1310988,1310988,6620172,197388,0,0,165,1,1,1,1,1,0,0,0,0,0,0,0
5732000,5652000,4898947603,0.0010128836,0.0025065606,0.0039632656,0,0.013754247,0.6699096,0.0041377814,nan,nan,0.0013071487,0.0,0.0,0.0,0.0,1310988,1310988,6620172,197388,0,0,165,1,1,1,1,1,0,0,0,0,0,0,0
5740000,5660000,4898947603,0.00092708325,0.0024177802,0.004515037,0,0.014107788,0.6580223,0.0041377814,nan,nan,0.0010605298,0.0,0.0,0.0,0.0,1310988,1310988,6620172,197388,0,0,165,1,1,1,1,1,0,0,0,0,0,0,0
5748000,5668000,4898947603,0.0008474761,0.0023311565,0.004394708,0,0.014471253,0.65808195,0.0041377814,nan,nan,0.0010605298,0.0,0.0,0.0,0.0,1310988,1310988,6620172,197388,0,0,165,1,1,1,1,1,0,0,0,0,0,0,0
5756000,5676000,4898947603,0.00077403185,0.0022523755,0.0042777485,0,0.014844603,0.65814257,0.0041377814,nan,nan,0.0010605298,0.0,0.0,0.0,0.0,1310988,1310988,6620172,197388,0,0,165,1,1,1,1,1,0,0,0,0,0,0,0
5764000,5684000,4898947603,0.0007067218,0.0021811991,0.004163622,0,0.015227785,0.6582042,0.0041377814,nan,nan,0.0010605298,0.0,0.0,0.0,0.0,1310988,1310988,6620172,197388,0,0,165,1,1,1,1,1,0,0,0,0,0,0,0
5772000,5692000,4898947603,0.000645064,0.002117428,0.004052356,0,0.01562075,0.6582669,0.0041377814,nan,nan,0.0010605298,0.0,0.0,0.0,0.0,1310988,1310988,6620172,197388,0,0,165,1,1,1,1,1,0,0,0,0,0,0,0
5780000,5700000,4898947603,0.00058559823,0.0020619575,0.003944063,0,0.016023453,0.65833056,0.0041377814,nan,nan,0.0010605298,0.0,0.0,0.0,0.0,1310988,1310988,6620172,197388,0,0,165,1,1,1,1,1,0,0,0,0,0,0,0
5788000,5708000,4898947603,0.0031073357,0.002004849,0.0038380257,0,0.016435841,0.6583953,0.06510385,nan,nan,0.0010605298,0.0,0.0,0.0,0.0,1310988,1310988,6620172,197388,0,0,165,1,1,1,1,1,0,0,0,0,0,0,0
5796000,5716000,4898947603,0.003171247,0.0019627314,0.0037351986,0,0.016857885,0.6584611,0.06510385,nan,nan,0.0010605298,0.0,0.0,0.0,0.0,1310988,1310988,6620172,197388,0,0,165,1,1,1,1,1,0,0,0,0,0,0,0
5804000,5724000,4898947603,0.0032427663,0.0019455743,0.00806958,0,0.017289534,0.64717233,0.06510385,nan,nan,0.007392622,0.0,0.0,0.0,0.0,1310988,1310988,6620172,197388,0,0,165,1,1,1,1,1,0,0,0,0,0,0,0
5812000,5732000,4898947603,0.0033106108,0.0019102825,0.007824965,0,0.017730754,0.6472391,0.06510385,nan,nan,0.007392622,0.0,0.0,0.0,0.0,1310988,1310988,6620172,197388,0,0,165,1,1,1,1,1,0,0,0,0,0,0,0
5820000,5740000,4898947603,0.003373863,0.0018810702,0.007586391,0,0.018181514,0.647307,0.06510385,nan,nan,0.007392622,0.0,0.0,0.0,0.0,1310988,1310988,6620172,197388,0,0,165,1,1,1,1,1,0,0,0,0,0,0,0
