timestamp,timestamp_sample,time_last_fuse,device_id,observation,observation_variance,innovation,innovation_variance,test_ratio,estimator_instance,fusion_enabled,innovation_rejected,fused
3436000,3353914,0,0,-0.001373291,12.25,-6.9490634e-06,112.451,1.7177076e-14,3,0,0,0
3500000,3414907,0,0,-0.03704834,12.25,0.038032643,112.25,5.1545015e-07,3,0,0,0
3556000,3475031,0,0,0.029418945,12.25,-0.029137863,112.25,3.0254435e-07,3,0,0,0
3620000,3535069,0,0,-0.037750244,12.25,0.037136488,62.25,8.861807e-07,3,0,0,0
3676000,3593167,0,0,-0.03262329,12.25,0.033461355,62.249985,7.1946187e-07,3,0,0,0
3740000,3655192,0,0,0.13119507,12.25,-0.13044934,62.249985,1.0934641e-05,3,0,0,0
3796000,3715283,0,0,-0.013031006,12.25,0.013583833,62.249985,1.18567435e-07,3,0,0,0
3860000,3775305,0,0,-0.00793457,12.25,0.0079927705,45.58333,5.605942e-08,3,0,0,0
3916000,3835384,0,0,-0.02444458,12.25,0.024121191,45.58333,5.105655e-07,3,0,0,0
3972000,3891402,0,0,0.14233398,12.25,-0.14309065,45.58333,1.7967037e-05,3,0,0,0
4028000,3943454,0,0,0.034576416,12.25,-0.03581741,45.58337,1.12575e-06,3,0,0,0
4084000,4003486,4004000,0,-0.059326172,12.25,0.057940904,37.250046,3.604987e-06,3,0,0,0
4148000,4062196,4068000,0,-0.048980713,12.25,0.046976168,37.250107,2.3696687e-06,3,1,0,1
4204000,4119558,4124000,0,-0.1381836,12.25,0.10401215,20.47152,2.1138689e-05,3,1,0,1
4252000,4169588,4172000,0,-0.006713867,12.25,-0.06982498,17.169724,1.135843e-05,3,1,0,1
4316000,4230286,4236000,0,-0.07244873,12.25,0.015209787,15.760099,5.871476e-07,3,1,0,1
4372000,4291642,4292000,0,-0.12408447,12.25,0.06272053,14.978389,1.0505441e-05,3,1,0,1
4436000,4351673,4356000,0,0.10128784,12.25,-0.17500746,14.481491,8.4597945e-05,3,1,0,1
4492000,4411695,4412000,0,-0.06304932,12.25,0.01579221,14.137716,7.05613e-07,3,1,0,1
4556000,4471719,4476000,0,-0.119384766,12.25,0.06910497,13.885798,1.3756491e-05,3,1,0,1
4612000,4529735,4532000,0,-0.06304932,12.25,0.0037690438,13.693243,4.1496936e-08,3,1,0,1
4660000,4579751,4580000,0,0.030853271,12.25,-0.09130697,13.541277,2.4626816e-05,3,1,0,1
4724000,4639772,4644000,0,-0.044281006,12.25,-0.007832464,13.418297,1.8287713e-07,3,1,0,1
4780000,4699786,4700000,0,0.044921875,12.25,-0.09720792,13.316791,2.8383354e-05,3,1,0,1
4844000,4759804,4764000,0,-0.011413574,12.25,-0.034100387,13.231623,3.5153255e-06,3,1,0,1
4900000,4819816,4820000,0,-0.08181763,12.25,0.038888846,13.15893,4.597159e-06,3,1,0,1
4964000,4879832,4884000,0,-0.06774902,12.25,0.02120512,13.0964775,1.373368e-06,3,1,0,1
5020000,4939842,4940000,0,0.06842041,12.25,-0.11716175,13.0421,4.2100204e-05,3,1,0,1
5084000,4999855,5004000,0,-0.086517334,12.25,0.04393199,12.99443,5.941068e-06,3,1,0,1
5140000,5059864,5060000,0,-0.086517334,12.25,0.041827247,12.95189,5.4031298e-06,3,1,0,1
5204000,5119876,5124000,0,0.01675415,12.25,-0.06458822,12.914313,1.2920975e-05,3,1,0,1
5260000,5179883,5180000,0,-0.05834961,12.25,0.013050482,12.880594,5.289044e-07,3,1,0,1
5324000,5239894,5244000,0,0.026153564,12.25,-0.07161456,12.849842,1.5964852e-05,3,1,0,1
5380000,5299899,5300000,0,-0.030181885,12.25,-0.012655236,12.822298,4.99614e-07,3,1,0,1
5444000,5359908,5364000,0,-0.09591675,12.25,0.05279535,12.797338,8.712278e-06,3,1,0,1
5500000,5419914,5420000,0,0.05432129,12.25,-0.100466,12.774493,3.1604908e-05,3,1,0,1
5564000,5478587,5484000,0,-0.05834961,12.25,0.0169833,12.753006,9.04673e-07,3,1,0,1
5620000,5539926,5540000,0,-0.06774902,12.25,0.025040638,12.733718,1.9696793e-06,3,1,0,1
5684000,5598598,5604000,0,-0.06774902,12.25,0.023303092,12.716036,1.7081866e-06,3,1,0,1
5740000,5659936,5660000,0,-0.025482178,12.25,-0.018899318,12.698859,1.1250908e-06,3,1,0,1
5804000,5719942,5724000,0,0.08718872,12.25,-0.13164407,12.683659,5.465351e-05,3,1,0,1
5860000,5779946,5780000,0,-0.044281006,12.25,0.0036708526,12.669467,4.254373e-08,3,1,0,1
5924000,5839950,5844000,0,-0.09591675,12.25,0.05441046,12.656368,9.356549e-06,3,1,0,1
5980000,5899953,5900000,0,-0.044281006,12.25,0.0020845458,12.643126,1.3747648e-08,3,1,0,1
6044000,5958623,5964000,0,-0.044281006,12.25,0.0013126284,12.63165,5.4561147e-09,3,1,0,1
6100000,6017960,6020000,0,-0.0020141602,12.25,-0.041641824,12.620826,5.49581e-06,3,1,0,1
6148000,6067962,6068000,0,-0.06774902,12.25,0.02645199,12.6096,2.2196034e-06,3,1,0,1
6212000,6127965,6132000,0,-0.048980713,12.25,0.0062641352,12.600093,1.2456857e-07,3,1,0,1
6268000,6187967,6188000,0,0.007385254,12.25,-0.05088144,12.591069,8.224626e-06,3,1,0,1
6332000,6247971,6252000,0,-0.053649902,12.25,0.010787409,12.582696,3.6993083e-07,3,1,0,1
6388000,6307972,6308000,0,0.040252686,12.25,-0.08226001,12.573583,2.152675e-05,3,1,0,1
6452000,6367974,6372000,0,-0.0395813,12.25,-0.0009045303,12.566067,2.6043951e-09,3,1,0,1
6508000,6427976,6428000,0,0.021453857,12.25,-0.062461294,12.558878,1.2425992e-05,3,1,0,1
6572000,6487978,6492000,0,-0.07244873,12.25,0.033924446,12.551041,3.6678014e-06,3,1,0,1
6628000,6547979,6548000,0,0.026153564,12.25,-0.065962255,12.544534,1.3873832e-05,3,1,0,1
6692000,6607981,6612000,0,-0.11468506,12.25,0.07590477,12.538487,1.8380317e-05,3,1,0,1
6748000,6667982,6668000,0,0.03555298,12.25,-0.07652108,12.5326605,1.8688695e-05,3,1,0,1
6812000,6727984,6732000,0,0.0026855469,12.25,-0.041148,12.525977,5.4068687e-06,3,1,0,1
6868000,6787985,6788000,0,-0.11468506,12.25,0.07674126,12.520655,1.881442e-05,3,1,0,1
6932000,6847986,6852000,0,-0.048980713,12.25,0.008892722,12.515724,2.527397e-07,3,1,0,1
6988000,6907987,6908000,0,-0.05834961,12.25,0.018864602,12.50965,1.1379158e-06,3,1,0,1
7052000,6967988,6972000,0,0.012054443,12.25,-0.0522752,12.505122,8.741047e-06,3,1,0,1
7108000,7027989,7028000,0,-0.0020141602,12.25,-0.037401393,12.500716,4.4761086e-06,3,1,0,1
7172000,7087990,7092000,0,-0.006713867,12.25,-0.03224023,12.496654,3.3270744e-06,3,1,0,1
7228000,7145991,7148000,0,-0.06304932,12.25,0.025318392,12.49129,2.0526973e-06,3,1,0,1
7276000,7195991,7196000,0,0.03555298,12.25,-0.0739613,12.4873,1.7522681e-05,3,1,0,1
7340000,7255992,7260000,0,0.01675415,12.25,-0.05398542,12.483731,9.338316e-06,3,1,0,1
7396000,7315992,7316000,0,-0.011413574,12.25,-0.024475764,12.478876,1.9202469e-06,3,1,0,1
7460000,7375993,7380000,0,-0.044281006,12.25,0.008668512,12.475561,2.4092896e-07,3,1,0,1
7516000,7435994,7436000,0,0.012054443,12.25,-0.04798084,12.472297,7.3832794e-06,3,1,0,1
7580000,7495994,7500000,0,-0.025482178,12.25,-0.00976447,12.469315,3.0585443e-07,3,1,0,1
7636000,7555995,7556000,0,0.012054443,12.25,-0.046808537,12.464924,7.0310543e-06,3,1,0,1
7700000,7615995,7620000,0,-0.07714844,12.25,0.043125678,12.462138,5.969518e-06,3,1,0,1
7756000,7675995,7676000,0,-0.05834961,12.25,0.023525715,12.4593725,1.7768448e-06,3,1,0,1
7820000,7735996,7740000,0,-0.011413574,12.25,-0.023802832,12.455443,1.8195252e-06,3,1,0,1
7876000,7795996,7796000,0,-0.07714844,12.25,0.04230753,12.452849,5.749454e-06,3,1,0,1
7940000,7855996,7860000,0,-0.08181763,12.25,0.046224594,12.450499,6.8646673e-06,3,1,0,1
7996000,7915997,7916000,0,0.012054443,12.25,-0.04843024,12.448145,7.536829e-06,3,1,0,1
8060000,7975997,7980000,0,-0.044281006,12.25,0.00874415,12.444537,2.4576298e-07,3,1,0,1
8116000,8035997,8036000,0,-0.11468506,12.25,0.07895652,12.442319,2.0041705e-05,3,1,0,1
8180000,8094664,8100000,0,0.021453857,12.25,-0.058482442,12.440331,1.09971215e-05,3,1,0,1
8236000,8153998,8156000,0,-0.09121704,12.25,0.055193856,12.436855,9.797852e-06,3,1,0,1
8284000,8203998,8204000,0,-0.11468506,12.25,0.077785216,12.434738,1.9463343e-05,3,1,0,1
8348000,8263998,8268000,0,-0.030181885,12.25,-0.007962007,12.432953,2.0395333e-07,3,1,0,1
8404000,8323998,8324000,0,-0.025482178,12.25,-0.012660999,12.431138,5.158044e-07,3,1,0,1
8468000,8383998,8388000,0,-0.13348389,12.25,0.09585185,12.42803,2.9570507e-05,3,1,0,1
8524000,8441999,8444000,0,-0.0395813,12.25,0.0004289411,12.426308,5.9226113e-10,3,1,0,1
8572000,8491999,8492000,0,-0.05834961,12.25,0.019087102,12.424541,1.1728963e-06,3,1,0,1
8636000,8551999,8556000,0,-0.07714844,12.25,0.03749658,12.42311,4.527026e-06,3,1,0,1
8692000,8609999,8612000,0,-0.025482178,12.25,-0.014460798,12.420082,6.734728e-07,3,1,0,1
8740000,8659999,8660000,0,-0.10531616,12.25,0.06552954,12.41847,1.38314e-05,3,1,0,1
8804000,8719999,8724000,0,-0.040039062,12.250135,-0.034001723,13.250135,3.4901293e-06,3,1,0,1
8860000,8779999,8780000,0,-0.04473877,12.251081,-0.026770696,13.1756315,2.1757446e-06,3,1,0,1
8924000,8839999,8844000,0,-0.13864136,12.252164,0.06897086,13.111899,1.4511946e-05,3,1,0,1
8980000,8899999,8900000,0,0.08673096,12.25311,-0.16094388,13.056561,7.935606e-05,3,1,0,1
9044000,8958666,8964000,0,-0.09640503,12.254191,0.03210406,13.00834,3.1692614e-06,3,1,0,1
9100000,9020000,9020000,0,-0.035369873,12.2551365,-0.030795343,12.965667,2.9257367e-06,3,1,0,1
9164000,9078666,9084000,0,-0.13397217,12.256216,0.06948908,12.927997,1.4940388e-05,3,1,0,1
9220000,9138000,9140000,0,-0.09637451,12.25716,0.024413288,12.646334,1.8851586e-06,3,1,0,1
9268000,9188000,9188000,0,-0.11514282,12.257967,0.042433888,12.635244,5.7003563e-06,3,1,0,1
9332000,9245333,9252000,0,-0.13391113,12.259044,0.059984736,12.625238,1.1399923e-05,3,1,0,1
9380000,9296000,9300000,0,-0.021209717,12.259849,-0.054419428,12.615585,9.389891e-06,3,1,0,1
9436000,9356000,9356000,0,-0.035308838,12.260788,-0.03875415,12.606712,4.7653475e-06,3,1,0,1
9500000,9416000,9420000,0,0.016296387,12.26186,-0.08927937,12.598451,2.5307256e-05,3,1,0,1
9556000,9476000,9476000,0,-0.058898926,12.262795,-0.011661932,12.590647,4.3206884e-07,3,1,0,1
9620000,9536000,9540000,0,-0.058898926,12.2638645,-0.012005821,12.506106,4.6102195e-07,3,1,0,1
9676000,9595000,9596000,0,-0.08239746,12.264795,0.0117656365,12.502597,4.4288464e-07,3,1,0,1
9740000,9656000,9660000,0,0.04437256,12.26586,-0.115211315,12.499303,4.247804e-05,3,1,0,1
9796000,9716000,9716000,0,-0.049682617,12.266786,-0.018919595,12.496155,1.1457959e-06,3,1,0,1
9860000,9776000,9780000,0,-0.012145996,12.267845,-0.056005478,12.49337,1.00424895e-05,3,1,0,1
9916000,9835000,9836000,0,-0.016937256,12.268765,-0.050252125,12.490331,8.087139e-06,3,1,0,1
9980000,9896000,9900000,0,-0.054534912,12.269819,-0.011634603,12.487847,4.335863e-07,3,1,0,1
10036000,9955000,9956000,0,-0.10153198,12.270735,0.035713904,12.447459,4.0987734e-06,3,1,0,1
10100000,10016000,10020000,0,0.15206909,12.271782,-0.21842898,12.4461565,0.0001533364,3,1,0,1
10156000,10076000,10076000,0,-0.054901123,12.27269,-0.008232631,12.444959,2.178431e-07,3,1,0,1
10220000,10136000,10140000,0,-0.22393799,12.27373,0.1611466,12.44404,8.3472005e-05,3,1,0,1
10276000,10196000,10196000,0,-0.035827637,12.2746315,-0.028945364,12.443018,2.693347e-06,3,1,0,1
10340000,10256000,10260000,0,-0.181427,12.275664,0.11693208,12.441904,4.3958258e-05,3,1,0,1
10396000,10315000,10316000,0,-0.1060791,12.276558,0.04030455,12.440999,5.2229143e-06,3,1,0,1
10460000,10376000,10380000,0,0.006713867,12.277583,-0.072373,12.417648,1.6872282e-05,3,1,0,1
10516000,10436000,10436000,0,-0.049804688,12.278468,-0.015197925,12.417029,7.4406506e-07,3,1,0,1
10580000,10496000,10500000,0,-0.11087036,12.279484,0.04632438,12.41697,6.9129524e-06,3,1,0,1
10636000,10556000,10556000,0,-0.05908203,12.28036,-0.005749643,12.416773,1.0649593e-07,3,1,0,1
10700000,10616000,10620000,0,-0.030914307,12.281368,-0.033548012,12.416835,3.6256233e-06,3,1,0,1
10756000,10676000,10676000,0,-0.10144043,12.282235,0.03706304,12.416239,4.4253943e-06,3,1,0,1
10820000,10736000,10740000,0,-0.11541748,12.283233,0.050363645,12.400736,8.1817625e-06,3,1,0,1
10876000,10796000,10796000,0,0.0067749023,12.28409,-0.071980834,12.400949,1.67124e-05,3,1,0,1
10940000,10856000,10860000,0,-0.030975342,12.285078,-0.033824794,12.400927,3.6904235e-06,3,1,0,1
10996000,10916000,10916000,0,-0.04046631,12.285926,-0.02364295,12.40117,1.8030205e-06,3,1,0,1
11060000,10976000,10980000,0,-0.308136,12.286903,0.2447319,12.401664,0.00019317959,3,1,0,1
11116000,11035000,11036000,0,-0.105529785,12.28774,0.0403367,12.401988,5.2477044e-06,3,1,0,1
11180000,11096000,11100000,0,-0.13357544,12.288707,0.06749079,12.401931,1.469128e-05,3,1,0,1
11236000,11156000,11156000,0,-0.015991211,12.289532,-0.05045508,12.390887,8.218022e-06,3,1,0,1
11300000,11216000,11220000,0,0.012023926,12.290487,-0.07742607,12.391623,1.9351126e-05,3,1,0,1
11356000,11276000,11276000,0,-0.11495972,12.291302,0.049528398,12.391574,7.918485e-06,3,1,0,1
11420000,11336000,11340000,0,0.026031494,12.292246,-0.09120215,12.392318,2.6848349e-05,3,1,0,1
11476000,11396000,11396000,0,-0.03060913,12.293048,-0.03319119,12.392883,3.5557669e-06,3,1,0,1
11540000,11456000,11460000,0,-0.16220093,12.29398,0.09944489,12.393705,3.1917127e-05,3,1,0,1
11596000,11515000,11516000,0,0.0072021484,12.29477,-0.07168193,12.393573,1.6583755e-05,3,1,0,1
11660000,11576000,11580000,0,0.011627197,12.295691,-0.07663893,12.385586,1.8968907e-05,3,1,0,1
11716000,11636000,11636000,0,-0.054351807,12.296468,-0.009330057,12.386298,2.8111697e-07,3,1,0,1
11780000,11696000,11700000,0,-0.07788086,12.297376,0.013316132,12.386537,5.7261974e-07,3,1,0,1
11836000,11756000,11756000,0,-0.08251953,12.298141,0.018664114,12.387244,1.1248642e-06,3,1,0,1
11900000,11816000,11820000,0,-0.11999512,12.299035,0.05697129,12.388207,1.0480056e-05,3,1,0,1
11956000,11876000,11876000,0,-0.07284546,12.2997875,0.010295913,12.388976,3.4225855e-07,3,1,0,1
12020000,11936000,11940000,0,-0.1338501,12.300669,0.06856135,12.38195,1.5185521e-05,3,1,0,1
12076000,11996000,11996000,0,-0.067840576,12.301408,0.0029144064,12.382754,2.7437402e-08,3,1,0,1
12140000,12056000,12060000,0,-0.04437256,12.302277,-0.019622318,12.383815,1.243673e-06,3,1,0,1
12196000,12116000,12116000,0,-0.016296387,12.303002,-0.048704363,12.383839,7.661969e-06,3,1,0,1
12260000,12176000,12180000,0,-0.09161377,12.303857,0.02778361,12.384882,2.4931333e-06,3,1,0,1
12316000,12236000,12236000,0,-0.13845825,12.304569,0.075241,12.385729,1.8283004e-05,3,1,0,1
12380000,12296000,12300000,0,0.030914307,12.30541,-0.09372341,12.38684,2.8365837e-05,3,1,0,1
12436000,12356000,12356000,0,-0.068115234,12.306108,0.0037794486,12.38076,4.6149772e-08,3,1,0,1
12500000,12416000,12420000,0,-0.07748413,12.306936,0.013977319,12.381868,6.3113396e-07,3,1,0,1
12556000,12476000,12476000,0,-0.119659424,12.307621,0.056834012,12.382776,1.0434187e-05,3,1,0,1
12612000,12532000,12532000,0,0.049621582,12.308299,-0.11400402,12.382775,4.1983858e-05,3,1,0,1
12668000,12582666,12588000,0,-0.10116577,12.308971,0.03817577,12.383658,4.7074595e-06,3,1,0,1
12724000,12642000,12644000,0,-0.1385498,12.309636,0.07609072,12.384566,1.8700042e-05,3,1,0,1
12772000,12692000,12692000,0,-0.09121704,12.310161,0.028971516,12.385259,2.7107992e-06,3,1,0,1
12836000,12752000,12756000,0,-0.123931885,12.31095,0.059413597,12.380269,1.1405166e-05,3,1,0,1
12892000,12812000,12812000,0,-0.06259155,12.311596,-0.0015220046,12.381186,7.48393e-09,3,1,0,1
12956000,12870666,12876000,0,-0.08605957,12.312371,0.022846468,12.382365,1.6861433e-06,3,1,0,1
13012000,12928000,12932000,0,-0.034301758,12.313004,-0.030360222,12.382339,2.9776056e-06,3,1,0,1
13060000,12980000,12980000,0,-0.034454346,12.313495,-0.029402249,12.383021,2.7925082e-06,3,1,0,1
13124000,13040000,13044000,0,-0.11911011,12.31425,0.056298196,12.384196,1.0237199e-05,3,1,0,1
13180000,13100000,13100000,0,-0.16577148,12.314863,0.1034251,12.385161,3.454699e-05,3,1,0,1
13244000,13160000,13164000,0,-0.099487305,12.315605,0.034446582,12.380765,3.833582e-06,3,1,0,1
13300000,13220000,13220000,0,-0.038269043,12.316204,-0.026243895,12.381702,2.2250317e-06,3,1,0,1
13364000,13280000,13284000,0,-0.014953613,12.316932,-0.048571125,12.382906,7.6206798e-06,3,1,0,1
13420000,13340000,13340000,0,0.059906006,12.317516,-0.12237981,12.383896,4.837514e-05,3,1,0,1
13484000,13400000,13404000,0,-0.03466797,12.31823,-0.028535083,12.384005,2.6300086e-06,3,1,0,1
13540000,13458000,13460000,0,-0.08178711,12.3188,0.019462194,12.384963,1.2233448e-06,3,1,0,1
13588000,13508000,13508000,0,-0.10513306,12.319229,0.04334334,12.385698,6.0671427e-06,3,1,0,1
13652000,13568000,13572000,0,-0.06262207,12.319923,-0.001799576,12.381735,1.04621005e-08,3,1,0,1
13708000,13628000,13628000,0,-0.16122437,12.320476,0.09747699,12.382679,3.0693725e-05,3,1,0,1
13772000,13688000,13692000,0,-0.1184082,12.321156,0.054962546,12.38389,9.757456e-06,3,1,0,1
13828000,13748000,13748000,0,-0.10873413,12.321693,0.04568761,12.384886,6.7416286e-06,3,1,0,1
13892000,13808000,13812000,0,-0.047424316,12.32236,-0.01705002,12.384946,9.388921e-07,3,1,0,1
13948000,13868000,13868000,0,-0.20245361,12.322884,0.13871393,12.385907,6.214015e-05,3,1,0,1
14012000,13928000,13932000,0,-0.032592773,12.323536,-0.03220897,12.383352,3.3510084e-06,3,1,0,1
14068000,13988000,13988000,0,-0.09851074,12.324046,0.032679416,12.383232,3.449646e-06,3,1,0,1
14132000,14048000,14052000,0,-0.13119507,12.324685,0.06585287,12.384416,1.4006639e-05,3,1,0,1
14188000,14108000,14108000,0,-0.013427734,12.325181,-0.05165288,12.385385,8.616672e-06,3,1,0,1
14252000,14168000,14172000,0,-0.04660034,12.325806,-0.017505556,12.38663,9.895977e-07,3,1,0,1
14308000,14228000,14228000,0,-0.0138549805,12.326288,-0.051474504,12.386376,8.556577e-06,3,1,0,1
14372000,14286666,14292000,0,0.009338379,12.3269005,-0.07370667,12.387582,1.7542321e-05,3,1,0,1
14428000,14348000,14348000,0,0.05581665,12.32737,-0.12025355,12.385062,4.670438e-05,3,1,0,1
14492000,14408000,14412000,0,0.05505371,12.327968,-0.1199933,12.3851185,4.6502235e-05,3,1,0,1
14548000,14468000,14468000,0,-0.063079834,12.3284235,-0.0007214993,12.386054,1.6811208e-09,3,1,0,1
14612000,14526666,14532000,0,0.0026550293,12.329008,-0.065790325,12.387263,1.397683e-05,3,1,0,1
14668000,14588000,14588000,0,-0.030639648,12.329451,-0.031610064,12.38825,3.2262706e-06,3,1,0,1
14732000,14648000,14652000,0,-0.096588135,12.330023,0.033345774,12.388183,3.590327e-06,3,1,0,1
14788000,14708000,14708000,0,-0.0776062,12.330452,0.014744937,12.389131,7.019481e-07,3,1,0,1
14852000,14765333,14772000,0,-0.11038208,12.331011,0.04723654,12.387079,7.2052194e-06,3,1,0,1
14908000,14826000,14828000,0,-0.06781006,12.331428,0.0034306124,12.386826,3.8005222e-08,3,1,0,1
14956000,14876000,14876000,0,-0.13821411,12.331704,0.07417427,12.387503,1.7765718e-05,3,1,0,1
15020000,14936000,14940000,0,-0.076690674,12.332247,0.012827158,12.388696,5.312455e-07,3,1,0,1
15076000,14996000,14996000,0,-0.057800293,12.332646,-0.005678043,12.389666,1.0408729e-07,3,1,0,1
15140000,15054666,15060000,0,-0.07662964,12.333177,0.012346111,12.389553,4.9211286e-07,3,1,0,1
15196000,15116000,15116000,0,-0.05303955,12.333565,-0.010913521,12.390484,3.845046e-07,3,1,0,1
15260000,15176000,15180000,0,-0.104766846,12.334083,0.040463373,12.388608,5.2864193e-06,3,1,0,1
15316000,15236000,15236000,0,-0.04815674,12.334458,-0.01718685,12.3883095,9.537631e-07,3,1,0,1
15380000,15296000,15300000,0,-0.15625,12.334965,0.09148691,12.389459,2.7022503e-05,3,1,0,1
15436000,15356000,15356000,0,0.050964355,12.335328,-0.115680896,12.390386,4.3201464e-05,3,1,0,1
15500000,15416000,15420000,0,-0.123535156,12.335822,0.059864946,12.391598,1.1568522e-05,3,1,0,1
15556000,15476000,15476000,0,-0.07147217,12.336174,0.006535627,12.391172,1.3788662e-07,3,1,0,1
15620000,15536000,15540000,0,-0.17004395,12.336657,0.10434943,12.38942,3.5155168e-05,3,1,0,1
15676000,15596000,15596000,0,-0.14581299,12.336997,0.08012702,12.390342,2.0726919e-05,3,1,0,1
15740000,15656000,15660000,0,-0.079559326,12.337467,0.012615822,12.390234,5.138207e-07,3,1,0,1
15796000,15716000,15716000,0,0.005065918,12.337796,-0.07163552,12.391119,1.6565567e-05,3,1,0,1
15860000,15774666,15780000,0,-0.037719727,12.338256,-0.02800133,12.392282,2.530848e-06,3,1,0,1
15916000,15834000,15836000,0,0.004333496,12.338573,-0.069406405,12.393219,1.5548016e-05,3,1,0,1
15964000,15884000,15884000,0,-0.085357666,12.338752,0.019353524,12.392494,1.2089863e-06,3,1,0,1
16028000,15944000,15948000,0,-0.0993042,12.339198,0.033508018,12.390852,3.6245683e-06,3,1,0,1
16084000,16004000,16004000,0,-0.11312866,12.339502,0.047659777,12.391751,7.3321494e-06,3,1,0,1
16148000,16064000,16068000,0,-0.084625244,12.339937,0.018076323,12.391608,1.0547573e-06,3,1,0,1
16204000,16124000,16124000,0,-0.15493774,12.340231,0.08874146,12.392469,2.5418813e-05,3,1,0,1
16268000,16182666,16188000,0,-0.083862305,12.340655,0.01786349,12.393609,1.0298994e-06,3,1,0,1
16324000,16244000,16244000,0,-0.08843994,12.340939,0.022898242,12.394524,1.6921327e-06,3,1,0,1
16388000,16304000,16308000,0,-0.06478882,12.341353,-0.00201305,12.394266,1.30782105e-08,3,1,0,1
16444000,16364000,16364000,0,0.038513184,12.341626,-0.105276,12.392455,3.5773497e-05,3,1,0,1
16508000,16424000,16428000,0,-0.11721802,12.342031,0.051485203,12.393589,8.555153e-06,3,1,0,1
16564000,16484000,16484000,0,-0.055786133,12.342294,-0.011281699,12.393146,4.1079716e-07,3,1,0,1
16628000,16542666,16548000,0,-0.07937622,12.342688,0.012931712,12.394237,5.396998e-07,3,1,0,1
16684000,16604000,16604000,0,-0.15908813,12.342941,0.09316867,12.395104,2.801235e-05,3,1,0,1
16748000,16662666,16668000,0,-0.05038452,12.343326,-0.015204087,12.396259,7.4591617e-07,3,1,0,1
16804000,16724000,16724000,0,-0.0552063,12.34357,-0.01189363,12.393121,4.5657083e-07,3,1,0,1
16868000,16782666,16788000,0,-0.17736816,12.343945,0.11108382,12.394203,3.982383e-05,3,1,0,1
16924000,16844000,16844000,0,-0.12017822,12.344179,0.054143466,12.395064,9.460266e-06,3,1,0,1
16988000,16902666,16908000,0,-0.119781494,12.344544,0.052056737,12.394828,8.745274e-06,3,1,0,1
17044000,16960000,16964000,0,-0.011413574,12.34477,-0.055855975,12.39565,1.0067693e-05,3,1,0,1
17092000,17010000,17012000,0,0.0022583008,12.344856,-0.06867528,12.396239,1.52184675e-05,3,1,0,1
17140000,17060000,17060000,0,-0.059295654,12.344942,-0.006182492,12.39685,1.2333199e-07,3,1,0,1
17204000,17120000,17124000,0,-0.0077209473,12.345297,-0.059582442,12.394048,1.14573295e-05,3,1,0,1
17260000,17180000,17180000,0,-0.026947021,12.3455105,-0.03939885,12.3948555,5.0093986e-06,3,1,0,1
17324000,17238666,17244000,0,-0.09298706,12.345856,0.027669817,12.395944,2.4705462e-06,3,1,0,1
17380000,17300000,17300000,0,-0.12564087,12.346061,0.05857957,12.395449,1.1073633e-05,3,1,0,1
17444000,17358666,17364000,0,-0.10171509,12.346398,0.035218604,12.396495,4.0022605e-06,3,1,0,1
17500000,17420000,17420000,0,-0.04977417,12.346595,-0.016135015,12.397317,8.3998395e-07,3,1,0,1
17564000,17480000,17484000,0,-0.07809448,12.346924,0.0131175,12.398427,5.5513107e-07,3,1,0,1
17620000,17540000,17540000,0,-0.14840698,12.347113,0.08109442,12.395389,2.122178e-05,3,1,0,1
17684000,17600000,17604000,0,-0.06326294,12.347433,-0.003579475,12.396427,4.1343014e-08,3,1,0,1
17740000,17660000,17660000,0,-0.05859375,12.347614,-0.0075212047,12.397244,1.8251964e-07,3,1,0,1
17804000,17720000,17724000,0,0.007080078,12.347927,-0.07447315,12.396962,1.7895514e-05,3,1,0,1
17860000,17780000,17780000,0,-0.101501465,12.3481,0.034967326,12.397739,3.9449574e-06,3,1,0,1
17924000,17840000,17844000,0,-0.030792236,12.348405,-0.03523746,12.3988,4.005803e-06,3,1,0,1
17980000,17900000,17900000,0,-0.016998291,12.348571,-0.048306584,12.399633,7.5277258e-06,3,1,0,1
18044000,17960000,17964000,0,0.0014038086,12.348868,-0.06829707,12.396862,1.5050551e-05,3,1,0,1
18100000,18020000,18020000,0,-0.04611206,12.349027,-0.020008393,12.3976345,1.2916522e-06,3,1,0,1
18164000,18080000,18084000,0,-0.107299805,12.349317,0.041896068,12.398689,5.6627937e-06,3,1,0,1
18220000,18138000,18140000,0,-0.083465576,12.349467,0.016618043,12.398119,8.9097176e-07,3,1,0,1
18268000,18188000,18188000,0,-0.120910645,12.349481,0.05447579,12.398626,9.5740015e-06,3,1,0,1
18332000,18248000,18252000,0,0.006286621,12.349764,-0.07225192,12.399666,1.6840262e-05,3,1,0,1
18388000,18308000,18308000,0,-0.045959473,12.349908,-0.019028686,12.400479,1.1679899e-06,3,1,0,1
18452000,18368000,18372000,0,-0.08834839,12.350184,0.021598235,12.397744,1.50506e-06,3,1,0,1
18508000,18428000,18428000,0,-0.01776123,12.350322,-0.048408546,12.398497,7.560231e-06,3,1,0,1
18572000,18488000,18492000,0,-0.032226562,12.350592,-0.032993414,12.399532,3.5116334e-06,3,1,0,1
18628000,18548000,18548000,0,-0.05126953,12.350721,-0.015373178,12.398947,7.6243447e-07,3,1,0,1
18692000,18606666,18612000,0,-0.009155273,12.350985,-0.05668325,12.399939,1.0364537e-05,3,1,0,1
18748000,18668000,18668000,0,0.0138549805,12.351109,-0.078785025,12.400707,2.0021698e-05,3,1,0,1
18812000,18728000,18732000,0,-0.104156494,12.351366,0.04013092,12.399361,5.1954e-06,3,1,0,1
18868000,18788000,18788000,0,-0.061553955,12.351484,-0.004272163,12.398781,5.8881195e-08,3,1,0,1
18932000,18848000,18852000,0,-0.16958618,12.351735,0.104562454,12.399769,3.526939e-05,3,1,0,1
18988000,18908000,18908000,0,-0.013793945,12.351847,-0.050905578,12.400534,8.358924e-06,3,1,0,1
19052000,18966666,18972000,0,-0.1315918,12.352092,0.06559329,12.400172,1.3878773e-05,3,1,0,1
19108000,19028000,19028000,0,-0.046539307,12.352198,-0.019026697,12.400899,1.1677063e-06,3,1,0,1
19172000,19088000,19092000,0,-0.004425049,12.352437,-0.060236804,12.40191,1.1702948e-05,3,1,0,1
19228000,19148000,19148000,0,-0.03778076,12.352537,-0.026255883,12.400321,2.2237211e-06,3,1,0,1
19292000,19208000,19212000,0,-0.061462402,12.352771,-0.003961824,12.399965,5.0632554e-08,3,1,0,1
19348000,19268000,19268000,0,-0.089660645,12.352865,0.024947144,12.400688,2.0075013e-06,3,1,0,1
19412000,19328000,19332000,0,-0.028411865,12.353094,-0.035571203,12.401697,4.0810883e-06,3,1,0,1
19468000,19388000,19388000,0,-0.038116455,12.353183,-0.02733577,12.401053,2.4102608e-06,3,1,0,1
19532000,19445333,19452000,0,-0.00076293945,12.353406,-0.063798524,12.4020195,1.3127707e-05,3,1,0,1
19580000,19496000,19500000,0,-0.0059814453,12.353355,-0.05773393,12.402502,1.075011e-05,3,1,0,1
19636000,19556000,19556000,0,-0.100372314,12.35344,0.037041903,12.400932,4.4258045e-06,3,1,0,1
19692000,19612000,19612000,0,-0.15640259,12.353524,0.09143023,12.400321,2.696539e-05,3,1,0,1
19748000,19664000,19668000,0,-0.057037354,12.353606,-0.0076753125,12.401026,1.900179e-07,3,1,0,1
19804000,19724000,19724000,0,-0.20266724,12.353686,0.1385961,12.401757,6.195535e-05,3,1,0,1
19868000,19782666,19788000,0,-0.07003784,12.353902,0.0061294585,12.4027815,1.211672e-07,3,1,0,1
19924000,19842000,19844000,0,-0.10284424,12.353977,0.03754647,12.402076,4.5467796e-06,3,1,0,1
19972000,19892000,19892000,0,0.11343384,12.353917,-0.1783466,12.402541,0.00010258385,3,1,0,1
20036000,19950666,19956000,0,-0.122802734,12.354128,0.05900369,12.40125,1.1229305e-05,3,1,0,1
20092000,20012000,20012000,0,0.023223877,12.354199,-0.088556685,12.400642,2.529639e-05,3,1,0,1
20156000,20072000,20076000,0,-0.09017944,12.354406,0.027314931,12.401583,2.4064846e-06,3,1,0,1
20212000,20132000,20132000,0,-0.042999268,12.354473,-0.016420878,12.4023,8.696621e-07,3,1,0,1
20276000,20190666,20196000,0,-0.005584717,12.354675,-0.047798395,12.40331,7.3679903e-06,3,1,0,1
20332000,20252000,20252000,0,-0.076416016,12.354738,0.009521663,12.402597,2.9239703e-07,3,1,0,1
20396000,20312000,20316000,0,-0.0058898926,12.354935,-0.0,12.403562,8.749668e-06,3,1,0,1
20452000,20372000,20372000,0,0.054718018,12.354994,-0.0,12.402022,3.5171444e-05,3,1,0,1
20516000,20432000,20436000,0,0.03036499,12.355186,-0.0,12.4030285,1.4641918e-05,3,1,0,1
20572000,20492000,20492000,0,-0.12515259,12.355241,0.100892395,12.403807,3.2826298e-05,3,1,0,1
20636000,20552000,20556000,0,-0.11959839,12.35543,0.111384824,12.404892,4.0005438e-05,3,1,0,1
20692000,20612000,20612000,0,-0.08578491,12.355479,0.0930705,12.405739,2.7929389e-05,3,1,0,1
20756000,20672000,20676000,0,-0.099090576,12.355664,0.1260027,12.406909,5.1186576e-05,3,1,0,1
20812000,20732000,20732000,0,-0.02758789,12.355711,0.06755489,12.405265,1.4715246e-05,3,1,0,1
20876000,20792000,20796000,0,-0.045806885,12.355891,0.10895936,12.406486,3.8277212e-05,3,1,0,1
20932000,20852000,20852000,0,-0.11529541,12.355934,0.20004569,12.407457,0.00012901363,3,1,0,1
20996000,20912000,20916000,0,0.03665161,12.356112,0.07410886,12.408778,1.7703995e-05,3,1,0,1
21052000,20970000,20972000,0,-0.009674072,12.356151,0.14500873,12.409838,6.777698e-05,3,1,0,1
21100000,21020000,21020000,0,-0.03189087,12.356053,0.18897906,12.410617,0.00011510495,3,1,0,1
21164000,21080000,21084000,0,0.04953003,12.356229,0.13805507,12.412093,6.14214e-05,3,1,0,1
21220000,21140000,21140000,0,-0.094818115,12.356266,0.2954163,12.410244,0.00028128628,3,1,0,1
21284000,21198666,21204000,0,0.034484863,12.356438,0.19889191,12.4117775,0.00012748533,3,1,0,1
21340000,21258000,21260000,0,-0.048309326,12.356471,0.3118132,12.413027,0.00031330786,3,1,0,1
21388000,21308000,21308000,0,-0.08319092,12.356369,0.37274954,12.41397,0.0004476963,3,1,0,1
21452000,21368000,21372000,0,-0.04711914,12.35654,0.37280825,12.415684,0.00044777556,3,1,0,1
21508000,21428000,21428000,0,0.045288086,12.356571,0.31279224,12.417089,0.00031517525,3,1,0,1
21572000,21488000,21492000,0,0.029205322,12.356739,0.3675921,12.418939,0.00043521897,3,1,0,1
21628000,21548000,21548000,0,-0.15542603,12.356768,0.5571102,12.416706,0.0009998521,3,1,0,1
21692000,21608000,21612000,0,-0.056732178,12.356931,0.49651015,12.41861,0.0007940416,3,1,0,1
21748000,21668000,21668000,0,-0.090026855,12.3569565,0.5621612,12.420183,0.0010177796,3,1,0,1
21812000,21728000,21732000,0,0.06506348,12.357118,0.44292092,12.422234,0.0006317026,3,1,0,1
21868000,21788000,21788000,0,-0.025024414,12.35714,0.5638064,12.423931,0.0010234368,3,1,0,1
21932000,21848000,21852000,0,-0.02017212,12.357298,0.592937,12.426132,0.0011317255,3,1,0,1
21988000,21908000,21908000,0,-0.052612305,12.357318,0.65389395,12.427959,0.0013761786,3,1,0,1
22052000,21966666,21972000,0,-0.03286743,12.357472,0.61913776,12.425515,0.0012340143,3,1,0,1
22108000,22028000,22028000,0,-0.065093994,12.35749,0.67788297,12.427376,0.0014790744,3,1,0,1
22172000,22088000,22092000,0,-0.026367188,12.357641,0.6689578,12.429768,0.001440106,3,1,0,1
22228000,22148000,22148000,0,-0.09100342,12.357656,0.75931025,12.431761,0.0018550938,3,1,0,1
22292000,22208000,22212000,0,-0.08444214,12.357804,0.78300166,12.43431,0.0019722576,3,1,0,1
22348000,22268000,22268000,0,-0.13400269,12.357817,0.860365,12.436405,0.0023808419,3,1,0,1
22412000,22328000,22332000,0,0.047180176,12.357964,0.64561236,12.433013,0.0013409953,3,1,0,1
22468000,22388000,22388000,0,-0.102142334,12.357972,0.8267174,12.4350395,0.0021985024,3,1,0,1
22532000,22448000,22452000,0,-0.109069824,12.358116,0.86893165,12.437592,0.0024282585,3,1,0,1
22588000,22506000,22508000,0,-0.063934326,12.358123,0.851658,12.439666,0.0023322857,3,1,0,1
22636000,22556000,22556000,0,-0.037750244,12.357994,0.8467484,12.441253,0.0023051791,3,1,0,1
22700000,22614666,22620000,0,-0.16653442,12.358138,1.001906,12.443902,0.0032266907,3,1,0,1
22756000,22676000,22676000,0,-0.063934326,12.358145,0.91494995,12.446053,0.0026904384,3,1,0,1
22820000,22736000,22740000,0,-0.08883667,12.358287,0.8636936,12.4413595,0.0023983442,3,1,0,1
22876000,22794000,22796000,0,-0.19403076,12.358291,0.9748744,12.443442,0.0030550389,3,1,0,1
22940000,22853333,22860000,0,-0.17614746,12.35843,0.9592976,12.446081,0.0029575634,3,1,0,1
22988000,22904000,22908000,0,-0.14901733,12.358296,0.9290801,12.447684,0.0027738167,3,1,0,1
23044000,22964000,22964000,0,-0.2770691,12.358301,1.0523822,12.449851,0.003558302,3,1,0,1
23108000,23024000,23028000,0,-0.22097778,12.35844,0.9875519,12.452593,0.0031327093,3,1,0,1
23164000,23084000,23084000,0,-0.27807617,12.358442,1.0337145,12.454811,0.0034318168,3,1,0,1
23228000,23144000,23148000,0,-0.3770752,12.35858,1.0089085,12.448831,0.003270657,3,1,0,1
23284000,23204000,23204000,0,-0.354187,12.358579,0.9687716,12.450961,0.0030150872,3,1,0,1
23340000,23260000,23260000,0,-0.47720337,12.358579,1.072557,12.453117,0.0036950698,3,1,0,1
23396000,23312000,23316000,0,-0.46316528,12.358578,1.0360806,12.455287,0.003447413,3,1,0,1
23452000,23372000,23372000,0,-0.3743286,12.358578,0.9234565,12.457488,0.0027381824,3,1,0,1
23516000,23430666,23436000,0,-0.47894287,12.358713,1.0007243,12.460282,0.0032148522,3,1,0,1
23572000,23492000,23492000,0,-0.47021484,12.358711,0.96460396,12.462527,0.0029864274,3,1,0,1
23636000,23552000,23556000,0,-0.5979614,12.358845,0.93986547,12.455309,0.0028368533,3,1,0,1
23692000,23612000,23612000,0,-0.63668823,12.35884,0.9468862,12.457458,0.0028788971,3,1,0,1
23756000,23672000,23676000,0,-0.6425171,12.358971,0.9154235,12.460193,0.0026901676,3,1,0,1
23812000,23732000,23732000,0,-0.6345215,12.358964,0.87187326,12.46237,0.0024398668,3,1,0,1
23876000,23792000,23796000,0,-0.70669556,12.359093,0.90353304,12.465163,0.0026196912,3,1,0,1
23932000,23852000,23852000,0,-0.7973938,12.359084,0.9560027,12.467397,0.00293226,3,1,0,1
23996000,23912000,23916000,0,-0.77023315,12.359211,0.88397676,12.470246,0.0025064938,3,1,0,1
24052000,23972000,23972000,0,-0.8939514,12.359201,0.8426359,12.461263,0.0022791761,3,1,0,1
24116000,24032000,24036000,0,-0.86309814,12.359326,0.7634301,12.463985,0.0018704308,3,1,0,1
24172000,24092000,24092000,0,-0.8329468,12.359313,0.690009,12.46616,0.0015276956,3,1,0,1
24236000,24152000,24156000,0,-0.9442749,12.359436,0.752557,12.468912,0.0018168128,3,1,0,1
24292000,24212000,24212000,0,-0.97055054,12.359423,0.73568064,12.471126,0.0017359332,3,1,0,1
24356000,24272000,24276000,0,-1.001648,12.359544,0.71926963,12.473959,0.0016589724,3,1,0,1
24412000,24332000,24332000,0,-1.1690369,12.359529,0.7289169,12.464104,0.0017051199,3,1,0,1
24476000,24390666,24396000,0,-1.1954956,12.359648,0.7084127,12.466771,0.0016101958,3,1,0,1
24532000,24452000,24452000,0,-1.1611023,12.35963,0.6341462,12.46892,0.0012900602,3,1,0,1
24596000,24510666,24516000,0,-1.1695862,12.359747,0.59956735,12.471679,0.0011529515,3,1,0,1
24652000,24570000,24572000,0,-1.1408386,12.359728,0.5324526,12.473821,0.00090912246,3,1,0,1
24716000,24630666,24636000,0,-1.1596375,12.359844,0.5106704,12.476632,0.00083607266,3,1,0,1
24772000,24692000,24692000,0,-1.2349854,12.359823,0.55066764,12.478852,0.00097199593,3,1,0,1
24836000,24752000,24756000,0,-1.2489014,12.359939,0.42540556,12.468684,0.00058055815,3,1,0,1
24892000,24812000,24812000,0,-1.1794128,12.359916,0.32150805,12.470809,0.00033155002,3,1,0,1
24956000,24872000,24876000,0,-1.2892456,12.360028,0.39409333,12.473545,0.00049804465,3,1,0,1
25012000,24932000,24932000,0,-1.3139648,12.360004,0.38574612,12.475711,0.0004770873,3,1,0,1
25076000,24992000,24996000,0,-1.2823792,12.360116,0.316509,12.478446,0.00032112317,3,1,0,1
25132000,25052000,25052000,0,-1.1903687,12.36009,0.19332057,12.480647,0.00011977854,3,1,0,1
25196000,25112000,25116000,0,-1.1839905,12.360201,0.15370464,12.483495,7.570033e-05,3,1,0,1
25252000,25172000,25172000,0,-1.1873169,12.360174,0.056189656,12.472018,1.0125956e-05,3,1,0,1
25316000,25230666,25236000,0,-1.2103271,12.360283,0.048070908,12.474744,7.40957e-06,3,1,0,1
25372000,25292000,25292000,0,-1.2756042,12.360254,0.08720231,12.476898,2.4378633e-05,3,1,0,1
25436000,25352000,25356000,0,-1.2373047,12.360361,0.020019889,12.479689,1.2846344e-06,3,1,0,1
25492000,25412000,25412000,0,-1.2277222,12.360332,-0.0,12.481832,5.9354363e-07,3,1,0,1
25556000,25469333,25476000,0,-1.1433411,12.360438,-0.0,12.484687,4.712561e-05,3,1,0,1
25604000,25520000,25524000,0,-1.0552063,12.360272,-0.0,12.472235,0.00022334418,3,1,0,1
25660000,25580000,25580000,0,-1.1936646,12.360244,-0.0,12.474369,6.2350875e-05,3,1,0,1
25724000,25640000,25644000,0,-1.1009827,12.360352,-0.0,12.477094,0.00019083319,3,1,0,1
25780000,25700000,25700000,0,-1.070282,12.360322,-0.0,12.479287,0.00025340996,3,1,0,1
25844000,25760000,25764000,0,-1.0305176,12.360428,-0.0,12.482133,0.00034101296,3,1,0,1
25900000,25818000,25820000,0,-1.052185,12.360397,-0.0,12.484343,0.00030574756,3,1,0,1
25964000,25880000,25884000,0,-0.86242676,12.360503,-0.0,12.4872675,0.00081125513,3,1,0,1
26020000,25940000,25940000,0,-0.97488403,12.360472,-0.0,12.474968,0.00050517556,3,1,0,1
26084000,26000000,26004000,0,-0.8328552,12.360575,-0.0,12.4777565,0.00095604575,3,1,0,1
26140000,26060000,26060000,0,-0.8236084,12.360541,-0.0,12.479995,0.0010156336,3,1,0,1
26204000,26120000,26124000,0,-0.7628479,12.360643,-0.0,12.482902,0.0012921902,3,1,0,1
26260000,26180000,26180000,0,-0.7496948,12.360609,-0.0,12.4852085,0.001399324,3,1,0,1
26324000,26240000,26244000,0,-0.6428833,12.360711,-0.0,12.488193,0.0019747328,3,1,0,1
26380000,26299000,26300000,0,-0.6357422,12.360676,-0.0,12.490569,0.0020988272,3,1,0,1
26444000,26360000,26364000,0,-0.57247925,12.360777,-0.0,12.478418,0.0023170884,3,1,0,1
26500000,26419000,26420000,0,-0.64575195,12.36074,-0.0,12.4807205,0.0020284746,3,1,0,1
26556000,26476000,26476000,0,-0.5448303,12.360703,-0.0,12.483072,0.002686086,3,1,0,1
26612000,26528000,26532000,0,-0.60458374,12.360668,-0.0,12.485464,0.002457909,3,1,0,1
26668000,26588000,26588000,0,-0.504364,12.360634,-0.0,12.487897,0.0031888417,3,1,0,1
26732000,26646666,26652000,0,-0.5977173,12.360735,-0.0,12.491049,0.0027763771,3,1,0,1
26788000,26708000,26708000,0,-0.52612305,12.3607,-0.0,12.493565,0.0033810562,3,1,0,1
26852000,26768000,26772000,0,-0.50704956,12.360801,-0.0,12.480977,0.0031390674,3,1,0,1
26908000,26828000,26828000,0,-0.4829712,12.360764,-0.0,12.483433,0.0034570466,3,1,0,1
26972000,26888000,26892000,0,-0.44525146,12.360862,-0.0,12.486598,0.003913465,3,1,0,1
27028000,26948000,26948000,0,-0.38464355,12.360825,-0.0,12.489152,0.0045514116,3,1,0,1
27092000,27008000,27012000,0,-0.38116455,12.360923,-0.0,12.492463,0.0048243375,3,1,0,1
27148000,27066000,27068000,0,-0.28405762,12.360884,-0.0,12.495076,0.0058756284,3,1,0,1
27196000,27116000,27116000,0,-0.39938354,12.360711,-0.0,12.4970255,0.005129675,3,1,0,1
27260000,27176000,27180000,0,-0.3166809,12.360812,-0.0,12.483914,0.005056253,3,1,0,1
27316000,27236000,27236000,0,-0.27148438,12.360775,-0.0,12.486532,0.005680521,3,1,0,1
27380000,27294666,27300000,0,-0.32086182,12.360873,-0.0,12.489852,0.005566194,3,1,0,1
27436000,27356000,27356000,0,-0.24334717,12.360836,-0.0,12.492567,0.0065265335,3,1,0,1
27500000,27416000,27420000,0,-0.2043457,12.360934,-0.0,12.496076,0.007253278,3,1,0,1
27556000,27476000,27476000,0,-0.17077637,12.360895,-0.0,12.4987955,0.007955423,3,1,0,1
27620000,27536000,27540000,0,-0.25515747,12.360993,-0.0,12.485105,0.005985074,3,1,0,1
27676000,27596000,27596000,0,-0.09359741,12.360952,-0.0,12.487819,0.0078364,3,1,0,1
27740000,27656000,27660000,0,-0.1873169,12.361049,-0.0,12.491316,0.0073187053,3,1,0,1
27796000,27716000,27716000,0,-0.26644897,12.361008,-0.0,12.494016,0.006942843,3,1,0,1
27860000,27776000,27780000,0,-0.21850586,12.361103,-0.0,12.49763,0.007837861,3,1,0,1
27916000,27836000,27836000,0,-0.28408813,12.361062,-0.0,12.500532,0.007590192,3,1,0,1
27980000,27896000,27900000,0,-0.25079346,12.361156,-0.0,12.504113,0.008461512,3,1,0,1
28036000,27956000,27956000,0,-0.29812622,12.3611145,-0.0,12.488863,0.0064688255,3,1,0,1
28100000,28016000,28020000,0,-0.17462158,12.361208,-0.0,12.492428,0.008123749,3,1,0,1
28156000,28076000,28076000,0,-0.20288086,12.361164,-0.0,12.495299,0.008268987,3,1,0,1
28220000,28136000,28140000,0,-0.1984253,12.361257,-0.0,12.498825,0.008888715,3,1,0,1
28276000,28196000,28196000,0,-0.1803894,12.361213,-0.0,12.501771,0.009581177,3,1,0,1
28340000,28256000,28260000,0,-0.2521057,12.361305,-0.0,12.505559,0.009389814,3,1,0,1
28396000,28316000,28316000,0,-0.23919678,12.36126,-0.0,12.50839,0.010146828,3,1,0,1
28460000,28376000,28380000,0,-0.3771057,12.361353,-0.0,12.493112,0.0069762175,3,1,0,1
28516000,28432000,28436000,0,-0.32922363,12.361306,-0.0,12.496,0.007903501,3,1,0,1
28564000,28482000,28484000,0,-0.37139893,12.361126,-0.0,12.498152,0.007887567,3,1,0,1
28628000,28541333,28548000,0,-0.46047974,12.36122,-0.0,12.501732,0.0076087937,3,1,0,1
28676000,28592000,28596000,0,-0.39437866,12.361042,-0.0,12.503917,0.008720715,3,1,0,1
28732000,28652000,28652000,0,-0.46066284,12.361002,-0.0,12.506932,0.008561269,3,1,0,1
28796000,28712000,28716000,0,-0.4611206,12.361098,-0.0,12.51063,0.009261299,3,1,0,1
28852000,28772000,28772000,0,-0.49499512,12.361058,-0.0,12.494051,0.0070390203,3,1,0,1
28916000,28832000,28836000,0,-0.6114807,12.361153,-0.0,12.497729,0.0064791227,3,1,0,1
28972000,28892000,28892000,0,-0.6288452,12.361111,-0.0,12.500678,0.0067726052,3,1,0,1
29036000,28952000,28956000,0,-0.62768555,12.361204,-0.0,12.5043125,0.007384298,3,1,0,1
29092000,29012000,29012000,0,-0.67407227,12.361162,-0.0,12.507324,0.007429859,3,1,0,1
29156000,29072000,29076000,0,-0.7392578,12.361256,-0.0,12.511195,0.0073731705,3,1,0,1
29212000,29132000,29132000,0,-0.7434082,12.361213,-0.0,12.4939995,0.0057238857,3,1,0,1
29276000,29192000,29196000,0,-0.9290161,12.361304,-0.0,12.4976635,0.0046670297,3,1,0,1
29332000,29251000,29252000,0,-0.89282227,12.361259,-0.0,12.500599,0.005345386,3,1,0,1
29396000,29312000,29316000,0,-0.74938965,12.361351,-0.0,12.504367,0.0071155573,3,1,0,1
29452000,29372000,29372000,0,-1.0161743,12.361305,-0.0,12.507257,0.0052310126,3,1,0,1
29516000,29432000,29436000,0,-0.99468994,12.361397,-0.0,12.511117,0.0058846464,3,1,0,1
29572000,29492000,29492000,0,-1.0067749,12.361351,-0.0,12.5141735,0.006210839,3,1,0,1
29636000,29552000,29556000,0,-1.1083984,12.361442,-0.0,12.497238,0.0041069877,3,1,0,1
29692000,29612000,29612000,0,-1.1748352,12.361394,-0.0,12.500158,0.0039523393,3,1,0,1
29748000,29668000,29668000,0,-1.2504883,12.361348,-0.0,12.503112,0.0037321239,3,1,0,1
29812000,29730000,29732000,0,-1.2647705,12.361438,-0.0,12.506906,0.0039835935,3,1,0,1
29876000,29792000,29796000,0,-1.4859924,12.3615265,-0.0,12.510678,0.002879532,3,1,0,1
29932000,29852000,29852000,0,-1.395874,12.361479,-0.0,12.513725,0.003746878,3,1,0,1
29996000,29912000,29916000,0,-1.5698242,12.3615675,-0.0,12.517653,0.0029327448,3,1,0,1
30052000,29971000,29972000,0,-1.6253357,12.36152,-0.0,12.499438,0.0018315514,3,1,0,1
30116000,30032000,30036000,0,-1.6039124,12.361606,-0.0,12.503166,0.0021637962,3,1,0,1
30172000,30092000,30092000,0,-1.6910706,12.361556,-0.0,12.506141,0.0019199838,3,1,0,1
30236000,30152000,30156000,0,-1.7355347,12.361643,-0.0,12.509968,0.0019254196,3,1,0,1
30292000,30212000,30212000,0,-1.8739319,12.361592,-0.0,12.512964,0.0014791394,3,1,0,1
30356000,30272000,30276000,0,-1.9692078,12.361679,-0.0,12.51688,0.0012670116,3,1,0,1
30412000,30332000,30332000,0,-1.9560242,12.3616295,-0.0,12.498496,0.0008974892,3,1,0,1
30476000,30392000,30396000,0,-2.078125,12.361713,-0.0,12.502178,0.00064456946,3,1,0,1
30532000,30452000,30452000,0,-2.11969,12.361662,-0.0,12.5051365,0.0006197087,3,1,0,1
30596000,30512000,30516000,0,-2.1283264,12.361746,-0.0,12.508942,0.0006988636,3,1,0,1
30652000,30572000,30572000,0,-2.202942,12.361694,-0.0,12.511962,0.00057173875,3,1,0,1
30716000,30632000,30636000,0,-2.3006287,12.361779,-0.0,12.515837,0.00041313085,3,1,0,1
30772000,30691000,30692000,0,-2.350769,12.361727,-0.0,12.518908,0.00036140266,3,1,0,1
30836000,30752000,30756000,0,-2.264557,12.361812,-0.0,12.500978,0.0003679672,3,1,0,1
30892000,30812000,30812000,0,-2.4412842,12.361758,-0.0,12.503902,0.000110231456,3,1,0,1
30956000,30872000,30876000,0,-2.6495361,12.36184,-0.0,12.507677,2.6084557e-09,3,1,0,1
31012000,30931000,30932000,0,-2.6166687,12.361787,-0.0,12.510675,9.001333e-06,3,1,0,1
31076000,30992000,30996000,0,-2.513855,12.36187,-0.0,12.514533,0.0001004388,3,1,0,1
31132000,31052000,31052000,0,-2.6609802,12.361816,-0.0,12.517584,6.9208827e-06,3,1,0,1
31196000,31112000,31116000,0,-2.6802063,12.361898,-0.0,12.521525,6.30968e-06,3,1,0,1
31252000,31172000,31172000,0,-2.7228394,12.361845,0.054638624,12.5024605,9.551333e-06,3,1,0,1
31316000,31232000,31236000,0,-2.6284485,12.361926,-0.0,12.506196,9.247238e-06,3,1,0,1
31372000,31292000,31292000,0,-2.7838745,12.361871,0.09162593,12.509167,2.6845308e-05,3,1,0,1
31436000,31352000,31356000,0,-2.6985474,12.361952,-0.0,12.512996,7.7013176e-08,3,1,0,1
31492000,31412000,31412000,0,-2.9051514,12.3618965,0.19377327,12.516019,0.00012000007,3,1,0,1
31556000,31472000,31476000,0,-2.837677,12.361978,0.11677194,12.519927,4.356474e-05,3,1,0,1
31612000,31531000,31532000,0,-2.9023743,12.361923,0.20841551,12.500827,0.00013898929,3,1,0,1
31676000,31592000,31596000,0,-3.0085144,12.362002,0.30830956,12.504523,0.0003040653,3,1,0,1
31732000,31652000,31652000,0,-3.0151367,12.361945,0.30881882,12.507462,0.00030499895,3,1,0,1
31796000,31712000,31716000,0,-3.1391296,12.362025,0.4274969,12.5112505,0.0005842857,3,1,0,1
31852000,31772000,31772000,0,-3.022644,12.361968,0.30557728,12.514245,0.00029846776,3,1,0,1
31916000,31832000,31836000,0,-3.0668335,12.362048,0.34715033,12.518113,0.0003850847,3,1,0,1
31972000,31892000,31892000,0,-3.07312,12.361992,0.35139775,12.5211525,0.0003944697,3,1,0,1
32036000,31952000,31956000,0,-3.0934448,12.362072,0.37228608,12.502689,0.00044341476,3,1,0,1
32092000,32011000,32012000,0,-3.1934204,12.362014,0.4725175,12.505593,0.00071415334,3,1,0,1
32156000,32072000,32076000,0,-3.3159485,12.362092,0.59570885,12.5093355,0.0011347334,3,1,0,1
32212000,32132000,32132000,0,-3.2261047,12.362034,0.5050726,12.512296,0.0008155124,3,1,0,1
32276000,32192000,32196000,0,-3.296692,12.362112,0.5781615,12.51612,0.0010682886,3,1,0,1
32332000,32252000,32252000,0,-3.3713074,12.362054,0.65461683,12.519126,0.0013691792,3,1,0,1
32396000,32312000,32316000,0,-3.2574768,12.362133,0.54404926,12.523021,0.00094542553,3,1,0,1
32452000,32372000,32372000,0,-3.3089294,12.362075,0.5733142,12.50359,0.0010515034,3,1,0,1
32516000,32432000,32436000,0,-3.3883057,12.362152,0.659281,12.507282,0.0013900748,3,1,0,1
32572000,32492000,32492000,0,-3.3542175,12.362093,0.6298809,12.510205,0.0012685641,3,1,0,1
32636000,32552000,32556000,0,-3.2875366,12.36217,0.5707457,12.513981,0.0010412375,3,1,0,1
32692000,32612000,32612000,0,-3.381012,12.362111,0.6716237,12.5169525,0.0014414958,3,1,0,1
32756000,32672000,32676000,0,-3.4736023,12.362188,0.773808,12.5208,0.0019129093,3,1,0,1
32812000,32732000,32732000,0,-3.3915405,12.362129,0.6487436,12.501483,0.0013466188,3,1,0,1
32876000,32792000,32796000,0,-3.4655457,12.3622055,0.7343192,12.505122,0.0017248122,3,1,0,1
32932000,32852000,32852000,0,-3.4213867,12.362145,0.698755,12.508008,0.0015614273,3,1,0,1
32996000,32912000,32916000,0,-3.6264038,12.362222,0.91593504,12.511731,0.0026820812,3,1,0,1
33052000,32971000,32972000,0,-3.5102234,12.362161,0.8073783,12.514667,0.0020835064,3,1,0,1
33116000,33032000,33036000,0,-3.4794922,12.362237,0.7893393,12.518467,0.0019908398,3,1,0,1
33172000,33091000,33092000,0,-3.514679,12.362178,0.83563805,12.521441,0.0022307045,3,1,0,1
33236000,33152000,33156000,0,-3.5353699,12.362254,0.8030064,12.502892,0.0020629445,3,1,0,1
33292000,33212000,33212000,0,-3.5657349,12.362193,0.8454268,12.505738,0.0022861392,3,1,0,1
33356000,33272000,33276000,0,-3.5158691,12.3622675,0.81043243,12.509412,0.002100181,3,1,0,1
33412000,33332000,33332000,0,-3.5508728,12.362206,0.8582077,12.512309,0.002354547,3,1,0,1
33476000,33392000,33396000,0,-3.5243835,12.362282,0.8478806,12.516062,0.0022975325,3,1,0,1
33532000,33452000,33452000,0,-3.4745483,12.362221,0.8118887,12.519006,0.0021061199,3,1,0,1
33596000,33512000,33516000,0,-3.5376892,12.362297,0.8938365,12.522823,0.0025519603,3,1,0,1
33652000,33572000,33572000,0,-3.506195,12.362236,0.7941637,12.503428,0.0020176738,3,1,0,1
33716000,33632000,33636000,0,-3.4661865,12.36231,0.7738805,12.507053,0.0019153705,3,1,0,1
33772000,33691000,33692000,0,-3.515564,12.362248,0.8397343,12.509918,0.0022547028,3,1,0,1
33836000,33752000,33756000,0,-3.4892578,12.362323,0.83340883,12.51362,0.0022202057,3,1,0,1
33892000,33812000,33812000,0,-3.4864807,12.362261,0.8474853,12.516533,0.0022953043,3,1,0,1
33956000,33872000,33876000,0,-3.6009521,12.362335,0.983304,12.520309,0.0030890189,3,1,0,1
34012000,33932000,33932000,0,-3.5545654,12.362274,0.85711074,12.501107,0.002350636,3,1,0,1
34068000,33988000,33988000,0,-3.5891418,12.362212,0.9094944,12.503907,0.0026461491,3,1,0,1
34124000,34040000,34044000,0,-3.5152588,12.362151,0.8527603,12.506735,0.0023257874,3,1,0,1
34180000,34100000,34100000,0,-3.545166,12.362092,0.90042806,12.509588,0.0025924775,3,1,0,1
34244000,34160000,34164000,0,-3.438507,12.362169,0.8155153,12.513277,0.0021259503,3,1,0,1
34300000,34220000,34220000,0,-3.4030151,12.36211,0.79935884,12.516178,0.0020420756,3,1,0,1
34364000,34280000,34284000,0,-3.5085144,12.362187,0.92940927,12.519941,0.0027597623,3,1,0,1
34420000,34340000,34340000,0,-3.4297485,12.362128,0.7611978,12.500873,0.0018540213,3,1,0,1
34484000,34400000,34404000,0,-3.5262146,12.362205,0.88294506,12.504439,0.0024938085,3,1,0,1
34540000,34460000,34460000,0,-3.5323792,12.3621435,0.90877414,12.507262,0.002641251,3,1,0,1
34604000,34520000,34524000,0,-3.4303284,12.36222,0.8304229,12.510914,0.0022048017,3,1,0,1
34660000,34580000,34580000,0,-3.4651184,12.36216,0.88597775,12.513786,0.0025090936,3,1,0,1
34724000,34638666,34644000,0,-3.4759827,12.362236,0.9218788,12.517513,0.0027157487,3,1,0,1
34780000,34700000,34700000,0,-3.472412,12.362176,0.93879175,12.520429,0.0028156543,3,1,0,1
34844000,34760000,34764000,0,-3.4217224,12.362253,0.7981136,12.502163,0.0020380004,3,1,0,1
34900000,34820000,34820000,0,-3.372284,12.362191,0.7703912,12.504957,0.0018984555,3,1,0,1
34964000,34880000,34884000,0,-3.4592896,12.362267,0.8836241,12.508571,0.0024968209,3,1,0,1
35020000,34940000,34940000,0,-3.362152,12.3622055,0.8069968,12.511419,0.0020820783,3,1,0,1
35084000,35000000,35004000,0,-3.4394226,12.36228,0.91055965,12.515109,0.0026499776,3,1,0,1
35140000,35060000,35060000,0,-3.4547424,12.36222,0.9467182,12.518004,0.0028639561,3,1,0,1
35204000,35120000,35124000,0,-3.3617249,12.362295,0.75944734,12.499917,0.001845645,3,1,0,1
35260000,35180000,35180000,0,-3.3830566,12.362232,0.803308,12.502682,0.002064529,3,1,0,1
35324000,35240000,35244000,0,-3.422821,12.362307,0.8692982,12.506258,0.002416964,3,1,0,1
35380000,35300000,35300000,0,-3.3117065,12.362245,0.7789736,12.509084,0.0019403495,3,1,0,1
35444000,35358666,35364000,0,-3.40802,12.362319,0.90167665,12.512741,0.0025990172,3,1,0,1
35500000,35418000,35420000,0,-3.2966309,12.362257,0.81093,12.5156145,0.0021017187,3,1,0,1
35548000,35468000,35468000,0,-3.3785706,12.3620615,0.9103031,12.517674,0.0026479417,3,1,0,1
35612000,35526666,35532000,0,-3.393921,12.36214,0.8289964,12.499714,0.0021992025,3,1,0,1
35668000,35588000,35588000,0,-3.3864746,12.362081,0.84288335,12.5024805,0.0022729964,3,1,0,1
35732000,35648000,35652000,0,-3.2943726,12.362157,0.7759309,12.506056,0.001925687,3,1,0,1
35788000,35708000,35708000,0,-3.2029114,12.362098,0.70574975,12.508882,0.001592733,3,1,0,1
35852000,35766666,35772000,0,-3.3186646,12.362175,0.84804344,12.512541,0.002299062,3,1,0,1
35908000,35828000,35828000,0,-3.2922974,12.362115,0.84240294,12.515413,0.0022680599,3,1,0,1
35972000,35888000,35892000,0,-3.214325,12.362192,0.7897937,12.519146,0.0019930245,3,1,0,1
36028000,35948000,35948000,0,-3.2635803,12.362133,0.7370074,12.50035,0.0017381269,3,1,0,1
36092000,36008000,36012000,0,-3.3273926,12.362209,0.82639265,12.503893,0.002184679,3,1,0,1
36148000,36068000,36068000,0,-3.2401733,12.362148,0.7591491,12.506698,0.0018431956,3,1,0,1
36212000,36128000,36132000,0,-3.167633,12.362225,0.71138644,12.510327,0.0016180894,3,1,0,1
36268000,36188000,36188000,0,-3.208191,12.3621645,0.7732029,12.513186,0.0019110807,3,1,0,1
36332000,36248000,36252000,0,-3.2012634,12.362241,0.7914524,12.516892,0.002001765,3,1,0,1
36388000,36308000,36308000,0,-3.1753845,12.362181,0.78633904,12.519794,0.0019755247,3,1,0,1
36452000,36368000,36372000,0,-3.1166687,12.362257,0.62822366,12.501763,0.0012627498,3,1,0,1
36508000,36428000,36428000,0,-3.111023,12.362195,0.6444292,12.504547,0.0013284415,3,1,0,1
36572000,36488000,36492000,0,-3.081787,12.36227,0.64072037,12.508148,0.0013128165,3,1,0,1
36628000,36548000,36548000,0,-3.1934204,12.362208,0.7737613,12.510989,0.001914178,3,1,0,1
36692000,36606666,36612000,0,-3.1442566,12.362284,0.74879026,12.51467,0.0017920948,3,1,0,1
36748000,36668000,36668000,0,-3.132843,12.362223,0.7577987,12.517559,0.0018350505,3,1,0,1
36812000,36728000,36732000,0,-3.1119385,12.362298,0.63932776,12.499664,0.0013080031,3,1,0,1
36868000,36788000,36788000,0,-3.101532,12.362236,0.6497493,12.502429,0.0013506947,3,1,0,1
36932000,36848000,36852000,0,-3.0910034,12.362309,0.6636367,12.5060005,0.0014086474,3,1,0,1
36988000,36908000,36908000,0,-3.014618,12.362247,0.6071892,12.508824,0.0011789395,3,1,0,1
37052000,36968000,36972000,0,-3.0701904,12.362322,0.6873059,12.512481,0.0015101384,3,1,0,1
37108000,37028000,37028000,0,-3.0170898,12.36226,0.6539316,12.515355,0.001366726,3,1,0,1
37172000,37088000,37092000,0,-3.0440674,12.362335,0.70510244,12.519088,0.0015885165,3,1,0,1
37228000,37148000,37148000,0,-3.0049133,12.362273,0.56651235,12.500342,0.0010269679,3,1,0,1
37292000,37208000,37212000,0,-2.9716187,12.362347,0.5569444,12.503886,0.00099229,3,1,0,1
37348000,37268000,37268000,0,-2.9290771,12.362284,0.5341089,12.506691,0.000912383,3,1,0,1
37412000,37325333,37332000,0,-2.8867188,12.362357,0.51515603,12.510323,0.0008485337,3,1,0,1
37460000,37376000,37380000,0,-3.0651855,12.362159,0.7097776,12.51237,0.0016105158,3,1,0,1
37516000,37436000,37436000,0,-2.9367676,12.3621,0.59885526,12.51525,0.00114621,3,1,0,1
37580000,37496000,37500000,0,-2.875061,12.362178,0.55966234,12.518989,0.0010007899,3,1,0,1
37636000,37556000,37556000,0,-2.9498596,12.362119,0.53831553,12.500319,0.00092728395,3,1,0,1
37700000,37616000,37620000,0,-2.959137,12.362195,0.56922483,12.503869,0.0010365332,3,1,0,1
37756000,37676000,37676000,0,-2.8084717,12.362134,0.43605042,12.506681,0.00060812285,3,1,0,1
37820000,37736000,37740000,0,-3.0299377,12.36221,0.67979026,12.510321,0.0014775473,3,1,0,1
37876000,37796000,37796000,0,-2.8641968,12.36215,0.5300083,12.513187,0.0008979609,3,1,0,1
37940000,37856000,37860000,0,-2.986206,12.3622265,0.6732719,12.516905,0.0014485852,3,1,0,1
37996000,37915000,37916000,0,-2.8346252,12.362167,0.53765917,12.519816,0.0009235834,3,1,0,1
38060000,37976000,37980000,0,-2.8063354,12.362244,0.4195516,12.501872,0.000563191,3,1,0,1
38116000,38036000,38036000,0,-2.8401184,12.362183,0.4710958,12.504667,0.00070991495,3,1,0,1
38180000,38096000,38100000,0,-2.699768,12.362258,0.3508396,12.508282,0.0003936222,3,1,0,1
38236000,38155000,38156000,0,-2.8280945,12.362196,0.49740243,12.511133,0.00079100486,3,1,0,1
38300000,38216000,38220000,0,-3.0255127,12.362272,0.7146957,12.51483,0.001632591,3,1,0,1
38356000,38275000,38276000,0,-2.779663,12.362211,0.48290253,12.51773,0.0007451666,3,1,0,1
38420000,38336000,38340000,0,-2.6767273,12.362287,0.29193258,12.499885,0.00027272137,3,1,0,1
38476000,38396000,38396000,0,-2.8149414,12.362225,0.44809818,12.502661,0.0006423976,3,1,0,1
38540000,38456000,38460000,0,-2.6841736,12.362299,0.33628035,12.506248,0.0003616895,3,1,0,1
38596000,38515000,38516000,0,-2.8032227,12.362237,0.47238302,12.509086,0.0007135477,3,1,0,1
38660000,38576000,38580000,0,-2.8459167,12.362311,0.5335133,12.512758,0.00090990786,3,1,0,1
38716000,38636000,38636000,0,-2.6908875,12.362249,0.39322472,12.515645,0.0004941837,3,1,0,1
38780000,38696000,38700000,0,-2.5605774,12.362325,0.28244066,12.519394,0.00025487726,3,1,0,1
38836000,38756000,38756000,0,-2.6190796,12.362263,0.25590897,12.500664,0.00020955494,3,1,0,1
38900000,38816000,38820000,0,-2.7106934,12.362336,0.3671763,12.504224,0.00043127328,3,1,0,1
38956000,38875000,38876000,0,-2.7214966,12.362273,0.393301,12.507044,0.00049471547,3,1,0,1
39012000,38932000,38932000,0,-2.7273254,12.362212,0.41394496,12.509891,0.0005478879,3,1,0,1
39068000,38984000,38988000,0,-2.6954346,12.362152,0.39659405,12.512761,0.0005028046,3,1,0,1
39124000,39044000,39044000,0,-2.6871948,12.362093,0.4030645,12.515655,0.0005192249,3,1,0,1
39188000,39104000,39108000,0,-2.5333557,12.362171,0.26653647,12.519411,0.00022698093,3,1,0,1
39244000,39164000,39164000,0,-2.6061096,12.362112,0.2554593,12.500728,0.0002088181,3,1,0,1
39308000,39224000,39228000,0,-2.6742554,12.362188,0.34101605,12.504296,0.00037200635,3,1,0,1
39364000,39282000,39284000,0,-2.624237,12.362128,0.30459237,12.507124,0.00029671573,3,1,0,1
39428000,39341333,39348000,0,-2.6074524,12.362205,0.30418706,12.51078,0.00029584012,3,1,0,1
39476000,39392000,39396000,0,-2.632904,12.362009,0.34109497,12.512843,0.00037192437,3,1,0,1
39532000,39452000,39452000,0,-2.5875854,12.361953,0.30945206,12.515743,0.00030604837,3,1,0,1
39596000,39512000,39516000,0,-2.4956055,12.362033,0.23421478,12.519506,0.0001752675,3,1,0,1
39652000,39571000,39572000,0,-2.6108704,12.361977,0.26964116,12.500855,0.00023264441,3,1,0,1
39716000,39632000,39636000,0,-2.5943909,12.362056,0.26916075,12.504434,0.00023174983,3,1,0,1
39772000,39690000,39692000,0,-2.615448,12.361998,0.30368328,12.507267,0.00029494383,3,1,0,1
39836000,39752000,39756000,0,-2.673767,12.362077,0.37740707,12.510932,0.00045539727,3,1,0,1
39892000,39811000,39812000,0,-2.53891,12.362019,0.25482106,12.513819,0.00020755864,3,1,0,1
39956000,39872000,39876000,0,-2.4427185,12.362098,0.17484951,12.517562,9.769427e-05,3,1,0,1
40012000,39932000,39932000,0,-2.5256653,12.3620405,0.18191266,12.498987,0.00010590367,3,1,0,1
40076000,39992000,39996000,0,-2.6602173,12.362118,0.33222795,12.502537,0.00035312964,3,1,0,1
40132000,40052000,40052000,0,-2.5257568,12.362059,0.20944571,12.505353,0.00014031593,3,1,0,1
40188000,40108000,40108000,0,-2.439392,12.362,0.13598704,12.508196,5.9137146e-05,3,1,0,1
40244000,40160000,40164000,0,-2.4522705,12.361944,0.16261697,12.5110655,8.4546846e-05,3,1,0,1
40300000,40218000,40220000,0,-2.6339111,12.361889,0.35776567,12.513958,0.00040913126,3,1,0,1
40348000,40268000,40268000,0,-2.5414734,12.3617,0.27425003,12.51604,0.00024037341,3,1,0,1
40412000,40328000,40332000,0,-2.5343628,12.361785,0.19541645,12.498419,0.00012221574,3,1,0,1
40468000,40388000,40388000,0,-2.3823853,12.361732,0.05541396,12.5012045,9.825316e-06,3,1,0,1
40532000,40448000,40452000,0,-2.405365,12.3618145,0.093814135,12.504799,2.8152685e-05,3,1,0,1
40588000,40508000,40508000,0,-2.3998413,12.361761,0.10114598,12.507647,3.2717617e-05,3,1,0,1
40652000,40568000,40572000,0,-2.4317932,12.361844,0.14783072,12.511327,6.9869246e-05,3,1,0,1
40708000,40628000,40628000,0,-2.327179,12.361791,0.05548525,12.514226,9.840362e-06,3,1,0,1
40772000,40688000,40692000,0,-2.4440613,12.361874,0.18786073,12.517984,0.00011277104,3,1,0,1
40828000,40748000,40748000,0,-2.4189148,12.36182,0.09233594,12.499424,2.7284219e-05,3,1,0,1
40892000,40808000,40812000,0,-2.4603577,12.361901,0.1473701,12.502991,6.9480804e-05,3,1,0,1
40948000,40868000,40868000,0,-2.313507,12.361846,0.011474848,12.505819,4.2115477e-07,3,1,0,1
41012000,40928000,40932000,0,-2.4683228,12.361927,0.1804359,12.509476,0.00010410384,3,1,0,1
41068000,40988000,40988000,0,-2.5183716,12.361872,0.24081707,12.51236,0.00018539384,3,1,0,1
41132000,41048000,41052000,0,-2.4410706,12.361954,0.1749258,12.516096,9.7790995e-05,3,1,0,1
41188000,41108000,41108000,0,-2.3925781,12.361898,0.13684654,12.519025,5.9835256e-05,3,1,0,1
41252000,41168000,41172000,0,-2.3678894,12.3619795,0.046546698,12.501143,6.93247e-06,3,1,0,1
41308000,41228000,41228000,0,-2.419098,12.361923,0.10851836,12.503954,3.7672035e-05,3,1,0,1
41372000,41288000,41292000,0,-2.4744568,12.362003,0.17544651,12.507584,9.844101e-05,3,1,0,1
41428000,41348000,41348000,0,-2.2991943,12.361946,0.009387732,12.51045,2.8177885e-07,3,1,0,1
41492000,41408000,41412000,0,-2.4728088,12.362026,0.19593453,12.514162,0.00012271006,3,1,0,1
41548000,41468000,41468000,0,-2.4100342,12.36197,0.14233112,12.517077,6.473763e-05,3,1,0,1
41612000,41528000,41532000,0,-2.375885,12.36205,0.044365644,12.499267,6.298963e-06,3,1,0,1
41668000,41588000,41588000,0,-2.3660889,12.361992,0.044546366,12.502055,6.348968e-06,3,1,0,1
41732000,41648000,41652000,0,-2.4877625,12.36207,0.17759347,12.505655,0.00010088056,3,1,0,1
41788000,41708000,41708000,0,-2.345337,12.362012,0.0434525,12.508504,6.037876e-06,3,1,0,1
41852000,41768000,41772000,0,-2.2792053,12.362091,-0.01137495,12.51219,4.1364302e-07,3,1,0,1
41908000,41828000,41828000,0,-2.4248352,12.362033,0.14478254,12.51509,6.699747e-05,3,1,0,1
41972000,41888000,41892000,0,-2.4235535,12.362111,0.15367937,12.518851,7.5461714e-05,3,1,0,1
42028000,41948000,41948000,0,-2.4597473,12.362054,0.12483072,12.500132,4.9864146e-05,3,1,0,1
42092000,42008000,42012000,0,-2.3647156,12.362131,0.038992405,12.503701,4.8638644e-06,3,1,0,1
42148000,42068000,42068000,0,-2.355011,12.362072,0.037965298,12.506531,4.609956e-06,3,1,0,1
42212000,42128000,42132000,0,-2.4344788,12.362149,0.12739944,12.510188,5.1895684e-05,3,1,0,1
42268000,42188000,42188000,0,-2.3770142,12.36209,0.07758045,12.513072,1.9239804e-05,3,1,0,1
