timestamp,timestamp_sample,gps_hvel[0],gps_hvel[1],gps_vvel,gps_hpos[0],gps_hpos[1],gps_vpos,ev_hvel[0],ev_hvel[1],ev_vvel,ev_hpos[0],ev_hpos[1],ev_vpos,rng_vpos,baro_vpos,aux_hvel[0],aux_hvel[1],aux_vvel,flow[0],flow[1],terr_flow[0],terr_flow[1],heading,mag_field[0],mag_field[1],mag_field[2],gravity[0],gravity[1],gravity[2],drag[0],drag[1],airspeed,beta,hagl,hagl_rate
3428000,3348000,0.0,0.0,0.0,0.0,0.0,0.0,0.0,0.0,0.0,0.0,0.0,0.0,0.0,0.0,0.0,0.0,nan,0.0,0.0,0.0,0.0,0.0,0.0,0.0,0.0,1.979938,1.9801793,1.0008539,0.0,0.0,0.0,0.0,0.0,0.0
3436000,3356000,0.0,0.0,0.0,0.0,0.0,0.0,0.0,0.0,0.0,0.0,0.0,0.0,0.0,112.451,0.0,0.0,nan,0.0,0.0,0.0,0.0,0.0,0.0,0.0,0.0,1.9826801,1.982969,1.0008578,0.0,0.0,0.0,0.0,0.0,0.0
3444000,3364000,0.0,0.0,0.0,0.0,0.0,0.0,0.0,0.0,0.0,0.0,0.0,0.0,0.0,112.451,0.0,0.0,nan,0.0,0.0,0.0,0.0,0.0,0.0,0.0,0.0,1.9847604,1.9850564,1.0008625,0.0,0.0,0.0,0.0,0.0,0.0
3452000,3372000,0.0,0.0,0.0,0.0,0.0,0.0,0.0,0.0,0.0,0.0,0.0,0.0,0.0,112.451,0.0,0.0,nan,0.0,0.0,0.0,0.0,0.0,0.0,0.0,0.0,1.98842,1.9885628,1.0166699,0.0,0.0,0.0,0.0,0.0,0.0
3460000,3380000,0.0,0.0,0.0,0.0,0.0,0.0,0.0,0.0,0.0,0.0,0.0,0.0,0.0,112.451,0.0,0.0,nan,0.0,0.0,0.0,0.0,0.0,0.0,0.0,0.0,1.98984,1.9900427,1.014521,0.0,0.0,0.0,0.0,0.0,0.0
3468000,3388000,0.0,0.0,0.0,0.0,0.0,0.0,0.0,0.0,0.0,0.0,0.0,0.0,0.0,112.451,0.0,0.0,nan,0.0,0.0,0.0,0.0,0.0,0.0,0.0,0.0,1.991663,1.9919122,1.0128424,0.0,0.0,0.0,0.0,0.0,0.0
3476000,3396000,0.0,0.0,0.0,0.0,0.0,0.0,0.0,0.0,0.0,0.0,0.0,0.0,0.0,112.451,0.0,0.0,nan,0.0,0.0,0.0,0.0,0.0,0.0,0.0,0.0,1.9938298,1.9941162,1.0115017,0.0,0.0,0.0,0.0,0.0,0.0
3484000,3404000,0.0,0.0,0.0,0.0,0.0,0.0,0.0,0.0,0.0,0.0,0.0,0.0,0.0,112.451,0.0,0.0,nan,0.0,0.0,0.0,0.0,0.0,0.0,0.0,0.0,1.9963043,1.9966192,1.0104183,0.0,0.0,0.0,0.0,0.0,0.0
3492000,3412000,0.0,0.0,0.0,0.0,0.0,0.0,0.0,0.0,0.0,0.0,0.0,0.0,0.0,112.451,0.0,0.0,nan,0.0,0.0,0.0,0.0,0.0,0.0,0.0,0.0,1.9990597,1.9993978,1.0095382,0.0,0.0,0.0,0.0,0.0,0.0
3500000,3420000,0.0,0.0,0.0,0.0,0.0,0.0,0.0,0.0,0.0,0.0,0.0,0.0,0.0,112.25,0.0,0.0,nan,0.0,0.0,0.0,0.0,0.0,0.0,0.0,0.0,2.0020785,2.0024354,1.0088246,0.0,0.0,0.0,0.0,0.0,0.0
3508000,3428000,0.0,0.0,0.0,0.0,0.0,0.0,0.0,0.0,0.0,0.0,0.0,0.0,0.0,112.25,0.0,0.0,nan,0.0,0.0,0.0,0.0,0.0,0.0,0.0,0.0,2.0053453,2.0057201,1.0082487,0.0,0.0,0.0,0.0,0.0,0.0
3516000,3436000,0.0,0.0,0.0,0.0,0.0,0.0,0.0,0.0,0.0,0.0,0.0,0.0,0.0,112.25,0.0,0.0,nan,0.0,0.0,0.0,0.0,0.0,0.0,0.0,0.0,2.008851,2.0092409,1.0077891,0.0,0.0,0.0,0.0,0.0,0.0
3524000,3444000,0.0,0.0,0.0,0.0,0.0,0.0,0.0,0.0,0.0,0.0,0.0,0.0,0.0,112.25,0.0,0.0,nan,0.0,0.0,0.0,0.0,0.0,0.0,0.0,0.0,2.0125868,2.0129905,1.0074263,0.0,0.0,0.0,0.0,0.0,0.0
3532000,3452000,0.0,0.0,0.0,0.0,0.0,0.0,0.0,0.0,0.0,0.0,0.0,0.0,0.0,112.25,0.0,0.0,nan,0.0,0.0,0.0,0.0,0.0,0.0,0.0,0.0,2.0165462,2.0169613,1.0071464,0.0,0.0,0.0,0.0,0.0,0.0
3540000,3460000,0.0,0.0,0.0,0.0,0.0,0.0,0.0,0.0,0.0,0.0,0.0,0.0,0.0,112.25,0.0,0.0,nan,0.0,0.0,0.0,0.0,0.0,0.0,0.0,0.0,2.0207226,2.0211475,1.0069345,0.0,0.0,0.0,0.0,0.0,0.0
3548000,3468000,0.0,0.0,0.0,0.0,0.0,0.0,0.0,0.0,0.0,0.0,0.0,0.0,0.0,112.25,0.0,0.0,nan,0.0,0.0,0.0,0.0,0.0,0.0,0.0,0.0,2.0251112,2.0255435,1.0067779,0.0,0.0,0.0,0.0,0.0,0.0
3556000,3476000,0.0,0.0,0.0,0.0,0.0,0.0,0.0,0.0,0.0,0.0,0.0,0.0,0.0,112.25,0.0,0.0,nan,0.0,0.0,0.0,0.0,0.0,0.0,0.0,0.0,2.0297084,2.0301447,1.0066667,0.0,0.0,0.0,0.0,0.0,0.0
3564000,3484000,0.0,0.0,0.0,0.0,0.0,0.0,0.0,0.0,0.0,0.0,0.0,0.0,0.0,112.25,0.0,0.0,nan,0.0,0.0,0.0,0.0,0.0,0.0,0.0,0.0,2.0345087,2.0349472,1.0065919,0.0,0.0,0.0,0.0,0.0,0.0
3572000,3492000,0.0,0.0,0.0,0.0,0.0,0.0,0.0,0.0,0.0,0.0,0.0,0.0,0.0,112.25,0.0,0.0,nan,0.0,0.0,0.0,0.0,0.0,0.0,0.0,0.0,2.0395093,2.0399487,1.006543,0.0,0.0,0.0,0.0,0.0,0.0
3580000,3500000,0.0,0.0,0.0,0.0,0.0,0.0,0.0,0.0,0.0,0.0,0.0,0.0,0.0,112.25,0.0,0.0,nan,0.0,0.0,0.0,0.0,0.0,0.0,0.0,0.0,2.0447078,2.0451458,1.0065151,0.0,0.0,0.0,0.0,0.0,0.0
3588000,3508000,0.0,0.0,0.0,0.0,0.0,0.0,0.0,0.0,0.0,0.0,0.0,0.0,0.0,112.25,0.0,0.0,nan,0.0,0.0,0.0,0.0,0.0,0.0,0.0,0.0,2.0501022,2.050536,1.0065018,0.0,0.0,0.0,0.0,0.0,0.0
3596000,3516000,0.11651664,0.11647381,0.20434281,101.000145,101.000145,101.0,0.0,0.0,0.0,0.0,0.0,0.0,0.0,112.25,0.0,0.0,nan,0.0,0.0,0.0,0.0,0.0,0.0,0.0,0.0,2.0556908,2.056119,1.0064975,0.0,0.0,0.0,0.0,0.0,0.0
3604000,3524000,0.11651664,0.11647381,0.20434281,101.000145,101.000145,101.0,0.0,0.0,0.0,0.0,0.0,0.0,0.0,112.25,0.0,0.0,nan,0.0,0.0,0.0,0.0,0.0,0.0,0.0,0.0,2.0614717,2.061892,1.0064996,0.0,0.0,0.0,0.0,0.0,0.0
3612000,3532000,0.11651664,0.11647381,0.20434281,101.000145,101.000145,101.0,0.0,0.0,0.0,0.0,0.0,0.0,0.0,112.25,0.0,0.0,nan,0.0,0.0,0.0,0.0,0.0,0.0,0.0,0.0,2.0674446,2.0678551,1.0065048,0.0,0.0,0.0,0.0,0.0,0.0
3620000,3540000,0.11651664,0.11647381,0.20434281,101.000145,101.000145,101.0,0.0,0.0,0.0,0.0,0.0,0.0,0.0,62.25,0.0,0.0,nan,0.0,0.0,0.0,0.0,0.0,0.0,0.0,0.0,2.0736067,2.074007,1.0065105,0.0,0.0,0.0,0.0,0.0,0.0
3628000,3548000,0.11651664,0.11647381,0.20434281,101.000145,101.000145,101.0,0.0,0.0,0.0,0.0,0.0,0.0,0.0,62.25,0.0,0.0,nan,0.0,0.0,0.0,0.0,0.0,0.0,0.0,0.0,2.0799608,2.0803492,1.0065157,0.0,0.0,0.0,0.0,0.0,0.0
3636000,3556000,0.11651664,0.11647381,0.20434281,101.000145,101.000145,101.0,0.0,0.0,0.0,0.0,0.0,0.0,0.0,62.25,0.0,0.0,nan,0.0,0.0,0.0,0.0,0.0,0.0,0.0,0.0,2.0865061,2.086881,1.006518,0.0,0.0,0.0,0.0,0.0,0.0
3644000,3564000,0.11651664,0.11647381,0.20434281,101.000145,101.000145,101.0,0.0,0.0,0.0,0.0,0.0,0.0,0.0,62.25,0.0,0.0,nan,0.0,0.0,0.0,0.0,0.0,0.0,0.0,0.0,2.0932407,2.0936017,1.0065182,0.0,0.0,0.0,0.0,0.0,0.0
3652000,3572000,0.11651664,0.11647381,0.20434281,101.000145,101.000145,101.0,0.0,0.0,0.0,0.0,0.0,0.0,0.0,62.25,0.0,0.0,nan,0.0,0.0,0.0,0.0,0.0,0.0,0.0,0.0,1.0798453,1.0797788,1.0061873,0.0,0.0,0.0,0.0,0.0,0.0
3660000,3580000,0.11651664,0.11647381,0.20434281,101.000145,101.000145,101.0,0.0,0.0,0.0,0.0,0.0,0.0,0.0,62.25,0.0,0.0,nan,0.0,0.0,0.0,0.0,0.0,0.0,0.0,0.0,1.0827491,1.0826843,1.0061904,0.0,0.0,0.0,0.0,0.0,0.0
3668000,3588000,0.11651664,0.11647381,0.20434281,101.000145,101.000145,101.0,0.0,0.0,0.0,0.0,0.0,0.0,0.0,62.25,0.0,0.0,nan,0.0,0.0,0.0,0.0,0.10012661,0.0,0.0,0.0,1.0858343,1.0857712,1.0061969,0.0,0.0,0.0,0.0,0.0,0.0
3676000,3596000,0.11651664,0.11647381,0.20434281,101.000145,101.000145,101.0,0.0,0.0,0.0,0.0,0.0,0.0,0.0,62.249985,0.0,0.0,nan,0.0,0.0,0.0,0.0,0.10012661,0.0,0.0,0.0,1.0859268,1.0858638,1.0061971,0.0,0.0,0.0,0.0,0.0,0.0
3684000,3604000,0.11651664,0.11647381,0.20434281,101.000145,101.000145,101.0,0.0,0.0,0.0,0.0,0.0,0.0,0.0,62.249985,0.0,0.0,nan,0.0,0.0,0.0,0.0,0.10012661,0.0,0.0,0.0,1.0862006,1.0861378,1.0061975,0.0,0.0,0.0,0.0,0.0,0.0
3692000,3612000,0.11651664,0.11647381,0.20434281,101.000145,101.000145,101.0,0.0,0.0,0.0,0.0,0.0,0.0,0.0,62.249985,0.0,0.0,nan,0.0,0.0,0.0,0.0,0.10012661,0.0,0.0,0.0,1.0866557,1.0865932,1.006198,0.0,0.0,0.0,0.0,0.0,0.0
3700000,3620000,0.11651664,0.11647381,0.20434281,101.000145,101.000145,101.0,0.0,0.0,0.0,0.0,0.0,0.0,0.0,62.249985,0.0,0.0,nan,0.0,0.0,0.0,0.0,0.10012661,0.0,0.0,0.0,1.0872922,1.0872296,1.0061986,0.0,0.0,0.0,0.0,0.0,0.0
3708000,3628000,0.11651664,0.11647381,0.20434281,101.000145,101.000145,101.0,0.0,0.0,0.0,0.0,0.0,0.0,0.0,62.249985,0.0,0.0,nan,0.0,0.0,0.0,0.0,0.10012661,0.0,0.0,0.0,1.0881099,1.0880475,1.0061995,0.0,0.0,0.0,0.0,0.0,0.0
3716000,3636000,0.11651664,0.11647381,0.20434281,101.000145,101.000145,101.0,0.0,0.0,0.0,0.0,0.0,0.0,0.0,62.249985,0.0,0.0,nan,0.0,0.0,0.0,0.0,0.10012661,0.0,0.0,0.0,1.0891088,1.089047,1.0062002,0.0,0.0,0.0,0.0,0.0,0.0
3724000,3644000,0.11651664,0.11647381,0.20434281,101.000145,101.000145,101.0,0.0,0.0,0.0,0.0,0.0,0.0,0.0,62.249985,0.0,0.0,nan,0.0,0.0,0.0,0.0,0.10012661,0.0,0.0,0.0,1.0902891,1.0902276,1.0062014,0.0,0.0,0.0,0.0,0.0,0.0
3732000,3652000,0.11651664,0.11647381,0.20434281,101.000145,101.000145,101.0,0.0,0.0,0.0,0.0,0.0,0.0,0.0,62.249985,0.0,0.0,nan,0.0,0.0,0.0,0.0,0.10012661,0.0,0.0,0.0,1.0916506,1.0915893,1.0062028,0.0,0.0,0.0,0.0,0.0,0.0
3740000,3660000,0.11651664,0.11647381,0.20434281,101.000145,101.000145,101.0,0.0,0.0,0.0,0.0,0.0,0.0,0.0,62.249985,0.0,0.0,nan,0.0,0.0,0.0,0.0,0.09912674,0.0,0.0,0.0,1.0931933,1.0931326,1.0062047,0.0,0.0,0.0,0.0,0.0,0.0
3748000,3668000,0.11651664,0.11647381,0.20434281,101.000145,101.000145,101.0,0.0,0.0,0.0,0.0,0.0,0.0,0.0,62.249985,0.0,0.0,nan,0.0,0.0,0.0,0.0,0.09912674,0.0,0.0,0.0,1.0949173,1.0948572,1.0062064,0.0,0.0,0.0,0.0,0.0,0.0
3756000,3676000,0.11651664,0.11647381,0.20434281,101.000145,101.000145,101.0,0.0,0.0,0.0,0.0,0.0,0.0,0.0,62.249985,0.0,0.0,nan,0.0,0.0,0.0,0.0,0.09912674,0.0,0.0,0.0,1.0968226,1.0967631,1.0062083,0.0,0.0,0.0,0.0,0.0,0.0
3764000,3684000,0.11651664,0.11647381,0.20434281,101.000145,101.000145,101.0,0.0,0.0,0.0,0.0,0.0,0.0,0.0,62.249985,0.0,0.0,nan,0.0,0.0,0.0,0.0,0.09912674,0.0,0.0,0.0,1.0989093,1.0988504,1.0062102,0.0,0.0,0.0,0.0,0.0,0.0
3772000,3692000,0.11651664,0.11647381,0.20434281,101.000145,101.000145,101.0,0.0,0.0,0.0,0.0,0.0,0.0,0.0,62.249985,0.0,0.0,nan,0.0,0.0,0.0,0.0,0.09912674,0.0,0.0,0.0,1.1011772,1.1011189,1.0062125,0.0,0.0,0.0,0.0,0.0,0.0
3780000,3700000,0.11651664,0.11647381,0.20434281,101.000145,101.000145,101.0,0.0,0.0,0.0,0.0,0.0,0.0,0.0,62.249985,0.0,0.0,nan,0.0,0.0,0.0,0.0,0.09912674,0.0,0.0,0.0,1.1036263,1.1035689,1.0062149,0.0,0.0,0.0,0.0,0.0,0.0
3788000,3708000,0.11651664,0.11647381,0.20434281,101.000145,101.000145,101.0,0.0,0.0,0.0,0.0,0.0,0.0,0.0,62.249985,0.0,0.0,nan,0.0,0.0,0.0,0.0,0.09912674,0.0,0.0,0.0,1.1062567,1.1061999,1.0062174,0.0,0.0,0.0,0.0,0.0,0.0
3796000,3716000,0.11651664,0.11647381,0.20434281,101.000145,101.000145,101.0,0.0,0.0,0.0,0.0,0.0,0.0,0.0,62.249985,0.0,0.0,nan,0.0,0.0,0.0,0.0,0.09912674,0.0,0.0,0.0,1.1090683,1.1090126,1.00622,0.0,0.0,0.0,0.0,0.0,0.0
3804000,3724000,0.11651664,0.11647381,0.20434281,101.000145,101.000145,101.0,0.0,0.0,0.0,0.0,0.0,0.0,0.0,62.249985,0.0,0.0,nan,0.0,0.0,0.0,0.0,0.0983446,0.0,0.0,0.0,1.1120613,1.1120067,1.0062221,0.0,0.0,0.0,0.0,0.0,0.0
3812000,3732000,0.11651664,0.11647381,0.20434281,101.000145,101.000145,101.0,0.0,0.0,0.0,0.0,0.0,0.0,0.0,62.249985,0.0,0.0,nan,0.0,0.0,0.0,0.0,0.0983446,0.0,0.0,0.0,1.1152356,1.1151818,1.0062251,0.0,0.0,0.0,0.0,0.0,0.0
3820000,3740000,0.11651664,0.11647381,0.20434281,101.000145,101.000145,101.0,0.0,0.0,0.0,0.0,0.0,0.0,0.0,62.249985,0.0,0.0,nan,0.0,0.0,0.0,0.0,0.0983446,0.0,0.0,0.0,1.1185911,1.1185383,1.0062283,0.0,0.0,0.0,0.0,0.0,0.0
3828000,3748000,0.11651664,0.11647381,0.20434281,101.000145,101.000145,101.0,0.0,0.0,0.0,0.0,0.0,0.0,0.0,62.249985,0.0,0.0,nan,0.0,0.0,0.0,0.0,0.0983446,0.0,0.0,0.0,1.1146355,1.1145865,1.006227,0.0,0.0,0.0,0.0,0.0,0.0
3836000,3756000,0.11651664,0.11647381,0.20434281,101.000145,101.000145,101.0,0.0,0.0,0.0,0.0,0.0,0.0,0.0,62.249985,0.0,0.0,nan,0.0,0.0,0.0,0.0,0.0983446,0.0,0.0,0.0,1.1182368,1.118189,1.0062305,0.0,0.0,0.0,0.0,0.0,0.0
3844000,3764000,0.11651664,0.11647381,0.20434281,101.000145,101.000145,101.0,0.0,0.0,0.0,0.0,0.0,0.0,0.0,62.249985,0.0,0.0,nan,0.0,0.0,0.0,0.0,0.0983446,0.0,0.0,0.0,1.1220185,1.1219718,1.006234,0.0,0.0,0.0,0.0,0.0,0.0
3852000,3772000,0.11651664,0.11647381,0.20434281,101.000145,101.000145,101.0,0.0,0.0,0.0,0.0,0.0,0.0,0.0,62.249985,0.0,0.0,nan,0.0,0.0,0.0,0.0,0.0983446,0.0,0.0,0.0,1.1259805,1.1259353,1.0062379,0.0,0.0,0.0,0.0,0.0,0.0
3860000,3780000,0.11651664,0.11647381,0.20434281,101.000145,101.000145,101.0,0.0,0.0,0.0,0.0,0.0,0.0,0.0,45.58333,0.0,0.0,nan,0.0,0.0,0.0,0.0,0.0983446,0.0,0.0,0.0,1.1228257,1.1227849,1.0062374,0.0,0.0,0.0,0.0,0.0,0.0
3868000,3788000,0.11651664,0.11647381,0.20434281,101.000145,101.000145,101.0,0.0,0.0,0.0,0.0,0.0,0.0,0.0,45.58333,0.0,0.0,nan,0.0,0.0,0.0,0.0,0.0983446,0.0,0.0,0.0,1.1270064,1.1269668,1.0062414,0.0,0.0,0.0,0.0,0.0,0.0
3876000,3796000,0.11651664,0.11647381,0.20434281,101.000145,101.000145,101.0,0.0,0.0,0.0,0.0,0.0,0.0,0.0,45.58333,0.0,0.0,nan,0.0,0.0,0.0,0.0,0.09774019,0.0,0.0,0.0,1.1313659,1.1313277,1.0062467,0.0,0.0,0.0,0.0,0.0,0.0
3884000,3804000,0.11651664,0.11647381,0.20434281,101.000145,101.000145,101.0,0.0,0.0,0.0,0.0,0.0,0.0,0.0,45.58333,0.0,0.0,nan,0.0,0.0,0.0,0.0,0.09774019,0.0,0.0,0.0,1.1359044,1.135868,1.0062511,0.0,0.0,0.0,0.0,0.0,0.0
3892000,3812000,0.11651664,0.11647381,0.20434281,101.000145,101.000145,101.0,0.0,0.0,0.0,0.0,0.0,0.0,0.0,45.58333,0.0,0.0,nan,0.0,0.0,0.0,0.0,0.09774019,0.0,0.0,0.0,1.140622,1.1405872,1.0062556,0.0,0.0,0.0,0.0,0.0,0.0
3900000,3820000,0.11651664,0.11647381,0.20434281,101.000145,101.000145,101.0,0.0,0.0,0.0,0.0,0.0,0.0,0.0,45.58333,0.0,0.0,nan,0.0,0.0,0.0,0.0,0.09774019,0.0,0.0,0.0,1.1455184,1.1454856,1.0062605,0.0,0.0,0.0,0.0,0.0,0.0
3908000,3828000,0.11651664,0.11647381,0.20434281,101.000145,101.000145,101.0,0.0,0.0,0.0,0.0,0.0,0.0,0.0,45.58333,0.0,0.0,nan,0.0,0.0,0.0,0.0,0.09774019,0.0,0.0,0.0,1.1505939,1.1505631,1.0062654,0.0,0.0,0.0,0.0,0.0,0.0
3916000,3836000,0.11651664,0.11647381,0.20434281,101.000145,101.000145,101.0,0.0,0.0,0.0,0.0,0.0,0.0,0.0,45.58333,0.0,0.0,nan,0.0,0.0,0.0,0.0,0.09774019,0.0,0.0,0.0,1.1558483,1.1558193,1.0062706,0.0,0.0,0.0,0.0,0.0,0.0
3924000,3844000,0.11651664,0.11647381,0.20434281,101.000145,101.000145,101.0,0.0,0.0,0.0,0.0,0.0,0.0,0.0,45.58333,0.0,0.0,nan,0.0,0.0,0.0,0.0,0.09774019,0.0,0.0,0.0,1.1612816,1.1612549,1.0062761,0.0,0.0,0.0,0.0,0.0,0.0
3932000,3852000,0.11651664,0.11647381,0.20434281,101.000145,101.000145,101.0,0.0,0.0,0.0,0.0,0.0,0.0,0.0,45.58333,0.0,0.0,nan,0.0,0.0,0.0,0.0,0.09774019,0.0,0.0,0.0,1.1668938,1.1668696,1.0062816,0.0,0.0,0.0,0.0,0.0,0.0
3940000,3860000,0.11651664,0.11647381,0.20434281,101.000145,101.000145,101.0,0.0,0.0,0.0,0.0,0.0,0.0,0.0,45.58333,0.0,0.0,nan,0.0,0.0,0.0,0.0,0.097250804,0.0,0.0,0.0,1.1726851,1.1726632,1.0062858,0.0,0.0,0.0,0.0,0.0,0.0
3948000,3868000,0.11651664,0.11647381,0.20434281,101.000145,101.000145,101.0,0.0,0.0,0.0,0.0,0.0,0.0,0.0,45.58333,0.0,0.0,nan,0.0,0.0,0.0,0.0,0.097250804,0.0,0.0,0.0,1.1786554,1.178636,1.0062917,0.0,0.0,0.0,0.0,0.0,0.0
3956000,3876000,0.11651664,0.11647381,0.20434281,101.000145,101.000145,101.0,0.0,0.0,0.0,0.0,0.0,0.0,0.0,45.58333,0.0,0.0,nan,0.0,0.0,0.0,0.0,0.097250804,0.0,0.0,0.0,1.1848046,1.1847876,1.0062978,0.0,0.0,0.0,0.0,0.0,0.0
3964000,3884000,0.11651664,0.11647381,0.20434281,101.000145,101.000145,101.0,0.0,0.0,0.0,0.0,0.0,0.0,0.0,45.58333,0.0,0.0,nan,0.0,0.0,0.0,0.0,0.097250804,0.0,0.0,0.0,1.1911329,1.1911185,1.006304,0.0,0.0,0.0,0.0,0.0,0.0
3972000,3892000,0.11651664,0.11647381,0.20434281,101.000145,101.000145,101.0,0.0,0.0,0.0,0.0,0.0,0.0,0.0,45.58333,0.0,0.0,nan,0.0,0.0,0.0,0.0,0.097250804,0.0,0.0,0.0,1.1976401,1.1976281,1.0063106,0.0,0.0,0.0,0.0,0.0,0.0
3980000,3900000,0.11651664,0.11647381,0.20434281,101.000145,101.000145,101.0,0.0,0.0,0.0,0.0,0.0,0.0,0.0,45.58333,0.0,0.0,nan,0.0,0.0,0.0,0.0,0.097250804,0.0,0.0,0.0,1.2043262,1.204317,1.0063176,0.0,0.0,0.0,0.0,0.0,0.0
3988000,3908000,0.11651664,0.11647381,0.20434281,101.000145,101.000145,101.0,0.0,0.0,0.0,0.0,0.0,0.0,0.0,45.58333,0.0,0.0,nan,0.0,0.0,0.0,0.0,0.097250804,0.0,0.0,0.0,1.2111913,1.211185,1.0063245,0.0,0.0,0.0,0.0,0.0,0.0
3996000,3916000,0.10590871,0.1059087,0.20376264,1.0004424,1.0004424,34.33334,0.0,0.0,0.0,0.0,0.0,0.0,0.0,45.58333,0.0,0.0,nan,0.0,0.0,0.0,0.0,0.097250804,0.0,0.0,0.0,1.2182353,1.2182319,1.0063317,0.0,0.0,0.0,0.0,0.0,0.0
4004000,3924000,0.10590871,0.1059087,0.20376264,1.0004424,1.0004424,34.33334,0.0,0.0,0.0,0.0,0.0,0.0,0.0,45.58333,0.0,0.0,nan,0.0,0.0,0.0,0.0,0.097250804,0.0,0.0,0.0,1.2254586,1.2254579,1.006339,0.0,0.0,0.0,0.0,0.0,0.0
4012000,3932000,0.10590871,0.1059087,0.20376264,1.0004424,1.0004424,34.33334,0.0,0.0,0.0,0.0,0.0,0.0,0.0,45.58333,0.0,0.0,nan,0.0,0.0,0.0,0.0,0.0968827,0.0,0.0,0.0,1.2328606,1.2328631,1.0063466,0.0,0.0,0.0,0.0,0.0,0.0
4020000,3940000,0.10590871,0.1059087,0.20376264,1.0004424,1.0004424,34.33334,0.0,0.0,0.0,0.0,0.0,0.0,0.0,45.58333,0.0,0.0,nan,0.0,0.0,0.0,0.0,0.0968827,0.0,0.0,0.0,1.2404416,1.2404472,1.0063543,0.0,0.0,0.0,0.0,0.0,0.0
4028000,3948000,0.10590871,0.1059087,0.20376264,1.0004424,1.0004424,34.33334,0.0,0.0,0.0,0.0,0.0,0.0,0.0,45.58337,0.0,0.0,nan,0.0,0.0,0.0,0.0,0.0968827,0.0,0.0,0.0,1.2482016,1.2482102,1.0063623,0.0,0.0,0.0,0.0,0.0,0.0
4036000,3956000,0.10590871,0.1059087,0.20376264,1.0004424,1.0004424,34.33334,0.0,0.0,0.0,0.0,0.0,0.0,0.0,45.58337,0.0,0.0,nan,0.0,0.0,0.0,0.0,0.0968827,0.0,0.0,0.0,1.1687536,1.1687684,1.0063047,0.0,0.0,0.0,0.0,0.0,0.0
4044000,3964000,0.10590871,0.1059087,0.20376264,1.0004424,1.0004424,34.33334,0.0,0.0,0.0,0.0,0.0,0.0,0.0,45.58337,0.0,0.0,nan,0.0,0.0,0.0,0.0,0.0968827,0.0,0.0,0.0,1.1751478,1.1751653,1.006311,0.0,0.0,0.0,0.0,0.0,0.0
4052000,3972000,0.10590871,0.1059087,0.20376264,1.0004424,1.0004424,34.33334,0.0,0.0,0.0,0.0,0.0,0.0,0.0,45.58337,0.0,0.0,nan,0.0,0.0,0.0,0.0,0.0968827,0.0,0.0,0.0,1.1817042,1.1817242,1.0063179,0.0,0.0,0.0,0.0,0.0,0.0
4060000,3980000,0.10590871,0.1059087,0.20376264,1.0004424,1.0004424,34.33334,0.0,0.0,0.0,0.0,0.0,0.0,0.0,45.58337,0.0,0.0,nan,0.0,0.0,0.0,0.0,0.0968827,0.0,0.0,0.0,1.1884223,1.1884454,1.006325,0.0,0.0,0.0,0.0,0.0,0.0
4068000,3988000,0.10590871,0.1059087,0.20376264,1.0004424,1.0004424,34.33334,0.0,0.0,0.0,0.0,0.0,0.0,0.0,45.58337,0.0,0.0,nan,0.0,0.0,0.0,0.0,0.0968827,0.0,0.0,0.0,1.1850511,1.1850764,1.0063231,0.0,0.0,0.0,0.0,0.0,0.0
4076000,3996000,0.10590871,0.1059087,0.20376264,1.0004424,1.0004424,34.33334,0.0,0.0,0.0,0.0,0.0,0.0,0.0,45.58337,0.0,0.0,nan,0.0,0.0,0.0,0.0,0.0968827,0.0,0.0,0.0,1.1917524,1.1917807,1.0063299,0.0,0.0,0.0,0.0,0.0,0.0
4084000,4004000,0.10590871,0.1059087,0.20376264,1.0004424,1.0004424,34.33334,0.0,0.0,0.0,0.0,0.0,0.0,0.0,37.250046,0.0,0.0,nan,0.0,0.0,0.0,0.0,0.09660008,0.0,0.0,0.0,1.1986098,1.1986417,1.0063382,0.0,0.0,0.0,0.0,0.0,0.0
4092000,4012000,0.10590871,0.1059087,0.20376264,1.0004424,1.0004424,34.33334,0.0,0.0,0.0,0.0,0.0,0.0,0.0,37.250046,0.0,0.0,nan,0.0,0.0,0.0,0.0,0.09660008,0.0,0.0,0.0,1.2056245,1.205659,1.0063454,0.0,0.0,0.0,0.0,0.0,0.0
4100000,4020000,0.10590871,0.1059087,0.20376264,1.0004424,1.0004424,34.33334,0.0,0.0,0.0,0.0,0.0,0.0,0.0,37.250046,0.0,0.0,nan,0.0,0.0,0.0,0.0,0.09660008,0.0,0.0,0.0,1.2127954,1.2128334,1.0063527,0.0,0.0,0.0,0.0,0.0,0.0
4108000,4028000,0.10590871,0.1059087,0.20376264,1.0004424,1.0004424,34.33334,0.0,0.0,0.0,0.0,0.0,0.0,0.0,37.250046,0.0,0.0,nan,0.0,0.0,0.0,0.0,0.09660008,0.0,0.0,0.0,1.2201228,1.2201641,1.0063605,0.0,0.0,0.0,0.0,0.0,0.0
4116000,4036000,0.10590871,0.1059087,0.20376264,1.0004424,1.0004424,34.33334,0.0,0.0,0.0,0.0,0.0,0.0,0.0,37.250046,0.0,0.0,nan,0.0,0.0,0.0,0.0,0.09660008,0.0,0.0,0.0,1.2276068,1.2276515,1.0063683,0.0,0.0,0.0,0.0,0.0,0.0
4124000,4044000,0.10590871,0.1059087,0.20376264,1.0004424,1.0004424,34.33334,0.0,0.0,0.0,0.0,0.0,0.0,0.0,37.250046,0.0,0.0,nan,0.0,0.0,0.0,0.0,0.09660008,0.0,0.0,0.0,1.2352474,1.2352954,1.0063765,0.0,0.0,0.0,0.0,0.0,0.0
4132000,4052000,0.10590871,0.1059087,0.20376264,1.0004424,1.0004424,34.33334,0.0,0.0,0.0,0.0,0.0,0.0,0.0,37.250046,0.0,0.0,nan,0.0,0.0,0.0,0.0,0.09660008,0.0,0.0,0.0,1.2430445,1.243096,1.0063845,0.0,0.0,0.0,0.0,0.0,0.0
4140000,4060000,0.10590871,0.1059087,0.20376264,1.0004424,1.0004424,34.33334,0.0,0.0,0.0,0.0,0.0,0.0,0.0,37.250046,0.0,0.0,nan,0.0,0.0,0.0,0.0,0.09660008,0.0,0.0,0.0,1.2509981,1.2510531,1.0063931,0.0,0.0,0.0,0.0,0.0,0.0
4148000,4068000,0.10590871,0.1059087,0.20376264,1.0004424,1.0004424,34.33334,0.0,0.0,0.0,0.0,0.0,0.0,0.0,37.250107,0.0,0.0,nan,0.0,0.0,0.0,0.0,0.09660008,0.0,0.0,0.0,1.259108,1.2591672,1.0064018,0.0,0.0,0.0,0.0,0.0,0.0
4156000,4076000,0.10590871,0.1059087,0.20376264,1.0004424,1.0004424,34.33334,0.0,0.0,0.0,0.0,0.0,0.0,0.0,37.250107,0.0,0.0,nan,0.0,0.0,0.0,0.0,0.09638747,0.0,0.0,0.0,1.2673743,1.2674375,1.0064117,0.0,0.0,0.0,0.0,0.0,0.0
4164000,4084000,0.10590871,0.1059087,0.20376264,1.0004424,1.0004424,34.33334,0.0,0.0,0.0,0.0,0.0,0.0,0.0,37.250107,0.0,0.0,nan,0.0,0.0,0.0,0.0,0.09638747,0.0,0.0,0.0,1.2757975,1.2758644,1.0064209,0.0,0.0,0.0,0.0,0.0,0.0
4172000,4092000,0.10590871,0.1059087,0.20376264,1.0004424,1.0004424,34.33334,0.0,0.0,0.0,0.0,0.0,0.0,0.0,37.250107,0.0,0.0,nan,0.0,0.0,0.0,0.0,0.09638747,0.0,0.0,0.0,1.2843772,1.284448,1.0064299,0.0,0.0,0.0,0.0,0.0,0.0
4180000,4100000,0.10590871,0.1059087,0.20376264,1.0004424,1.0004424,34.33334,0.0,0.0,0.0,0.0,0.0,0.0,0.0,37.250107,0.0,0.0,nan,0.0,0.0,0.0,0.0,0.09638747,0.0,0.0,0.0,1.2931136,1.2931885,1.006439,0.0,0.0,0.0,0.0,0.0,0.0
4188000,4108000,0.10590871,0.1059087,0.20376264,1.0004424,1.0004424,34.33334,0.0,0.0,0.0,0.0,0.0,0.0,0.0,37.250107,0.0,0.0,nan,0.0,0.0,0.0,0.0,0.09638747,0.0,0.0,0.0,1.3020061,1.3020854,1.0064484,0.0,0.0,0.0,0.0,0.0,0.0
4196000,4116000,0.10590871,0.1059087,0.20376264,1.0004424,1.0004424,34.33334,0.0,0.0,0.0,0.0,0.0,0.0,0.0,37.250107,0.0,0.0,nan,0.0,0.0,0.0,0.0,0.09638747,0.0,0.0,0.0,1.3110553,1.3111391,1.0064582,0.0,0.0,0.0,0.0,0.0,0.0
4204000,4124000,0.10590871,0.1059087,0.20376264,1.0004424,1.0004424,34.33334,0.0,0.0,0.0,0.0,0.0,0.0,0.0,20.47152,0.0,0.0,nan,0.0,0.0,0.0,0.0,0.09638747,0.0,0.0,0.0,1.3202609,1.3203493,1.006468,0.0,0.0,0.0,0.0,0.0,0.0
4212000,4132000,0.10590871,0.1059087,0.20376264,1.0004424,1.0004424,34.33334,0.0,0.0,0.0,0.0,0.0,0.0,0.0,20.47152,0.0,0.0,nan,0.0,0.0,0.0,0.0,0.09638747,0.0,0.0,0.0,1.329623,1.3297163,1.0064778,0.0,0.0,0.0,0.0,0.0,0.0
4220000,4140000,0.10590871,0.1059087,0.20376264,1.0004424,1.0004424,34.33334,0.0,0.0,0.0,0.0,0.0,0.0,0.0,20.47152,0.0,0.0,nan,0.0,0.0,0.0,0.0,0.096200354,0.0,0.0,0.0,1.3391416,1.3392398,1.0064913,0.0,0.0,0.0,0.0,0.0,0.0
4228000,4148000,0.10590871,0.1059087,0.20376264,1.0004424,1.0004424,34.33334,0.0,0.0,0.0,0.0,0.0,0.0,0.0,20.47152,0.0,0.0,nan,0.0,0.0,0.0,0.0,0.096200354,0.0,0.0,0.0,1.3488169,1.3489196,1.0065018,0.0,0.0,0.0,0.0,0.0,0.0
4236000,4156000,0.10590871,0.1059087,0.20376264,1.0004424,1.0004424,34.33334,0.0,0.0,0.0,0.0,0.0,0.0,0.0,20.47152,0.0,0.0,nan,0.0,0.0,0.0,0.0,0.096200354,0.0,0.0,0.0,1.3586484,1.3587561,1.006513,0.0,0.0,0.0,0.0,0.0,0.0
4244000,4164000,0.10590871,0.1059087,0.20376264,1.0004424,1.0004424,34.33334,0.0,0.0,0.0,0.0,0.0,0.0,0.0,20.47152,0.0,0.0,nan,0.0,0.0,0.0,0.0,0.096200354,0.0,0.0,0.0,1.2454011,1.2454765,1.006402,0.0,0.0,0.0,0.0,0.0,0.0
4252000,4172000,0.10590871,0.1059087,0.20376264,1.0004424,1.0004424,34.33334,0.0,0.0,0.0,0.0,0.0,0.0,0.0,17.169724,0.0,0.0,nan,0.0,0.0,0.0,0.0,0.096200354,0.0,0.0,0.0,1.2524883,1.2525666,1.0064094,0.0,0.0,0.0,0.0,0.0,0.0
4260000,4180000,0.10590871,0.1059087,0.20376264,1.0004424,1.0004424,34.33334,0.0,0.0,0.0,0.0,0.0,0.0,0.0,17.169724,0.0,0.0,nan,0.0,0.0,0.0,0.0,0.096200354,0.0,0.0,0.0,1.2596942,1.2597759,1.0064168,0.0,0.0,0.0,0.0,0.0,0.0
4268000,4188000,0.10590871,0.1059087,0.20376264,1.0004424,1.0004424,34.33334,0.0,0.0,0.0,0.0,0.0,0.0,0.0,17.169724,0.0,0.0,nan,0.0,0.0,0.0,0.0,0.096200354,0.0,0.0,0.0,1.267019,1.2671041,1.0064248,0.0,0.0,0.0,0.0,0.0,0.0
4276000,4196000,0.10590871,0.1059087,0.20376264,1.0004424,1.0004424,34.33334,0.0,0.0,0.0,0.0,0.0,0.0,0.0,17.169724,0.0,0.0,nan,0.0,0.0,0.0,0.0,0.096200354,0.0,0.0,0.0,1.2499567,1.2500311,1.0064062,0.0,0.0,0.0,0.0,0.0,0.0
4284000,4204000,0.10590871,0.1059087,0.20376264,1.0004424,1.0004424,34.33334,0.0,0.0,0.0,0.0,0.0,0.0,0.0,17.169724,0.0,0.0,nan,0.0,0.0,0.0,0.0,0.096200354,0.0,0.0,0.0,1.2567846,1.256862,1.0064132,0.0,0.0,0.0,0.0,0.0,0.0
4292000,4212000,0.10590871,0.1059087,0.20376264,1.0004424,1.0004424,34.33334,0.0,0.0,0.0,0.0,0.0,0.0,0.0,17.169724,0.0,0.0,nan,0.0,0.0,0.0,0.0,0.09609215,0.0,0.0,0.0,1.2637208,1.2638011,1.0064211,0.0,0.0,0.0,0.0,0.0,0.0
4300000,4220000,0.10590871,0.1059087,0.20376264,1.0004424,1.0004424,34.33334,0.0,0.0,0.0,0.0,0.0,0.0,0.0,17.169724,0.0,0.0,nan,0.0,0.0,0.0,0.0,0.09609215,0.0,0.0,0.0,1.2707654,1.2708485,1.0064284,0.0,0.0,0.0,0.0,0.0,0.0
4308000,4228000,0.10590871,0.1059087,0.20376264,1.0004424,1.0004424,34.33334,0.0,0.0,0.0,0.0,0.0,0.0,0.0,17.169724,0.0,0.0,nan,0.0,0.0,0.0,0.0,0.09609215,0.0,0.0,0.0,1.2779177,1.2780042,1.0064359,0.0,0.0,0.0,0.0,0.0,0.0
4316000,4236000,0.10590871,0.1059087,0.20376264,1.0004424,1.0004424,34.33334,0.0,0.0,0.0,0.0,0.0,0.0,0.0,15.760099,0.0,0.0,nan,0.0,0.0,0.0,0.0,0.09609215,0.0,0.0,0.0,1.2851785,1.2852683,1.006443,0.0,0.0,0.0,0.0,0.0,0.0
4324000,4244000,0.10590871,0.1059087,0.20376264,1.0004424,1.0004424,34.33334,0.0,0.0,0.0,0.0,0.0,0.0,0.0,15.760099,0.0,0.0,nan,0.0,0.0,0.0,0.0,0.09609215,0.0,0.0,0.0,1.2925475,1.2926401,1.0064509,0.0,0.0,0.0,0.0,0.0,0.0
4332000,4252000,0.10590871,0.1059087,0.20376264,1.0004424,1.0004424,34.33334,0.0,0.0,0.0,0.0,0.0,0.0,0.0,15.760099,0.0,0.0,nan,0.0,0.0,0.0,0.0,0.09609215,0.0,0.0,0.0,1.3000246,1.3001205,1.006459,0.0,0.0,0.0,0.0,0.0,0.0
4340000,4260000,0.10590871,0.1059087,0.20376264,1.0004424,1.0004424,34.33334,0.0,0.0,0.0,0.0,0.0,0.0,0.0,15.760099,0.0,0.0,nan,0.0,0.0,0.0,0.0,0.09609215,0.0,0.0,0.0,1.3076096,1.3077091,1.006467,0.0,0.0,0.0,0.0,0.0,0.0
4348000,4268000,0.10590871,0.1059087,0.20376264,1.0004424,1.0004424,34.33334,0.0,0.0,0.0,0.0,0.0,0.0,0.0,15.760099,0.0,0.0,nan,0.0,0.0,0.0,0.0,0.09609215,0.0,0.0,0.0,1.315303,1.3154057,1.0064752,0.0,0.0,0.0,0.0,0.0,0.0
4356000,4276000,0.10590871,0.1059087,0.20376264,1.0004424,1.0004424,34.33334,0.0,0.0,0.0,0.0,0.0,0.0,0.0,15.760099,0.0,0.0,nan,0.0,0.0,0.0,0.0,0.09598635,0.0,0.0,0.0,1.3231049,1.3232104,1.006482,0.0,0.0,0.0,0.0,0.0,0.0
4364000,4284000,0.10590871,0.1059087,0.20376264,1.0004424,1.0004424,34.33334,0.0,0.0,0.0,0.0,0.0,0.0,0.0,15.760099,0.0,0.0,nan,0.0,0.0,0.0,0.0,0.09598635,0.0,0.0,0.0,1.3310149,1.3311234,1.0064903,0.0,0.0,0.0,0.0,0.0,0.0
4372000,4292000,0.10590871,0.1059087,0.20376264,1.0004424,1.0004424,34.33334,0.0,0.0,0.0,0.0,0.0,0.0,0.0,14.978389,0.0,0.0,nan,0.0,0.0,0.0,0.0,0.09598635,0.0,0.0,0.0,1.339033,1.3391445,1.0064988,0.0,0.0,0.0,0.0,0.0,0.0
4380000,4300000,0.10590871,0.1059087,0.20376264,1.0004424,1.0004424,34.33334,0.0,0.0,0.0,0.0,0.0,0.0,0.0,14.978389,0.0,0.0,nan,0.0,0.0,0.0,0.0,0.09598635,0.0,0.0,0.0,1.3471591,1.3472743,1.0065075,0.0,0.0,0.0,0.0,0.0,0.0
4388000,4308000,0.10590871,0.1059087,0.20376264,1.0004424,1.0004424,34.33334,0.0,0.0,0.0,0.0,0.0,0.0,0.0,14.978389,0.0,0.0,nan,0.0,0.0,0.0,0.0,0.09598635,0.0,0.0,0.0,1.3553934,1.355512,1.0065165,0.0,0.0,0.0,0.0,0.0,0.0
4396000,4316000,0.106069,0.10606803,0.20660949,1.0004834,1.0004834,3.2314284,0.0,0.0,0.0,0.0,0.0,0.0,0.0,14.978389,0.0,0.0,nan,0.0,0.0,0.0,0.0,0.09598635,0.0,0.0,0.0,1.3637363,1.363858,1.0065253,0.0,0.0,0.0,0.0,0.0,0.0
4404000,4324000,0.106069,0.10606803,0.20660949,1.0004834,1.0004834,3.2314284,0.0,0.0,0.0,0.0,0.0,0.0,0.0,14.978389,0.0,0.0,nan,0.0,0.0,0.0,0.0,0.09598635,0.0,0.0,0.0,1.3721871,1.3723124,1.0065339,0.0,0.0,0.0,0.0,0.0,0.0
4412000,4332000,0.106069,0.10606803,0.20660949,1.0004834,1.0004834,3.2314284,0.0,0.0,0.0,0.0,0.0,0.0,0.0,14.978389,0.0,0.0,nan,0.0,0.0,0.0,0.0,0.09598635,0.0,0.0,0.0,1.3807462,1.3808751,1.0065429,0.0,0.0,0.0,0.0,0.0,0.0
4420000,4340000,0.106069,0.10606803,0.20660949,1.0004834,1.0004834,3.2314284,0.0,0.0,0.0,0.0,0.0,0.0,0.0,14.978389,0.0,0.0,nan,0.0,0.0,0.0,0.0,0.09598635,0.0,0.0,0.0,1.3894131,1.3895459,1.0065521,0.0,0.0,0.0,0.0,0.0,0.0
4428000,4348000,0.106069,0.10606803,0.20660949,1.0004834,1.0004834,3.2314284,0.0,0.0,0.0,0.0,0.0,0.0,0.0,14.978389,0.0,0.0,nan,0.0,0.0,0.0,0.0,0.09595093,0.0,0.0,0.0,1.3981876,1.3983252,1.0065615,0.0,0.0,0.0,0.0,0.0,0.0
4436000,4356000,0.106069,0.10606803,0.20660949,1.0004834,1.0004834,3.2314284,0.0,0.0,0.0,0.0,0.0,0.0,0.0,14.481491,0.0,0.0,nan,0.0,0.0,0.0,0.0,0.09595093,0.0,0.0,0.0,1.4070715,1.4072121,1.0065707,0.0,0.0,0.0,0.0,0.0,0.0
4444000,4364000,0.106069,0.10606803,0.20660949,1.0004834,1.0004834,3.2314284,0.0,0.0,0.0,0.0,0.0,0.0,0.0,14.481491,0.0,0.0,nan,0.0,0.0,0.0,0.0,0.09595093,0.0,0.0,0.0,1.4160631,1.4162078,1.0065801,0.0,0.0,0.0,0.0,0.0,0.0
4452000,4372000,0.106069,0.10606803,0.20660949,1.0004834,1.0004834,3.2314284,0.0,0.0,0.0,0.0,0.0,0.0,0.0,14.481491,0.0,0.0,nan,0.0,0.0,0.0,0.0,0.09595093,0.0,0.0,0.0,1.2101705,1.2102077,1.0063628,0.0,0.0,0.0,0.0,0.0,0.0
4460000,4380000,0.106069,0.10606803,0.20660949,1.0004834,1.0004834,3.2314284,0.0,0.0,0.0,0.0,0.0,0.0,0.0,14.481491,0.0,0.0,nan,0.0,0.0,0.0,0.0,0.09595093,0.0,0.0,0.0,1.2145685,1.2146068,1.0063673,0.0,0.0,0.0,0.0,0.0,0.0
4468000,4388000,0.106069,0.10606803,0.20660949,1.0004834,1.0004834,3.2314284,0.0,0.0,0.0,0.0,0.0,0.0,0.0,14.481491,0.0,0.0,nan,0.0,0.0,0.0,0.0,0.09595093,0.0,0.0,0.0,1.2190214,1.2190607,1.006372,0.0,0.0,0.0,0.0,0.0,0.0
4476000,4396000,0.106069,0.10606803,0.20660949,1.0004834,1.0004834,3.2314284,0.0,0.0,0.0,0.0,0.0,0.0,0.0,14.481491,0.0,0.0,nan,0.0,0.0,0.0,0.0,0.09595093,0.0,0.0,0.0,1.2235293,1.2235698,1.0063764,0.0,0.0,0.0,0.0,0.0,0.0
4484000,4404000,0.106069,0.10606803,0.20660949,1.0004834,1.0004834,3.2314284,0.0,0.0,0.0,0.0,0.0,0.0,0.0,14.481491,0.0,0.0,nan,0.0,0.0,0.0,0.0,0.09595093,0.0,0.0,0.0,1.2032244,1.203254,1.0063546,0.0,0.0,0.0,0.0,0.0,0.0
4492000,4412000,0.106069,0.10606803,0.20660949,1.0004834,1.0004834,3.2314284,0.0,0.0,0.0,0.0,0.0,0.0,0.0,14.137716,0.0,0.0,nan,0.0,0.0,0.0,0.0,0.09595093,0.0,0.0,0.0,1.2072611,1.2072916,1.0063586,0.0,0.0,0.0,0.0,0.0,0.0
4500000,4420000,0.106069,0.10606803,0.20660949,1.0004834,1.0004834,3.2314284,0.0,0.0,0.0,0.0,0.0,0.0,0.0,14.137716,0.0,0.0,nan,0.0,0.0,0.0,0.0,0.0959426,0.0,0.0,0.0,1.2113459,1.2113776,1.006363,0.0,0.0,0.0,0.0,0.0,0.0
4508000,4428000,0.106069,0.10606803,0.20660949,1.0004834,1.0004834,3.2314284,0.0,0.0,0.0,0.0,0.0,0.0,0.0,14.137716,0.0,0.0,nan,0.0,0.0,0.0,0.0,0.0959426,0.0,0.0,0.0,1.2154793,1.2155119,1.0063672,0.0,0.0,0.0,0.0,0.0,0.0
4516000,4436000,0.106069,0.10606803,0.20660949,1.0004834,1.0004834,3.2314284,0.0,0.0,0.0,0.0,0.0,0.0,0.0,14.137716,0.0,0.0,nan,0.0,0.0,0.0,0.0,0.0959426,0.0,0.0,0.0,1.2196608,1.2196945,1.0063714,0.0,0.0,0.0,0.0,0.0,0.0
4524000,4444000,0.106069,0.10606803,0.20660949,1.0004834,1.0004834,3.2314284,0.0,0.0,0.0,0.0,0.0,0.0,0.0,14.137716,0.0,0.0,nan,0.0,0.0,0.0,0.0,0.0959426,0.0,0.0,0.0,1.2238907,1.2239254,1.0063756,0.0,0.0,0.0,0.0,0.0,0.0
4532000,4452000,0.106069,0.10606803,0.20660949,1.0004834,1.0004834,3.2314284,0.0,0.0,0.0,0.0,0.0,0.0,0.0,14.137716,0.0,0.0,nan,0.0,0.0,0.0,0.0,0.0959426,0.0,0.0,0.0,1.2281688,1.2282043,1.0063797,0.0,0.0,0.0,0.0,0.0,0.0
4540000,4460000,0.106069,0.10606803,0.20660949,1.0004834,1.0004834,3.2314284,0.0,0.0,0.0,0.0,0.0,0.0,0.0,14.137716,0.0,0.0,nan,0.0,0.0,0.0,0.0,0.0959426,0.0,0.0,0.0,1.2324948,1.2325313,1.0063843,0.0,0.0,0.0,0.0,0.0,0.0
4548000,4468000,0.106069,0.10606803,0.20660949,1.0004834,1.0004834,3.2314284,0.0,0.0,0.0,0.0,0.0,0.0,0.0,14.137716,0.0,0.0,nan,0.0,0.0,0.0,0.0,0.0959426,0.0,0.0,0.0,1.2368695,1.236907,1.0063887,0.0,0.0,0.0,0.0,0.0,0.0
4556000,4476000,0.106069,0.10606803,0.20660949,1.0004834,1.0004834,3.2314284,0.0,0.0,0.0,0.0,0.0,0.0,0.0,13.885798,0.0,0.0,nan,0.0,0.0,0.0,0.0,0.0959426,0.0,0.0,0.0,1.241292,1.241331,1.0063932,0.0,0.0,0.0,0.0,0.0,0.0
4564000,4484000,0.106069,0.10606803,0.20660949,1.0004834,1.0004834,3.2314284,0.0,0.0,0.0,0.0,0.0,0.0,0.0,13.885798,0.0,0.0,nan,0.0,0.0,0.0,0.0,0.0959426,0.0,0.0,0.0,1.2457631,1.2458034,1.0063975,0.0,0.0,0.0,0.0,0.0,0.0
4572000,4492000,0.106069,0.10606803,0.20660949,1.0004834,1.0004834,3.2314284,0.0,0.0,0.0,0.0,0.0,0.0,0.0,13.885798,0.0,0.0,nan,0.0,0.0,0.0,0.0,0.09595618,0.0,0.0,0.0,1.2502824,1.2503238,1.0064021,0.0,0.0,0.0,0.0,0.0,0.0
4580000,4500000,0.106069,0.10606803,0.20660949,1.0004834,1.0004834,3.2314284,0.0,0.0,0.0,0.0,0.0,0.0,0.0,13.885798,0.0,0.0,nan,0.0,0.0,0.0,0.0,0.09595618,0.0,0.0,0.0,1.2548499,1.2548923,1.0064068,0.0,0.0,0.0,0.0,0.0,0.0
4588000,4508000,0.106069,0.10606803,0.20660949,1.0004834,1.0004834,3.2314284,0.0,0.0,0.0,0.0,0.0,0.0,0.0,13.885798,0.0,0.0,nan,0.0,0.0,0.0,0.0,0.09595618,0.0,0.0,0.0,1.2594655,1.2595094,1.0064117,0.0,0.0,0.0,0.0,0.0,0.0
4596000,4516000,0.106069,0.10606803,0.20660949,1.0004834,1.0004834,3.2314284,0.0,0.0,0.0,0.0,0.0,0.0,0.0,13.885798,0.0,0.0,nan,0.0,0.0,0.0,0.0,0.09595618,0.0,0.0,0.0,1.2641296,1.2641745,1.0064162,0.0,0.0,0.0,0.0,0.0,0.0
4604000,4524000,0.106069,0.10606803,0.20660949,1.0004834,1.0004834,3.2314284,0.0,0.0,0.0,0.0,0.0,0.0,0.0,13.885798,0.0,0.0,nan,0.0,0.0,0.0,0.0,0.09595618,0.0,0.0,0.0,1.2688421,1.2688882,1.0064206,0.0,0.0,0.0,0.0,0.0,0.0
4612000,4532000,0.106069,0.10606803,0.20660949,1.0004834,1.0004834,3.2314284,0.0,0.0,0.0,0.0,0.0,0.0,0.0,13.693243,0.0,0.0,nan,0.0,0.0,0.0,0.0,0.09595618,0.0,0.0,0.0,1.2736027,1.2736502,1.0064253,0.0,0.0,0.0,0.0,0.0,0.0
4620000,4540000,0.106069,0.10606803,0.20660949,1.0004834,1.0004834,3.2314284,0.0,0.0,0.0,0.0,0.0,0.0,0.0,13.693243,0.0,0.0,nan,0.0,0.0,0.0,0.0,0.09595618,0.0,0.0,0.0,1.2784114,1.2784603,1.0064301,0.0,0.0,0.0,0.0,0.0,0.0
4628000,4548000,0.106069,0.10606803,0.20660949,1.0004834,1.0004834,3.2314284,0.0,0.0,0.0,0.0,0.0,0.0,0.0,13.693243,0.0,0.0,nan,0.0,0.0,0.0,0.0,0.09595618,0.0,0.0,0.0,1.2832685,1.2833184,1.0064352,0.0,0.0,0.0,0.0,0.0,0.0
4636000,4556000,0.106069,0.10606803,0.20660949,1.0004834,1.0004834,3.2314284,0.0,0.0,0.0,0.0,0.0,0.0,0.0,13.693243,0.0,0.0,nan,0.0,0.0,0.0,0.0,0.095940195,0.0,0.0,0.0,1.2881737,1.2882249,1.0064408,0.0,0.0,0.0,0.0,0.0,0.0
4644000,4564000,0.106069,0.10606803,0.20660949,1.0004834,1.0004834,3.2314284,0.0,0.0,0.0,0.0,0.0,0.0,0.0,13.693243,0.0,0.0,nan,0.0,0.0,0.0,0.0,0.095940195,0.0,0.0,0.0,1.2931275,1.2931799,1.0064454,0.0,0.0,0.0,0.0,0.0,0.0
4652000,4572000,0.106069,0.10606803,0.20660949,1.0004834,1.0004834,3.2314284,0.0,0.0,0.0,0.0,0.0,0.0,0.0,13.693243,0.0,0.0,nan,0.0,0.0,0.0,0.0,0.095940195,0.0,0.0,0.0,1.2981297,1.2981827,1.0064504,0.0,0.0,0.0,0.0,0.0,0.0
4660000,4580000,0.106069,0.10606803,0.20660949,1.0004834,1.0004834,3.2314284,0.0,0.0,0.0,0.0,0.0,0.0,0.0,13.541277,0.0,0.0,nan,0.0,0.0,0.0,0.0,0.095940195,0.0,0.0,0.0,1.130475,1.1304648,1.0062777,0.0,0.0,0.0,0.0,0.0,0.0
4668000,4588000,0.106069,0.10606803,0.20660949,1.0004834,1.0004834,3.2314284,0.0,0.0,0.0,0.0,0.0,0.0,0.0,13.541277,0.0,0.0,nan,0.0,0.0,0.0,0.0,0.095940195,0.0,0.0,0.0,1.1323856,1.1323754,1.0062797,0.0,0.0,0.0,0.0,0.0,0.0
4676000,4596000,0.106069,0.10606803,0.20660949,1.0004834,1.0004834,3.2314284,0.0,0.0,0.0,0.0,0.0,0.0,0.0,13.541277,0.0,0.0,nan,0.0,0.0,0.0,0.0,0.095940195,0.0,0.0,0.0,1.1343154,1.1343051,1.0062816,0.0,0.0,0.0,0.0,0.0,0.0
4684000,4604000,0.106069,0.10606803,0.20660949,1.0004834,1.0004834,3.2314284,0.0,0.0,0.0,0.0,0.0,0.0,0.0,13.541277,0.0,0.0,nan,0.0,0.0,0.0,0.0,0.095940195,0.0,0.0,0.0,1.1362642,1.136254,1.0062835,0.0,0.0,0.0,0.0,0.0,0.0
4692000,4612000,0.106069,0.10606803,0.20660949,1.0004834,1.0004834,3.2314284,0.0,0.0,0.0,0.0,0.0,0.0,0.0,13.541277,0.0,0.0,nan,0.0,0.0,0.0,0.0,0.095940195,0.0,0.0,0.0,1.1274569,1.1274447,1.0062742,0.0,0.0,0.0,0.0,0.0,0.0
4700000,4620000,0.106069,0.10606803,0.20660949,1.0004834,1.0004834,3.2314284,0.0,0.0,0.0,0.0,0.0,0.0,0.0,13.541277,0.0,0.0,nan,0.0,0.0,0.0,0.0,0.095940195,0.0,0.0,0.0,1.129241,1.1292288,1.006276,0.0,0.0,0.0,0.0,0.0,0.0
4708000,4628000,0.106069,0.10606803,0.20660949,1.0004834,1.0004834,3.2314284,0.0,0.0,0.0,0.0,0.0,0.0,0.0,13.541277,0.0,0.0,nan,0.0,0.0,0.0,0.0,0.09598496,0.0,0.0,0.0,1.1310421,1.1310303,1.0062774,0.0,0.0,0.0,0.0,0.0,0.0
4716000,4636000,0.106069,0.10606803,0.20660949,1.0004834,1.0004834,3.2314284,0.0,0.0,0.0,0.0,0.0,0.0,0.0,13.541277,0.0,0.0,nan,0.0,0.0,0.0,0.0,0.09598496,0.0,0.0,0.0,1.1328608,1.1328489,1.0062792,0.0,0.0,0.0,0.0,0.0,0.0
4724000,4644000,0.106069,0.10606803,0.20660949,1.0004834,1.0004834,3.2314284,0.0,0.0,0.0,0.0,0.0,0.0,0.0,13.418297,0.0,0.0,nan,0.0,0.0,0.0,0.0,0.09598496,0.0,0.0,0.0,1.1346964,1.1346844,1.0062811,0.0,0.0,0.0,0.0,0.0,0.0
4732000,4652000,0.106069,0.10606803,0.20660949,1.0004834,1.0004834,3.2314284,0.0,0.0,0.0,0.0,0.0,0.0,0.0,13.418297,0.0,0.0,nan,0.0,0.0,0.0,0.0,0.09598496,0.0,0.0,0.0,1.1365495,1.1365373,1.006283,0.0,0.0,0.0,0.0,0.0,0.0
4740000,4660000,0.106069,0.10606803,0.20660949,1.0004834,1.0004834,3.2314284,0.0,0.0,0.0,0.0,0.0,0.0,0.0,13.418297,0.0,0.0,nan,0.0,0.0,0.0,0.0,0.09598496,0.0,0.0,0.0,1.1384197,1.1384076,1.0062846,0.0,0.0,0.0,0.0,0.0,0.0
4748000,4668000,0.106069,0.10606803,0.20660949,1.0004834,1.0004834,3.2314284,0.0,0.0,0.0,0.0,0.0,0.0,0.0,13.418297,0.0,0.0,nan,0.0,0.0,0.0,0.0,0.09598496,0.0,0.0,0.0,1.1403072,1.1402951,1.0062864,0.0,0.0,0.0,0.0,0.0,0.0
4756000,4676000,0.106069,0.10606803,0.20660949,1.0004834,1.0004834,3.2314284,0.0,0.0,0.0,0.0,0.0,0.0,0.0,13.418297,0.0,0.0,nan,0.0,0.0,0.0,0.0,0.09598496,0.0,0.0,0.0,1.1422118,1.1421996,1.0062884,0.0,0.0,0.0,0.0,0.0,0.0
4764000,4684000,0.106069,0.10606803,0.20660949,1.0004834,1.0004834,3.2314284,0.0,0.0,0.0,0.0,0.0,0.0,0.0,13.418297,0.0,0.0,nan,0.0,0.0,0.0,0.0,0.09598496,0.0,0.0,0.0,1.1441336,1.1441213,1.0062902,0.0,0.0,0.0,0.0,0.0,0.0
4772000,4692000,0.106069,0.10606803,0.20660949,1.0004834,1.0004834,3.2314284,0.0,0.0,0.0,0.0,0.0,0.0,0.0,13.418297,0.0,0.0,nan,0.0,0.0,0.0,0.0,0.09598496,0.0,0.0,0.0,1.1460727,1.1460605,1.006292,0.0,0.0,0.0,0.0,0.0,0.0
4780000,4700000,0.106069,0.10606803,0.20660949,1.0004834,1.0004834,3.2314284,0.0,0.0,0.0,0.0,0.0,0.0,0.0,13.316791,0.0,0.0,nan,0.0,0.0,0.0,0.0,0.09603928,0.0,0.0,0.0,1.1480291,1.1480168,1.0062937,0.0,0.0,0.0,0.0,0.0,0.0
4788000,4708000,0.106069,0.10606803,0.20660949,1.0004834,1.0004834,3.2314284,0.0,0.0,0.0,0.0,0.0,0.0,0.0,13.316791,0.0,0.0,nan,0.0,0.0,0.0,0.0,0.09603928,0.0,0.0,0.0,1.1500027,1.1499902,1.0062953,0.0,0.0,0.0,0.0,0.0,0.0
4796000,4716000,0.09980448,0.09980515,0.209414,1.0003622,1.0003622,1.9813972,0.0,0.0,0.0,0.0,0.0,0.0,0.0,13.316791,0.0,0.0,nan,0.0,0.0,0.0,0.0,0.09603928,0.0,0.0,0.0,1.1519934,1.151981,1.0062972,0.0,0.0,0.0,0.0,0.0,0.0
4804000,4724000,0.09980448,0.09980515,0.209414,1.0003622,1.0003622,1.9813972,0.0,0.0,0.0,0.0,0.0,0.0,0.0,13.316791,0.0,0.0,nan,0.0,0.0,0.0,0.0,0.09603928,0.0,0.0,0.0,1.1540012,1.1539887,1.0062991,0.0,0.0,0.0,0.0,0.0,0.0
4812000,4732000,0.09980448,0.09980515,0.209414,1.0003622,1.0003622,1.9813972,0.0,0.0,0.0,0.0,0.0,0.0,0.0,13.316791,0.0,0.0,nan,0.0,0.0,0.0,0.0,0.09603928,0.0,0.0,0.0,1.1560262,1.1560138,1.0063013,0.0,0.0,0.0,0.0,0.0,0.0
4820000,4740000,0.09980448,0.09980515,0.209414,1.0003622,1.0003622,1.9813972,0.0,0.0,0.0,0.0,0.0,0.0,0.0,13.316791,0.0,0.0,nan,0.0,0.0,0.0,0.0,0.09603928,0.0,0.0,0.0,1.1580684,1.1580563,1.0063032,0.0,0.0,0.0,0.0,0.0,0.0
4828000,4748000,0.09980448,0.09980515,0.209414,1.0003622,1.0003622,1.9813972,0.0,0.0,0.0,0.0,0.0,0.0,0.0,13.316791,0.0,0.0,nan,0.0,0.0,0.0,0.0,0.09603928,0.0,0.0,0.0,1.160128,1.1601157,1.0063051,0.0,0.0,0.0,0.0,0.0,0.0
4836000,4756000,0.09980448,0.09980515,0.209414,1.0003622,1.0003622,1.9813972,0.0,0.0,0.0,0.0,0.0,0.0,0.0,13.316791,0.0,0.0,nan,0.0,0.0,0.0,0.0,0.09603928,0.0,0.0,0.0,1.1622047,1.1621923,1.0063072,0.0,0.0,0.0,0.0,0.0,0.0
4844000,4764000,0.09980448,0.09980515,0.209414,1.0003622,1.0003622,1.9813972,0.0,0.0,0.0,0.0,0.0,0.0,0.0,13.231623,0.0,0.0,nan,0.0,0.0,0.0,0.0,0.09603928,0.0,0.0,0.0,1.1642987,1.1642864,1.0063094,0.0,0.0,0.0,0.0,0.0,0.0
4852000,4772000,0.09980448,0.09980515,0.209414,1.0003622,1.0003622,1.9813972,0.0,0.0,0.0,0.0,0.0,0.0,0.0,13.231623,0.0,0.0,nan,0.0,0.0,0.0,0.0,0.09609977,0.0,0.0,0.0,1.16641,1.1663976,1.0063119,0.0,0.0,0.0,0.0,0.0,0.0
4860000,4780000,0.09980448,0.09980515,0.209414,1.0003622,1.0003622,1.9813972,0.0,0.0,0.0,0.0,0.0,0.0,0.0,13.231623,0.0,0.0,nan,0.0,0.0,0.0,0.0,0.09609977,0.0,0.0,0.0,1.1685383,1.1685259,1.0063139,0.0,0.0,0.0,0.0,0.0,0.0
4868000,4788000,0.09980448,0.09980515,0.209414,1.0003622,1.0003622,1.9813972,0.0,0.0,0.0,0.0,0.0,0.0,0.0,13.231623,0.0,0.0,nan,0.0,0.0,0.0,0.0,0.09609977,0.0,0.0,0.0,1.0854584,1.0854347,1.0062301,0.0,0.0,0.0,0.0,0.0,0.0
4876000,4796000,0.09980448,0.09980515,0.209414,1.0003622,1.0003622,1.9813972,0.0,0.0,0.0,0.0,0.0,0.0,0.0,13.231623,0.0,0.0,nan,0.0,0.0,0.0,0.0,0.09609977,0.0,0.0,0.0,1.0863014,1.0862776,1.006231,0.0,0.0,0.0,0.0,0.0,0.0
4884000,4804000,0.09980448,0.09980515,0.209414,1.0003622,1.0003622,1.9813972,0.0,0.0,0.0,0.0,0.0,0.0,0.0,13.231623,0.0,0.0,nan,0.0,0.0,0.0,0.0,0.09609977,0.0,0.0,0.0,1.0871515,1.0871276,1.0062319,0.0,0.0,0.0,0.0,0.0,0.0
4892000,4812000,0.09980448,0.09980515,0.209414,1.0003622,1.0003622,1.9813972,0.0,0.0,0.0,0.0,0.0,0.0,0.0,13.231623,0.0,0.0,nan,0.0,0.0,0.0,0.0,0.09609977,0.0,0.0,0.0,1.0880088,1.0879846,1.0062327,0.0,0.0,0.0,0.0,0.0,0.0
4900000,4820000,0.09980448,0.09980515,0.209414,1.0003622,1.0003622,1.9813972,0.0,0.0,0.0,0.0,0.0,0.0,0.0,13.15893,0.0,0.0,nan,0.0,0.0,0.0,0.0,0.09609977,0.0,0.0,0.0,1.0848675,1.0848435,1.0062292,0.0,0.0,0.0,0.0,0.0,0.0
4908000,4828000,0.09980448,0.09980515,0.209414,1.0003622,1.0003622,1.9813972,0.0,0.0,0.0,0.0,0.0,0.0,0.0,13.15893,0.0,0.0,nan,0.0,0.0,0.0,0.0,0.09609977,0.0,0.0,0.0,1.0856757,1.0856516,1.0062299,0.0,0.0,0.0,0.0,0.0,0.0
4916000,4836000,0.09980448,0.09980515,0.209414,1.0003622,1.0003622,1.9813972,0.0,0.0,0.0,0.0,0.0,0.0,0.0,13.15893,0.0,0.0,nan,0.0,0.0,0.0,0.0,0.09609977,0.0,0.0,0.0,1.0864904,1.0864666,1.0062307,0.0,0.0,0.0,0.0,0.0,0.0
4924000,4844000,0.09980448,0.09980515,0.209414,1.0003622,1.0003622,1.9813972,0.0,0.0,0.0,0.0,0.0,0.0,0.0,13.15893,0.0,0.0,nan,0.0,0.0,0.0,0.0,0.09616343,0.0,0.0,0.0,1.0873114,1.0872878,1.006236,0.0,0.0,0.0,0.0,0.0,0.0
4932000,4852000,0.09980448,0.09980515,0.209414,1.0003622,1.0003622,1.9813972,0.0,0.0,0.0,0.0,0.0,0.0,0.0,13.15893,0.0,0.0,nan,0.0,0.0,0.0,0.0,0.09616343,0.0,0.0,0.0,1.0881394,1.0881156,1.0062368,0.0,0.0,0.0,0.0,0.0,0.0
4940000,4860000,0.09980448,0.09980515,0.209414,1.0003622,1.0003622,1.9813972,0.0,0.0,0.0,0.0,0.0,0.0,0.0,13.15893,0.0,0.0,nan,0.0,0.0,0.0,0.0,0.09616343,0.0,0.0,0.0,1.088974,1.0889499,1.0062376,0.0,0.0,0.0,0.0,0.0,0.0
4948000,4868000,0.09980448,0.09980515,0.209414,1.0003622,1.0003622,1.9813972,0.0,0.0,0.0,0.0,0.0,0.0,0.0,13.15893,0.0,0.0,nan,0.0,0.0,0.0,0.0,0.09616343,0.0,0.0,0.0,1.0898151,1.0897908,1.0062385,0.0,0.0,0.0,0.0,0.0,0.0
4956000,4876000,0.09980448,0.09980515,0.209414,1.0003622,1.0003622,1.9813972,0.0,0.0,0.0,0.0,0.0,0.0,0.0,13.15893,0.0,0.0,nan,0.0,0.0,0.0,0.0,0.09616343,0.0,0.0,0.0,1.0906628,1.0906385,1.0062392,0.0,0.0,0.0,0.0,0.0,0.0
4964000,4884000,0.09980448,0.09980515,0.209414,1.0003622,1.0003622,1.9813972,0.0,0.0,0.0,0.0,0.0,0.0,0.0,13.0964775,0.0,0.0,nan,0.0,0.0,0.0,0.0,0.09616343,0.0,0.0,0.0,1.0915172,1.0914927,1.00624,0.0,0.0,0.0,0.0,0.0,0.0
4972000,4892000,0.09980448,0.09980515,0.209414,1.0003622,1.0003622,1.9813972,0.0,0.0,0.0,0.0,0.0,0.0,0.0,13.0964775,0.0,0.0,nan,0.0,0.0,0.0,0.0,0.09616343,0.0,0.0,0.0,1.092378,1.0923536,1.0062407,0.0,0.0,0.0,0.0,0.0,0.0
4980000,4900000,0.09980448,0.09980515,0.209414,1.0003622,1.0003622,1.9813972,0.0,0.0,0.0,0.0,0.0,0.0,0.0,13.0964775,0.0,0.0,nan,0.0,0.0,0.0,0.0,0.09616343,0.0,0.0,0.0,1.0932456,1.0932208,1.0062414,0.0,0.0,0.0,0.0,0.0,0.0
4988000,4908000,0.09980448,0.09980515,0.209414,1.0003622,1.0003622,1.9813972,0.0,0.0,0.0,0.0,0.0,0.0,0.0,13.0964775,0.0,0.0,nan,0.0,0.0,0.0,0.0,0.09616343,0.0,0.0,0.0,1.0941197,1.0940946,1.0062423,0.0,0.0,0.0,0.0,0.0,0.0
4996000,4916000,0.09980448,0.09980515,0.209414,1.0003622,1.0003622,1.9813972,0.0,0.0,0.0,0.0,0.0,0.0,0.0,13.0964775,0.0,0.0,nan,0.0,0.0,0.0,0.0,0.096227825,0.0,0.0,0.0,1.0950003,1.0949751,1.0062426,0.0,0.0,0.0,0.0,0.0,0.0
5004000,4924000,0.09980448,0.09980515,0.209414,1.0003622,1.0003622,1.9813972,0.0,0.0,0.0,0.0,0.0,0.0,0.0,13.0964775,0.0,0.0,nan,0.0,0.0,0.0,0.0,0.096227825,0.0,0.0,0.0,1.0958875,1.0958622,1.0062433,0.0,0.0,0.0,0.0,0.0,0.0
5012000,4932000,0.09980448,0.09980515,0.209414,1.0003622,1.0003622,1.9813972,0.0,0.0,0.0,0.0,0.0,0.0,0.0,13.0964775,0.0,0.0,nan,0.0,0.0,0.0,0.0,0.096227825,0.0,0.0,0.0,1.0967814,1.0967557,1.0062443,0.0,0.0,0.0,0.0,0.0,0.0
5020000,4940000,0.09980448,0.09980515,0.209414,1.0003622,1.0003622,1.9813972,0.0,0.0,0.0,0.0,0.0,0.0,0.0,13.0421,0.0,0.0,nan,0.0,0.0,0.0,0.0,0.096227825,0.0,0.0,0.0,1.0976818,1.097656,1.0062449,0.0,0.0,0.0,0.0,0.0,0.0
5028000,4948000,0.09980448,0.09980515,0.209414,1.0003622,1.0003622,1.9813972,0.0,0.0,0.0,0.0,0.0,0.0,0.0,13.0421,0.0,0.0,nan,0.0,0.0,0.0,0.0,0.096227825,0.0,0.0,0.0,1.0985888,1.098563,1.0062456,0.0,0.0,0.0,0.0,0.0,0.0
5036000,4956000,0.09980448,0.09980515,0.209414,1.0003622,1.0003622,1.9813972,0.0,0.0,0.0,0.0,0.0,0.0,0.0,13.0421,0.0,0.0,nan,0.0,0.0,0.0,0.0,0.096227825,0.0,0.0,0.0,1.0995024,1.0994763,1.0062464,0.0,0.0,0.0,0.0,0.0,0.0
5044000,4964000,0.09980448,0.09980515,0.209414,1.0003622,1.0003622,1.9813972,0.0,0.0,0.0,0.0,0.0,0.0,0.0,13.0421,0.0,0.0,nan,0.0,0.0,0.0,0.0,0.096227825,0.0,0.0,0.0,1.1004225,1.1003963,1.0062473,0.0,0.0,0.0,0.0,0.0,0.0
5052000,4972000,0.09980448,0.09980515,0.209414,1.0003622,1.0003622,1.9813972,0.0,0.0,0.0,0.0,0.0,0.0,0.0,13.0421,0.0,0.0,nan,0.0,0.0,0.0,0.0,0.096227825,0.0,0.0,0.0,1.1013491,1.101323,1.0062481,0.0,0.0,0.0,0.0,0.0,0.0
5060000,4980000,0.09980448,0.09980515,0.209414,1.0003622,1.0003622,1.9813972,0.0,0.0,0.0,0.0,0.0,0.0,0.0,13.0421,0.0,0.0,nan,0.0,0.0,0.0,0.0,0.096227825,0.0,0.0,0.0,1.1022825,1.102256,1.0062488,0.0,0.0,0.0,0.0,0.0,0.0
5068000,4988000,0.09980448,0.09980515,0.209414,1.0003622,1.0003622,1.9813972,0.0,0.0,0.0,0.0,0.0,0.0,0.0,13.0421,0.0,0.0,nan,0.0,0.0,0.0,0.0,0.09629083,0.0,0.0,0.0,1.1032225,1.1031958,1.0062448,0.0,0.0,0.0,0.0,0.0,0.0
5076000,4996000,0.09980448,0.09980515,0.209414,1.0003622,1.0003622,1.9813972,0.0,0.0,0.0,0.0,0.0,0.0,0.0,13.0421,0.0,0.0,nan,0.0,0.0,0.0,0.0,0.09629083,0.0,0.0,0.0,1.0643376,1.0643128,1.0062068,0.0,0.0,0.0,0.0,0.0,0.0
5084000,5004000,0.09980448,0.09980515,0.209414,1.0003622,1.0003622,1.9813972,0.0,0.0,0.0,0.0,0.0,0.0,0.0,12.99443,0.0,0.0,nan,0.0,0.0,0.0,0.0,0.09629083,0.0,0.0,0.0,1.0647602,1.0647355,1.006207,0.0,0.0,0.0,0.0,0.0,0.0
5092000,5012000,0.09980448,0.09980515,0.209414,1.0003622,1.0003622,1.9813972,0.0,0.0,0.0,0.0,0.0,0.0,0.0,12.99443,0.0,0.0,nan,0.0,0.0,0.0,0.0,0.09629083,0.0,0.0,0.0,1.0651858,1.0651612,1.0062073,0.0,0.0,0.0,0.0,0.0,0.0
5100000,5020000,0.09980448,0.09980515,0.209414,1.0003622,1.0003622,1.9813972,0.0,0.0,0.0,0.0,0.0,0.0,0.0,12.99443,0.0,0.0,nan,0.0,0.0,0.0,0.0,0.09629083,0.0,0.0,0.0,1.0656147,1.0655899,1.0062077,0.0,0.0,0.0,0.0,0.0,0.0
5108000,5028000,0.09980448,0.09980515,0.209414,1.0003622,1.0003622,1.9813972,0.0,0.0,0.0,0.0,0.0,0.0,0.0,12.99443,0.0,0.0,nan,0.0,0.0,0.0,0.0,0.09629083,0.0,0.0,0.0,1.0643988,1.0643743,1.0062064,0.0,0.0,0.0,0.0,0.0,0.0
5116000,5036000,0.09980448,0.09980515,0.209414,1.0003622,1.0003622,1.9813972,0.0,0.0,0.0,0.0,0.0,0.0,0.0,12.99443,0.0,0.0,nan,0.0,0.0,0.0,0.0,0.09629083,0.0,0.0,0.0,1.0648115,1.0647869,1.0062068,0.0,0.0,0.0,0.0,0.0,0.0
5124000,5044000,0.09980448,0.09980515,0.209414,1.0003622,1.0003622,1.9813972,0.0,0.0,0.0,0.0,0.0,0.0,0.0,12.99443,0.0,0.0,nan,0.0,0.0,0.0,0.0,0.09629083,0.0,0.0,0.0,1.065227,1.0652025,1.0062071,0.0,0.0,0.0,0.0,0.0,0.0
5132000,5052000,0.09980448,0.09980515,0.209414,1.0003622,1.0003622,1.9813972,0.0,0.0,0.0,0.0,0.0,0.0,0.0,12.99443,0.0,0.0,nan,0.0,0.0,0.0,0.0,0.09629083,0.0,0.0,0.0,1.0656455,1.0656209,1.0062075,0.0,0.0,0.0,0.0,0.0,0.0
5140000,5060000,0.09980448,0.09980515,0.209414,1.0003622,1.0003622,1.9813972,0.0,0.0,0.0,0.0,0.0,0.0,0.0,12.95189,0.0,0.0,nan,0.0,0.0,0.0,0.0,0.096350566,0.0,0.0,0.0,1.0660669,1.0660423,1.0062073,0.0,0.0,0.0,0.0,0.0,0.0
5148000,5068000,0.09980448,0.09980515,0.209414,1.0003622,1.0003622,1.9813972,0.0,0.0,0.0,0.0,0.0,0.0,0.0,12.95189,0.0,0.0,nan,0.0,0.0,0.0,0.0,0.096350566,0.0,0.0,0.0,1.0664912,1.0664667,1.0062076,0.0,0.0,0.0,0.0,0.0,0.0
5156000,5076000,0.09980448,0.09980515,0.209414,1.0003622,1.0003622,1.9813972,0.0,0.0,0.0,0.0,0.0,0.0,0.0,12.95189,0.0,0.0,nan,0.0,0.0,0.0,0.0,0.096350566,0.0,0.0,0.0,1.0669184,1.0668939,1.006208,0.0,0.0,0.0,0.0,0.0,0.0
5164000,5084000,0.09980448,0.09980515,0.209414,1.0003622,1.0003622,1.9813972,0.0,0.0,0.0,0.0,0.0,0.0,0.0,12.95189,0.0,0.0,nan,0.0,0.0,0.0,0.0,0.096350566,0.0,0.0,0.0,1.0673486,1.0673239,1.0062083,0.0,0.0,0.0,0.0,0.0,0.0
5172000,5092000,0.09980448,0.09980515,0.209414,1.0003622,1.0003622,1.9813972,0.0,0.0,0.0,0.0,0.0,0.0,0.0,12.95189,0.0,0.0,nan,0.0,0.0,0.0,0.0,0.096350566,0.0,0.0,0.0,1.0677818,1.0677569,1.0062088,0.0,0.0,0.0,0.0,0.0,0.0
5180000,5100000,0.09980448,0.09980515,0.209414,1.0003622,1.0003622,1.9813972,0.0,0.0,0.0,0.0,0.0,0.0,0.0,12.95189,0.0,0.0,nan,0.0,0.0,0.0,0.0,0.096350566,0.0,0.0,0.0,1.0682178,1.068193,1.0062091,0.0,0.0,0.0,0.0,0.0,0.0
5188000,5108000,0.09980448,0.09980515,0.209414,1.0003622,1.0003622,1.9813972,0.0,0.0,0.0,0.0,0.0,0.0,0.0,12.95189,0.0,0.0,nan,0.0,0.0,0.0,0.0,0.096350566,0.0,0.0,0.0,1.0686567,1.0686318,1.0062095,0.0,0.0,0.0,0.0,0.0,0.0
5196000,5116000,0.09431311,0.094313845,0.21087864,1.0002259,1.0002259,1.6642511,0.0,0.0,0.0,0.0,0.0,0.0,0.0,12.95189,0.0,0.0,nan,0.0,0.0,0.0,0.0,0.096350566,0.0,0.0,0.0,1.0690985,1.0690736,1.0062099,0.0,0.0,0.0,0.0,0.0,0.0
5204000,5124000,0.09431311,0.094313845,0.21087864,1.0002259,1.0002259,1.6642511,0.0,0.0,0.0,0.0,0.0,0.0,0.0,12.914313,0.0,0.0,nan,0.0,0.0,0.0,0.0,0.096350566,0.0,0.0,0.0,1.0695434,1.0695184,1.0062101,0.0,0.0,0.0,0.0,0.0,0.0
5212000,5132000,0.09431311,0.094313845,0.21087864,1.0002259,1.0002259,1.6642511,0.0,0.0,0.0,0.0,0.0,0.0,0.0,12.914313,0.0,0.0,nan,0.0,0.0,0.0,0.0,0.09640568,0.0,0.0,0.0,1.069991,1.069966,1.0062107,0.0,0.0,0.0,0.0,0.0,0.0
5220000,5140000,0.09431311,0.094313845,0.21087864,1.0002259,1.0002259,1.6642511,0.0,0.0,0.0,0.0,0.0,0.0,0.0,12.914313,0.0,0.0,nan,0.0,0.0,0.0,0.0,0.09640568,0.0,0.0,0.0,1.0704417,1.0704165,1.0062112,0.0,0.0,0.0,0.0,0.0,0.0
5228000,5148000,0.09431311,0.094313845,0.21087864,1.0002259,1.0002259,1.6642511,0.0,0.0,0.0,0.0,0.0,0.0,0.0,12.914313,0.0,0.0,nan,0.0,0.0,0.0,0.0,0.09640568,0.0,0.0,0.0,1.0708952,1.0708699,1.0062114,0.0,0.0,0.0,0.0,0.0,0.0
5236000,5156000,0.09431311,0.094313845,0.21087864,1.0002259,1.0002259,1.6642511,0.0,0.0,0.0,0.0,0.0,0.0,0.0,12.914313,0.0,0.0,nan,0.0,0.0,0.0,0.0,0.09640568,0.0,0.0,0.0,1.0713518,1.0713265,1.0062118,0.0,0.0,0.0,0.0,0.0,0.0
5244000,5164000,0.09431311,0.094313845,0.21087864,1.0002259,1.0002259,1.6642511,0.0,0.0,0.0,0.0,0.0,0.0,0.0,12.914313,0.0,0.0,nan,0.0,0.0,0.0,0.0,0.09640568,0.0,0.0,0.0,1.0718112,1.0717858,1.0062121,0.0,0.0,0.0,0.0,0.0,0.0
5252000,5172000,0.09431311,0.094313845,0.21087864,1.0002259,1.0002259,1.6642511,0.0,0.0,0.0,0.0,0.0,0.0,0.0,12.914313,0.0,0.0,nan,0.0,0.0,0.0,0.0,0.09640568,0.0,0.0,0.0,1.0722735,1.072248,1.0062125,0.0,0.0,0.0,0.0,0.0,0.0
5260000,5180000,0.09431311,0.094313845,0.21087864,1.0002259,1.0002259,1.6642511,0.0,0.0,0.0,0.0,0.0,0.0,0.0,12.880594,0.0,0.0,nan,0.0,0.0,0.0,0.0,0.09640568,0.0,0.0,0.0,1.0727388,1.0727133,1.006213,0.0,0.0,0.0,0.0,0.0,0.0
5268000,5188000,0.09431311,0.094313845,0.21087864,1.0002259,1.0002259,1.6642511,0.0,0.0,0.0,0.0,0.0,0.0,0.0,12.880594,0.0,0.0,nan,0.0,0.0,0.0,0.0,0.09640568,0.0,0.0,0.0,1.073207,1.0731812,1.0062134,0.0,0.0,0.0,0.0,0.0,0.0
5276000,5196000,0.09431311,0.094313845,0.21087864,1.0002259,1.0002259,1.6642511,0.0,0.0,0.0,0.0,0.0,0.0,0.0,12.880594,0.0,0.0,nan,0.0,0.0,0.0,0.0,0.09640568,0.0,0.0,0.0,1.0736781,1.0736524,1.0062137,0.0,0.0,0.0,0.0,0.0,0.0
5284000,5204000,0.09431311,0.094313845,0.21087864,1.0002259,1.0002259,1.6642511,0.0,0.0,0.0,0.0,0.0,0.0,0.0,12.880594,0.0,0.0,nan,0.0,0.0,0.0,0.0,0.09645497,0.0,0.0,0.0,1.0539263,1.053903,1.0061954,0.0,0.0,0.0,0.0,0.0,0.0
5292000,5212000,0.09431311,0.094313845,0.21087864,1.0002259,1.0002259,1.6642511,0.0,0.0,0.0,0.0,0.0,0.0,0.0,12.880594,0.0,0.0,nan,0.0,0.0,0.0,0.0,0.09645497,0.0,0.0,0.0,1.0541669,1.0541435,1.0061957,0.0,0.0,0.0,0.0,0.0,0.0
5300000,5220000,0.09431311,0.094313845,0.21087864,1.0002259,1.0002259,1.6642511,0.0,0.0,0.0,0.0,0.0,0.0,0.0,12.880594,0.0,0.0,nan,0.0,0.0,0.0,0.0,0.09645497,0.0,0.0,0.0,1.054409,1.0543857,1.0061958,0.0,0.0,0.0,0.0,0.0,0.0
5308000,5228000,0.09431311,0.094313845,0.21087864,1.0002259,1.0002259,1.6642511,0.0,0.0,0.0,0.0,0.0,0.0,0.0,12.880594,0.0,0.0,nan,0.0,0.0,0.0,0.0,0.09645497,0.0,0.0,0.0,1.0546529,1.0546294,1.006196,0.0,0.0,0.0,0.0,0.0,0.0
5316000,5236000,0.09431311,0.094313845,0.21087864,1.0002259,1.0002259,1.6642511,0.0,0.0,0.0,0.0,0.0,0.0,0.0,12.880594,0.0,0.0,nan,0.0,0.0,0.0,0.0,0.09645497,0.0,0.0,0.0,1.054118,1.0540948,1.0061955,0.0,0.0,0.0,0.0,0.0,0.0
5324000,5244000,0.09431311,0.094313845,0.21087864,1.0002259,1.0002259,1.6642511,0.0,0.0,0.0,0.0,0.0,0.0,0.0,12.849842,0.0,0.0,nan,0.0,0.0,0.0,0.0,0.09645497,0.0,0.0,0.0,1.0543555,1.0543323,1.0061957,0.0,0.0,0.0,0.0,0.0,0.0
5332000,5252000,0.09431311,0.094313845,0.21087864,1.0002259,1.0002259,1.6642511,0.0,0.0,0.0,0.0,0.0,0.0,0.0,12.849842,0.0,0.0,nan,0.0,0.0,0.0,0.0,0.09645497,0.0,0.0,0.0,1.0545945,1.0545713,1.0061958,0.0,0.0,0.0,0.0,0.0,0.0
5340000,5260000,0.09431311,0.094313845,0.21087864,1.0002259,1.0002259,1.6642511,0.0,0.0,0.0,0.0,0.0,0.0,0.0,12.849842,0.0,0.0,nan,0.0,0.0,0.0,0.0,0.09645497,0.0,0.0,0.0,1.054835,1.0548117,1.0061961,0.0,0.0,0.0,0.0,0.0,0.0
5348000,5268000,0.09431311,0.094313845,0.21087864,1.0002259,1.0002259,1.6642511,0.0,0.0,0.0,0.0,0.0,0.0,0.0,12.849842,0.0,0.0,nan,0.0,0.0,0.0,0.0,0.09645497,0.0,0.0,0.0,1.055077,1.0550537,1.0061963,0.0,0.0,0.0,0.0,0.0,0.0
5356000,5276000,0.09431311,0.094313845,0.21087864,1.0002259,1.0002259,1.6642511,0.0,0.0,0.0,0.0,0.0,0.0,0.0,12.849842,0.0,0.0,nan,0.0,0.0,0.0,0.0,0.096497685,0.0,0.0,0.0,1.0553205,1.0552971,1.0061961,0.0,0.0,0.0,0.0,0.0,0.0
5364000,5284000,0.09431311,0.094313845,0.21087864,1.0002259,1.0002259,1.6642511,0.0,0.0,0.0,0.0,0.0,0.0,0.0,12.849842,0.0,0.0,nan,0.0,0.0,0.0,0.0,0.096497685,0.0,0.0,0.0,1.0555655,1.0555421,1.0061964,0.0,0.0,0.0,0.0,0.0,0.0
5372000,5292000,0.09431311,0.094313845,0.21087864,1.0002259,1.0002259,1.6642511,0.0,0.0,0.0,0.0,0.0,0.0,0.0,12.849842,0.0,0.0,nan,0.0,0.0,0.0,0.0,0.096497685,0.0,0.0,0.0,1.0558119,1.0557884,1.0061965,0.0,0.0,0.0,0.0,0.0,0.0
5380000,5300000,0.09431311,0.094313845,0.21087864,1.0002259,1.0002259,1.6642511,0.0,0.0,0.0,0.0,0.0,0.0,0.0,12.822298,0.0,0.0,nan,0.0,0.0,0.0,0.0,0.096497685,0.0,0.0,0.0,1.05606,1.0560365,1.0061967,0.0,0.0,0.0,0.0,0.0,0.0
5388000,5308000,0.09431311,0.094313845,0.21087864,1.0002259,1.0002259,1.6642511,0.0,0.0,0.0,0.0,0.0,0.0,0.0,12.822298,0.0,0.0,nan,0.0,0.0,0.0,0.0,0.096497685,0.0,0.0,0.0,1.0563095,1.0562859,1.006197,0.0,0.0,0.0,0.0,0.0,0.0
5396000,5316000,0.09431311,0.094313845,0.21087864,1.0002259,1.0002259,1.6642511,0.0,0.0,0.0,0.0,0.0,0.0,0.0,12.822298,0.0,0.0,nan,0.0,0.0,0.0,0.0,0.096497685,0.0,0.0,0.0,1.0565604,1.0565368,1.0061972,0.0,0.0,0.0,0.0,0.0,0.0
5404000,5324000,0.09431311,0.094313845,0.21087864,1.0002259,1.0002259,1.6642511,0.0,0.0,0.0,0.0,0.0,0.0,0.0,12.822298,0.0,0.0,nan,0.0,0.0,0.0,0.0,0.096497685,0.0,0.0,0.0,1.0568129,1.0567893,1.0061975,0.0,0.0,0.0,0.0,0.0,0.0
5412000,5332000,0.09431311,0.094313845,0.21087864,1.0002259,1.0002259,1.6642511,0.0,0.0,0.0,0.0,0.0,0.0,0.0,12.822298,0.0,0.0,nan,0.0,0.0,0.0,0.0,0.096497685,0.0,0.0,0.0,1.0570668,1.0570432,1.0061977,0.0,0.0,0.0,0.0,0.0,0.0
5420000,5340000,0.09431311,0.094313845,0.21087864,1.0002259,1.0002259,1.6642511,0.0,0.0,0.0,0.0,0.0,0.0,0.0,12.822298,0.0,0.0,nan,0.0,0.0,0.0,0.0,0.096497685,0.0,0.0,0.0,1.0573223,1.0572987,1.0061978,0.0,0.0,0.0,0.0,0.0,0.0
5428000,5348000,0.09431311,0.094313845,0.21087864,1.0002259,1.0002259,1.6642511,0.0,0.0,0.0,0.0,0.0,0.0,0.0,12.822298,0.0,0.0,nan,0.0,0.0,0.0,0.0,0.09653321,0.0,0.0,0.0,1.0575792,1.0575554,1.0061983,0.0,0.0,0.0,0.0,0.0,0.0
5436000,5356000,0.09431311,0.094313845,0.21087864,1.0002259,1.0002259,1.6642511,0.0,0.0,0.0,0.0,0.0,0.0,0.0,12.822298,0.0,0.0,nan,0.0,0.0,0.0,0.0,0.09653321,0.0,0.0,0.0,1.0578377,1.0578138,1.0061985,0.0,0.0,0.0,0.0,0.0,0.0
5444000,5364000,0.09431311,0.094313845,0.21087864,1.0002259,1.0002259,1.6642511,0.0,0.0,0.0,0.0,0.0,0.0,0.0,12.797338,0.0,0.0,nan,0.0,0.0,0.0,0.0,0.09653321,0.0,0.0,0.0,1.0580977,1.0580736,1.0061988,0.0,0.0,0.0,0.0,0.0,0.0
5452000,5372000,0.09431311,0.094313845,0.21087864,1.0002259,1.0002259,1.6642511,0.0,0.0,0.0,0.0,0.0,0.0,0.0,12.797338,0.0,0.0,nan,0.0,0.0,0.0,0.0,0.09653321,0.0,0.0,0.0,1.0583591,1.0583351,1.006199,0.0,0.0,0.0,0.0,0.0,0.0
5460000,5380000,0.09431311,0.094313845,0.21087864,1.0002259,1.0002259,1.6642511,0.0,0.0,0.0,0.0,0.0,0.0,0.0,12.797338,0.0,0.0,nan,0.0,0.0,0.0,0.0,0.09653321,0.0,0.0,0.0,1.058622,1.058598,1.0061991,0.0,0.0,0.0,0.0,0.0,0.0
5468000,5388000,0.09431311,0.094313845,0.21087864,1.0002259,1.0002259,1.6642511,0.0,0.0,0.0,0.0,0.0,0.0,0.0,12.797338,0.0,0.0,nan,0.0,0.0,0.0,0.0,0.09653321,0.0,0.0,0.0,1.0588864,1.0588624,1.0061995,0.0,0.0,0.0,0.0,0.0,0.0
5476000,5396000,0.09431311,0.094313845,0.21087864,1.0002259,1.0002259,1.6642511,0.0,0.0,0.0,0.0,0.0,0.0,0.0,12.797338,0.0,0.0,nan,0.0,0.0,0.0,0.0,0.09653321,0.0,0.0,0.0,1.0591524,1.0591283,1.0061997,0.0,0.0,0.0,0.0,0.0,0.0
5484000,5404000,0.09431311,0.094313845,0.21087864,1.0002259,1.0002259,1.6642511,0.0,0.0,0.0,0.0,0.0,0.0,0.0,12.797338,0.0,0.0,nan,0.0,0.0,0.0,0.0,0.09653321,0.0,0.0,0.0,1.0594198,1.0593957,1.0062,0.0,0.0,0.0,0.0,0.0,0.0
5492000,5412000,0.09431311,0.094313845,0.21087864,1.0002259,1.0002259,1.6642511,0.0,0.0,0.0,0.0,0.0,0.0,0.0,12.797338,0.0,0.0,nan,0.0,0.0,0.0,0.0,0.09653321,0.0,0.0,0.0,1.0483136,1.0482914,1.0061896,0.0,0.0,0.0,0.0,0.0,0.0
5500000,5420000,0.09431311,0.094313845,0.21087864,1.0002259,1.0002259,1.6642511,0.0,0.0,0.0,0.0,0.0,0.0,0.0,12.774493,0.0,0.0,nan,0.0,0.0,0.0,0.0,0.09656117,0.0,0.0,0.0,1.0484654,1.0484431,1.0061913,0.0,0.0,0.0,0.0,0.0,0.0
5508000,5428000,0.09431311,0.094313845,0.21087864,1.0002259,1.0002259,1.6642511,0.0,0.0,0.0,0.0,0.0,0.0,0.0,12.774493,0.0,0.0,nan,0.0,0.0,0.0,0.0,0.09656117,0.0,0.0,0.0,1.0486182,1.0485959,1.0061915,0.0,0.0,0.0,0.0,0.0,0.0
5516000,5436000,0.09431311,0.094313845,0.21087864,1.0002259,1.0002259,1.6642511,0.0,0.0,0.0,0.0,0.0,0.0,0.0,12.774493,0.0,0.0,nan,0.0,0.0,0.0,0.0,0.09656117,0.0,0.0,0.0,1.0487717,1.0487494,1.0061916,0.0,0.0,0.0,0.0,0.0,0.0
5524000,5444000,0.09431311,0.094313845,0.21087864,1.0002259,1.0002259,1.6642511,0.0,0.0,0.0,0.0,0.0,0.0,0.0,12.774493,0.0,0.0,nan,0.0,0.0,0.0,0.0,0.09656117,0.0,0.0,0.0,1.0485064,1.0484842,1.0061914,0.0,0.0,0.0,0.0,0.0,0.0
5532000,5452000,0.09431311,0.094313845,0.21087864,1.0002259,1.0002259,1.6642511,0.0,0.0,0.0,0.0,0.0,0.0,0.0,12.774493,0.0,0.0,nan,0.0,0.0,0.0,0.0,0.09656117,0.0,0.0,0.0,1.0486574,1.0486351,1.0061915,0.0,0.0,0.0,0.0,0.0,0.0
5540000,5460000,0.09431311,0.094313845,0.21087864,1.0002259,1.0002259,1.6642511,0.0,0.0,0.0,0.0,0.0,0.0,0.0,12.774493,0.0,0.0,nan,0.0,0.0,0.0,0.0,0.09656117,0.0,0.0,0.0,1.0488092,1.0487869,1.0061916,0.0,0.0,0.0,0.0,0.0,0.0
5548000,5468000,0.09431311,0.094313845,0.21087864,1.0002259,1.0002259,1.6642511,0.0,0.0,0.0,0.0,0.0,0.0,0.0,12.774493,0.0,0.0,nan,0.0,0.0,0.0,0.0,0.09656117,0.0,0.0,0.0,1.0489616,1.0489396,1.0061916,0.0,0.0,0.0,0.0,0.0,0.0
5556000,5476000,0.09431311,0.094313845,0.21087864,1.0002259,1.0002259,1.6642511,0.0,0.0,0.0,0.0,0.0,0.0,0.0,12.774493,0.0,0.0,nan,0.0,0.0,0.0,0.0,0.09656117,0.0,0.0,0.0,1.0491152,1.049093,1.0061917,0.0,0.0,0.0,0.0,0.0,0.0
5564000,5484000,0.09431311,0.094313845,0.21087864,1.0002259,1.0002259,1.6642511,0.0,0.0,0.0,0.0,0.0,0.0,0.0,12.753006,0.0,0.0,nan,0.0,0.0,0.0,0.0,0.09656117,0.0,0.0,0.0,1.0492696,1.0492474,1.0061918,0.0,0.0,0.0,0.0,0.0,0.0
5572000,5492000,0.09431311,0.094313845,0.21087864,1.0002259,1.0002259,1.6642511,0.0,0.0,0.0,0.0,0.0,0.0,0.0,12.753006,0.0,0.0,nan,0.0,0.0,0.0,0.0,0.096581444,0.0,0.0,0.0,1.0494249,1.0494026,1.0061923,0.0,0.0,0.0,0.0,0.0,0.0
5580000,5500000,0.09431311,0.094313845,0.21087864,1.0002259,1.0002259,1.6642511,0.0,0.0,0.0,0.0,0.0,0.0,0.0,12.753006,0.0,0.0,nan,0.0,0.0,0.0,0.0,0.096581444,0.0,0.0,0.0,1.0495808,1.0495586,1.0061926,0.0,0.0,0.0,0.0,0.0,0.0
5588000,5508000,0.09431311,0.094313845,0.21087864,1.0002259,1.0002259,1.6642511,0.0,0.0,0.0,0.0,0.0,0.0,0.0,12.753006,0.0,0.0,nan,0.0,0.0,0.0,0.0,0.096581444,0.0,0.0,0.0,1.0497377,1.0497155,1.0061926,0.0,0.0,0.0,0.0,0.0,0.0
5596000,5516000,0.09244313,0.09244362,0.2111179,1.0001614,1.0001614,1.4834732,0.0,0.0,0.0,0.0,0.0,0.0,0.0,12.753006,0.0,0.0,nan,0.0,0.0,0.0,0.0,0.096581444,0.0,0.0,0.0,1.0498955,1.0498734,1.0061928,0.0,0.0,0.0,0.0,0.0,0.0
5604000,5524000,0.09244313,0.09244362,0.2111179,1.0001614,1.0001614,1.4834732,0.0,0.0,0.0,0.0,0.0,0.0,0.0,12.753006,0.0,0.0,nan,0.0,0.0,0.0,0.0,0.096581444,0.0,0.0,0.0,1.0500542,1.0500319,1.0061928,0.0,0.0,0.0,0.0,0.0,0.0
5612000,5532000,0.09244313,0.09244362,0.2111179,1.0001614,1.0001614,1.4834732,0.0,0.0,0.0,0.0,0.0,0.0,0.0,12.753006,0.0,0.0,nan,0.0,0.0,0.0,0.0,0.096581444,0.0,0.0,0.0,1.0502137,1.0501915,1.0061929,0.0,0.0,0.0,0.0,0.0,0.0
5620000,5540000,0.09244313,0.09244362,0.2111179,1.0001614,1.0001614,1.4834732,0.0,0.0,0.0,0.0,0.0,0.0,0.0,12.733718,0.0,0.0,nan,0.0,0.0,0.0,0.0,0.096581444,0.0,0.0,0.0,1.0503742,1.050352,1.006193,0.0,0.0,0.0,0.0,0.0,0.0
