timestamp,timestamp_sample,device_id,bias,bias_var,innov,innov_var,innov_test_ratio
8804000,8719999,6620172,487.3022,0.00013524045,-0.033996582,13.250135,9.691872e-06
12956000,12870666,6620172,487.30322,0.06205735,0.022857666,12.382365,4.688324e-06
13948000,13868000,6620172,487.30493,0.07245468,0.1387024,12.385907,0.00017258282
14428000,14348000,6620172,487.30338,0.07688589,-0.12023926,12.385061,0.00012970356
14612000,14526666,6620172,487.3022,0.07850416,-0.0657959,12.387263,3.883111e-05
15020000,14936000,6620172,487.3032,0.08170037,0.012817383,12.388696,1.4734337e-06
15620000,15536000,6620172,487.30438,0.08605035,0.1043396,12.38942,9.763485e-05
16268000,16182666,6620172,487.30542,0.08999241,0.017852783,12.393609,2.8574034e-06
16868000,16782666,6620172,487.30655,0.0932324,0.111083984,12.394203,0.000110622066
18044000,17960000,6620172,487.3055,0.09807988,-0.06829834,12.396862,4.1808635e-05
18692000,18606666,6620172,487.30444,0.1001626,-0.056671143,12.399939,2.8778084e-05
19532000,19445333,6620172,487.30338,0.10254403,-0.063812256,12.4020195,3.648155e-05
19804000,19724000,6620172,487.30505,0.1028199,0.13861084,12.401757,0.0001721348
19972000,19892000,6620172,487.30392,0.10304622,-0.17834473,12.402541,0.00028494914
20452000,20372000,6620172,487.30215,0.10410471,-0.10443115,12.402022,9.770687e-05
20932000,20852000,6620172,487.30844,0.10502977,0.20004272,12.407457,0.00035836056
21508000,21428000,6620172,487.32916,0.10565699,0.31280518,12.417089,0.0008755592
21988000,21908000,6620172,487.3657,0.10639081,0.65390015,12.427959,0.0038227907
22532000,22448000,6620172,487.42383,0.10717638,0.868927,12.437592,0.0067450907
22988000,22904000,6620172,487.4877,0.10735431,0.92907715,12.447684,0.007704997
23516000,23430666,6620172,487.56686,0.107764795,1.0007324,12.460282,0.008930289
23996000,23912000,6620172,487.6314,0.10825495,0.88397217,12.470246,0.006962411
24532000,24452000,6620172,487.68912,0.108665496,0.6341553,12.46892,0.0035836028
25012000,24932000,6620172,487.72186,0.10903419,0.3857422,12.475711,0.0013252154
25372000,25292000,6620172,487.7294,0.10927999,0.08718872,12.476898,6.769732e-05
26020000,25940000,6620172,487.7066,0.109493054,-0.39694214,12.474968,0.0014033709
26500000,26419000,6620172,487.6566,0.10975717,-0.79556274,12.4807205,0.005634647
27028000,26948000,6620172,487.5761,0.109840766,-1.1920776,12.489152,0.01264252
27500000,27416000,6620172,487.48132,0.10994903,-1.50531,12.496076,0.020148177
28036000,27956000,6620172,487.3601,0.11012618,-1.4211731,12.488863,0.017969191
28516000,28432000,6620172,487.24313,0.1103152,-1.5713196,12.496,0.021954093
28972000,28892000,6620172,487.1324,0.11012276,-1.454834,12.500678,0.018812684
29516000,29432000,6620172,487.0209,0.11040457,-1.3566895,12.511117,0.016346406
29996000,29912000,6620172,486.9423,0.11057298,-0.9580078,12.517653,0.00814653
30532000,30452000,6620172,486.89,0.110664725,-0.44015503,12.5051365,0.0017213945
30892000,30812000,6620172,486.8712,0.11075892,-0.18563843,12.503902,0.00030622995
31492000,31412000,6620172,486.87082,0.11089634,0.19378662,12.516019,0.00033337946
31972000,31892000,6620172,486.89206,0.11099,0.3514099,12.5211525,0.001095825
32516000,32432000,6620172,486.93646,0.11114655,0.65927124,12.507282,0.0038612045
32996000,32912000,6620172,486.98706,0.111214705,0.9159241,12.511731,0.007450047
33532000,33452000,6620172,487.05347,0.111215085,0.81188965,12.519006,0.005850347
34012000,33932000,6620172,487.11472,0.111265495,0.8571167,12.501107,0.0065296357
34484000,34400000,6620172,487.17618,0.11119755,0.8829346,12.504439,0.0069270814
35020000,34940000,6620172,487.24564,0.11119876,0.80700684,12.511419,0.0057836943
35500000,35418000,6620172,487.3065,0.111250244,0.8109436,12.5156145,0.005838303
36028000,35948000,6620172,487.37177,0.1111276,0.7369995,12.50035,0.0048280274
36508000,36428000,6620172,487.42487,0.11118849,0.6444397,12.504547,0.0036902355
36988000,36908000,6620172,487.47403,0.111240454,0.60717773,12.508824,0.0032747085
37516000,37436000,6620172,487.52362,0.111095876,0.59884644,12.51525,0.0031838228
37996000,37915000,6620172,487.56418,0.11116212,0.5376587,12.519816,0.002565505
38476000,38396000,6620172,487.59714,0.11121714,0.4480896,12.502661,0.0017843695
39012000,38932000,6620172,487.6281,0.11120562,0.41394043,12.509891,0.0015218775
39532000,39452000,6620172,487.65424,0.11095167,0.30944824,12.515743,0.0008501134
40012000,39932000,6620172,487.67273,0.111035965,0.18191528,12.498987,0.00029418536
40532000,40448000,6620172,487.68896,0.110814296,0.093811035,12.504799,7.819674e-05
41012000,40928000,6620172,487.6972,0.11092572,0.18045044,12.509476,0.00028922394
41492000,41408000,6620172,487.70694,0.11102336,0.19592285,12.514162,0.00034082067
42028000,41948000,6620172,487.7147,0.11104943,0.124816895,12.500132,0.00013848083
42332000,42248000,6620172,487.7178,0.11116247,0.067718506,12.5168085,4.070789e-05
42748000,42668000,6620172,487.71936,0.11115386,0.09225464,12.517654,7.554591e-05
43948000,43868000,6620172,487.7174,0.111283705,-0.15979004,12.517932,0.00022663361
44012000,43928000,6620172,487.71628,0.111355215,-0.12554932,12.499979,0.0001401125
44492000,44408000,6620172,487.71506,0.11139401,-0.12234497,12.504254,0.00013300621
44948000,44864000,6620172,487.7096,0.1110482,-0.052246094,12.506291,2.4251387e-05
45428000,45344000,6620172,487.70627,0.11112899,-0.06808472,12.51083,4.116903e-05
46004000,45920000,6620172,487.7009,0.11085475,-0.13848877,12.498281,0.00017050469
46412000,46328000,6620172,487.69382,0.11075279,-0.10159302,12.498477,9.175466e-05
46996000,46916000,6620172,487.6884,0.110659376,-0.07800293,12.508011,5.4049426e-05
47524000,47444000,6620172,487.6789,0.11061913,-0.15917969,12.514895,0.00022496014
48004000,47924000,6620172,487.6712,0.11074766,-0.13510132,12.498257,0.00016226587
48532000,48452000,6620172,487.66125,0.110692315,-0.1312561,12.504859,0.00015307973
49004000,48920000,6620172,487.65488,0.11067853,-0.044647217,12.508676,1.770659e-05
49484000,49400000,6620172,487.6445,0.11080893,-0.26837158,12.513397,0.0006395217
49964000,49880000,6620172,487.63736,0.1109215,-0.13272095,12.518113,0.00015634988
50140000,50060000,6620172,487.636,0.110891186,-0.08505249,12.5058365,6.427155e-05
50804000,50720000,6620172,487.6334,0.11108258,-0.038208008,12.499105,1.297739e-05
51524000,51440000,6620172,487.64728,0.11119232,0.3253479,12.516524,0.00093965785
52004000,51920000,6620172,487.67224,0.11125331,0.48260498,12.499396,0.0020703895
52484000,52400000,6620172,487.70416,0.11130552,0.48614502,12.503687,0.0021001538
53020000,52938000,6620172,487.748,0.111290045,0.5907593,12.51089,0.0030994911
53500000,53419000,6620172,487.79214,0.11132898,0.6326294,12.515324,0.0035531549
53980000,53900000,6620172,487.83078,0.11136375,0.60095215,12.519796,0.0032050882
54524000,54440000,6620172,487.85938,0.11146153,0.20925903,12.506015,0.0003890514
54764000,54680000,6620172,487.86588,0.1114758,0.113861084,12.519136,0.00011506249
55484000,55400000,6620172,487.849,0.11150881,-0.44805908,12.514692,0.001782411
56020000,55940000,6620172,487.80353,0.111462094,-0.6536865,12.500322,0.0037981782
56500000,56419000,6620172,487.7417,0.11147783,-0.99609375,12.504545,0.0088163745
56980000,56900000,6620172,487.6573,0.111490734,-1.2121582,12.5088625,0.013051434
57508000,57428000,6620172,487.55136,0.1113108,-1.5434875,12.515369,0.021150474
57988000,57904000,6620172,487.4515,0.11134814,-1.3997498,12.520006,0.017388165
58508000,58422666,6620172,487.34048,0.11108918,-1.3208923,12.504226,0.015503706
59036000,58950666,6620172,487.237,0.110998005,-1.1549377,12.510993,0.011846303
59500000,59420000,6620172,487.16168,0.11083945,-1.0686035,12.514131,0.01013888
60028000,59948000,6620172,487.1059,0.11076075,-0.5152893,12.49945,0.002360309
60508000,60428000,6620172,487.07654,0.11087056,-0.32382202,12.503933,0.0009318019
60868000,60788000,6620172,487.06796,0.11094285,-0.119659424,12.501986,0.00012725426
61532000,61448000,6620172,487.07797,0.111125015,0.18301392,12.516641,0.00029732945
61996000,61914000,6620172,487.10208,0.1109358,0.54263306,12.519561,0.0026132497
62524000,62444000,6620172,487.13467,0.1108583,0.31677246,12.50465,0.000891622
63004000,62924000,6620172,487.17178,0.110954896,0.63653564,12.509231,0.0035989212
63484000,63404000,6620172,487.21646,0.11103967,0.66882324,12.513838,0.003971821
64012000,63932000,6620172,487.2683,0.110941485,0.6273804,12.499068,0.003498982
64484000,64400000,6620172,487.3164,0.11091178,0.6543579,12.502786,0.0038052343
65020000,64940000,6620172,487.37012,0.11095492,0.6789551,12.510164,0.004094271
65500000,65420000,6620172,487.4169,0.11103865,0.61816406,12.51473,0.0033926845
65980000,65900000,6620172,487.45883,0.11111222,0.59121704,12.519217,0.0031022315
66508000,66428000,6620172,487.50482,0.11098188,0.5289917,12.504052,0.0024865915
66988000,66908000,6620172,487.54166,0.111061454,0.5519409,12.508532,0.0027060532
67532000,67448000,6620172,487.57886,0.11120701,0.3947754,12.516773,0.0013834557
68012000,67925333,6620172,487.607,0.11126619,0.34716797,12.499699,0.0010713645
68476000,68396000,6620172,487.6301,0.11107317,0.37442017,12.502563,0.001245882
69020000,68936000,6620172,487.6556,0.111216106,0.20440674,12.510646,0.00037108053
69500000,69416000,6620172,487.66953,0.111275285,0.26791382,12.515166,0.0006372518
69980000,69896000,6620172,487.6771,0.11132604,0.06802368,12.519716,4.1066083e-05
70460000,70376000,6620172,487.68512,0.11136935,0.13516235,12.502423,0.0001623584
70996000,70916000,6620172,487.70898,0.11134309,0.5463867,12.508425,0.0026518877
71476000,71396000,6620172,487.75974,0.111374065,0.90722656,12.509904,0.0073102973
72004000,71924000,6620172,487.83322,0.11121447,0.78796387,12.492361,0.005522371
72532000,72452000,6620172,487.9157,0.111082986,1.0910034,12.4943,0.010585168
73012000,72932000,6620172,487.9949,0.11114157,1.0489807,12.494869,0.009784998
73484000,73398666,6620172,488.07248,0.111076444,1.0458374,12.494714,0.009726565
74012000,73928000,6620172,488.15253,0.110973686,0.8312988,12.480424,0.0061523705
74492000,74408000,6620172,488.21823,0.11104973,0.86672974,12.481122,0.006687615
