timestamp,timestamp_sample,time_utc_usec,device_id,lat,lon,alt,alt_ellipsoid,s_variance_m_s,c_variance_rad,eph,epv,hdop,vdop,noise_per_ms,jamming_indicator,vel_m_s,vel_n_m_s,vel_e_m_s,vel_d_m_s,cog_rad,timestamp_time_relative,heading,heading_offset,heading_accuracy,rtcm_injection_rate,automatic_gain_control,fix_type,jamming_state,vel_ned_valid,satellites_used,selected_rtcm_instance
3992000,0,1698224814411984,0,473977508,85456074,488110,488110,0.25,0.5,1.0,1.0,0.0,0.0,0,0,0.0,0.0,-0.01,0.01,5.0005426,0,nan,nan,0.0,0.0,0,3,0,1,10,0
4792000,0,1698224815211984,0,473977508,85456074,488103,488103,0.25,0.5,1.0,1.0,0.0,0.0,0,0,0.0,0.01,0.0,-0.03,0.39043012,0,nan,nan,0.0,0.0,0,3,0,1,10,0
5992000,0,1698224816407984,0,473977508,85456074,488103,488103,0.25,0.5,1.0,1.0,0.0,0.0,0,0,0.0,0.0,0.01,-0.02,2.0909042,0,nan,nan,0.0,0.0,0,3,0,1,10,0
6792000,0,1698224817211984,0,473977508,85456074,488108,488108,0.25,0.5,1.0,1.0,0.0,0.0,0,0,0.0,0.0,0.0,0.04,5.775469,0,nan,nan,0.0,0.0,0,3,0,1,10,0
7992000,0,1698224818407984,0,473977508,85456074,488102,488102,0.25,0.5,1.0,1.0,0.0,0.0,0,0,0.0,0.01,0.0,0.02,6.1915555,0,nan,nan,0.0,0.0,0,3,0,1,10,0
8792000,0,1698224819211984,0,473977508,85456074,488102,488102,0.25,0.5,1.0,1.0,0.0,0.0,0,0,0.0,0.0,0.0,-0.01,0.776846,0,nan,nan,0.0,0.0,0,3,0,1,10,0
9992000,0,1698224820411984,0,473977508,85456074,488094,488094,0.25,0.5,1.0,1.0,0.0,0.0,0,0,0.0,-0.01,0.0,0.0,2.9251716,0,nan,nan,0.0,0.0,0,3,0,1,10,0
10792000,0,1698224821211984,0,473977508,85456074,488098,488098,0.25,0.5,1.0,1.0,0.0,0.0,0,0,0.0,0.0,0.0,-0.02,0.47054073,0,nan,nan,0.0,0.0,0,3,0,1,10,0
11992000,0,1698224822411984,0,473977507,85456074,488110,488110,0.25,0.5,1.0,1.0,0.0,0.0,0,0,0.0,0.02,0.01,0.0,0.5305801,0,nan,nan,0.0,0.0,0,3,0,1,10,0
12792000,0,1698224823211984,0,473977508,85456074,488104,488104,0.25,0.5,1.0,1.0,0.0,0.0,0,0,0.0,0.02,-0.01,0.03,5.923822,0,nan,nan,0.0,0.0,0,3,0,1,10,0
13992000,0,1698224824411984,0,473977508,85456075,488110,488110,0.25,0.5,1.0,1.0,0.0,0.0,0,0,0.0,0.02,0.0,0.03,0.37629297,0,nan,nan,0.0,0.0,0,3,0,1,10,0
14792000,0,1698224825211984,0,473977508,85456074,488106,488106,0.25,0.5,1.0,1.0,0.0,0.0,0,0,0.0,0.0,0.02,0.0,1.7037903,0,nan,nan,0.0,0.0,0,3,0,1,10,0
15992000,0,1698224826411984,0,473977508,85456074,488099,488099,0.25,0.5,1.0,1.0,0.0,0.0,0,0,0.0,0.0,0.0,0.01,2.9141762,0,nan,nan,0.0,0.0,0,3,0,1,10,0
16792000,0,1698224827207984,0,473977508,85456074,488098,488098,0.25,0.5,1.0,1.0,0.0,0.0,0,0,0.0,0.0,-0.01,-0.01,4.272217,0,nan,nan,0.0,0.0,0,3,0,1,10,0
17992000,0,1698224828411984,0,473977508,85456074,488106,488106,0.25,0.5,1.0,1.0,0.0,0.0,0,0,0.0,-0.01,0.0,0.02,3.6711254,0,nan,nan,0.0,0.0,0,3,0,1,10,0
18792000,0,1698224829207984,0,473977508,85456073,488097,488097,0.25,0.5,1.0,1.0,0.0,0.0,0,0,0.0,0.02,0.0,0.02,5.914048,0,nan,nan,0.0,0.0,0,3,0,1,10,0
19992000,0,1698224830411984,0,473977508,85456074,488099,488099,0.25,0.5,1.0,1.0,0.0,0.0,0,0,0.0,0.0,0.0,-0.01,5.3951616,0,nan,nan,0.0,0.0,0,3,0,1,10,0
20792000,0,1698224831207984,0,473977508,85456074,488099,488099,0.25,0.5,1.0,1.0,0.0,0.0,0,0,0.0,0.0,0.0,-0.02,0.17470746,0,nan,nan,0.0,0.0,0,3,0,1,10,0
21992000,0,1698224832411984,0,473977508,85456073,488127,488127,0.25,0.5,1.0,1.0,0.0,0.0,0,0,0.07,0.0,-0.089999996,-0.13,4.6060987,0,nan,nan,0.0,0.0,0,3,0,1,10,0
22792000,0,1698224833207984,0,473977527,85456033,488259,488259,0.25,0.5,1.0,1.0,0.0,0.0,0,0,1.0,0.66999996,-0.69,-0.39,5.4771924,0,nan,nan,0.0,0.0,0,3,0,1,10,0
23992000,0,1698224834411984,0,473977554,85455987,489147,489147,0.25,0.5,1.0,1.0,0.0,0.0,0,0,0.41,-0.32,0.26999998,-0.78,2.4357815,0,nan,nan,0.0,0.0,0,3,0,1,10,0
24792000,0,1698224835207984,0,473977513,85456043,489647,489647,0.25,0.5,1.0,1.0,0.0,0.0,0,0,1.03,-0.74,0.71,-0.29999998,2.3794074,0,nan,nan,0.0,0.0,0,3,0,1,10,0
25992000,0,1698224836411984,0,473977430,85456163,489408,489408,0.25,0.5,1.0,1.0,0.0,0.0,0,0,0.90999997,-0.64,0.66999996,0.75,2.3392649,0,nan,nan,0.0,0.0,0,3,0,1,10,0
26792000,0,1698224837207984,0,473977407,85456199,488854,488854,0.25,0.5,1.0,1.0,0.0,0.0,0,0,0.08,0.06,-0.049999997,0.59,5.5698695,0,nan,nan,0.0,0.0,0,3,0,1,10,0
27992000,0,1698224838411984,0,473977475,85456106,488315,488315,0.25,0.5,1.0,1.0,0.0,0.0,0,0,1.31,0.97999996,-0.85999995,0.17999999,5.5581756,0,nan,nan,0.0,0.0,0,3,0,1,10,0
28792000,0,1698224839207984,0,473977544,85456019,488368,488368,0.25,0.5,1.0,1.0,0.0,0.0,0,0,1.11,0.87,-0.69,-0.29999998,5.6126294,0,nan,nan,0.0,0.0,0,3,0,1,10,0
29992000,0,1698224840411984,0,473977610,85455949,489143,489143,0.25,0.5,1.0,1.0,0.0,0.0,0,0,0.41,0.35999998,-0.22999999,-0.87,5.698674,0,nan,nan,0.0,0.0,0,3,0,1,10,0
30792000,0,1698224841207984,0,473977623,85455938,489909,489909,0.25,0.5,1.0,1.0,0.0,0.0,0,0,0.049999997,-0.01,0.03,-0.83,1.8695966,0,nan,nan,0.0,0.0,0,3,0,1,10,0
31992000,0,1698224842411984,0,473977589,85455978,490745,490745,0.25,0.5,1.0,1.0,0.0,0.0,0,0,0.61,-0.48999998,0.38,-0.53,2.4747021,0,nan,nan,0.0,0.0,0,3,0,1,10,0
32792000,0,1698224843207984,0,473977555,85456018,491084,491084,0.25,0.5,1.0,1.0,0.0,0.0,0,0,0.53,-0.39999998,0.34,-0.32999998,2.435607,0,nan,nan,0.0,0.0,0,3,0,1,10,0
33992000,0,1698224844407984,0,473977524,85456057,491332,491332,0.25,0.5,1.0,1.0,0.0,0.0,0,0,0.22999999,-0.17,0.12,-0.21,2.523746,0,nan,nan,0.0,0.0,0,3,0,1,10,0
34792000,0,1698224845207984,0,473977514,85456068,491398,491398,0.25,0.5,1.0,1.0,0.0,0.0,0,0,0.11,-0.06,0.06,0.0,2.3849924,0,nan,nan,0.0,0.0,0,3,0,1,10,0
35992000,0,1698224846407984,0,473977507,85456077,491351,491351,0.25,0.5,1.0,1.0,0.0,0.0,0,0,0.07,-0.02,0.07,0.03,1.9703022,0,nan,nan,0.0,0.0,0,3,0,1,10,0
36792000,0,1698224847207984,0,473977504,85456083,491280,491280,0.25,0.5,1.0,1.0,0.0,0.0,0,0,0.08,-0.06,0.04,0.13,2.4726079,0,nan,nan,0.0,0.0,0,3,0,1,10,0
37992000,0,1698224848407984,0,473977498,85456091,491140,491140,0.25,0.5,1.0,1.0,0.0,0.0,0,0,0.049999997,-0.03,0.06,0.089999996,2.0519836,0,nan,nan,0.0,0.0,0,3,0,1,10,0
38792000,0,1698224849207984,0,473977496,85456094,491055,491055,0.25,0.5,1.0,1.0,0.0,0.0,0,0,0.02,0.0,0.02,0.14,1.7135643,0,nan,nan,0.0,0.0,0,3,0,1,10,0
39992000,0,1698224850407984,0,473977495,85456095,490951,490951,0.25,0.5,1.0,1.0,0.0,0.0,0,0,0.01,0.0,-0.01,0.07,5.3485613,0,nan,nan,0.0,0.0,0,3,0,1,10,0
40792000,0,1698224851207984,0,473977494,85456094,490883,490883,0.25,0.5,1.0,1.0,0.0,0.0,0,0,0.01,0.0,0.0,0.049999997,5.15483,0,nan,nan,0.0,0.0,0,3,0,1,10,0
41992000,0,1698224852407984,0,473977495,85456091,490833,490833,0.25,0.5,1.0,1.0,0.0,0.0,0,0,0.03,0.02,0.0,0.04,5.9840355,0,nan,nan,0.0,0.0,0,3,0,1,10,0
42792000,0,1698224853207984,0,473977497,85456090,490796,490796,0.25,0.5,1.0,1.0,0.0,0.0,0,0,0.04,0.03,-0.02,0.02,5.6142,0,nan,nan,0.0,0.0,0,3,0,1,10,0
43992000,0,1698224854407984,0,473977503,85456086,490765,490765,0.25,0.5,1.0,1.0,0.0,0.0,0,0,0.049999997,0.06,-0.04,0.0,5.6756363,0,nan,nan,0.0,0.0,0,3,0,1,10,0
44788000,0,1698224855207984,0,473977506,85456082,490751,490751,0.25,0.5,1.0,1.0,0.0,0.0,0,0,0.03,0.04,-0.02,0.01,5.7356753,0,nan,nan,0.0,0.0,0,3,0,1,10,0
45992000,0,1698224856407984,0,473977507,85456079,490729,490729,0.25,0.5,1.0,1.0,0.0,0.0,0,0,0.01,-0.01,0.0,0.0,3.5135221,0,nan,nan,0.0,0.0,0,3,0,1,10,0
46792000,0,1698224857207984,0,473977506,85456078,490726,490726,0.25,0.5,1.0,1.0,0.0,0.0,0,0,0.01,0.0,0.01,-0.01,1.937141,0,nan,nan,0.0,0.0,0,3,0,1,10,0
47992000,0,1698224858407984,0,473977505,85456077,490720,490720,0.25,0.5,1.0,1.0,0.0,0.0,0,0,0.0,-0.01,0.0,-0.03,2.6686082,0,nan,nan,0.0,0.0,0,3,0,1,10,0
48792000,0,1698224859207984,0,473977504,85456077,490701,490701,0.25,0.5,1.0,1.0,0.0,0.0,0,0,0.0,0.01,-0.03,0.04,5.130221,0,nan,nan,0.0,0.0,0,3,0,1,10,0
49988000,0,1698224860407984,0,473977505,85456079,490728,490728,0.25,0.5,1.0,1.0,0.0,0.0,0,0,0.01,0.0,0.0,-0.02,0.48345616,0,nan,nan,0.0,0.0,0,3,0,1,10,0
50792000,0,1698224861207984,0,473977509,85456075,490824,490824,0.25,0.5,1.0,1.0,0.0,0.0,0,0,0.22,0.19,-0.14,-0.26999998,5.6272902,0,nan,nan,0.0,0.0,0,3,0,1,10,0
51992000,0,1698224862407984,0,473977549,85456026,491329,491329,0.25,0.5,1.0,1.0,0.0,0.0,0,0,0.57,0.42999998,-0.35999998,-0.42999998,5.582261,0,nan,nan,0.0,0.0,0,3,0,1,10,0
52792000,0,1698224863207984,0,473977573,85455996,491618,491618,0.25,0.5,1.0,1.0,0.0,0.0,0,0,0.24,0.19,-0.16,-0.24,5.582959,0,nan,nan,0.0,0.0,0,3,0,1,10,0
53992000,0,1698224864407984,0,473977561,85456016,491569,491569,0.25,0.5,1.0,1.0,0.0,0.0,0,0,0.55,-0.39,0.37,0.35,2.3764403,0,nan,nan,0.0,0.0,0,3,0,1,10,0
54792000,0,1698224865207984,0,473977521,85456070,491137,491137,0.25,0.5,1.0,1.0,0.0,0.0,0,0,0.90999997,-0.69,0.62,0.71999997,2.410823,0,nan,nan,0.0,0.0,0,3,0,1,10,0
55992000,0,1698224866407984,0,473977444,85456171,490137,490137,0.25,0.5,1.0,1.0,0.0,0.0,0,0,0.87,-0.66999996,0.57,0.85999995,2.435607,0,nan,nan,0.0,0.0,0,3,0,1,10,0
56788000,0,1698224867207984,0,473977406,85456220,489481,489481,0.25,0.5,1.0,1.0,0.0,0.0,0,0,0.5,-0.38,0.32999998,0.69,2.4197245,0,nan,nan,0.0,0.0,0,3,0,1,10,0
57992000,0,1698224868407984,0,473977397,85456231,488942,488942,0.25,0.5,1.0,1.0,0.0,0.0,0,0,0.31,0.21,-0.19999999,0.17,5.5114007,0,nan,nan,0.0,0.0,0,3,0,1,10,0
58792000,0,1698224869207984,0,473977426,85456186,489000,489000,0.25,0.5,1.0,1.0,0.0,0.0,0,0,0.84,0.58,-0.57,-0.22,5.5011034,0,nan,nan,0.0,0.0,0,3,0,1,10,0
59992000,0,1698224870407984,0,473977510,85456065,489672,489672,0.25,0.5,1.0,1.0,0.0,0.0,0,0,1.1999999,0.9,-0.83,-0.79999995,5.533566,0,nan,nan,0.0,0.0,0,3,0,1,10,0
60792000,0,1698224871207984,0,473977568,85455985,490329,490329,0.25,0.5,1.0,1.0,0.0,0.0,0,0,0.83,0.64,-0.55,-0.71999997,5.5758033,0,nan,nan,0.0,0.0,0,3,0,1,10,0
61992000,0,1698224872407984,0,473977592,85455956,490939,490939,0.25,0.5,1.0,1.0,0.0,0.0,0,0,0.17,-0.12,0.13,-0.34,2.328269,0,nan,nan,0.0,0.0,0,3,0,1,10,0
62792000,0,1698224873207984,0,473977575,85455981,491174,491174,0.25,0.5,1.0,1.0,0.0,0.0,0,0,0.42,-0.31,0.26999998,-0.24,2.4253094,0,nan,nan,0.0,0.0,0,3,0,1,10,0
63992000,0,1698224874407984,0,473977540,85456026,491352,491352,0.25,0.5,1.0,1.0,0.0,0.0,0,0,0.35999998,-0.29,0.19999999,-0.07,2.5338688,0,nan,nan,0.0,0.0,0,3,0,1,10,0
64792000,0,1698224875211984,0,473977523,85456047,491381,491381,0.25,0.5,1.0,1.0,0.0,0.0,0,0,0.24,-0.19999999,0.12,0.0,2.5986207,0,nan,nan,0.0,0.0,0,3,0,1,10,0
65992000,0,1698224876407984,0,473977510,85456064,491335,491335,0.25,0.5,1.0,1.0,0.0,0.0,0,0,0.11,-0.08,0.089999996,0.099999994,2.3181462,0,nan,nan,0.0,0.0,0,3,0,1,10,0
66792000,0,1698224877211984,0,473977504,85456070,491119,491119,0.25,0.5,1.0,1.0,0.0,0.0,0,0,0.07,-0.06,0.049999997,0.82,2.4027948,0,nan,nan,0.0,0.0,0,3,0,1,10,0
67992000,0,1698224878407984,0,473977498,85456074,490160,490160,0.25,0.5,1.0,1.0,0.0,0.0,0,0,0.04,-0.04,0.01,0.72999996,2.7214918,0,nan,nan,0.0,0.0,0,3,0,1,10,0
68792000,0,1698224879211984,0,473977496,85456075,489517,489517,0.25,0.5,1.0,1.0,0.0,0.0,0,0,0.03,-0.02,0.0,0.84,2.8084095,0,nan,nan,0.0,0.0,0,3,0,1,10,0
69992000,0,1698224880407984,0,473977494,85456078,488534,488534,0.25,0.5,1.0,1.0,0.0,0.0,0,0,0.02,-0.02,0.0,0.77,3.1562533,0,nan,nan,0.0,0.0,0,3,0,1,10,0
70792000,0,1698224881211984,0,473977493,85456079,488180,488180,0.25,0.5,1.0,1.0,0.0,0.0,0,0,0.02,0.01,0.01,-0.42999998,0.82711154,0,nan,nan,0.0,0.0,0,3,0,1,10,0
71992000,0,1698224882407984,0,473977498,85456086,488436,488436,0.25,0.5,1.0,1.0,0.0,0.0,0,0,0.07,0.07,0.049999997,0.19,0.59952056,0,nan,nan,0.0,0.0,0,3,0,1,10,0
72792000,0,1698224883211984,0,473977504,85456086,488113,488113,0.25,0.5,1.0,1.0,0.0,0.0,0,0,0.089999996,0.08,-0.049999997,0.55,5.718222,0,nan,nan,0.0,0.0,0,3,0,1,10,0
73992000,0,1698224884407984,0,473977504,85456085,488109,488109,0.25,0.5,1.0,1.0,0.0,0.0,0,0,0.0,0.0,0.01,0.0,2.0001473,0,nan,nan,0.0,0.0,0,3,0,1,10,0
