timestamp,timestamp_sample,device_id,bias,bias_var,innov,innov_var,innov_test_ratio
8804000,8719999,6620172,487.3022,0.00013524045,-0.034088135,13.250149,9.7441325e-06
13180000,13100000,6620172,487.3037,0.06455419,0.1144104,12.443308,0.000116883355
13828000,13748000,6620172,487.3048,0.07132221,0.05621338,12.439107,2.8225892e-05
14068000,13988000,6620172,487.30582,0.07365238,0.047210693,12.4337225,1.9917603e-05
14492000,14408000,6620172,487.30426,0.07753573,-0.10348511,12.437372,9.567194e-05
14956000,14876000,6620172,487.30582,0.08123596,0.09375,12.4422655,7.8487516e-05
15380000,15296000,6620172,487.30753,0.08446387,0.10986328,12.445762,0.00010775592
15676000,15596000,6620172,487.3091,0.086475745,0.09616089,12.443231,8.256981e-05
16204000,16124000,6620172,487.3108,0.089677945,0.111450195,12.450796,0.000110846515
16628000,16542666,6620172,487.31186,0.09210975,0.03640747,12.454087,1.1825693e-05
16804000,16724000,6620172,487.31287,0.09298291,0.0065612793,12.44621,3.8432393e-07
16924000,16844000,6620172,487.3144,0.09358595,0.0741272,12.451357,4.903385e-05
17444000,17358666,6620172,487.31564,0.095784776,0.062408447,12.458106,3.4736993e-05
17620000,17540000,6620172,487.3169,0.09649266,0.105041504,12.45011,9.8470504e-05
18220000,18138000,6620172,487.31796,0.09882539,0.050476074,12.460541,2.2719132e-05
18812000,18728000,6620172,487.319,0.10070765,0.07095337,12.454537,4.4913402e-05
18932000,18848000,6620172,487.3204,0.10107259,0.1401062,12.459636,0.00017505191
19292000,19208000,6620172,487.32144,0.10209969,0.030975342,12.459316,8.556487e-06
19692000,19612000,6620172,487.32343,0.102849334,0.12649536,12.460007,0.00014268831
19804000,19724000,6620172,487.32513,0.10301192,0.17553711,12.464612,0.0002746734
19924000,19842000,6620172,487.32614,0.103300594,0.07827759,12.469994,5.4596665e-05
19972000,19892000,6620172,487.325,0.10324268,-0.13696289,12.471807,0.00016712213
20332000,20252000,6620172,487.32645,0.10405641,0.06814575,12.471228,4.137384e-05
20516000,20432000,6620172,487.32526,0.10450011,-0.04144287,12.462949,1.5312156e-05
20572000,20492000,6620172,487.32635,0.1045545,0.12826538,12.465232,0.00014664796
20636000,20552000,6620172,487.32755,0.10474108,0.13967896,12.468163,0.00017386692
20692000,20612000,6620172,487.32858,0.10479177,0.12197876,12.470532,0.00013256868
20756000,20672000,6620172,487.3299,0.10497472,0.15585327,12.473575,0.00021637068
20932000,20852000,6620172,487.33224,0.105241366,0.16693115,12.464518,0.00024840297
21052000,20970000,6620172,487.33353,0.105455376,0.111816406,12.469739,0.00011140667
21100000,21020000,6620172,487.33484,0.1053611,0.15570068,12.471491,0.0002159833
21220000,21140000,6620172,487.33722,0.105570875,0.17663574,12.460397,0.00027821644
21340000,21258000,6620172,487.3395,0.1057731,0.19015503,12.465419,0.0003223044
21388000,21308000,6620172,487.34164,0.105673075,0.24990845,12.467108,0.0005566134
21452000,21368000,6620172,487.34378,0.10584074,0.24780273,12.470043,0.0005471441
21508000,21428000,6620172,487.34537,0.10587283,0.18597412,12.472414,0.0003081144
21572000,21488000,6620172,487.3474,0.106037475,0.2388916,12.475464,0.0005082794
21628000,21548000,6620172,487.3503,0.10606537,0.3362732,12.461258,0.0010082775
21692000,21608000,6620172,487.35266,0.10622587,0.27178955,12.464037,0.0006585129
21748000,21668000,6620172,487.35553,0.106250905,0.3345642,12.466284,0.0009976528
21812000,21728000,6620172,487.35736,0.10640859,0.21148682,12.469179,0.00039855315
21868000,21788000,6620172,487.3602,0.106430866,0.3297119,12.471517,0.00096851756
21932000,21848000,6620172,487.36325,0.106585845,0.35513306,12.4745245,0.0011233516
21988000,21908000,6620172,487.36682,0.10660547,0.41296387,12.476949,0.0015187042
22052000,21966666,6620172,487.36932,0.1067566,0.29129028,12.463172,0.00075645116
22108000,22028000,6620172,487.3723,0.106772415,0.346344,12.465387,0.0010692199
22172000,22088000,6620172,487.37518,0.10692103,0.3326416,12.468245,0.0009860644
22228000,22148000,6620172,487.3788,0.10693439,0.41934204,12.470553,0.0015667821
22292000,22208000,6620172,487.3826,0.1070806,0.43807983,12.473533,0.0017095215
22348000,22268000,6620172,487.38702,0.1070916,0.51190186,12.475935,0.0023337686
22412000,22328000,6620172,487.38895,0.10723423,0.22045898,12.462259,0.00043332757
22468000,22388000,6620172,487.3924,0.107241705,0.39788818,12.464443,0.0014112588
22532000,22448000,6620172,487.39618,0.10738211,0.43481445,12.467259,0.0016849787
22588000,22506000,6620172,487.39978,0.1073874,0.41394043,12.469535,0.0015268028
22636000,22556000,6620172,487.40332,0.10725988,0.40673828,12.471237,0.001473934
22700000,22614666,6620172,487.40817,0.10740049,0.55700684,12.4742155,0.002763537
22756000,22676000,6620172,487.41223,0.107406,0.46652222,12.476615,0.0019382302
22820000,22736000,6620172,487.4154,0.107543215,0.36605835,12.462893,0.0011946462
22876000,22794000,6620172,487.41953,0.10754537,0.47329712,12.465078,0.00199678
22940000,22853333,6620172,487.42346,0.10768054,0.45205688,12.467898,0.0018211697
22988000,22904000,6620172,487.42712,0.10754779,0.4197998,12.469571,0.0015703281
23044000,22964000,6620172,487.43182,0.107550375,0.5392456,12.471884,0.0025905897
23108000,23024000,6620172,487.4359,0.10768598,0.46881104,12.474867,0.0019575695
23164000,23084000,6620172,487.44037,0.10768657,0.51119995,12.477266,0.0023271248
23228000,23144000,6620172,487.4445,0.107818946,0.47094727,12.4635,0.001977252
23284000,23204000,6620172,487.4482,0.10781634,0.42648315,12.465686,0.0016212317
23340000,23260000,6620172,487.4528,0.10781395,0.526062,12.467913,0.002466253
23396000,23312000,6620172,487.45703,0.107811764,0.48562622,12.470181,0.0021013042
23452000,23372000,6620172,487.46024,0.1078098,0.36883545,12.472491,0.0012119078
23516000,23430666,6620172,487.46408,0.107940935,0.44033813,12.47547,0.0017269239
23572000,23492000,6620172,487.46756,0.10793712,0.40026855,12.477862,0.0014266593
23636000,23552000,6620172,487.47107,0.10806516,0.39996338,12.464067,0.0014260611
23692000,23612000,6620172,487.47458,0.10805829,0.40264893,12.466247,0.0014450233
23756000,23672000,6620172,487.47778,0.10818459,0.36505127,12.469059,0.0011874944
23812000,23732000,6620172,487.48056,0.10817602,0.31781006,12.471322,0.000899871
23876000,23792000,6620172,487.48358,0.108300656,0.3435669,12.474242,0.0010513951
23932000,23852000,6620172,487.48703,0.108290456,0.39212036,12.476586,0.001369306
23996000,23912000,6620172,487.48984,0.10841314,0.32180786,12.4749365,0.0009223854
24052000,23972000,6620172,487.49286,0.108400084,0.34545898,12.4650955,0.0010637875
24116000,24032000,6620172,487.49515,0.1085203,0.26046753,12.467847,0.00060460705
24172000,24092000,6620172,487.49677,0.10850575,0.18313599,12.470058,0.00029883836
24236000,24152000,6620172,487.49887,0.108624496,0.24084473,12.472916,0.0005167301
24292000,24212000,6620172,487.5008,0.108608514,0.2203064,12.475205,0.00043227884
24356000,24272000,6620172,487.50253,0.10872586,0.19857788,12.478164,0.0003511305
24412000,24332000,6620172,487.50513,0.10870722,0.29449463,12.463867,0.00077314227
24476000,24390666,6620172,487.5075,0.10882193,0.2694397,12.466556,0.00064704457
24532000,24452000,6620172,487.5092,0.10880197,0.1914978,12.468714,0.000326786
24596000,24510666,6620172,487.51053,0.108915396,0.15170288,12.471506,0.00020503416
24716000,24630666,6620172,487.51175,0.10900638,0.055267334,12.47664,2.7201753e-05
24836000,24752000,6620172,487.51337,0.109093696,0.091552734,12.465204,7.471378e-05
25132000,25052000,6620172,487.51236,0.10923204,-0.15859985,12.477357,0.00022399609
25196000,25112000,6620172,487.51135,0.10933821,-0.11413574,12.47577,0.000116020165
25252000,25172000,6620172,487.50995,0.10930892,-0.16003418,12.465893,0.00022827565
25316000,25230666,6620172,487.50842,0.10941316,-0.17333984,12.468583,0.00026775475
25372000,25292000,6620172,487.5072,0.10938293,-0.1385498,12.470743,0.00017103185
25436000,25352000,6620172,487.50534,0.10948625,-0.21078491,12.473547,0.00039577336
25492000,25412000,6620172,487.50314,0.109455116,-0.24819946,12.475794,0.00054864446
25556000,25469333,6620172,487.49994,0.10955756,-0.36190796,12.478708,0.0011662298
25604000,25520000,6620172,487.4967,0.10939143,-0.36505127,12.463927,0.0011879832
25660000,25580000,6620172,487.49454,0.10936121,-0.24337769,12.466009,0.0005279485
25724000,25640000,6620172,487.49142,0.10946454,-0.3506775,12.468712,0.0010958514
25780000,25700000,6620172,487.48798,0.109433405,-0.39093018,12.470883,0.0013616285
25844000,25760000,6620172,487.48407,0.10953584,-0.43972778,12.4737015,0.0017223839
25900000,25818000,6620172,487.48032,0.10950384,-0.42520142,12.475962,0.0016101743
25964000,25880000,6620172,487.4748,0.10960545,-0.62368774,12.478893,0.003463505
26020000,25940000,6620172,487.4715,0.10957132,-0.3706665,12.464668,0.0012247387
26084000,26000000,6620172,487.46686,0.10967082,-0.5212097,12.46734,0.0024210776
26140000,26060000,6620172,487.46207,0.10963592,-0.5397644,12.469489,0.0025960756
26204000,26120000,6620172,487.4566,0.109734654,-0.61416626,12.472279,0.003360343
26260000,26180000,6620172,487.4509,0.10969902,-0.642334,12.474517,0.003674985
26324000,26240000,6620172,487.44406,0.10979704,-0.76956177,12.477423,0.00527375
26380000,26299000,6620172,487.43698,0.1097607,-0.79696655,12.479751,0.005654989
26444000,26360000,6620172,487.43082,0.109856725,-0.6925659,12.466001,0.004275162
26500000,26419000,6620172,487.42514,0.109818414,-0.6396179,12.468123,0.0036458403
26556000,26476000,6620172,487.41837,0.10978095,-0.76174927,12.470291,0.005170172
26612000,26528000,6620172,487.41193,0.10974433,-0.7246094,12.472503,0.004677478
26668000,26588000,6620172,487.4044,0.10970854,-0.84942627,12.474756,0.006426534
26732000,26646666,6620172,487.3974,0.10980641,-0.7866211,12.477677,0.005510042
26788000,26708000,6620172,487.38953,0.10976993,-0.8870239,12.480019,0.0070050773
26852000,26768000,6620172,487.3832,0.109865814,-0.71121216,12.466246,0.004508376
26908000,26828000,6620172,487.37643,0.10982736,-0.76272583,12.468381,0.005184231
26972000,26888000,6620172,487.36902,0.10992261,-0.83218384,12.471152,0.006170061
27028000,26948000,6620172,487.3608,0.10988355,-0.9223633,12.47338,0.0075783967
27092000,27008000,6620172,487.35226,0.1099782,-0.9617615,12.476266,0.008237731
27148000,27066000,6620172,487.34256,0.109938554,-1.0926514,12.4785795,0.010630546
27196000,27116000,6620172,487.33508,0.10976659,-0.8412781,12.475679,0.006303365
27260000,27176000,6620172,487.32733,0.10986254,-0.87335205,12.466496,0.006798166
27316000,27236000,6620172,487.31888,0.10982417,-0.9512329,12.468637,0.008063289
27380000,27294666,6620172,487.31052,0.109919496,-0.93930054,12.4714155,0.0078605125
27436000,27356000,6620172,487.30118,0.10988051,-1.0515442,12.473645,0.009849613
27500000,27416000,6620172,487.2911,0.10997523,-1.1322021,12.476535,0.011415934
27556000,27476000,6620172,487.2804,0.10993566,-1.204773,12.47885,0.012923893
27620000,27536000,6620172,487.27234,0.11002851,-0.9049072,12.465206,0.007299046
27676000,27596000,6620172,487.2625,0.10998708,-1.103302,12.467312,0.010848594
27740000,27656000,6620172,487.25314,0.11007939,-1.0516663,12.470044,0.009854745
27796000,27716000,6620172,487.24414,0.110037446,-1.0106201,12.472236,0.009098903
27860000,27776000,6620172,487.2343,0.11012927,-1.1034546,12.475079,0.010844839
27916000,27836000,6620172,487.2247,0.110086836,-1.0797424,12.477354,0.010381863
27980000,27896000,6620172,487.21436,0.11017819,-1.1624146,12.480304,0.01202969
28036000,27956000,6620172,487.20633,0.11013398,-0.8996582,12.46595,0.007214184
28100000,28016000,6620172,487.19678,0.11022357,-1.0692139,12.468634,0.010187504
28156000,28076000,6620172,487.18713,0.11017894,-1.0821838,12.470786,0.010434358
28220000,28136000,6620172,487.177,0.110268116,-1.1343079,12.47358,0.011461152
28276000,28196000,6620172,487.16635,0.11022309,-1.1963501,12.475817,0.012746915
28340000,28256000,6620172,487.15585,0.11031189,-1.1762695,12.478717,0.012319732
28396000,28316000,6620172,487.14575,0.110266134,-1.1313477,12.476461,0.011398776
28460000,28376000,6620172,487.13754,0.11035325,-0.91799927,12.467198,0.0075105764
28516000,28432000,6620172,487.12854,0.11030619,-1.0093689,12.469312,0.009078515
28564000,28482000,6620172,487.1196,0.11012731,-1.0052185,12.470877,0.009002879
28628000,28541333,6620172,487.111,0.110217415,-0.96591187,12.473668,0.008310713
28676000,28592000,6620172,487.10144,0.11004046,-1.0717163,12.475291,0.010229785
28732000,28652000,6620172,487.09207,0.109999634,-1.0519104,12.47756,0.009853383
28796000,28712000,6620172,487.0829,0.11009219,-1.03125,12.475968,0.009471334
28852000,28772000,6620172,487.07474,0.11004954,-0.91467285,12.466195,0.0074568456
28916000,28832000,6620172,487.0672,0.11014065,-0.84729004,12.468881,0.006397263
28972000,28892000,6620172,487.05942,0.11009752,-0.8732605,12.471035,0.006794267
29036000,28952000,6620172,487.05118,0.11018817,-0.9237366,12.473833,0.007600704
29092000,29012000,6620172,487.04297,0.11014459,-0.92196655,12.476074,0.007570244
29156000,29072000,6620172,487.03488,0.11023481,-0.9077759,12.478985,0.0073372866
29212000,29132000,6620172,487.02774,0.11018951,-0.80041504,12.464842,0.0057108556
29276000,29192000,6620172,487.02182,0.11027802,-0.66275024,12.467491,0.0039145174
29332000,29251000,6620172,487.0152,0.11023232,-0.74102783,12.46962,0.004892979
29396000,29312000,6620172,487.0069,0.11032045,-0.931427,12.472386,0.0077286847
29452000,29372000,6620172,487.0006,0.1102744,-0.70648193,12.474606,0.0044456245
29516000,29432000,6620172,486.99368,0.11036218,-0.77526855,12.4774885,0.0053522284
29572000,29492000,6620172,486.9865,0.11031579,-0.80511475,12.479796,0.0057711923
29636000,29552000,6620172,486.9808,0.11040193,-0.6387024,12.46612,0.003635995
29692000,29612000,6620172,486.97534,0.11035391,-0.6109314,12.4682255,0.0033261187
29748000,29668000,6620172,486.9702,0.110306926,-0.57315063,12.470377,0.002926951
29812000,29730000,6620172,486.96484,0.110393785,-0.6008606,12.473173,0.0032160885
29876000,29792000,6620172,486.9611,0.11047932,-0.42123413,12.476033,0.0015802582
29932000,29852000,6620172,486.9562,0.110430725,-0.5480652,12.478328,0.0026746413
29996000,29912000,6620172,486.95212,0.110515654,-0.45767212,12.47667,0.0018653817
30052000,29971000,6620172,486.94904,0.1104655,-0.34454346,12.466866,0.0010580062
30116000,30032000,6620172,486.94543,0.110549234,-0.40405273,12.469582,0.0014547277
30172000,30092000,6620172,486.9423,0.11049887,-0.35134888,12.471765,0.0010997823
30236000,30152000,6620172,486.9392,0.11058241,-0.34606934,12.474603,0.0010667362
30292000,30212000,6620172,486.93704,0.11053186,-0.24224854,12.476878,0.0005226054
30356000,30272000,6620172,486.9354,0.11061523,-0.1850586,12.479834,0.00030490686
30412000,30332000,6620172,486.93335,0.11056319,-0.22940063,12.465522,0.00046906847
30476000,30392000,6620172,486.93207,0.11064507,-0.14257812,12.468208,0.00018115871
30532000,30452000,6620172,486.9309,0.11059288,-0.1307373,12.470367,0.00015229206
30596000,30512000,6620172,486.92953,0.11067463,-0.1539917,12.473175,0.00021123949
30716000,30632000,6620172,486.92825,0.110703945,-0.03665161,12.478352,1.19615215e-05
30836000,30752000,6620172,486.9269,0.110731706,-0.13955688,12.466837,0.00017358162
30956000,30872000,6620172,486.9289,0.11075796,0.2033081,12.47174,0.00036824754
31012000,30931000,6620172,486.93024,0.110704035,0.15093994,12.473965,0.00020293704
31132000,31052000,6620172,486.93192,0.11073011,0.16064453,12.479165,0.00022977557
31196000,31112000,6620172,486.93338,0.11081012,0.16342163,12.482165,0.00023773145
31252000,31172000,6620172,486.93475,0.11075474,0.15444946,12.467507,0.00021259383
31372000,31292000,6620172,486.9369,0.11077795,0.190979,12.472428,0.00032492095
31492000,31412000,6620172,486.94037,0.110801145,0.29214478,12.477551,0.0007600188
31556000,31472000,6620172,486.9423,0.11087975,0.21490479,12.480509,0.00041116617
31612000,31531000,6620172,486.94418,0.110823005,0.21035767,12.466091,0.00039440632
31676000,31592000,6620172,486.94696,0.110900275,0.30899048,12.468778,0.00085079274
31732000,31652000,6620172,486.94974,0.110843554,0.30895996,12.470935,0.0008504776
31796000,31712000,6620172,486.95355,0.110920854,0.42678833,12.473736,0.0016225049
31852000,31772000,6620172,486.9563,0.11086417,0.30465698,12.47598,0.00082661846
31916000,31832000,6620172,486.9594,0.110941514,0.34545898,12.478893,0.0010626112
31972000,31892000,6620172,486.96255,0.11088488,0.34933472,12.481222,0.0010863852
32036000,31952000,6620172,486.96512,0.110960916,0.28707886,12.467304,0.0007344925
32092000,32011000,6620172,486.9686,0.11090299,0.38607788,12.469424,0.0013281923
32156000,32072000,6620172,486.97314,0.110979095,0.50775146,12.47218,0.0022967698
32212000,32132000,6620172,486.9769,0.11092124,0.41671753,12.474389,0.0015467558
32276000,32192000,6620172,486.9813,0.11099743,0.4885559,12.477257,0.0021255284
32332000,32252000,6620172,486.98636,0.11093966,0.5645447,12.479551,0.0028376258
32396000,32312000,6620172,486.98975,0.11101556,0.37768555,12.477841,0.0012702195
32452000,32372000,6620172,486.99353,0.11095653,0.42288208,12.467905,0.0015936854
32516000,32432000,6620172,486.99808,0.11103155,0.50686646,12.470614,0.0022890577
32572000,32492000,6620172,487.00235,0.11097262,0.4764099,12.472787,0.002021881
32636000,32552000,6620172,487.00607,0.11104775,0.4156494,12.47561,0.0015386862
32692000,32612000,6620172,487.0107,0.110988945,0.5155945,12.477867,0.0023671929
32756000,32672000,6620172,487.01624,0.1110642,0.616272,12.4808,0.003381115
32812000,32732000,6620172,487.02023,0.111004174,0.44351196,12.46638,0.0017531853
32876000,32792000,6620172,487.02496,0.11107821,0.52648926,12.469045,0.002470036
32932000,32852000,6620172,487.02936,0.111018315,0.48968506,12.471181,0.002136405
32996000,32912000,6620172,487.03568,0.11109249,0.70440674,12.473959,0.004419775
33052000,32971000,6620172,487.04102,0.11103275,0.59539795,12.476182,0.0031571153
33116000,33032000,6620172,487.04617,0.11110707,0.5757141,12.47907,0.0029511347
33172000,33091000,6620172,487.05176,0.111047484,0.62127686,12.481377,0.0034360965
33236000,33152000,6620172,487.0567,0.11112061,0.54803467,12.467481,0.00267667
33292000,33212000,6620172,487.06198,0.11105983,0.58877563,12.469583,0.00308891
33356000,33272000,6620172,487.06693,0.11113313,0.5512085,12.472317,0.0027067126
33412000,33332000,6620172,487.0723,0.11107252,0.5974426,12.474505,0.003179264
33476000,33392000,6620172,487.07755,0.111145996,0.58483887,12.47735,0.0030458434
33532000,33452000,6620172,487.08246,0.111085564,0.5479126,12.479623,0.0026728746
33596000,33512000,6620172,487.0875,0.111158855,0.5597229,12.47794,0.0027897211
33652000,33572000,6620172,487.0921,0.111097254,0.51101685,12.467996,0.0023271872
33716000,33632000,6620172,487.0965,0.11116975,0.48739624,12.470687,0.0021165644
33772000,33691000,6620172,487.10144,0.11110834,0.55133057,12.472842,0.0027077976
33836000,33752000,6620172,487.10632,0.111181036,0.5419922,12.475646,0.0026162576
33892000,33812000,6620172,487.1113,0.11111984,0.55459595,12.477887,0.0027388597
33956000,33872000,6620172,487.1175,0.11119274,0.6878357,12.480801,0.004211962
34012000,33932000,6620172,487.12234,0.1111304,0.5404358,12.466426,0.0026031772
34068000,33988000,6620172,487.12766,0.11106935,0.59036255,12.468502,0.0031058523
34124000,34040000,6620172,487.13242,0.111009575,0.53149414,12.470621,0.0025169025
34180000,34100000,6620172,487.1376,0.11095104,0.57702637,12.47278,0.0029660983
34244000,34160000,6620172,487.142,0.11102656,0.48864746,12.47559,0.0021266092
34300000,34220000,6620172,487.1462,0.110968135,0.47052002,12.477835,0.0019713987
34364000,34280000,6620172,487.15158,0.11104376,0.5972595,12.480754,0.0031757245
34420000,34340000,6620172,487.1555,0.1109841,0.43444824,12.466405,0.0016822569
34484000,34400000,6620172,487.16043,0.111058496,0.55166626,12.469062,0.002711918
34540000,34460000,6620172,487.1656,0.11099896,0.5750427,12.471191,0.0029461156
34604000,34520000,6620172,487.17,0.11107348,0.49291992,12.473961,0.002164242
34660000,34580000,6620172,487.17493,0.111014076,0.54611206,12.476177,0.0026560698
34724000,34638666,6620172,487.1801,0.11108874,0.5784607,12.479058,0.0029793628
34780000,34700000,6620172,487.18546,0.111029476,0.5937195,12.481358,0.0031380386
34844000,34760000,6620172,487.18964,0.11110293,0.4656067,12.467521,0.0019320387
34900000,34820000,6620172,487.19354,0.11104247,0.43484497,12.46962,0.0016848963
34964000,34880000,6620172,487.19843,0.11111608,0.54348755,12.472351,0.002631409
35020000,34940000,6620172,487.2026,0.11105578,0.4644165,12.474538,0.0019210926
35084000,35000000,6620172,487.20767,0.11112955,0.56378174,12.477382,0.0028304537
35140000,35060000,6620172,487.21304,0.11106942,0.5979004,12.479652,0.0031828245
35204000,35120000,6620172,487.21695,0.11114203,0.43267822,12.465998,0.0016686318
35260000,35180000,6620172,487.2212,0.11108074,0.47305298,12.468066,0.0019942427
35324000,35240000,6620172,487.22598,0.111153536,0.53430176,12.470759,0.0025435353
35380000,35300000,6620172,487.22995,0.111092426,0.44119263,12.472917,0.0017339875
35444000,35358666,6620172,487.235,0.11116541,0.5593567,12.475722,0.002786567
35500000,35418000,6620172,487.23917,0.111104496,0.46627808,12.477966,0.0019359925
35548000,35468000,6620172,487.24423,0.11091204,0.5647888,12.479619,0.0028400654
35612000,35526666,6620172,487.24884,0.110987484,0.5135803,12.465983,0.0023509732
35668000,35588000,6620172,487.25354,0.11092897,0.5241089,12.468059,0.0024479453
35732000,35648000,6620172,487.2576,0.111004494,0.4524231,12.470761,0.0018237027
35788000,35708000,6620172,487.26102,0.11094607,0.37911987,12.472925,0.00128039
35852000,35766666,6620172,487.26566,0.11102168,0.51660156,12.47574,0.0023768544
35908000,35828000,6620172,487.2702,0.11096335,0.5083008,12.477991,0.0023006704
35972000,35888000,6620172,487.27426,0.11103908,0.45166016,12.480916,0.0018160783
36028000,35948000,6620172,487.2781,0.11097952,0.42648315,12.466573,0.0016211163
36092000,36008000,6620172,487.28268,0.11105401,0.5105896,12.469238,0.002323066
36148000,36068000,6620172,487.28665,0.11099457,0.440094,12.471374,0.001725576
36212000,36128000,6620172,487.29013,0.11106919,0.38745117,12.474151,0.001337151
36268000,36188000,6620172,487.29413,0.11100987,0.44604492,12.476375,0.0017718474
36332000,36248000,6620172,487.29825,0.11108463,0.45977783,12.479263,0.0018821949
36388000,36308000,6620172,487.3023,0.11102546,0.45202637,12.481571,0.0018189291
36452000,36368000,6620172,487.30527,0.111099005,0.3296814,12.467728,0.0009686326
36508000,36428000,6620172,487.30835,0.11103863,0.34194946,12.469833,0.0010418872
36572000,36488000,6620172,487.31134,0.111112334,0.33288574,12.472575,0.0009871696
36628000,36548000,6620172,487.3155,0.11105212,0.4623413,12.47477,0.0019039272
36692000,36606666,6620172,487.31937,0.11112598,0.43273926,12.477623,0.0016675475
36748000,36668000,6620172,487.3233,0.11106594,0.43881226,12.479902,0.0017143671
36812000,36728000,6620172,487.3266,0.111138634,0.36483765,12.46623,0.0011863741
36868000,36788000,6620172,487.32993,0.11107742,0.37127686,12.4683075,0.0012284168
36932000,36848000,6620172,487.33334,0.111150295,0.3798828,12.47101,0.0012857459
36988000,36908000,6620172,487.3362,0.11108927,0.31985474,12.473177,0.00091135164
37052000,36968000,6620172,487.33975,0.111162335,0.39489746,12.475993,0.0013888363
37108000,37028000,6620172,487.34296,0.1111015,0.35830688,12.478246,0.0011431791
37172000,37088000,6620172,487.3466,0.11117476,0.4048767,12.481173,0.0014593105
37228000,37148000,6620172,487.34943,0.11111278,0.31604004,12.466795,0.0008901986
37292000,37208000,6620172,487.35214,0.111184895,0.30108643,12.4694605,0.00080777827
37348000,37268000,6620172,487.3546,0.111123115,0.27435303,12.471598,0.00067058665
37412000,37325333,6620172,487.35687,0.11119544,0.2501831,12.474378,0.0005575124
37460000,37376000,6620172,487.36084,0.11100106,0.4425354,12.475988,0.0017441289
37516000,37436000,6620172,487.3638,0.11094312,0.32858276,12.478249,0.0009613763
37580000,37496000,6620172,487.36636,0.11101923,0.284729,12.481184,0.00072171394
37636000,37556000,6620172,487.36914,0.110960044,0.30789185,12.466815,0.00084488647
37700000,37616000,6620172,487.37213,0.11103491,0.33343506,12.46949,0.0009906752
37756000,37676000,6620172,487.3739,0.11097583,0.19650269,12.471635,0.00034401
37820000,37736000,6620172,487.3778,0.11105081,0.4348755,12.474423,0.0016844838
37876000,37796000,6620172,487.38034,0.11099185,0.2819519,12.476656,0.00070796104
37940000,37856000,6620172,487.38412,0.11106695,0.42041016,12.479556,0.0015736377
37996000,37915000,6620172,487.3864,0.11100775,0.25634766,12.47727,0.0005851896
38060000,37976000,6620172,487.38828,0.11108164,0.20730591,12.467997,0.0003829871
38116000,38036000,6620172,487.39056,0.11102159,0.2546997,12.470112,0.0005780215
38180000,38096000,6620172,487.39172,0.11109562,0.12924194,12.472864,0.0001487984
38236000,38155000,6620172,487.39417,0.11103573,0.27172852,12.475068,0.0006576351
38300000,38216000,6620172,487.39853,0.11110991,0.48416138,12.477932,0.0020873493
38356000,38275000,6620172,487.40076,0.11105018,0.24960327,12.480221,0.0005546714
38476000,38396000,6620172,487.404,0.11106227,0.25628662,12.468596,0.00058531784
38540000,38456000,6620172,487.40524,0.111135446,0.13937378,12.471312,0.0001730643
38596000,38515000,6620172,487.40768,0.11107471,0.27142334,12.473486,0.00065624196
38660000,38576000,6620172,487.41064,0.11114806,0.3277588,12.476314,0.0009567091
38716000,38636000,6620172,487.4123,0.11108751,0.1842041,12.478576,0.00030212806
38836000,38756000,6620172,487.41376,0.11109934,0.09436035,12.4670925,7.935447e-05
38900000,38816000,6620172,487.41556,0.11117172,0.20019531,12.4697695,0.00035711398
38956000,38875000,6620172,487.41757,0.11111021,0.22247314,12.471914,0.00044094006
39012000,38932000,6620172,487.4197,0.11104998,0.2394104,12.474102,0.0005105452
39068000,38984000,6620172,487.42166,0.11099101,0.2185669,12.47633,0.00042544105
39124000,39044000,6620172,487.42365,0.11093328,0.22158813,12.478598,0.00043720458
39244000,39164000,6620172,487.42532,0.11095061,0.104766846,12.467129,9.78225e-05
39308000,39224000,6620172,487.42697,0.11102567,0.18502808,12.469814,0.00030505122
39364000,39282000,6620172,487.42828,0.11096678,0.14474487,12.471967,0.00018665039
39428000,39341333,6620172,487.42953,0.11104195,0.13937378,12.474766,0.0001730164
39476000,39392000,6620172,487.4311,0.11085036,0.17358398,12.476391,0.00026834148
39532000,39452000,6620172,487.43234,0.110795155,0.13839722,12.478665,0.00017054698
39652000,39571000,6620172,487.434,0.110817045,0.13998413,12.467203,0.00017464094
39716000,39632000,6620172,487.4352,0.11089451,0.13452148,12.469897,0.00016124191
39772000,39690000,6620172,487.4367,0.11083798,0.16513062,12.472058,0.0002429263
39836000,39752000,6620172,487.4388,0.11091547,0.23413086,12.474866,0.00048824624
39956000,39872000,6620172,487.44,0.11093649,0.02355957,12.480032,4.9417017e-06
40076000,39992000,6620172,487.44266,0.11095495,0.21954346,12.468435,0.0004295231
40244000,40160000,6620172,487.44397,0.11078537,0.03845215,12.474954,1.3169211e-05
40300000,40218000,6620172,487.446,0.110731214,0.22979736,12.477208,0.00047025146
40348000,40268000,6620172,487.4473,0.11054538,0.14404297,12.478873,0.00018474225
40652000,40568000,6620172,487.4484,0.11068649,0.044067383,12.475125,1.7296055e-05
40892000,40808000,6620172,487.44943,0.11074205,0.07110596,12.468718,4.5055483e-05
41068000,40988000,6620172,487.45105,0.11071428,0.15249634,12.475886,0.00020711184
41188000,41108000,6620172,487.45215,0.1107403,0.041168213,12.481107,1.5087887e-05
41372000,41288000,6620172,487.4534,0.11084215,0.107788086,12.472171,0.00010350396
41548000,41468000,6620172,487.4545,0.110809945,0.06350708,12.47953,3.590902e-05
41732000,41648000,6620172,487.45578,0.11090778,0.13354492,12.470681,0.00015889933
41972000,41888000,6620172,487.45685,0.11094911,0.0947876,12.480885,7.998622e-05
42092000,42008000,6620172,487.45792,0.110967234,0.015014648,12.4691925,2.0088592e-06
42268000,42188000,6620172,487.45926,0.11092768,0.042999268,12.476359,1.6466138e-05
42868000,42788000,6620172,487.46036,0.11100885,0.037353516,12.468308,1.2434059e-05
43228000,43148000,6620172,487.4593,0.1110513,-0.09057617,12.466805,7.3119e-05
43588000,43508000,6620172,487.4609,0.11108996,0.09262085,12.481853,7.6365286e-05
43948000,43868000,6620172,487.4591,0.11112389,-0.14993286,12.480157,0.0002001387
44132000,44046666,6620172,487.4581,0.11120522,-0.100128174,12.471221,8.932255e-05
44372000,44288000,6620172,487.4591,0.11122592,0.06417847,12.481406,3.666677e-05
44716000,44636000,6620172,487.4579,0.11098675,-0.07839966,12.478446,5.4729982e-05
44836000,44754000,6620172,487.45667,0.11100215,-0.092163086,12.466972,7.570255e-05
45884000,45800000,6620172,487.45554,0.11066555,-0.09371948,12.476453,7.822149e-05
46180000,46100000,6620172,487.4536,0.11066828,-0.12930298,12.472149,0.0001489475
46300000,46218000,6620172,487.4522,0.11069532,-0.04788208,12.477228,2.0416694e-05
46700000,46616000,6620172,487.45322,0.1104811,0.0019226074,12.476825,3.291809e-08
47164000,47084000,6620172,487.45206,0.11035071,-0.1255188,12.479339,0.00014027602
47524000,47444000,6620172,487.45035,0.11045964,-0.08496094,12.477889,6.427691e-05
47764000,47684000,6620172,487.4492,0.11052599,-0.07040405,12.471353,4.4161035e-05
48124000,48042000,6620172,487.4477,0.110617004,-0.06607056,12.469928,3.8896407e-05
48412000,48332000,6620172,487.4466,0.11050147,-0.024261475,12.465297,5.2467367e-06
48532000,48452000,6620172,487.4456,0.110533305,-0.04031372,12.470107,1.4480817e-05
48596000,48512000,6620172,487.44446,0.110616095,-0.1257019,12.47289,0.00014075832
49004000,48920000,6620172,487.44574,0.11051947,0.04977417,12.473033,2.2069551e-05
49364000,49280000,6620172,487.4438,0.11061867,-0.11746216,12.471601,0.00012292246
49484000,49400000,6620172,487.44214,0.11064971,-0.17599487,12.476672,0.00027584095
50204000,50120000,6620172,487.44403,0.11081148,0.109375,12.473636,0.000106561565
50324000,50240000,6620172,487.4462,0.11083601,0.17932129,12.47877,0.0002863185
50620000,50540000,6620172,487.44748,0.11082483,0.07067871,12.474312,4.4495708e-05
50924000,50840000,6620172,487.4486,0.11094253,0.037963867,12.470582,1.28413785e-05
50980000,50899000,6620172,487.44977,0.110885195,0.13012695,12.472755,0.00015084454
51044000,50960000,6620172,487.45163,0.11096189,0.20758057,12.47558,0.00038376922
51100000,51017000,6620172,487.45282,0.11090463,0.13342285,12.477839,0.00015851799
51220000,51138000,6620172,487.4545,0.11092286,0.11151123,12.466392,0.00011082913
51340000,51259000,6620172,487.45618,0.1109399,0.102752686,12.471207,9.4066585e-05
51404000,51320000,6620172,487.45752,0.111015484,0.14852905,12.473993,0.00019650554
51460000,51380000,6620172,487.45984,0.11095712,0.25930786,12.476226,0.00059883285
51524000,51440000,6620172,487.46252,0.111032814,0.29968262,12.479125,0.0007996436
51580000,51500000,6620172,487.4643,0.110974565,0.19848633,12.481444,0.0003507146
51644000,51560000,6620172,487.46567,0.11104901,0.1532898,12.467555,0.00020941254
51700000,51620000,6620172,487.46826,0.11098952,0.28814697,12.46967,0.00073982775
51764000,51680000,6620172,487.47052,0.11106409,0.25289917,12.472421,0.00056977256
51820000,51740000,6620172,487.47247,0.11100473,0.21807861,12.474625,0.0004236002
51884000,51800000,6620172,487.47528,0.11107944,0.31307983,12.47749,0.00087285164
51940000,51860000,6620172,487.47876,0.111020215,0.38763428,12.479782,0.0013378112
52004000,51920000,6620172,487.48203,0.11109372,0.36471558,12.4660635,0.0011855961
52060000,51980000,6620172,487.48453,0.111033306,0.27783203,12.468149,0.0006878918
52124000,52040000,6620172,487.48578,0.11110696,0.13796997,12.470862,0.00016960167
52180000,52100000,6620172,487.48895,0.1110467,0.3519287,12.473039,0.0011033026
52244000,52160000,6620172,487.49265,0.11112052,0.40979004,12.475869,0.0014955794
52300000,52220000,6620172,487.49536,0.11106043,0.30197144,12.478134,0.0008119692
52364000,52280000,6620172,487.49908,0.111134425,0.4154663,12.481076,0.0015366575
52420000,52340000,6620172,487.50104,0.11107315,0.21759033,12.466645,0.00042197536
52484000,52400000,6620172,487.50385,0.111145966,0.3123474,12.469322,0.0008693416
52540000,52459000,6620172,487.5077,0.11108488,0.4276123,12.471469,0.001629072
52604000,52520000,6620172,487.5109,0.11115788,0.3555603,12.474262,0.0011260798
52660000,52580000,6620172,487.51437,0.111096986,0.38729858,12.476499,0.0013358466
52724000,52640000,6620172,487.51712,0.11117019,0.30480957,12.479404,0.0008272196
52780000,52700000,6620172,487.52124,0.111109495,0.45761108,12.481728,0.0018641286
52844000,52760000,6620172,487.52414,0.111181535,0.32333374,12.467795,0.00093168666
52900000,52818000,6620172,487.52686,0.11111968,0.30093384,12.469913,0.00080693053
52964000,52880000,6620172,487.5285,0.11119193,0.18307495,12.472666,0.0002985768
53020000,52938000,6620172,487.5319,0.11113029,0.37557983,12.474872,0.0012563943
53084000,53000000,6620172,487.5364,0.11120276,0.502594,12.477738,0.0022493456
53140000,53060000,6620172,487.5407,0.11114135,0.4802246,12.48003,0.0020531975
53204000,53120000,6620172,487.54425,0.111212686,0.39178467,12.466279,0.0013680926
53260000,53180000,6620172,487.54688,0.111150146,0.29086304,12.468363,0.00075391977
53324000,53240000,6620172,487.54987,0.111221716,0.33087158,12.471075,0.000975377
53380000,53300000,6620172,487.55344,0.11115941,0.3958435,12.4732485,0.0013958057
53444000,53360000,6620172,487.5568,0.111231215,0.37390137,12.476072,0.0012450698
53500000,53419000,6620172,487.5604,0.11116915,0.4020996,12.4783325,0.0014396876
53564000,53480000,6620172,487.56302,0.11124121,0.29296875,12.481266,0.00076408463
53620000,53540000,6620172,487.56546,0.11117803,0.2705078,12.466822,0.00065217086
53684000,53600000,6620172,487.5699,0.11124898,0.49169922,12.469491,0.0021543081
53740000,53659000,6620172,487.57294,0.11118605,0.33987427,12.471628,0.0010291316
53804000,53720000,6620172,487.57486,0.11125725,0.21276855,12.47441,0.00040322955
53860000,53780000,6620172,487.578,0.11119457,0.34823608,12.476635,0.0010799597
53924000,53840000,6620172,487.58038,0.11126603,0.26446533,12.4795265,0.0006227258
53980000,53900000,6620172,487.58377,0.111203626,0.37664795,12.481833,0.0012628457
54044000,53960000,6620172,487.58704,0.11127398,0.3616333,12.467914,0.0011654685
54100000,54019000,6620172,487.5887,0.11121047,0.18521118,12.4700165,0.00030565032
54164000,54080000,6620172,487.591,0.1112811,0.25427246,12.472754,0.00057596195
54220000,54140000,6620172,487.593,0.11121786,0.22024536,12.474944,0.0004320484
54284000,54200000,6620172,487.59406,0.111288756,0.11959839,12.477793,0.00012737095
54340000,54260000,6620172,487.5963,0.1112258,0.25234985,12.480067,0.0005669525
54404000,54320000,6620172,487.59814,0.111295626,0.20205688,12.466345,0.00036388624
54460000,54379000,6620172,487.59982,0.111231595,0.18737793,12.468413,0.00031288387
54580000,54500000,6620172,487.60162,0.11123796,0.09100342,12.473267,7.377219e-05
54700000,54620000,6620172,487.60336,0.111244895,0.09768677,12.478318,8.497143e-05
55060000,54979000,6620172,487.6017,0.111262485,-0.1595459,12.476599,0.0002266901
55180000,55100000,6620172,487.5999,0.1112691,-0.17175293,12.481784,0.00026259664
55244000,55160000,6620172,487.59866,0.11133827,-0.13879395,12.467893,0.00017167437
55300000,55220000,6620172,487.59735,0.11127361,-0.14605713,12.469993,0.00019008017
55364000,55280000,6620172,487.5943,0.11134309,-0.34014893,12.472728,0.0010307047
55420000,55340000,6620172,487.59204,0.111278735,-0.25216675,12.474918,0.00056636374
55484000,55400000,6620172,487.58865,0.11134853,-0.3771057,12.47777,0.0012663297
55540000,55460000,6620172,487.58655,0.111284494,-0.23495483,12.480051,0.0004914846
55604000,55520000,6620172,487.58292,0.11135326,-0.40423584,12.466335,0.0014564255
55660000,55580000,6620172,487.57968,0.1112882,-0.36065674,12.4684105,0.0011591362
55724000,55640000,6620172,487.57745,0.11135729,-0.24749756,12.471114,0.00054575043
55780000,55699000,6620172,487.57422,0.11129254,-0.3592224,12.473283,0.0011494858
55844000,55760000,6620172,487.57007,0.11136196,-0.46063232,12.476107,0.0018896755
55900000,55820000,6620172,487.5658,0.11129754,-0.4734497,12.478368,0.0019959395
55964000,55880000,6620172,487.56104,0.111367285,-0.5299988,12.481309,0.0025006167
56020000,55940000,6620172,487.5577,0.11130184,-0.36776733,12.46687,0.0012054421
56084000,56000000,6620172,487.5534,0.111370556,-0.47802734,12.469546,0.002036162
56140000,56060000,6620172,487.54938,0.111305445,-0.4467163,12.471694,0.0017778522
56204000,56120000,6620172,487.5446,0.1113745,-0.5303955,12.47449,0.0025057304
56260000,56180000,6620172,487.5397,0.11130972,-0.5437317,12.476732,0.002632849
56324000,56240000,6620172,487.53326,0.11137912,-0.7147522,12.47965,0.004548478
56380000,56300000,6620172,487.5278,0.111314684,-0.6065979,12.481984,0.0032754855
56444000,56360000,6620172,487.52325,0.11138304,-0.5045471,12.4680195,0.0022686291
56500000,56419000,6620172,487.51767,0.11131758,-0.6204834,12.470145,0.0034304122
56564000,56480000,6620172,487.51178,0.111386284,-0.6521301,12.472914,0.0037884198
56620000,56540000,6620172,487.5054,0.111321166,-0.7069702,12.475137,0.004451582
56684000,56600000,6620172,487.49713,0.11139022,-0.91955566,12.478027,0.007529525
56740000,56660000,6620172,487.49014,0.11132546,-0.77648926,12.480342,0.005367869
56804000,56720000,6620172,487.48282,0.111393504,-0.8123779,12.466526,0.0058820443
56860000,56779000,6620172,487.47647,0.11132773,-0.7041931,12.468629,0.004418983
56924000,56840000,6620172,487.4696,0.11139613,-0.7605896,12.471368,0.005153997
56980000,56900000,6620172,487.46274,0.11133071,-0.7632446,12.473567,0.0051891278
57044000,56960000,6620172,487.4561,0.111399464,-0.73742676,12.476426,0.004842895
57100000,57020000,6620172,487.44803,0.111334406,-0.89468384,12.478719,0.0071273264
57164000,57080000,6620172,487.43997,0.11140352,-0.89468384,12.481697,0.007125626
57220000,57140000,6620172,487.4332,0.111337446,-0.7514038,12.467134,0.005031965
57284000,57200000,6620172,487.4267,0.111405544,-0.72042847,12.469839,0.0046246443
57340000,57260000,6620172,487.41983,0.11133983,-0.76272583,12.472012,0.0051827217
57396000,57316000,6620172,487.41367,0.11127548,-0.683197,12.474227,0.0041575334
57452000,57368000,6620172,487.40552,0.11121247,-0.9071655,12.476485,0.0073288917
57508000,57428000,6620172,487.39618,0.11115078,-1.0398254,12.478787,0.009627333
57572000,57488000,6620172,487.38806,0.111223206,-0.90371704,12.481774,0.007270196
57628000,57548000,6620172,487.38193,0.11116038,-0.68096924,12.4672,0.004132792
57692000,57608000,6620172,487.37396,0.11123168,-0.8834839,12.4699135,0.0069549074
57748000,57666000,6620172,487.36734,0.1111691,-0.7361145,12.472091,0.0048273522
57812000,57726666,6620172,487.35968,0.11124064,-0.84994507,12.47492,0.006434302
57868000,57786000,6620172,487.35092,0.111178316,-0.9732666,12.477189,0.008435374
57932000,57846666,6620172,487.34253,0.11125012,-0.93167114,12.480131,0.007727938
57988000,57904000,6620172,487.3348,0.11118805,-0.859375,12.482485,0.0065738815
58036000,57956000,6620172,487.3276,0.110993095,-0.8026123,12.467262,0.0057411385
58100000,58016000,6620172,487.31998,0.1110674,-0.8482666,12.469976,0.0064114546
58156000,58076000,6620172,487.31235,0.11100778,-0.8511658,12.472155,0.0064542284
58220000,58136000,6620172,487.30484,0.111082226,-0.83599854,12.474982,0.0062248455
58276000,58194000,6620172,487.29675,0.11102275,-0.9021301,12.477247,0.007247314
58324000,58244000,6620172,487.28912,0.1108317,-0.8503723,12.478919,0.0064387084
58388000,58302666,6620172,487.2821,0.110909864,-0.7824707,12.481901,0.005450206
58444000,58364000,6620172,487.2753,0.11085268,-0.7579346,12.467346,0.005119728
58508000,58422666,6620172,487.2683,0.11092952,-0.77856445,12.470057,0.00540105
58564000,58480000,6620172,487.26157,0.11087238,-0.7515564,12.47223,0.0050319526
58612000,58532000,6620172,487.25467,0.11068362,-0.7720032,12.473839,0.00530879
58676000,58590666,6620172,487.24774,0.11076403,-0.7744446,12.476704,0.0053411936
58732000,58652000,6620172,487.24042,0.1107104,-0.81954956,12.478995,0.005980374
58796000,58712000,6620172,487.2327,0.11079037,-0.86260986,12.477316,0.0066262097
58852000,58772000,6620172,487.2269,0.11073534,-0.64764404,12.467435,0.003738119
58916000,58832000,6620172,487.22052,0.11081429,-0.7123718,12.47014,0.004521678
58972000,58892000,6620172,487.21368,0.11075922,-0.76135254,12.472307,0.005163953
59036000,58950666,6620172,487.20795,0.110838145,-0.640625,12.4751215,0.0036552786
59092000,59010000,6620172,487.20172,0.110783055,-0.69595337,12.477372,0.004313151
59140000,59060000,6620172,487.19534,0.11059631,-0.7128296,12.479031,0.0045242654
59204000,59120000,6620172,487.1903,0.11067737,-0.56365967,12.465417,0.0028319436
59260000,59180000,6620172,487.18588,0.110624366,-0.493042,12.467493,0.0021664377
59324000,59240000,6620172,487.1812,0.11070531,-0.521698,12.470192,0.0024250613
59380000,59300000,6620172,487.17685,0.1106522,-0.48831177,12.472355,0.0021242392
59444000,59360000,6620172,487.17142,0.11073304,-0.6053772,12.475163,0.0032640991
59500000,59420000,6620172,487.16592,0.110679835,-0.61224365,12.477409,0.003337964
59564000,59480000,6620172,487.16248,0.1107606,-0.38381958,12.480326,0.001311553
59620000,59540000,6620172,487.15918,0.11070599,-0.36846924,12.466025,0.0012101298
59684000,59600000,6620172,487.15533,0.11078534,-0.42965698,12.468679,0.0016450563
59740000,59658000,6620172,487.152,0.11073067,-0.37200928,12.470805,0.0012330211
59804000,59717333,6620172,487.14963,0.11080998,-0.26705933,12.47357,0.0006353049
59852000,59768000,6620172,487.14688,0.11062244,-0.30529785,12.475173,0.0008301535
59908000,59827000,6620172,487.1435,0.11057122,-0.3791504,12.477421,0.0012801348
59972000,59888000,6620172,487.14194,0.11065393,-0.17294312,12.480341,0.0002662794
60028000,59948000,6620172,487.13968,0.11060123,-0.25112915,12.466062,0.0005621115
60092000,60008000,6620172,487.13745,0.11068247,-0.24819946,12.468721,0.00054895564
60148000,60067000,6620172,487.13498,0.11062965,-0.27456665,12.470853,0.00067167147
60212000,60128000,6620172,487.1337,0.11071077,-0.14477539,12.473628,0.00018670424
60268000,60188000,6620172,487.1322,0.11065784,-0.16815186,12.475851,0.00025182022
60388000,60308000,6620172,487.1304,0.11068585,-0.17022705,12.48105,0.00025796663
60508000,60428000,6620172,487.12808,0.11071102,-0.14904785,12.469366,0.00019795413
61052000,60968000,6620172,487.1294,0.11088373,0.048919678,12.475625,2.1313872e-05
61108000,61027000,6620172,487.1306,0.11082786,0.13763428,12.477892,0.0001686823
61172000,61088000,6620172,487.13184,0.11090601,0.13595581,12.480839,0.00016455431
61228000,61148000,6620172,487.13358,0.11084883,0.19226074,12.466466,0.00032945443
61292000,61208000,6620172,487.13483,0.11092566,0.13922119,12.469147,0.00017271555
61348000,61268000,6620172,487.13657,0.11086851,0.1925354,12.471299,0.00033026835
61412000,61328000,6620172,487.13916,0.11094539,0.2876892,12.474098,0.0007372172
61468000,61387000,6620172,487.14108,0.110888295,0.21392822,12.476341,0.00040757394
61532000,61448000,6620172,487.14294,0.11096523,0.2083435,12.479256,0.00038648152
61588000,61508000,6620172,487.14532,0.1109082,0.26541138,12.481587,0.00062708545
61652000,61568000,6620172,487.14755,0.11098385,0.2496643,12.467691,0.0005555004
61708000,61628000,6620172,487.149,0.11092554,0.16101074,12.469816,0.00023099742
61772000,61688000,6620172,487.15088,0.111001275,0.21099854,12.472582,0.00039660666
61828000,61748000,6620172,487.15335,0.11094306,0.27505493,12.474799,0.0006738493
61884000,61804000,6620172,487.157,0.11088606,0.40948486,12.477059,0.0014932102
61940000,61854666,6620172,487.1603,0.11083027,0.36886597,12.47936,0.0012114412
61996000,61914000,6620172,487.16428,0.1107753,0.4434204,12.477045,0.0017509635
62044000,61964000,6620172,487.16754,0.1105877,0.3631897,12.46665,0.0011756412
62108000,62024000,6620172,487.16998,0.11066923,0.2732849,12.4693575,0.0006654949
62164000,62084000,6620172,487.17206,0.1106167,0.23181152,12.471531,0.0004787489
62228000,62144000,6620172,487.1748,0.11069811,0.30545044,12.474355,0.000831038
62284000,62204000,6620172,487.17807,0.11064547,0.36376953,12.476619,0.0011784557
62348000,62264000,6620172,487.1814,0.11072679,0.37161255,12.479555,0.00122953
62404000,62324000,6620172,487.18454,0.11067273,0.3493042,12.465301,0.0010875828
62468000,62384000,6620172,487.18698,0.11075263,0.27279663,12.467971,0.00066319265
62524000,62444000,6620172,487.18863,0.11069849,0.18286133,12.470116,0.00029794133
62588000,62504000,6620172,487.1921,0.110778324,0.38745117,12.472901,0.0013372849
62644000,62564000,6620172,487.195,0.11072413,0.32492065,12.475136,0.0009403009
62708000,62624000,6620172,487.19858,0.11080391,0.39746094,12.478036,0.0014066957
62764000,62684000,6620172,487.20255,0.11074968,0.444458,12.480356,0.0017587009
62828000,62744000,6620172,487.20544,0.11082808,0.32263184,12.466573,0.0009277369
62884000,62804000,6620172,487.20755,0.110772476,0.23428345,12.468685,0.0004891252
62948000,62864000,6620172,487.21057,0.11085086,0.33728027,12.471432,0.0010134984
63004000,62924000,6620172,487.2147,0.110795245,0.46081543,12.473636,0.0018915528
63068000,62984000,6620172,487.2184,0.11087363,0.41574097,12.476496,0.0015392548
63124000,63044000,6620172,487.22256,0.11081802,0.464386,12.478786,0.0019201861
63188000,63104000,6620172,487.2277,0.11089642,0.5713196,12.481758,0.0029056275
63244000,63164000,6620172,487.2302,0.11083948,0.27853394,12.467245,0.000691422
63308000,63224000,6620172,487.23392,0.11091654,0.4159851,12.469951,0.001541872
63364000,63284000,6620172,487.23804,0.110859625,0.46011353,12.472122,0.0018860237
63428000,63344000,6620172,487.24136,0.11093673,0.36984253,12.474942,0.0012182955
63484000,63404000,6620172,487.2455,0.11087986,0.46292114,12.477201,0.0019083337
63548000,63464000,6620172,487.25012,0.11095702,0.51516724,12.480133,0.0023628424
63604000,63520000,6620172,487.2535,0.11089887,0.37713623,12.4657955,0.0012677511
63652000,63572000,6620172,487.25653,0.11070911,0.33654785,12.467314,0.0010094347
63716000,63632000,6620172,487.25943,0.11078852,0.324646,12.470026,0.0009390965
63772000,63692000,6620172,487.26355,0.110733904,0.46115112,12.472202,0.0018945275
63836000,63752000,6620172,487.26743,0.110813275,0.4336548,12.475027,0.0016749593
63892000,63812000,6620172,487.2715,0.110758625,0.45669556,12.477289,0.0018573375
63956000,63872000,6620172,487.27563,0.110837966,0.4590454,12.4802265,0.0018760583
64012000,63932000,6620172,487.2791,0.11078196,0.38861084,12.465889,0.0013460588
64076000,63990666,6620172,487.28296,0.110859945,0.42874146,12.46856,0.0016380688
64132000,64050000,6620172,487.28702,0.11080393,0.45184326,12.470703,0.0018190396
64180000,64100000,6620172,487.29074,0.110616274,0.41583252,12.472291,0.0015404519
64244000,64160000,6620172,487.2954,0.110697754,0.5218811,12.475122,0.0024258045
64300000,64220000,6620172,487.29907,0.11064518,0.40820312,12.477389,0.0014838377
64364000,64280000,6620172,487.3032,0.110726565,0.45941162,12.48033,0.0018790371
64420000,64340000,6620172,487.3061,0.11067256,0.32296753,12.465993,0.00092971174
64484000,64400000,6620172,487.3097,0.11075252,0.40264893,12.46867,0.0014447424
64540000,64460000,6620172,487.31262,0.11069845,0.32824707,12.4708185,0.00095998455
64604000,64520000,6620172,487.31595,0.11077834,0.3704834,12.47361,0.0012226519
64660000,64580000,6620172,487.32,0.1107242,0.45217896,12.475846,0.0018209926
64724000,64638666,6620172,487.32343,0.11080404,0.3807068,12.478749,0.0012905287
64780000,64700000,6620172,487.32755,0.11074986,0.45864868,12.48107,0.0018726904
64844000,64760000,6620172,487.33112,0.11082832,0.3996277,12.467222,0.001423308
64900000,64820000,6620172,487.33542,0.11077276,0.48080444,12.469338,0.0020599233
64964000,64880000,6620172,487.33905,0.11085119,0.40344238,12.47209,0.0014500443
65020000,64940000,6620172,487.3428,0.110795625,0.41888428,12.474295,0.0015628942
65084000,65000000,6620172,487.34735,0.11087406,0.50753784,12.4771595,0.002293922
65140000,65060000,6620172,487.35187,0.11081849,0.5031738,12.47945,0.0022542295
65204000,65120000,6620172,487.35507,0.1108956,0.35656738,12.465772,0.001133239
65260000,65180000,6620172,487.35745,0.11083871,0.26489258,12.467855,0.0006253243
65324000,65240000,6620172,487.36017,0.11091584,0.30413818,12.470568,0.0008241631
65380000,65300000,6620172,487.3638,0.110858984,0.40582275,12.472741,0.0014671292
65444000,65360000,6620172,487.36786,0.11093615,0.45220947,12.475567,0.0018212791
65500000,65420000,6620172,487.37103,0.11087934,0.3547058,12.477827,0.0011203536
65564000,65480000,6620172,487.37363,0.11095656,0.29034424,12.480763,0.0007504862
65620000,65540000,6620172,487.3767,0.11089846,0.34387207,12.466326,0.0010539326
65684000,65600000,6620172,487.38013,0.11097439,0.3815918,12.468996,0.0012975499
65740000,65660000,6620172,487.38208,0.110916354,0.21871948,12.471136,0.0004262127
65804000,65720000,6620172,487.3851,0.11099236,0.33816528,12.473921,0.0010186208
65860000,65780000,6620172,487.38773,0.11093441,0.29354858,12.47615,0.0007674267
65924000,65838666,6620172,487.39117,0.1110105,0.38424683,12.479046,0.0013146092
65980000,65900000,6620172,487.39404,0.110952646,0.32086182,12.4813595,0.00091649825
66044000,65958666,6620172,487.3964,0.11102748,0.26034546,12.467491,0.0006040577
66100000,66020000,6620172,487.39847,0.110968366,0.2310791,12.469603,0.00047580193
66164000,66080000,6620172,487.4017,0.11104331,0.3597412,12.472347,0.0011528948
66220000,66140000,6620172,487.40512,0.11098432,0.3803711,12.474546,0.0012886878
66284000,66200000,6620172,487.40887,0.11105938,0.4177246,12.477405,0.0015538653
66340000,66260000,6620172,487.41144,0.111000516,0.28427124,12.47969,0.0007194814
66404000,66320000,6620172,487.41425,0.111074366,0.3112793,12.465998,0.0008636364
66460000,66378000,6620172,487.41763,0.11101429,0.37783813,12.468076,0.0012722417
66508000,66428000,6620172,487.42023,0.11082265,0.2883606,12.469616,0.00074092834
66572000,66488000,6620172,487.4227,0.11090021,0.27575684,12.472368,0.0006774249
66628000,66548000,6620172,487.4252,0.110843785,0.27911377,12.474574,0.00069389585
66692000,66608000,6620172,487.42773,0.110921375,0.28253174,12.477439,0.0007108312
66748000,66668000,6620172,487.43057,0.11086498,0.3180542,12.47973,0.0009006469
66812000,66728000,6620172,487.4325,0.110941276,0.21279907,12.466044,0.0004036159
66868000,66788000,6620172,487.43423,0.11088359,0.19348145,12.468132,0.00033360667
66932000,66848000,6620172,487.4371,0.11095994,0.31985474,12.470845,0.000911522
66988000,66908000,6620172,487.43994,0.11090232,0.3173523,12.4730215,0.00089715834
67052000,66966666,6620172,487.44232,0.11097873,0.2654419,12.475849,0.00062751817
67108000,67028000,6620172,487.4437,0.11092118,0.15258789,12.478111,0.00020732361
67172000,67088000,6620172,487.44678,0.11099768,0.34368896,12.48105,0.0010515684
67228000,67148000,6620172,487.449,0.11093886,0.24649048,12.466653,0.0005415118
67292000,67208000,6620172,487.45096,0.11101409,0.21688843,12.469329,0.00041916707
67348000,67268000,6620172,487.4527,0.11095537,0.19400024,12.471475,0.00033530823
67412000,67328000,6620172,487.4552,0.111030705,0.27734375,12.474264,0.00068513997
67468000,67388000,6620172,487.45782,0.11097209,0.2909851,12.476497,0.0007540608
67532000,67448000,6620172,487.4594,0.111047536,0.1758728,12.479399,0.00027539826
67588000,67508000,6620172,487.46143,0.11098904,0.22467041,12.481716,0.00044933983
67652000,67568000,6620172,487.46356,0.11106325,0.23675537,12.467821,0.0004995358
67708000,67628000,6620172,487.46518,0.111003526,0.18023682,12.469936,0.00028945447
67772000,67686666,6620172,487.46695,0.11107787,0.19760132,12.472688,0.00034783807
67828000,67748000,6620172,487.4688,0.11101828,0.2074585,12.474891,0.00038333915
67892000,67808000,6620172,487.47104,0.11109276,0.24813843,12.477755,0.00054828846
67948000,67866000,6620172,487.47205,0.11103332,0.11206055,12.480045,0.00011180129
68012000,67925333,6620172,487.47363,0.11110661,0.17538452,12.466322,0.00027415846
68116000,68034000,6620172,487.4758,0.11085614,0.16629028,12.469955,0.00024639184
68180000,68096000,6620172,487.477,0.110933125,0.13183594,12.472715,0.00015483321
68236000,68156000,6620172,487.4786,0.110876136,0.18008423,12.474926,0.000288849
68300000,68216000,6620172,487.4805,0.110953175,0.21157837,12.4777975,0.00039862274
68356000,68276000,6620172,487.4819,0.110896245,0.1557312,12.480093,0.00021591902
68476000,68396000,6620172,487.48422,0.1109138,0.22268677,12.468468,0.0004419094
68540000,68456000,6620172,487.48703,0.11098963,0.31417847,12.4711895,0.00087943237
68596000,68516000,6620172,487.4887,0.1109315,0.1854248,12.47337,0.00030627343
68660000,68576000,6620172,487.49115,0.111007415,0.2727661,12.476205,0.0006626067
68716000,68636000,6620172,487.4923,0.11094938,0.13076782,12.478473,0.00015226421
68780000,68696000,6620172,487.4941,0.1110254,0.20056152,12.481418,0.0003580872
68836000,68753000,6620172,487.49512,0.110966116,0.112701416,12.466985,0.00011320218
68900000,68816000,6620172,487.49615,0.11104088,0.11618042,12.469668,0.00012027309
68956000,68874000,6620172,487.49716,0.11098171,0.11227417,12.471819,0.000112301976
69076000,68996000,6620172,487.49854,0.11099755,0.08413696,12.476855,6.304143e-05
69260000,69176000,6620172,487.50006,0.111087084,0.09408569,12.468155,7.888646e-05
69380000,69296000,6620172,487.5011,0.111100905,0.040771484,12.473035,1.4808068e-05
69500000,69416000,6620172,487.50275,0.11111504,0.14822388,12.478116,0.0001956342
69740000,69656000,6620172,487.50153,0.11114025,-0.11413574,12.471462,0.00011606023
69860000,69776000,6620172,487.50345,0.11115272,0.12747192,12.476476,0.00014470868
70340000,70256000,6620172,487.50485,0.1111984,0.15774536,12.479992,0.00022154214
70700000,70616000,6620172,487.50726,0.11122796,0.21575928,12.478146,0.00041452085
70756000,70676000,6620172,487.50943,0.11116611,0.24035645,12.480334,0.00051433116
70820000,70736000,6620172,487.51154,0.11123705,0.23306274,12.466764,0.000484116
70876000,70795000,6620172,487.51413,0.1111741,0.28875732,12.468728,0.00074302143
70940000,70856000,6620172,487.5165,0.11124525,0.26397705,12.4712715,0.0006208391
70996000,70916000,6620172,487.5198,0.111182526,0.36645508,12.473265,0.0011962414
71060000,70976000,6620172,487.52335,0.1112539,0.3944397,12.47585,0.0013856342
71116000,71036000,6620172,487.5271,0.11119139,0.41864014,12.477869,0.0015606259
71180000,71096000,6620172,487.53152,0.111262985,0.49316406,12.480489,0.0021652535
71236000,71155000,6620172,487.53543,0.1111994,0.43411255,12.466658,0.0016796242
71300000,71216000,6620172,487.53882,0.11126992,0.37670898,12.469027,0.0012645526
71356000,71276000,6620172,487.54263,0.111206554,0.42367554,12.470873,0.0015992908
71420000,71336000,6620172,487.54803,0.11127729,0.60046387,12.473283,0.0032118147
71476000,71396000,6620172,487.55377,0.11121414,0.6386719,12.475152,0.0036330153
71540000,71456000,6620172,487.5589,0.11128508,0.5690918,12.477595,0.0028839735
71596000,71515000,6620172,487.56345,0.11122186,0.5069885,12.476005,0.0022891709
71660000,71576000,6620172,487.5694,0.11129177,0.6622009,12.466604,0.0039083087
71716000,71635000,6620172,487.5743,0.11122781,0.5449829,12.468325,0.0026467636
71772000,71692000,6620172,487.5802,0.111165136,0.65631104,12.470058,0.0038380304
71828000,71744000,6620172,487.58542,0.11110373,0.5796814,12.471806,0.0029936903
71884000,71804000,6620172,487.5905,0.11104357,0.567688,12.473564,0.0028706903
71948000,71864000,6620172,487.59726,0.11111745,0.75042725,12.47588,0.005015376
72004000,71924000,6620172,487.6014,0.11105621,0.461792,12.463159,0.0019011754
72068000,71982666,6620172,487.6074,0.111129,0.6656189,12.465276,0.0039491793
72124000,72040000,6620172,487.61328,0.11106785,0.6562195,12.466911,0.0038379284
72172000,72092000,6620172,487.6184,0.110875115,0.57284546,12.468053,0.00292438
72236000,72150666,6620172,487.62418,0.110951565,0.64227295,12.470235,0.0036755481
72292000,72212000,6620172,487.6311,0.110894,0.77337646,12.471916,0.005328515
72356000,72272000,6620172,487.63843,0.11097042,0.81536865,12.474141,0.005921815
72412000,72332000,6620172,487.64383,0.11091171,0.6001587,12.461875,0.003211488
72476000,72392000,6620172,487.64978,0.11098699,0.6632385,12.4639225,0.00392141
72532000,72452000,6620172,487.6565,0.11092828,0.7488098,12.465504,0.0049979365
72596000,72512000,6620172,487.6633,0.11100356,0.758728,12.467605,0.005130347
72652000,72572000,6620172,487.66992,0.11094485,0.73617554,12.469225,0.0048292624
72716000,72632000,6620172,487.67795,0.11102014,0.8946228,12.471379,0.007130548
72772000,72692000,6620172,487.68594,0.11096144,0.8909302,12.473038,0.007070866
72836000,72752000,6620172,487.6924,0.11103564,0.71899414,12.461582,0.0046093003
72892000,72812000,6620172,487.69855,0.11097586,0.6810303,12.463112,0.0041348888
72956000,72872000,6620172,487.70587,0.11105009,0.8134155,12.465144,0.005897733
73012000,72932000,6620172,487.71262,0.110990345,0.74972534,12.466705,0.005009682
73076000,72992000,6620172,487.72107,0.111064605,0.94125366,12.4687805,0.007894904
73132000,73050000,6620172,487.72812,0.11100489,0.7854614,12.470367,0.0054970286
73180000,73100000,6620172,487.73596,0.110813566,0.8753662,12.471457,0.006826842
73244000,73158666,6620172,487.74216,0.11089032,0.68844604,12.460384,0.004226354
73300000,73220000,6620172,487.7493,0.11083305,0.7966919,12.461859,0.005659206
73364000,73280000,6620172,487.7557,0.11090974,0.71533203,12.463824,0.0045616454
73420000,73340000,6620172,487.7623,0.1108524,0.7333679,12.465326,0.004793996
73484000,73398666,6620172,487.769,0.11092902,0.7463074,12.467326,0.0049638613
73540000,73458000,6620172,487.77582,0.11087162,0.75845337,12.468851,0.005126121
73588000,73508000,6620172,487.78253,0.110682555,0.75112915,12.469889,0.0050271763
73652000,73566666,6620172,487.78772,0.11076157,0.57992554,12.4591875,0.002999247
73708000,73628000,6620172,487.7935,0.11070651,0.6435852,12.460609,0.0036934337
73772000,73688000,6620172,487.79974,0.11078536,0.69625854,12.46251,0.0043220823
73828000,73748000,6620172,487.8065,0.11073014,0.75271606,12.463958,0.005050843
73892000,73808000,6620172,487.81366,0.11080884,0.79818726,12.465894,0.005678631
73948000,73868000,6620172,487.821,0.11075348,0.81936646,12.467365,0.005983278
74012000,73928000,6620172,487.82623,0.11083105,0.58273315,12.457081,0.0030288703
74068000,73988000,6620172,487.8319,0.11077457,0.6331787,12.4584465,0.0035755774
74132000,74048000,6620172,487.83795,0.11085202,0.67233276,12.460279,0.004030865
74188000,74108000,6620172,487.84384,0.11079542,0.6550293,12.461675,0.003825626
74252000,74168000,6620172,487.85086,0.11087276,0.78240967,12.463549,0.0054573803
74308000,74228000,6620172,487.857,0.110816054,0.6828613,12.4649725,0.0041565327
74372000,74288000,6620172,487.8626,0.110893294,0.62597656,12.4668865,0.0034923328
74428000,74348000,6620172,487.86752,0.11083553,0.54803467,12.45639,0.0026790532
74492000,74408000,6620172,487.87317,0.11091172,0.62677,12.458175,0.0035036402
74548000,74468000,6620172,487.87747,0.11085388,0.47982788,12.459536,0.0020531781
74612000,74528000,6620172,487.883,0.110929996,0.6154175,12.461368,0.003377003
74668000,74586000,6620172,487.88812,0.11087208,0.5713806,12.462764,0.0029106778
74716000,74636000,6620172,487.89413,0.11068252,0.670166,12.463712,0.0040038233
74780000,74696000,6620172,487.8996,0.11076205,0.6090698,12.465615,0.0033065716
74836000,74756000,6620172,487.90436,0.11070656,0.5323181,12.455384,0.0025278009
74900000,74816000,6620172,487.90878,0.11078498,0.4944458,12.457165,0.0021805982
74956000,74876000,6620172,487.91345,0.11072933,0.5197449,12.458529,0.0024091906
