timestamp,timestamp_sample,time_last_fuse,device_id,observation,observation_variance,innovation,innovation_variance,test_ratio,estimator_instance,fusion_enabled,innovation_rejected,fused
3324000,3295000,0,0,1.6335883,0.0,-1.6340009,0.0,0.0,0,0,0,0
3452000,3365838,3372000,0,1.6338977,0.0,-1.6343583,0.0,inf,0,0,1,0
3524000,3438950,3372000,0,1.6309301,0.0,0.004438877,0.0,inf,0,0,1,0
3596000,3509651,3372000,0,1.6216866,0.0,0.013676286,0.0,inf,0,0,1,0
3668000,3583124,3588000,0,1.6339242,0.0,-0.001996398,0.10012661,5.8884107e-06,0,1,0,1
3740000,3653435,3660000,0,1.6268481,0.0,0.0052878857,0.09912674,4.1727908e-05,0,1,0,1
3804000,3723262,3724000,0,1.6344141,0.0,-0.0027621984,0.0983446,1.1476582e-05,0,1,0,1
3876000,3791765,3796000,0,1.6217446,0.0,0.010151267,0.09774019,0.00015596267,0,1,0,1
3940000,3859378,3860000,0,1.6458175,0.0,-0.014748931,0.097250804,0.00033088814,0,1,0,1
4012000,3930379,3932000,0,1.6257662,0.0,0.0063797235,0.0968827,6.2145664e-05,0,1,0,1
4084000,3999475,4004000,0,1.6195161,0.0,0.012106299,0.09660008,0.0002244392,0,1,0,1
4156000,4068753,4076000,0,1.615314,0.0,0.015490651,0.09638747,0.0003682749,0,1,0,1
4220000,4135558,4140000,0,1.5967578,0.0,0.033027768,0.096200354,0.0016773941,0,1,0,1
4292000,4206172,4212000,0,1.6189063,0.0,0.008686185,0.09609215,0.00011615117,0,1,0,1
4356000,4275631,4276000,0,1.6370548,0.0,-0.010169864,0.09598635,0.0001593948,0,1,0,1
4428000,4345283,4348000,0,1.6289392,0.0,-0.0014914274,0.09595093,3.429323e-06,0,1,0,1
4500000,4417695,4420000,0,1.6209404,0.0,0.006573081,0.0959426,6.6616194e-05,0,1,0,1
4572000,4488135,4492000,0,1.6219704,0.0,0.0050109625,0.09595618,3.8709957e-05,0,1,0,1
4636000,4555741,4556000,0,1.6176379,0.0,0.00894177,0.095940195,0.000123282,0,1,0,1
4708000,4625960,4628000,0,1.6254576,0.0,0.00045454502,0.09598496,3.1842268e-07,0,1,0,1
4780000,4699784,4700000,0,1.624568,0.0,0.0012010336,0.09603928,2.22185e-06,0,1,0,1
4852000,4771088,4772000,0,1.6176984,0.0,0.007983327,0.09609977,9.810674e-05,0,1,0,1
4924000,4843820,4844000,0,1.5849581,0.0,0.040176988,0.09616343,0.0024831225,0,1,0,1
4996000,4915846,4916000,0,1.621809,0.0,0.00053191185,0.096227825,4.3494268e-07,0,1,0,1
5068000,4987850,4988000,0,1.6652455,0.0,-0.04314816,0.09629083,0.0028601773,0,1,0,1
5140000,5059144,5060000,0,1.6309525,0.0,-0.006217599,0.096350566,5.935325e-05,0,1,0,1
5212000,5131874,5132000,0,1.6215355,0.0,0.0034768581,0.09640568,1.8549179e-05,0,1,0,1
5284000,5202074,5204000,0,1.6169263,0.0,0.00770545,0.09645497,9.1059395e-05,0,1,0,1
5356000,5275895,5276000,0,1.6285752,0.0,-0.0046554804,0.096497685,3.3225035e-05,0,1,0,1
5428000,5347912,5348000,0,1.6187853,0.0,0.005260706,0.09653321,4.2409647e-05,0,1,0,1
5500000,5419913,5420000,0,1.5985967,0.0,0.024915576,0.09656117,0.0009510266,0,1,0,1
5572000,5490835,5492000,0,1.6154658,0.0,0.0061644316,0.096581444,5.8203048e-05,0,1,0,1
5644000,5563927,5564000,0,1.616579,0.0,0.0044902563,0.096594065,3.0877716e-05,0,1,0,1
5716000,5634848,5636000,0,1.6172063,0.0,0.0033437014,0.09659914,1.7121234e-05,0,1,0,1
5788000,5707939,5708000,0,1.6727339,0.0,-0.052609205,0.09659696,0.0042385114,0,1,0,1
5860000,5778493,5780000,0,1.6288236,0.0,-0.005182028,0.096587874,4.1127303e-05,0,1,0,1
5932000,5851950,5852000,0,1.638957,0.0,-0.0151228905,0.09657223,0.00035032464,0,1,0,1
6004000,5922866,5924000,0,1.6182991,0.0,0.0064622164,0.09655051,6.398259e-05,0,1,0,1
6076000,5995958,5996000,0,1.6325711,0.0,-0.008328915,0.09652318,0.00010631598,0,1,0,1
6148000,6067601,6068000,0,1.623014,0.0,0.0016572475,0.09649073,4.2105858e-06,0,1,0,1
6220000,6139965,6140000,0,1.6182618,0.0,0.0062179565,0.09645362,5.9296653e-05,0,1,0,1
6292000,6211607,6212000,0,1.6229645,0.0,0.0010710955,0.096412316,1.7602615e-06,0,1,0,1
6364000,6283971,6284000,0,1.6051707,0.0,0.01874113,0.096367285,0.0005391571,0,1,0,1
6436000,6354884,6356000,0,1.6196127,0.0,0.0028957129,0.09631898,1.2878119e-05,0,1,0,1
6508000,6427976,6428000,0,1.6153708,0.0,0.006788969,0.0962678,7.082392e-05,0,1,0,1
6580000,6498524,6500000,0,1.6253046,0.0,-0.0036460161,0.0962141,2.043863e-05,0,1,0,1
6652000,6571980,6572000,0,1.6236985,0.0,-0.0018833876,0.0961583,5.4568995e-06,0,1,0,1
6724000,6643983,6644000,0,1.6193025,0.0,0.0024315119,0.09610072,9.100799e-06,0,1,0,1
6796000,6715983,6716000,0,1.6440111,0.0,-0.0225811,0.09604161,0.00078538776,0,1,0,1
6868000,6787622,6788000,0,1.6187582,0.0,0.0040488243,0.09598134,2.5265297e-05,0,1,0,1
6940000,6859986,6860000,0,1.6666857,0.0,-0.044213295,0.0959201,0.0030147373,0,1,0,1
7012000,6930897,6932000,0,1.6217644,0.0,0.003426075,0.095858105,1.8114162e-05,0,1,0,1
7084000,6999989,7004000,0,1.6414176,0.0,-0.016496778,0.095795654,0.0004202481,0,1,0,1
7156000,7069590,7076000,0,1.6157085,0.0,0.010209084,0.095732845,0.00016105191,0,1,0,1
7220000,7139991,7140000,0,1.6304505,0.0,-0.0051488876,0.09563827,4.10061e-05,0,1,0,1
7292000,7207547,7212000,0,1.6200087,0.0,0.0055282116,0.09557801,4.730039e-05,0,1,0,1
7364000,7279992,7284000,0,1.6134003,0.0,0.01172328,0.09551763,0.00021284727,0,1,0,1
7436000,7349770,7356000,0,1.6228192,0.0,0.0014617443,0.09545733,3.311211e-06,0,1,0,1
7500000,7417993,7420000,0,1.6305163,0.0,-0.0063569546,0.09536878,6.268236e-05,0,1,0,1
7572000,7489194,7492000,0,1.6230887,0.0,0.0013380051,0.09531114,2.7785945e-06,0,1,0,1
7636000,7555995,7556000,0,1.6377419,0.0,-0.013401747,0.095226854,0.00027900803,0,1,0,1
7708000,7626540,7628000,0,1.6256303,0.0,-0.00056517124,0.09517187,4.9648355e-07,0,1,0,1
7780000,7699996,7700000,0,1.6110389,0.0,0.013957858,0.09511702,0.00030299305,0,1,0,1
7852000,7771268,7772000,0,1.6135827,0.0,0.010503411,0.09506251,0.00017167412,0,1,0,1
7924000,7839996,7844000,0,1.5784777,0.0,0.044892073,0.095008336,0.0031378414,0,1,0,1
7996000,7909197,7916000,0,1.6237924,0.0,-0.0028676987,0.09495455,1.2811636e-05,0,1,0,1
8060000,7975997,7980000,0,1.6193858,0.0,0.0015797615,0.09487813,3.891081e-06,0,1,0,1
8132000,8047270,8052000,0,1.6197528,0.0,0.00099051,0.09482704,1.5305195e-06,0,1,0,1
8204000,8119998,8124000,0,1.6041076,0.0,0.016381264,0.09477637,0.00041883998,0,1,0,1
8276000,8190907,8196000,0,1.6184926,0.0,0.0010451078,0.09472615,1.7057118e-06,0,1,0,1
8348000,8263998,8268000,0,1.6336967,0.0,-0.014403343,0.09467644,0.00032414403,0,1,0,1
8420000,8335998,8340000,0,1.6278459,0.0,-0.008021474,0.094627224,0.000100587866,0,1,0,1
8492000,8407998,8412000,0,1.6664541,0.0,-0.0463593,0.09457859,0.003361509,0,1,0,1
8564000,8478908,8484000,0,1.6259462,0.0,-0.0037219524,0.094530515,2.1678188e-05,0,1,0,1
8628000,8547999,8548000,0,1.5911208,0.0,0.03123784,0.09446396,0.0015280911,0,1,0,1
8700000,8615999,8620000,0,1.6246523,0.0,-0.003961563,0.09441845,2.4588364e-05,0,1,0,1
8764000,8683999,8684000,0,1.6238457,0.0,-0.003015995,0.094355285,1.4260947e-05,0,1,0,1
8836000,8754908,8756000,0,1.6251856,0.0,-0.004290223,0.09431207,2.8869936e-05,0,1,0,1
8908000,8827999,8828000,0,1.6177876,0.0,0.0032465458,0.09426936,1.6539632e-05,0,1,0,1
8980000,8899999,8900000,0,1.6213305,0.0,-0.00056922436,0.09422713,5.0867965e-07,0,1,0,1
9052000,8972000,8972000,0,1.6247224,0.0,-0.0040299892,0.09418542,2.5508063e-05,0,1,0,1
9124000,9042909,9044000,0,1.6272029,0.0,-0.0064536333,0.094144225,6.544376e-05,0,1,0,1
9196000,9116000,9116000,0,1.6470315,0.0,-0.026084542,0.094103545,0.0010695814,0,1,0,1
9268000,9186181,9188000,0,1.6238452,0.0,-0.0017957687,0.0940634,5.0714652e-06,0,1,0,1
9340000,9260000,9260000,0,1.6241577,0.0,-0.0021224022,0.094023794,7.0871383e-06,0,1,0,1
9412000,9330909,9332000,0,1.6257923,0.0,-0.0037323236,0.09398474,2.1925758e-05,0,1,0,1
9484000,9404000,9404000,0,1.6436327,0.0,-0.021504283,0.093946226,0.0007281552,0,1,0,1
9556000,9475636,9476000,0,1.6209984,0.0,0.0019985437,0.093908235,6.29183e-06,0,1,0,1
9628000,9548000,9548000,0,1.6317247,0.0,-0.008801818,0.09387081,0.00012208647,0,1,0,1
9700000,9618545,9620000,0,1.6292468,0.0,-0.0058914423,0.09383391,5.4718832e-05,0,1,0,1
9772000,9692000,9692000,0,1.6272712,0.0,-0.0037127733,0.09379755,2.173996e-05,0,1,0,1
9844000,9762909,9764000,0,1.6255912,0.0,-0.0019470453,0.093761735,5.9810836e-06,0,1,0,1
9916000,9836000,9836000,0,1.5983802,0.0,0.025340796,0.09372644,0.0010135185,0,1,0,1
9988000,9907272,9908000,0,1.621889,0.0,0.0007671118,0.09369167,9.291154e-07,0,1,0,1
10060000,9980000,9980000,0,1.6048615,0.0,0.017662287,0.09365742,0.00049272546,0,1,0,1
10132000,10051636,10052000,0,1.6259174,0.0,-0.0041224957,0.09362369,2.6852704e-05,0,1,0,1
10204000,10124000,10124000,0,1.6353121,0.0,-0.013451338,0.09359047,0.0002859912,0,1,0,1
10276000,10194909,10196000,0,1.6243318,0.0,-0.0019475222,0.09355773,5.9970616e-06,0,1,0,1
10348000,10268000,10268000,0,1.6236372,0.0,-0.0012817383,0.09352549,2.5984962e-06,0,1,0,1
10420000,10337818,10340000,0,1.620215,0.0,0.0020815134,0.093493745,6.855343e-06,0,1,0,1
10492000,10412000,10412000,0,1.6318421,0.0,-0.009651661,0.09346249,0.00014744162,0,1,0,1
10564000,10482545,10484000,0,1.6195546,0.0,0.002910018,0.09343171,1.3407579e-05,0,1,0,1
10636000,10556000,10556000,0,1.6209228,0.0,0.001329422,0.09340139,2.7991473e-06,0,1,0,1
10708000,10626909,10628000,0,1.6204851,0.0,0.0016986132,0.09337153,4.571175e-06,0,1,0,1
10780000,10700000,10700000,0,1.6344166,0.0,-0.012299538,0.09334213,0.00023974701,0,1,0,1
10852000,10772000,10772000,0,1.6248494,0.0,-0.00237751,0.09331317,8.960972e-06,0,1,0,1
10924000,10844000,10844000,0,1.6302234,0.0,-0.007760048,0.09328465,9.5493095e-05,0,1,0,1
10996000,10914909,10916000,0,1.6189501,0.0,0.0037150383,0.093256555,2.1892762e-05,0,1,0,1
11068000,10988000,10988000,0,1.6320022,0.0,-0.009426236,0.0932289,0.00014098712,0,1,0,1
11140000,11059272,11060000,0,1.6247305,0.0,-0.0018174648,0.09320165,5.2427818e-06,0,1,0,1
11212000,11132000,11132000,0,1.6170999,0.0,0.005818486,0.0931748,5.374956e-05,0,1,0,1
11284000,11202909,11204000,0,1.6237427,0.0,-0.0011054277,0.09314837,1.9406123e-06,0,1,0,1
11356000,11276000,11276000,0,1.644839,0.0,-0.022166729,0.09312233,0.0007805536,0,1,0,1
11428000,11346545,11348000,0,1.622176,0.0,0.0011929274,0.09309667,2.2612428e-06,0,1,0,1
11500000,11420000,11420000,0,1.6355612,0.0,-0.012343645,0.0930714,0.00024217203,0,1,0,1
11572000,11491636,11492000,0,1.6172396,0.0,0.006403923,0.09304651,6.519968e-05,0,1,0,1
11644000,11564000,11564000,0,1.6509435,0.0,-0.027511597,0.09302196,0.0012036479,0,1,0,1
11716000,11635272,11636000,0,1.6226611,0.0,0.0017131567,0.092997774,4.6684745e-06,0,1,0,1
11788000,11708000,11708000,0,1.6327962,0.0,-0.008485198,0.09297396,0.00011455551,0,1,0,1
11860000,11778181,11780000,0,1.6277174,0.0,-0.0031695366,0.09295049,1.5987966e-05,0,1,0,1
11932000,11852000,11852000,0,1.6115981,0.0,0.0130723715,0.09292737,0.00027203106,0,1,0,1
12004000,11922909,11924000,0,1.6219103,0.0,0.0023008585,0.092904575,8.429388e-06,0,1,0,1
12076000,11996000,11996000,0,1.6262273,0.0,-0.002157569,0.09288211,7.413966e-06,0,1,0,1
12148000,12066909,12068000,0,1.6202391,0.0,0.0038872957,0.092859976,2.4072431e-05,0,1,0,1
12220000,12140000,12140000,0,1.6229345,0.0,0.0010215044,0.09283815,1.6626749e-06,0,1,0,1
12292000,12211272,12212000,0,1.6244997,0.0,-0.00063693523,0.092816636,6.465737e-07,0,1,0,1
12364000,12280000,12284000,0,1.6173251,0.0,0.0066304207,0.09279543,7.0082395e-05,0,1,0,1
12436000,12348800,12356000,0,1.6208881,0.0,0.0028381348,0.0927745,1.2843717e-05,0,1,0,1
12500000,12420000,12420000,0,1.6286539,0.0,-0.005074382,0.092746906,4.1069572e-05,0,1,0,1
12572000,12487111,12492000,0,1.6178399,0.0,0.0058785677,0.09272688,5.513035e-05,0,1,0,1
12644000,12558666,12564000,0,1.6085247,0.0,0.015041947,0.092707135,0.00036103418,0,1,0,1
12716000,12630222,12636000,0,1.6266481,0.0,-0.0035500526,0.092687644,2.0114123e-05,0,1,0,1
12780000,12698000,12700000,0,1.616783,0.0,0.0064561367,0.092661865,6.654229e-05,0,1,0,1
12852000,12768400,12772000,0,1.6159396,0.0,0.0071302652,0.09264316,8.1180435e-05,0,1,0,1
12916000,12836000,12836000,0,1.6288145,0.0,-0.0060492754,0.09261834,5.844712e-05,0,1,0,1
12988000,12905818,12908000,0,1.6154869,0.0,0.0074133873,0.09260039,8.779584e-05,0,1,0,1
13060000,12980000,12980000,0,1.6038643,0.0,0.018785357,0.09258266,0.0005638487,0,1,0,1
13132000,13051272,13052000,0,1.6302556,0.0,-0.008162737,0.09256516,0.00010648229,0,1,0,1
13204000,13124000,13124000,0,1.6262417,0.0,-0.0039167404,0.09254785,2.4520908e-05,0,1,0,1
13276000,13194181,13196000,0,1.6215583,0.0,0.0007773638,0.092530765,9.66086e-07,0,1,0,1
13348000,13268000,13268000,0,1.6019396,0.0,0.020378113,0.092513874,0.00066400965,0,1,0,1
13420000,13338909,13340000,0,1.6197045,0.0,0.0020424128,0.092497215,6.671319e-06,0,1,0,1
13492000,13412000,13412000,0,1.6416306,0.0,-0.019948125,0.092480734,0.0006365115,0,1,0,1
13564000,13482909,13484000,0,1.6255699,0.0,-0.003356576,0.09246446,1.802484e-05,0,1,0,1
13636000,13556000,13556000,0,1.5934397,0.0,0.02876556,0.09244836,0.001324036,0,1,0,1
13708000,13626181,13628000,0,1.6225682,0.0,-0.0011689663,0.09243248,2.1869191e-06,0,1,0,1
13780000,13700000,13700000,0,1.5980502,0.0,0.023379326,0.09241679,0.00087491615,0,1,0,1
13852000,13771636,13772000,0,1.6280842,0.0,-0.007236004,0.09240127,8.382489e-05,0,1,0,1
13924000,13844000,13844000,0,1.6072831,0.0,0.013725162,0.092385955,0.00030163542,0,1,0,1
13996000,13915636,13916000,0,1.6155905,0.0,0.0050086975,0.09237081,4.017614e-05,0,1,0,1
14068000,13988000,13988000,0,1.592672,0.0,0.027702093,0.09235584,0.0012291763,0,1,0,1
14140000,14059636,14060000,0,1.620141,0.0,-0.0005707741,0.09234104,5.218997e-07,0,1,0,1
14212000,14132000,14132000,0,1.606105,0.0,0.013424873,0.09232642,0.00028876716,0,1,0,1
14284000,14202909,14204000,0,1.6131837,0.0,0.0060378313,0.09231197,5.8419424e-05,0,1,0,1
14356000,14276000,14276000,0,1.6335123,0.0,-0.014439583,0.0922977,0.0003341733,0,1,0,1
14428000,14348000,14348000,0,1.6176568,0.0,0.0017148256,0.09228357,4.7137755e-06,0,1,0,1
14500000,14420000,14420000,0,1.591194,0.0,0.028069496,0.092269614,0.0012631761,0,1,0,1
14572000,14490181,14492000,0,1.6278512,0.0,-0.009389162,0.09225582,0.00014135566,0,1,0,1
14644000,14564000,14564000,0,1.6007898,0.0,0.01781118,0.092242196,0.00050875545,0,1,0,1
14716000,14634909,14636000,0,1.6169565,0.0,0.0011042356,0.09222872,1.955738e-06,0,1,0,1
14788000,14708000,14708000,0,1.5977799,0.0,0.020157576,0.09221539,0.0006518183,0,1,0,1
14860000,14779272,14780000,0,1.6217082,0.0,-0.004282713,0.09220221,2.942727e-05,0,1,0,1
14932000,14852000,14852000,0,1.6352134,0.0,-0.017729163,0.09218918,0.0005043708,0,1,0,1
15004000,14923636,14924000,0,1.6108543,0.0,0.0070158243,0.092176296,7.899353e-05,0,1,0,1
15076000,14996000,14996000,0,1.6098983,0.0,0.0077791214,0.09216356,9.71304e-05,0,1,0,1
15148000,15066545,15068000,0,1.6198636,0.0,-0.0024206638,0.09215096,9.406378e-06,0,1,0,1
15220000,15140000,15140000,0,1.5983609,0.0,0.019073248,0.0921385,0.00058406545,0,1,0,1
15292000,15211272,15212000,0,1.6254008,0.0,-0.008507371,0.09212618,0.00011621469,0,1,0,1
15364000,15284000,15284000,0,1.6119283,0.0,0.0051733255,0.092114,4.298009e-05,0,1,0,1
15436000,15354909,15356000,0,1.6209359,0.0,-0.004006028,0.092101954,2.577582e-05,0,1,0,1
15508000,15428000,15428000,0,1.6232738,0.0,-0.006383419,0.09209004,6.545569e-05,0,1,0,1
15580000,15499272,15500000,0,1.6077988,0.0,0.0091433525,0.09207824,0.00013430968,0,1,0,1
15652000,15572000,15572000,0,1.5936022,0.0,0.023097992,0.09206656,0.00085723493,0,1,0,1
15724000,15642909,15644000,0,1.612913,0.0,0.0032538176,0.09205504,1.7013443e-05,0,1,0,1
15796000,15716000,15716000,0,1.5797716,0.0,0.036275744,0.09204361,0.0021149123,0,1,0,1
15868000,15786181,15788000,0,1.6136111,0.0,0.0015535355,0.09203232,3.8793173e-06,0,1,0,1
15940000,15860000,15860000,0,1.615773,0.0,-0.0006701946,0.09202115,7.220505e-07,0,1,0,1
16012000,15931272,15932000,0,1.6159621,0.0,-0.00084900856,0.092010096,1.1588894e-06,0,1,0,1
16084000,16004000,16004000,0,1.6059722,0.0,0.009066343,0.09199916,0.00013217027,0,1,0,1
16156000,16073454,16076000,0,1.6159441,0.0,-0.0011450052,0.09198834,2.108315e-06,0,1,0,1
16228000,16148000,16148000,0,1.6092602,0.0,0.00552547,0.09197762,4.910318e-05,0,1,0,1
16300000,16218545,16220000,0,1.6078746,0.0,0.0066775084,0.091967024,7.172162e-05,0,1,0,1
16372000,16288000,16292000,0,1.6134224,0.0,0.0009045601,0.09195654,1.3162718e-06,0,1,0,1
16444000,16357200,16364000,0,1.6106836,0.0,0.0035488605,0.091946155,2.0262716e-05,0,1,0,1
16508000,16424000,16428000,0,1.6004297,0.0,0.0135861635,0.09193243,0.00029701492,0,1,0,1
16580000,16495272,16500000,0,1.6203324,0.0,-0.0066586733,0.091922365,7.135223e-05,0,1,0,1
16652000,16568000,16572000,0,1.6173718,0.0,-0.0036029816,0.09191241,2.089312e-05,0,1,0,1
16724000,16639272,16644000,0,1.6151966,0.0,-0.0014384985,0.09190255,3.3307701e-06,0,1,0,1
16788000,16708000,16708000,0,1.610266,0.0,0.0034614801,0.09188948,1.928907e-05,0,1,0,1
16860000,16777600,16780000,0,1.6213061,0.0,-0.0077090263,0.0918799,9.5682364e-05,0,1,0,1
16932000,16850000,16852000,0,1.6298876,0.0,-0.016189575,0.09187043,0.00042203502,0,1,0,1
17004000,16921200,16924000,0,1.6103628,0.0,0.003576517,0.09186105,2.059883e-05,0,1,0,1
17076000,16992000,16996000,0,1.6253113,0.0,-0.011492133,0.091851756,0.00021269984,0,1,0,1
17140000,17058666,17060000,0,1.6105833,0.0,0.0034356117,0.09183942,1.90122e-05,0,1,0,1
17212000,17126000,17132000,0,1.6321806,0.0,-0.018226385,0.09183038,0.00053514075,0,1,0,1
17284000,17196800,17204000,0,1.6143945,0.0,-0.00014722347,0.09182144,3.4919125e-08,0,1,0,1
17348000,17264000,17268000,0,1.6338317,0.0,-0.01961577,0.09180954,0.00061997795,0,1,0,1
17420000,17334909,17340000,0,1.6120154,0.0,0.0025638342,0.09180085,1.0592208e-05,0,1,0,1
17484000,17404000,17404000,0,1.6246922,0.0,-0.01023972,0.09178927,0.00016898091,0,1,0,1
17556000,17473200,17476000,0,1.6217076,0.0,-0.0071263313,0.09178082,8.185278e-05,0,1,0,1
17620000,17540000,17540000,0,1.6092968,0.0,0.00538671,0.09176952,4.6773745e-05,0,1,0,1
17692000,17611272,17612000,0,1.6158549,0.0,-0.0013494492,0.0917613,2.9356675e-06,0,1,0,1
17764000,17684000,17684000,0,1.6084286,0.0,0.00603199,0.091753155,5.8661557e-05,0,1,0,1
17836000,17754909,17756000,0,1.6170487,0.0,-0.0028800964,0.09174507,1.3374719e-05,0,1,0,1
17908000,17828000,17828000,0,1.6151264,0.0,-0.0009571314,0.09173707,1.4772419e-06,0,1,0,1
17980000,17899272,17900000,0,1.6191028,0.0,-0.004983783,0.09172913,4.00557e-05,0,1,0,1
18052000,17972000,17972000,0,1.5907725,0.0,0.023409367,0.09172124,0.00088381796,0,1,0,1
18124000,18042909,18044000,0,1.6198564,0.0,-0.006110668,0.09171343,6.0227914e-05,0,1,0,1
18196000,18116000,18116000,0,1.6009774,0.0,0.012837648,0.091705695,0.0002658447,0,1,0,1
18268000,18187272,18188000,0,1.6200862,0.0,-0.006595254,0.09169801,7.0170805e-05,0,1,0,1
18340000,18260000,18260000,0,1.6097902,0.0,0.0037783384,0.09169039,2.3031978e-05,0,1,0,1
18412000,18331636,18332000,0,1.6148037,0.0,-0.0013545752,0.09168283,2.9605444e-06,0,1,0,1
18484000,18404000,18404000,0,1.6034483,0.0,0.009986281,0.09167534,0.00016091942,0,1,0,1
18556000,18474181,18476000,0,1.6131729,0.0,-2.8133392e-05,0.09166791,1.2772626e-09,0,1,0,1
18628000,18548000,18548000,0,1.5981282,0.0,0.0149508715,0.091660544,0.000360748,0,1,0,1
18700000,18618909,18620000,0,1.6194619,0.0,-0.0067521334,0.091653235,7.358471e-05,0,1,0,1
18772000,18692000,18692000,0,1.5785245,0.0,0.03431344,0.09164599,0.0019005022,0,1,0,1
18844000,18762909,18764000,0,1.6141835,0.0,-0.0020233393,0.091638796,6.6086295e-06,0,1,0,1
18916000,18836000,18836000,0,1.6022009,0.0,0.0099983215,0.091631666,0.00016138455,0,1,0,1
18988000,18906545,18908000,0,1.6149584,0.0,-0.0029931068,0.091624595,1.446391e-05,0,1,0,1
19060000,18980000,18980000,0,1.6261643,0.0,-0.014177918,0.091617584,0.00032456333,0,1,0,1
19132000,19052000,19052000,0,1.6135949,0.0,-0.0014443398,0.091610625,3.3685749e-06,0,1,0,1
19204000,19124000,19124000,0,1.6053736,0.0,0.0066410303,0.091603704,7.122152e-05,0,1,0,1
19276000,19194545,19196000,0,1.6121842,0.0,-0.0003271103,0.09159686,1.7280695e-07,0,1,0,1
19348000,19268000,19268000,0,1.6077449,0.0,0.004037261,0.09159008,2.6325619e-05,0,1,0,1
19420000,19339272,19340000,0,1.6101925,0.0,0.0013947487,0.091583334,3.142164e-06,0,1,0,1
19492000,19412000,19412000,0,1.604247,0.0,0.0071698427,0.09157666,8.30401e-05,0,1,0,1
19564000,19483272,19484000,0,1.6131428,0.0,-0.0020278692,0.091570035,6.6432385e-06,0,1,0,1
19636000,19556000,19556000,0,1.6039287,0.0,0.0070958138,0.09156344,8.13459e-05,0,1,0,1
19708000,19627272,19628000,0,1.6193751,0.0,-0.008487701,0.091556914,0.00011639716,0,1,0,1
19780000,19700000,19700000,0,1.6172123,0.0,-0.006266117,0.09155045,6.3443906e-05,0,1,0,1
19852000,19770909,19772000,0,1.610221,0.0,0.0007326603,0.091544025,8.6741846e-07,0,1,0,1
19924000,19844000,19844000,0,1.5991052,0.0,0.011808991,0.091537654,0.00022536122,0,1,0,1
19996000,19914545,19916000,0,1.6165879,0.0,-0.005951047,0.09153134,5.7236135e-05,0,1,0,1
20068000,19988000,19988000,0,1.5964442,0.0,0.014264822,0.09152504,0.00032888658,0,1,0,1
20140000,20058545,20060000,0,1.6204487,0.0,-0.009992838,0.09151883,0.00016140634,0,1,0,1
20212000,20132000,20132000,0,1.618797,0.0,-0.008171201,0.09151265,0.00010793045,0,1,0,1
20284000,20202909,20204000,0,1.619749,0.0,-0.008780599,0.09150668,0.00012463752,0,1,0,1
20356000,20272000,20276000,0,1.5940478,0.0,0.017018318,0.09150061,0.0004682337,0,1,0,1
20428000,20341600,20348000,0,1.6076223,0.0,0.00312078,0.091493614,1.5746675e-05,0,1,0,1
20500000,20414000,20420000,0,1.6179442,0.0,-0.007310033,0.091487646,8.6403146e-05,0,1,0,1
20572000,20484400,20492000,0,1.6066204,0.0,0.0040580034,0.091481715,2.6628326e-05,0,1,0,1
20636000,20552000,20556000,0,1.6088786,0.0,0.0016869307,0.09147382,4.6020464e-06,0,1,0,1
20708000,20623272,20628000,0,1.6210822,0.0,-0.010608196,0.091468036,0.0001819982,0,1,0,1
20780000,20696000,20700000,0,1.611214,0.0,-0.00058448315,0.09146229,5.5252923e-07,0,1,0,1
20852000,20766909,20772000,0,1.6147321,0.0,-0.0042108297,0.09145304,2.8680754e-05,0,1,0,1
20924000,20840000,20844000,0,1.6067399,0.0,0.0037622452,0.09144745,2.289686e-05,0,1,0,1
20996000,20910909,20916000,0,1.6026539,0.0,0.007717371,0.091441914,9.6348915e-05,0,1,0,1
21060000,20980000,20980000,0,1.6456271,0.0,-0.035422683,0.09143447,0.002030048,0,1,0,1
21132000,21048800,21052000,0,1.6007462,0.0,0.009877086,0.091429055,0.00015784352,0,1,0,1
21196000,21116000,21116000,0,1.6098455,0.0,0.0006374121,0.091421776,6.5742205e-07,0,1,0,1
21268000,21186545,21188000,0,1.6000398,0.0,0.0102853775,0.09141076,0.00017119714,0,1,0,1
21340000,21260000,21260000,0,1.6199791,0.0,-0.00983572,0.09140561,0.00015656432,0,1,0,1
21412000,21330909,21332000,0,1.6065055,0.0,0.0036547184,0.09140049,2.161786e-05,0,1,0,1
21484000,21404000,21404000,0,1.6031042,0.0,0.0069413185,0.09139539,7.798535e-05,0,1,0,1
21556000,21474909,21476000,0,1.6040547,0.0,0.005812049,0.091390334,5.4677876e-05,0,1,0,1
21628000,21548000,21548000,0,1.5643328,0.0,0.04525876,0.09137884,0.0033159882,0,1,0,1
21700000,21618909,21620000,0,1.6071124,0.0,0.0018194914,0.09137396,5.3595822e-06,0,1,0,1
21772000,21692000,21692000,0,1.5998528,0.0,0.010813475,0.091369204,0.00018931457,0,1,0,1
21844000,21762545,21764000,0,1.6176257,0.0,-0.0023636818,0.09136476,9.045918e-06,0,1,0,1
21916000,21836000,21836000,0,1.6293486,0.0,-0.0034524202,0.09135993,1.9299448e-05,0,1,0,1
21988000,21907272,21908000,0,1.6435921,0.0,-0.0040869713,0.09135597,2.704703e-05,0,1,0,1
22060000,21980000,21980000,0,1.6886321,0.0,-0.031180263,0.09134782,0.0015743986,0,1,0,1
22132000,22050181,22052000,0,1.6774551,0.0,0.0012385845,0.091345444,2.4843785e-06,0,1,0,1
22204000,22124000,22124000,0,1.7092448,0.0,-0.0068793297,0.091343924,7.6641845e-05,0,1,0,1
22276000,22195636,22196000,0,1.7135804,0.0,0.012807608,0.09134303,0.00026565255,0,1,0,1
22348000,22268000,22268000,0,1.7208006,0.0,0.02248633,0.091342,0.0008188794,0,1,0,1
22420000,22338181,22340000,0,1.7210544,0.0,0.025421262,0.091337666,0.0010466408,0,1,0,1
22492000,22412000,22412000,0,1.6563169,0.0,0.0408988,0.09133526,0.0027091685,0,1,0,1
22564000,22482909,22484000,0,1.6639436,0.0,0.036433578,0.091321945,0.0021502147,0,1,0,1
22636000,22556000,22556000,0,1.659011,0.0,0.04207945,0.09131104,0.0028686011,0,1,0,1
22708000,22627272,22628000,0,1.6775548,0.0,0.021311045,0.09130336,0.00073582755,0,1,0,1
22780000,22700000,22700000,0,1.664565,0.0,0.030879855,0.091297835,0.001545053,0,1,0,1
22852000,22771272,22772000,0,1.6660599,0.0,0.02552998,0.09128849,0.0010561809,0,1,0,1
22924000,22844000,22844000,0,1.6899941,0.0,-0.0018794537,0.09128476,5.724246e-06,0,1,0,1
22996000,22913818,22916000,0,1.6670581,0.0,0.018835902,0.09128051,0.0005749739,0,1,0,1
23068000,22988000,22988000,0,1.648778,0.0,0.035187483,0.091276385,0.0020066486,0,1,0,1
23140000,23058909,23060000,0,1.6657764,0.0,0.01642716,0.091272384,0.00043735985,0,1,0,1
23212000,23132000,23132000,0,1.6417314,0.0,0.039113045,0.09126753,0.0024795923,0,1,0,1
23284000,23202545,23204000,0,1.6627643,0.0,0.01656282,0.091263585,0.00044465624,0,1,0,1
23356000,23276000,23276000,0,1.676742,0.0,0.0012316704,0.09125963,2.4590288e-06,0,1,0,1
23428000,23346545,23348000,0,1.6513577,0.0,0.025543928,0.09125569,0.0010577153,0,1,0,1
23500000,23420000,23420000,0,1.6751059,0.0,0.00052928925,0.09125179,4.541487e-07,0,1,0,1
23572000,23489818,23492000,0,1.6590512,0.0,0.015652418,0.0912479,0.00039718545,0,1,0,1
23644000,23564000,23564000,0,1.663442,0.0,0.010006785,0.09124329,0.00016234598,0,1,0,1
23716000,23635272,23636000,0,1.6627638,0.0,0.009320736,0.09123936,0.00014085475,0,1,0,1
23788000,23708000,23708000,0,1.6766664,0.0,-0.0060305595,0.09123541,5.8966478e-05,0,1,0,1
23860000,23778181,23780000,0,1.653652,0.0,0.015698314,0.09123144,0.0003995902,0,1,0,1
23932000,23852000,23852000,0,1.6394911,0.0,0.028252602,0.09122748,0.0012943287,0,1,0,1
24004000,23923272,23924000,0,1.6438804,0.0,0.022472143,0.09122041,0.0008189366,0,1,0,1
24076000,23996000,23996000,0,1.6563977,0.0,0.00828445,0.09121653,0.000111303074,0,1,0,1
24148000,24067272,24068000,0,1.6426258,0.0,0.020605922,0.091212675,0.0006886242,0,1,0,1
24220000,24140000,24140000,0,1.6770248,0.0,-0.01554358,0.09120877,0.00039184908,0,1,0,1
24292000,24212000,24212000,0,1.6424711,0.0,0.01763475,0.091204815,0.00050439895,0,1,0,1
24364000,24284000,24284000,0,1.6041734,0.0,0.05414772,0.091200925,0.0047557,0,1,0,1
24436000,24354909,24356000,0,1.6394241,0.0,0.017616034,0.09119392,0.00050338893,0,1,0,1
24508000,24428000,24428000,0,1.626148,0.0,0.029516697,0.091190234,0.0014133201,0,1,0,1
24580000,24499636,24500000,0,1.632847,0.0,0.021229029,0.09118657,0.00073110993,0,1,0,1
24652000,24572000,24572000,0,1.6252536,0.0,0.027129292,0.09118276,0.0011940363,0,1,0,1
24724000,24642909,24644000,0,1.6345669,0.0,0.01600182,0.091178924,0.00041542982,0,1,0,1
24796000,24716000,24716000,0,1.6137522,0.0,0.03528571,0.0911752,0.0020201071,0,1,0,1
24868000,24787272,24788000,0,1.6351805,0.0,0.013140917,0.09117036,0.00028018892,0,1,0,1
24940000,24860000,24860000,0,1.6328566,0.0,0.014403582,0.0911669,0.00033663335,0,1,0,1
25012000,24932000,24932000,0,1.6317453,0.0,0.014410257,0.09116336,0.00033695856,0,1,0,1
25084000,25004000,25004000,0,1.6462586,0.0,-0.050701022,0.10115884,0.0037590917,0,1,0,1
25156000,25075636,25076000,0,1.6331524,0.0,-0.033077955,0.09992797,0.0016197336,0,1,0,1
25228000,25148000,25148000,0,1.618171,0.0,-0.015771985,0.098935924,0.00037193927,0,1,0,1
25300000,25218909,25220000,0,1.6326257,0.0,-0.030145407,0.0981291,0.0013699282,0,1,0,1
25372000,25292000,25292000,0,1.6486824,0.0,-0.04469323,0.09745603,0.0030319928,0,1,0,1
25444000,25362545,25364000,0,1.6282877,0.0,-0.021748543,0.09688578,0.0007221936,0,1,0,1
25516000,25436000,25436000,0,1.6419442,0.0,-0.034748316,0.09639664,0.0018529298,0,1,0,1
25588000,25505454,25508000,0,1.6364665,0.0,-0.027462125,0.09597315,0.0011624435,0,1,0,1
25660000,25580000,25580000,0,1.6556046,0.0,-0.045526028,0.09555331,0.0032086854,0,1,0,1
25732000,25650909,25652000,0,1.6555005,0.0,-0.043463945,0.09523113,0.0029344906,0,1,0,1
25804000,25724000,25724000,0,1.6463939,0.0,-0.032613754,0.09494429,0.0016572425,0,1,0,1
25876000,25795272,25796000,0,1.6524189,0.0,-0.03746307,0.09468786,0.002192632,0,1,0,1
25948000,25868000,25868000,0,1.6711423,0.0,-0.05518508,0.09445623,0.0047694254,0,1,0,1
26020000,25938181,25940000,0,1.6763955,0.0,-0.058172107,0.09419297,0.005314525,0,1,0,1
26092000,26012000,26012000,0,1.6812577,0.0,-0.06112182,0.09400711,0.005878753,0,1,0,1
26164000,26082545,26084000,0,1.680064,0.0,-0.0578382,0.093837045,0.005273617,0,1,0,1
26236000,26156000,26156000,0,1.6679722,0.0,-0.043943882,0.09368112,0.0030492858,0,1,0,1
26308000,26227272,26228000,0,1.6717733,0.0,-0.047096968,0.093537845,0.003507938,0,1,0,1
26380000,26300000,26300000,0,1.6947646,0.0,-0.06979394,0.09340559,0.0077146436,0,1,0,1
26452000,26370909,26372000,0,1.6815264,0.0,-0.055402637,0.09324611,0.0048694904,0,1,0,1
26524000,26444000,26444000,0,1.6744483,0.0,-0.0475713,0.093134165,0.003594466,0,1,0,1
26596000,26514909,26516000,0,1.6807609,0.0,-0.05342543,0.09302968,0.0045386627,0,1,0,1
26668000,26588000,26588000,0,1.6511717,0.0,-0.023784518,0.092932425,0.00090048154,0,1,0,1
26740000,26658909,26660000,0,1.6743542,0.0,-0.048215747,0.09284162,0.0037041493,0,1,0,1
26812000,26732000,26732000,0,1.6574806,0.0,-0.03245282,0.09273165,0.0016800814,0,1,0,1
26884000,26802909,26804000,0,1.6726946,0.0,-0.048303485,0.09265251,0.0037252302,0,1,0,1
26956000,26876000,26876000,0,1.6666656,0.0,-0.04199457,0.09257747,0.002817957,0,1,0,1
27028000,26947636,26948000,0,1.6770066,0.0,-0.052370667,0.09250671,0.004385876,0,1,0,1
27100000,27020000,27020000,0,1.6684788,0.0,-0.04369223,0.0924399,0.0030549373,0,1,0,1
27172000,27091272,27092000,0,1.6741296,0.0,-0.049401045,0.09237668,0.0039080787,0,1,0,1
27244000,27164000,27164000,0,1.6631631,0.0,-0.038733125,0.09230665,0.002404282,0,1,0,1
27316000,27235272,27236000,0,1.6611987,0.0,-0.036827564,0.092250034,0.0021748675,0,1,0,1
27388000,27308000,27308000,0,1.6610636,0.0,-0.0366894,0.09219611,0.002159842,0,1,0,1
27460000,27379636,27380000,0,1.6621581,0.0,-0.03787172,0.092144586,0.0023025738,0,1,0,1
27532000,27452000,27452000,0,1.6634406,0.0,-0.039208293,0.092095494,0.002469283,0,1,0,1
27604000,27523272,27524000,0,1.6549954,0.0,-0.030826569,0.09204811,0.0015271752,0,1,0,1
27676000,27596000,27596000,0,1.6747184,0.0,-0.050976634,0.092003696,0.004178211,0,1,0,1
27748000,27667272,27668000,0,1.6506686,0.0,-0.026988387,0.09196141,0.0011716599,0,1,0,1
27820000,27740000,27740000,0,1.640842,0.0,-0.017531276,0.091920815,0.0004946141,0,1,0,1
27892000,27811272,27812000,0,1.6486902,0.0,-0.025906682,0.09188178,0.0010805567,0,1,0,1
27964000,27884000,27884000,0,1.6319077,0.0,-0.0094025135,0.091844425,0.00014239294,0,1,0,1
28036000,27955272,27956000,0,1.63197,0.0,-0.010422349,0.09180593,0.00017503054,0,1,0,1
28108000,28028000,28028000,0,1.6591376,0.0,-0.03857839,0.09177219,0.0023990013,0,1,0,1
28180000,28100000,28100000,0,1.6384275,0.0,-0.018069506,0.09173981,0.0005264875,0,1,0,1
28252000,28172000,28172000,0,1.6212626,0.0,-0.001175046,0.09170839,2.2271731e-06,0,1,0,1
28324000,28242909,28244000,0,1.621412,0.0,-0.0021340847,0.09168033,7.3485303e-06,0,1,0,1
28396000,28316000,28316000,0,1.6610197,0.0,-0.042244315,0.091651134,0.002880395,0,1,0,1
28468000,28385818,28388000,0,1.624581,0.0,-0.005919218,0.09160559,5.6579625e-05,0,1,0,1
28540000,28460000,28460000,0,1.6278108,0.0,-0.009671092,0.091579705,0.00015107935,0,1,0,1
28612000,28530909,28532000,0,1.6294773,0.0,-0.0113579035,0.09155451,0.00020843468,0,1,0,1
28684000,28604000,28604000,0,1.6077477,0.0,0.010515571,0.09152989,0.00017871297,0,1,0,1
28756000,28674545,28676000,0,1.6185064,0.0,-0.00036251545,0.09150624,2.1244948e-07,0,1,0,1
28828000,28748000,28748000,0,1.6193827,0.0,-0.0027439594,0.09144588,1.2179924e-05,0,1,0,1
28900000,28818181,28820000,0,1.6282259,0.0,-0.011883378,0.09142547,0.00022848936,0,1,0,1
28972000,28888000,28892000,0,1.59931,0.0,0.016922474,0.09140577,0.0004634549,0,1,0,1
29044000,28957600,28964000,0,1.6179487,0.0,-0.0017808676,0.091386385,5.1337547e-06,0,1,0,1
29116000,29030000,29036000,0,1.6389815,0.0,-0.02235818,0.09136752,0.00080934627,0,1,0,1
29188000,29100800,29108000,0,1.6191225,0.0,-0.0017052889,0.09134937,4.7091626e-06,0,1,0,1
29252000,29168000,29172000,0,1.6271025,0.0,-0.011303425,0.09127988,0.00020706105,0,1,0,1
29324000,29238909,29172000,0,1.6188664,0.0,-0.0029742718,0.0,inf,0,0,1,0
29396000,29312000,29172000,0,1.6045402,0.0,0.011472106,0.0,inf,0,0,1,0
29468000,29382909,29172000,0,1.6107836,0.0,0.005670905,0.0,inf,0,0,1,0
29540000,29456000,29172000,0,1.623429,0.0,-0.006301403,0.0,inf,0,0,1,0
29612000,29526909,29172000,0,1.6210883,0.0,-0.0054348707,0.0,inf,0,0,1,0
29676000,29596000,29172000,0,1.5991322,0.0,0.016656995,0.0,inf,0,0,1,0
29748000,29664800,29172000,0,1.6113943,0.0,0.0043860674,0.0,inf,0,0,1,0
29812000,29732000,29172000,0,1.617765,0.0,-0.0017652512,0.0,inf,0,0,1,0
29884000,29802545,29172000,0,1.61904,0.0,-0.0025635958,0.0,inf,0,0,1,0
29956000,29876000,29172000,0,1.5953999,0.0,0.021562338,0.0,inf,0,0,1,0
30028000,29946909,29172000,0,1.622772,0.0,-0.0074727535,0.0,inf,0,0,1,0
30100000,30020000,29172000,0,1.6041973,0.0,0.011235595,0.0,inf,0,0,1,0
30172000,30090909,29172000,0,1.6158357,0.0,-0.0003926754,0.0,inf,0,0,1,0
30244000,30164000,29172000,0,1.6294438,0.0,-0.013389111,0.0,inf,0,0,1,0
30316000,30234545,29172000,0,1.6076581,0.0,0.009510517,0.0,inf,0,0,1,0
30388000,30308000,29172000,0,1.6563162,0.0,-0.03831923,0.0,inf,0,0,1,0
30460000,30379272,29172000,0,1.618593,0.0,-0.0011194944,0.0,inf,0,0,1,0
30532000,30452000,29172000,0,1.5891316,0.0,0.02853036,0.0,inf,0,0,1,0
30604000,30522181,29172000,0,1.611621,0.0,0.0059223175,0.0,inf,0,0,1,0
30676000,30596000,29172000,0,1.6198596,0.0,-0.0017530918,0.0,inf,0,0,1,0
30748000,30666909,29172000,0,1.6194723,0.0,-0.0004937649,0.0,inf,0,0,1,0
30820000,30740000,29172000,0,1.6320391,0.0,-0.013597369,0.0,inf,0,0,1,0
30892000,30811636,29172000,0,1.6075238,0.0,0.011009455,0.0,inf,0,0,1,0
30964000,30884000,29172000,0,1.6218097,0.0,-0.0035799742,0.0,inf,0,0,1,0
31036000,30954909,29172000,0,1.6101679,0.0,0.008394361,0.0,inf,0,0,1,0
31108000,31028000,29172000,0,1.5814604,0.0,0.037549257,0.0,inf,0,0,1,0
31180000,31098909,29172000,0,1.6137347,0.0,0.005391717,0.0,inf,0,0,1,0
31252000,31172000,29172000,0,1.629115,0.0,-0.010972142,0.0,inf,0,0,1,0
31324000,31242909,29172000,0,1.6201754,0.0,-0.0021979809,0.0,inf,0,0,1,0
31396000,31316000,29172000,0,1.6103289,0.0,0.007410884,0.0,inf,0,0,1,0
31468000,31386909,29172000,0,1.6093044,0.0,0.008471608,0.0,inf,0,0,1,0
31540000,31460000,29172000,0,1.6339871,0.0,-0.016118288,0.0,inf,0,0,1,0
31612000,31531272,29172000,0,1.6200716,0.0,-0.0022149086,0.0,inf,0,0,1,0
31684000,31604000,29172000,0,1.6184409,0.0,-0.0005979538,0.0,inf,0,0,1,0
31756000,31674545,29172000,0,1.6099007,0.0,0.0077935457,0.0,inf,0,0,1,0
31828000,31748000,29172000,0,1.6044605,0.0,0.013187408,0.0,inf,0,0,1,0
31900000,31819636,29172000,0,1.6086073,0.0,0.008981228,0.0,inf,0,0,1,0
31972000,31892000,29172000,0,1.5895274,0.0,0.028041363,0.0,inf,0,0,1,0
32044000,31962545,29172000,0,1.6234242,0.0,-0.006445408,0.0,inf,0,0,1,0
32116000,32036000,29172000,0,1.6128461,0.0,0.0041567087,0.0,inf,0,0,1,0
32188000,32106181,29172000,0,1.6106213,0.0,0.0063154697,0.0,inf,0,0,1,0
32260000,32180000,29172000,0,1.6286534,0.0,-0.0117304325,0.0,inf,0,0,1,0
32332000,32250181,29172000,0,1.6076281,0.0,0.009423614,0.0,inf,0,0,1,0
32404000,32324000,29172000,0,1.6155652,0.0,0.001029849,0.0,inf,0,0,1,0
32476000,32395272,29172000,0,1.6102892,0.0,0.0063819885,0.0,inf,0,0,1,0
32548000,32468000,29172000,0,1.6249437,0.0,-0.008352876,0.0,inf,0,0,1,0
32620000,32539272,29172000,0,1.6109374,0.0,0.00572145,0.0,inf,0,0,1,0
32692000,32612000,29172000,0,1.6272246,0.0,-0.010431886,0.0,inf,0,0,1,0
32764000,32682181,29172000,0,1.6200538,0.0,-0.003100872,0.0,inf,0,0,1,0
32836000,32756000,29172000,0,1.620545,0.0,-0.0038594007,0.0,inf,0,0,1,0
32908000,32826909,29172000,0,1.6147895,0.0,0.0020170212,0.0,inf,0,0,1,0
32980000,32900000,29172000,0,1.6355038,0.0,-0.018666267,0.0,inf,0,0,1,0
33052000,32970545,29172000,0,1.622081,0.0,-0.0051163435,0.0,inf,0,0,1,0
33124000,33044000,29172000,0,1.6190829,0.0,-0.0020771027,0.0,inf,0,0,1,0
33196000,33115272,29172000,0,1.6209161,0.0,-0.0037859678,0.0,inf,0,0,1,0
33268000,33188000,29172000,0,1.616593,0.0,0.0003092289,0.0,inf,0,0,1,0
33340000,33258909,29172000,0,1.6109843,0.0,0.005937934,0.0,inf,0,0,1,0
33412000,33332000,29172000,0,1.6544324,0.0,-0.0375129,0.0,inf,0,0,1,0
33484000,33402181,29172000,0,1.6170944,0.0,1.4305115e-06,0.0,inf,0,0,1,0
33556000,33472000,29172000,0,1.5958526,0.0,0.021256566,0.0,inf,0,0,1,0
33628000,33540800,29172000,0,1.6148674,0.0,0.0019751787,0.0,inf,0,0,1,0
33692000,33612000,29172000,0,1.6147428,0.0,0.0021595955,0.0,inf,0,0,1,0
33764000,33679111,29172000,0,1.6077623,0.0,0.009217501,0.0,inf,0,0,1,0
33828000,33746000,29172000,0,1.6153395,0.0,0.0016025305,0.0,inf,0,0,1,0
33900000,33815600,29172000,0,1.6197448,0.0,-0.002703905,0.0,inf,0,0,1,0
33964000,33884000,29172000,0,1.6192946,0.0,-0.0021904707,0.0,inf,0,0,1,0
34036000,33953818,29172000,0,1.6193012,0.0,-0.0025202036,0.0,inf,0,0,1,0
34108000,34028000,29172000,0,1.5818154,0.0,0.035013437,0.0,inf,0,0,1,0
34180000,34100000,29172000,0,1.6182485,0.0,-0.001486063,0.0,inf,0,0,1,0
34252000,34172000,29172000,0,1.6104598,0.0,0.006390691,0.0,inf,0,0,1,0
34324000,34242181,34244000,0,1.6097655,0.0,0.007130742,0.09109366,8.2572355e-05,0,1,0,1
34396000,34316000,34316000,0,1.5572752,0.0,0.059720755,0.09108711,0.0057922457,0,1,0,1
34468000,34387272,34388000,0,1.608094,0.0,0.00806427,0.0910781,0.00010562567,0,1,0,1
34540000,34460000,34460000,0,1.6225588,0.0,-0.006354928,0.09107186,6.5597975e-05,0,1,0,1
34612000,34530181,34532000,0,1.6105103,0.0,0.005793333,0.09106574,5.4519933e-05,0,1,0,1
34684000,34604000,34604000,0,1.6148415,0.0,0.0014672279,0.0910598,3.497211e-06,0,1,0,1
34756000,34673818,34676000,0,1.6163466,0.0,0.00015461445,0.091053985,3.8837793e-08,0,1,0,1
34828000,34748000,34748000,0,1.592263,0.0,0.02425003,0.09104475,0.0009554831,0,1,0,1
34900000,34817818,34820000,0,1.6161888,0.0,0.00024282932,0.091039225,9.5813576e-08,0,1,0,1
34972000,34892000,34892000,0,1.6499077,0.0,-0.033328652,0.09103383,0.0018050367,0,1,0,1
35044000,34962909,34964000,0,1.625964,0.0,-0.008848429,0.09102856,0.0001272354,0,1,0,1
35116000,35036000,35036000,0,1.5902504,0.0,0.027085781,0.09102342,0.0011922927,0,1,0,1
35188000,35107272,35108000,0,1.6157788,0.0,0.0013908148,0.0910184,3.143857e-06,0,1,0,1
35260000,35180000,35180000,0,1.6346802,0.0,-0.017393827,0.09100953,0.00049176405,0,1,0,1
35332000,35251272,35252000,0,1.6132145,0.0,0.0042979717,0.091004744,3.0027311e-05,0,1,0,1
35404000,35324000,35324000,0,1.6125098,0.0,0.00492692,0.09100009,3.9460498e-05,0,1,0,1
35476000,35394909,35396000,0,1.6097586,0.0,0.007641077,0.090995535,9.491666e-05,0,1,0,1
35548000,35468000,35468000,0,1.6222748,0.0,-0.0049721003,0.09099108,4.019151e-05,0,1,0,1
35620000,35538545,35540000,0,1.6169832,0.0,0.00036025047,0.09098273,2.1101023e-07,0,1,0,1
35692000,35612000,35612000,0,1.629062,0.0,-0.011722684,0.09097852,0.00022344395,0,1,0,1
35764000,35683272,35684000,0,1.6154579,0.0,0.0021606684,0.0909744,7.5911994e-06,0,1,0,1
35836000,35756000,35756000,0,1.6014445,0.0,0.01616478,0.09097037,0.00042490612,0,1,0,1
35908000,35826545,35828000,0,1.6114343,0.0,0.006018758,0.09096642,5.8909594e-05,0,1,0,1
35980000,35900000,35900000,0,1.599091,0.0,0.018395782,0.090962574,0.000550335,0,1,0,1
36052000,35971636,35972000,0,1.6200054,0.0,-0.0024795532,0.09095511,9.999381e-06,0,1,0,1
36124000,36044000,36044000,0,1.6029272,0.0,0.014531136,0.09095146,0.0003434336,0,1,0,1
36196000,36115272,36116000,0,1.6199394,0.0,-0.002649188,0.09094789,1.1415273e-05,0,1,0,1
36268000,36188000,36188000,0,1.6228958,0.0,-0.005468726,0.09094441,4.864629e-05,0,1,0,1
36340000,36257818,36260000,0,1.608926,0.0,0.008529305,0.09094098,0.000118337135,0,1,0,1
36412000,36332000,36332000,0,1.641743,0.0,-0.024187684,0.09093429,0.000951731,0,1,0,1
36484000,36402181,36404000,0,1.6142904,0.0,0.0034980774,0.090931065,1.9906729e-05,0,1,0,1
36556000,36476000,36476000,0,1.6099465,0.0,0.007825971,0.09092791,9.9639736e-05,0,1,0,1
36628000,36546545,36548000,0,1.6188717,0.0,-0.0010985136,0.09092482,1.9632778e-06,0,1,0,1
36700000,36620000,36620000,0,1.6756967,0.0,-0.057817936,0.0909218,0.0054388926,0,1,0,1
36772000,36692000,36692000,0,1.6163286,0.0,0.002122879,0.09091883,7.3324654e-06,0,1,0,1
36844000,36764000,36764000,0,1.6322746,0.0,-0.013874173,0.09091306,0.00031321408,0,1,0,1
36916000,36834909,36836000,0,1.609257,0.0,0.009203792,0.090910256,0.00013783961,0,1,0,1
36988000,36908000,36908000,0,1.6150488,0.0,0.003184557,0.090907514,1.6502572e-05,0,1,0,1
37060000,36980000,36980000,0,1.6136645,0.0,0.0044682026,0.09090483,3.2488682e-05,0,1,0,1
37132000,37052000,37052000,0,1.607496,0.0,0.010556102,0.090902194,0.00018133686,0,1,0,1
37204000,37122909,37124000,0,1.62199,0.0,-0.0040584803,0.09089715,2.6805874e-05,0,1,0,1
37276000,37196000,37196000,0,1.6189808,0.0,-0.001108408,0.09089466,1.999467e-06,0,1,0,1
37348000,37267272,37268000,0,1.6176951,0.0,0.00010180473,0.09089223,1.6867958e-08,0,1,0,1
37420000,37340000,37340000,0,1.6171683,0.0,0.00054085255,0.090889834,4.7609734e-07,0,1,0,1
37492000,37410909,37412000,0,1.6103692,0.0,0.007311225,0.0908875,8.7002045e-05,0,1,0,1
37564000,37484000,37484000,0,1.6119274,0.0,0.0056467056,0.090885215,5.1897972e-05,0,1,0,1
37636000,37555636,37556000,0,1.6151448,0.0,0.0025578737,0.09088089,1.0649739e-05,0,1,0,1
37708000,37628000,37628000,0,1.6037004,0.0,0.013954639,0.090878725,0.00031697744,0,1,0,1
37780000,37698545,37700000,0,1.607041,0.0,0.010555506,0.090876594,0.00018136748,0,1,0,1
37852000,37772000,37772000,0,1.652499,0.0,-0.034991145,0.09087451,0.001993093,0,1,0,1
37924000,37844000,37844000,0,1.6223803,0.0,-0.0045877695,0.09087248,3.42629e-05,0,1,0,1
37996000,37916000,37916000,0,1.5893567,0.0,0.028540969,0.090870485,0.0013260745,0,1,0,1
38068000,37986909,37988000,0,1.6130704,0.0,0.0048166513,0.09086678,3.7769274e-05,0,1,0,1
38140000,38060000,38060000,0,1.6186513,0.0,-0.0008639097,0.09086489,1.2150495e-06,0,1,0,1
38212000,38131636,38132000,0,1.6168461,0.0,0.0009675026,0.090863034,1.5239489e-06,0,1,0,1
38284000,38204000,38204000,0,1.6195956,0.0,-0.0018620491,0.090861216,5.6449107e-06,0,1,0,1
38356000,38274909,38276000,0,1.6114563,0.0,0.006291151,0.09085945,6.443821e-05,0,1,0,1
38428000,38348000,38348000,0,1.6133459,0.0,0.0045176744,0.090856254,3.322985e-05,0,1,0,1
38500000,38419272,38420000,0,1.614075,0.0,0.003683567,0.09085457,2.2092443e-05,0,1,0,1
38572000,38492000,38492000,0,1.6274699,0.0,-0.009659886,0.090852894,0.00015193528,0,1,0,1
38644000,38562545,38564000,0,1.6077476,0.0,0.010163307,0.09085127,0.000168187,0,1,0,1
38716000,38636000,38636000,0,1.6021429,0.0,0.015627861,0.090849675,0.0003976757,0,1,0,1
38788000,38706545,38708000,0,1.6183778,0.0,-0.0007942915,0.09084811,1.0273e-06,0,1,0,1
38860000,38780000,38780000,0,1.6419302,0.0,-0.024234056,0.09084542,0.00095631846,0,1,0,1
38932000,38851636,38852000,0,1.6155336,0.0,0.0023944378,0.09084391,9.336082e-06,0,1,0,1
39004000,38924000,38924000,0,1.5984747,0.0,0.019436479,0.09084243,0.00061517657,0,1,0,1
39076000,38994545,38996000,0,1.6219212,0.0,-0.004189849,0.090840995,2.8586974e-05,0,1,0,1
39148000,39064000,39068000,0,1.6254325,0.0,-0.007740617,0.09083959,9.757293e-05,0,1,0,1
39220000,39133200,39140000,0,1.6145779,0.0,0.0032794476,0.09083732,1.7514205e-05,0,1,0,1
39284000,39200000,39204000,0,1.6462657,0.0,-0.028469205,0.09083526,0.001319926,0,1,0,1
39356000,39270545,39276000,0,1.6205474,0.0,-0.0024893284,0.090833925,1.0091823e-05,0,1,0,1
39420000,39340000,39340000,0,1.6180526,0.0,7.545948e-05,0.09083191,9.273474e-09,0,1,0,1
39492000,39409200,39412000,0,1.6181604,0.0,-5.0663948e-05,0.09083066,4.1804102e-09,0,1,0,1
39556000,39476000,39476000,0,1.6574752,0.0,-0.03941524,0.09082871,0.0025302218,0,1,0,1
39628000,39546545,39548000,0,1.6075225,0.0,0.011040926,0.09082688,0.0001985409,0,1,0,1
39700000,39616000,39620000,0,1.6033884,0.0,0.015027404,0.090825684,0.00036780073,0,1,0,1
39772000,39684400,39692000,0,1.619672,0.0,-0.0014356375,0.09082451,3.3569115e-06,0,1,0,1
39836000,39756000,39756000,0,1.6103789,0.0,0.007796526,0.09082267,9.900596e-05,0,1,0,1
39908000,39822666,39828000,0,1.6164106,0.0,0.0016095638,0.090821564,4.219692e-06,0,1,0,1
39972000,39890000,39892000,0,1.6342506,0.0,-0.016353726,0.09081979,0.00043561845,0,1,0,1
40044000,39960800,39964000,0,1.6240758,0.0,-0.006036043,0.090818316,5.9345057e-05,0,1,0,1
40108000,40028000,40028000,0,1.6274097,0.0,-0.009333253,0.090816565,0.00014189084,0,1,0,1
40180000,40099272,40100000,0,1.6201361,0.0,-0.001978159,0.09081554,6.3740517e-06,0,1,0,1
40252000,40172000,40172000,0,1.5993323,0.0,0.01876688,0.09081453,0.00057369645,0,1,0,1
40324000,40242545,40244000,0,1.6146513,0.0,0.0032317638,0.090813555,1.7013039e-05,0,1,0,1
40396000,40316000,40316000,0,1.6130613,0.0,0.004793763,0.09081259,3.7433496e-05,0,1,0,1
40468000,40387272,40388000,0,1.6233612,0.0,-0.005476117,0.09081135,4.8849342e-05,0,1,0,1
40540000,40460000,40460000,0,1.6541831,0.0,-0.036295414,0.0908104,0.0021459581,0,1,0,1
40612000,40530545,40532000,0,1.6318898,0.0,-0.013664484,0.09080947,0.0003041646,0,1,0,1
40684000,40604000,40604000,0,1.6498919,0.0,-0.03166592,0.09080858,0.0016334684,0,1,0,1
40756000,40674909,40676000,0,1.6206708,0.0,-0.0022268295,0.0908077,8.078015e-06,0,1,0,1
40828000,40748000,40748000,0,1.613108,0.0,0.0054118633,0.09080664,4.7712198e-05,0,1,0,1
40900000,40818181,40820000,0,1.6213584,0.0,-0.0030195713,0.09080578,1.4853557e-05,0,1,0,1
40972000,40892000,40892000,0,1.6367787,0.0,-0.018461943,0.090804905,0.00055526313,0,1,0,1
41044000,40963636,40964000,0,1.623351,0.0,-0.004994154,0.09080408,4.063234e-05,0,1,0,1
41116000,41036000,41036000,0,1.629828,0.0,-0.011524439,0.09080327,0.0002163672,0,1,0,1
41188000,41107272,41108000,0,1.6185392,0.0,-0.00023818016,0.09080248,9.242017e-08,0,1,0,1
41260000,41176000,41180000,0,1.6378149,0.0,-0.019468188,0.09080154,0.0006174634,0,1,0,1
41324000,41244000,41244000,0,1.6136686,0.0,0.004696369,0.09080004,3.593286e-05,0,1,0,1
41396000,41316000,41316000,0,1.6039051,0.0,0.014393806,0.09079926,0.0003375378,0,1,0,1
41468000,41383111,41388000,0,1.623833,0.0,-0.00579226,0.09079851,5.4660137e-05,0,1,0,1
41540000,41454666,41460000,0,1.6292268,0.0,-0.011152744,0.09079778,0.00020264766,0,1,0,1
41612000,41526222,41532000,0,1.6335407,0.0,-0.015383601,0.090796955,0.00038556545,0,1,0,1
41684000,41598666,41604000,0,1.6260207,0.0,-0.00785923,0.09079623,0.000100634184,0,1,0,1
41756000,41670666,41676000,0,1.632554,0.0,-0.014414668,0.09079551,0.00033853087,0,1,0,1
41828000,41742666,41748000,0,1.6213299,0.0,-0.0031408072,0.09079479,1.6072187e-05,0,1,0,1
41900000,41814666,41820000,0,1.6321778,0.0,-0.013942361,0.090794094,0.00031671484,0,1,0,1
41964000,41882000,41884000,0,1.6179334,0.0,0.00030446053,0.09079271,1.510304e-07,0,1,0,1
42036000,41952800,41956000,0,1.619711,0.0,-0.001464963,0.090791956,3.4967072e-06,0,1,0,1
42100000,42020000,42020000,0,1.6144475,0.0,0.0037968159,0.090790585,2.3488303e-05,0,1,0,1
42172000,42090909,42092000,0,1.6251072,0.0,-0.0070443153,0.090789914,8.085248e-05,0,1,0,1
42244000,42164000,42164000,0,1.5888728,0.0,0.029159546,0.09078927,0.0013854164,0,1,0,1
42316000,42234909,42236000,0,1.6284796,0.0,-0.010749459,0.090788655,0.00018827601,0,1,0,1
42388000,42308000,42308000,0,1.6133248,0.0,0.004338622,0.090788044,3.0671028e-05,0,1,0,1
42460000,42378909,42380000,0,1.6235867,0.0,-0.005918145,0.09078737,5.706885e-05,0,1,0,1
42532000,42452000,42452000,0,1.639321,0.0,-0.021491647,0.09078674,0.0007526106,0,1,0,1
42604000,42522545,42524000,0,1.6314869,0.0,-0.013555884,0.090786114,0.00029942612,0,1,0,1
42676000,42596000,42596000,0,1.6152195,0.0,0.0028762817,0.090785496,1.3480306e-05,0,1,0,1
42748000,42667272,42668000,0,1.6180098,0.0,4.053116e-06,0.090784885,2.6768117e-11,0,1,0,1
42820000,42740000,42740000,0,1.6278762,0.0,-0.009832621,0.09078424,0.00015753659,0,1,0,1
42892000,42810909,42812000,0,1.6187104,0.0,-0.00056767464,0.09078362,5.251034e-07,0,1,0,1
42964000,42884000,42884000,0,1.6363871,0.0,-0.018301487,0.090783015,0.0005457849,0,1,0,1
43036000,42954545,42956000,0,1.6183633,0.0,-0.00019395351,0.09078244,6.129807e-08,0,1,0,1
43108000,43028000,43028000,0,1.5971807,0.0,0.020834923,0.09078188,0.00070735585,0,1,0,1
43180000,43098545,43100000,0,1.6273859,0.0,-0.0096235275,0.090781316,0.00015091259,0,1,0,1
43252000,43172000,43172000,0,1.6523107,0.0,-0.034474134,0.090780675,0.0019366301,0,1,0,1
43324000,43244000,43244000,0,1.628037,0.0,-0.009890556,0.0907801,0.0001594058,0,1,0,1
43396000,43316000,43316000,0,1.5924174,0.0,0.025802612,0.090779535,0.0010849077,0,1,0,1
43468000,43386909,43388000,0,1.6344972,0.0,-0.01651764,0.09077898,0.00044459442,0,1,0,1
43540000,43460000,43460000,0,1.6554067,0.0,-0.037291765,0.09077843,0.0022661914,0,1,0,1
43612000,43531272,43532000,0,1.6249062,0.0,-0.006542802,0.090777814,6.9759146e-05,0,1,0,1
43684000,43604000,43604000,0,1.602438,0.0,0.015945315,0.090777256,0.0004143263,0,1,0,1
43756000,43675272,43676000,0,1.6370825,0.0,-0.018996477,0.09077672,0.00058806455,0,1,0,1
43828000,43748000,43748000,0,1.5983528,0.0,0.019842744,0.09077616,0.0006416305,0,1,0,1
43900000,43820000,43820000,0,1.6280724,0.0,-0.0102005005,0.09077563,0.0001695614,0,1,0,1
43972000,43892000,43892000,0,1.6758218,0.0,-0.057893872,0.09077509,0.005462002,0,1,0,1
44044000,43962545,43964000,0,1.6213453,0.0,-0.002927065,0.09077447,1.3962216e-05,0,1,0,1
44116000,44036000,44036000,0,1.6005379,0.0,0.017850757,0.090773925,0.0005192847,0,1,0,1
44188000,44106909,44108000,0,1.642266,0.0,-0.02420652,0.09077339,0.00095490355,0,1,0,1
44260000,44180000,44180000,0,1.6321497,0.0,-0.013945699,0.090772845,0.00031694066,0,1,0,1
44332000,44250181,44252000,0,1.6330836,0.0,-0.014829755,0.090772316,0.00035839988,0,1,0,1
44404000,44324000,44324000,0,1.6343777,0.0,-0.016168594,0.09077168,0.00042603715,0,1,0,1
44476000,44394909,44396000,0,1.6306592,0.0,-0.012341976,0.090771146,0.0002482418,0,1,0,1
44548000,44468000,44468000,0,1.6178826,0.0,0.00047528744,0.09077062,3.6814654e-07,0,1,0,1
44620000,44538909,44540000,0,1.6299647,0.0,-0.011657596,0.09077009,0.00022147696,0,1,0,1
44692000,44612000,44612000,0,1.6236353,0.0,-0.005333543,0.090769574,4.6360125e-05,0,1,0,1
44764000,44682909,44684000,0,1.627067,0.0,-0.008805394,0.09076906,0.00012636103,0,1,0,1
44836000,44756000,44756000,0,1.6234128,0.0,-0.005164504,0.09076843,4.3468615e-05,0,1,0,1
44908000,44827272,44828000,0,1.6291846,0.0,-0.011005402,0.090767905,0.0001973935,0,1,0,1
44980000,44900000,44900000,0,1.6651679,0.0,-0.046929717,0.09076738,0.0035893798,0,1,0,1
45052000,44971272,44972000,0,1.6302239,0.0,-0.011669874,0.09076686,0.00022195165,0,1,0,1
45124000,45044000,45044000,0,1.6357878,0.0,-0.01730299,0.09076635,0.0004879449,0,1,0,1
45196000,45114909,45116000,0,1.6215568,0.0,-0.0029274225,0.090765834,1.3966957e-05,0,1,0,1
45268000,45188000,45188000,0,1.640566,0.0,-0.021973014,0.090765186,0.0007868887,0,1,0,1
45340000,45260000,45260000,0,1.6363757,0.0,-0.017735481,0.09076467,0.00051265175,0,1,0,1
45412000,45332000,45332000,0,1.6605197,0.0,-0.041816592,0.09076414,0.002849944,0,1,0,1
45484000,45403272,45404000,0,1.6307464,0.0,-0.011900902,0.09076363,0.00023083479,0,1,0,1
45556000,45476000,45476000,0,1.6472235,0.0,-0.02845645,0.09076313,0.0013197914,0,1,0,1
45628000,45546181,45548000,0,1.63139,0.0,-0.012511969,0.09076246,0.00025515165,0,1,0,1
45700000,45620000,45620000,0,1.6006995,0.0,0.018177986,0.090761945,0.0005385687,0,1,0,1
45772000,45690909,45692000,0,1.6278623,0.0,-0.009275556,0.09076142,0.00014022709,0,1,0,1
45844000,45764000,45764000,0,1.6238388,0.0,-0.0053339005,0.09076091,4.637077e-05,0,1,0,1
45916000,45834181,45836000,0,1.6261475,0.0,-0.0077492,0.090760395,9.787475e-05,0,1,0,1
45988000,45908000,45908000,0,1.6307168,0.0,-0.012386799,0.09075989,0.0002500792,0,1,0,1
46060000,45977818,45980000,0,1.6238726,0.0,-0.0055544376,0.090759225,5.0285496e-05,0,1,0,1
46132000,46052000,46052000,0,1.5994906,0.0,0.018716455,0.09075872,0.00057096855,0,1,0,1
46204000,46123636,46124000,0,1.6274698,0.0,-0.0094720125,0.0907582,0.00014623524,0,1,0,1
46276000,46196000,46196000,0,1.624735,0.0,-0.006793499,0.0907577,7.522408e-05,0,1,0,1
46348000,46266909,46268000,0,1.6220477,0.0,-0.0040848255,0.09075719,2.7196895e-05,0,1,0,1
46420000,46340000,46340000,0,1.6004316,0.0,0.01744163,0.090756536,0.0004958492,0,1,0,1
46492000,46410545,46412000,0,1.6265616,0.0,-0.008959174,0.090756014,0.00013083196,0,1,0,1
46564000,46480000,46484000,0,1.6093656,0.0,0.008333802,0.0907555,0.00011320531,0,1,0,1
46636000,46549200,46556000,0,1.6270038,0.0,-0.00940001,0.09075498,0.00014402554,0,1,0,1
46700000,46616000,46620000,0,1.6056846,0.0,0.012042999,0.090753816,0.00023640561,0,1,0,1
46772000,46687272,46692000,0,1.6279774,0.0,-0.010387063,0.09075331,0.00017586378,0,1,0,1
46836000,46756000,46756000,0,1.6416132,0.0,-0.023910522,0.090752035,0.00093191245,0,1,0,1
46908000,46824800,46828000,0,1.6304014,0.0,-0.012517333,0.09075153,0.00025540125,0,1,0,1
46972000,46892000,46892000,0,1.6438326,0.0,-0.02582562,0.090750374,0.0010871924,0,1,0,1
47044000,46962909,46964000,0,1.6344545,0.0,-0.016187787,0.090749875,0.00042715186,0,1,0,1
47116000,47036000,47036000,0,1.6740288,0.0,-0.05563283,0.090749376,0.0050451257,0,1,0,1
47188000,47107272,47108000,0,1.6271971,0.0,-0.008442998,0.09074888,0.00011619982,0,1,0,1
47260000,47180000,47180000,0,1.6360381,0.0,-0.017221808,0.09074828,0.0004834732,0,1,0,1
47332000,47251272,47252000,0,1.6303782,0.0,-0.011506319,0.09074776,0.0002158193,0,1,0,1
47404000,47324000,47324000,0,1.627712,0.0,-0.008901,0.09074725,0.00012915091,0,1,0,1
47476000,47395636,47396000,0,1.6319699,0.0,-0.0132290125,0.09074673,0.00028528387,0,1,0,1
47548000,47468000,47468000,0,1.6364353,0.0,-0.01775825,0.09074622,0.0005140735,0,1,0,1
47620000,47538909,47540000,0,1.6239903,0.0,-0.005371213,0.090745635,4.7029713e-05,0,1,0,1
47692000,47612000,47612000,0,1.6472358,0.0,-0.028781414,0.090745114,0.001350375,0,1,0,1
47764000,47682909,47684000,0,1.6246634,0.0,-0.0061278343,0.0907446,6.121342e-05,0,1,0,1
47836000,47756000,47756000,0,1.6534935,0.0,-0.034968376,0.09074406,0.0019933614,0,1,0,1
47908000,47826545,47828000,0,1.6301329,0.0,-0.011402607,0.09074354,0.00021195611,0,1,0,1
47980000,47900000,47900000,0,1.6259652,0.0,-0.0073120594,0.09074302,8.7160464e-05,0,1,0,1
48052000,47971636,47972000,0,1.6310041,0.0,-0.012401581,0.09074245,0.0002507246,0,1,0,1
48124000,48044000,48044000,0,1.6296135,0.0,-0.010977507,0.09074191,0.00019645038,0,1,0,1
48196000,48114545,48116000,0,1.6282787,0.0,-0.009685755,0.09074138,0.00015293782,0,1,0,1
48268000,48188000,48188000,0,1.6155392,0.0,0.0029581785,0.090740845,1.4265905e-05,0,1,0,1
48340000,48259636,48260000,0,1.6293086,0.0,-0.010967612,0.09074032,0.00019609982,0,1,0,1
48412000,48332000,48332000,0,1.6186004,0.0,-0.00029075146,0.09073974,1.3781599e-07,0,1,0,1
48484000,48403272,48404000,0,1.6222141,0.0,-0.0040427446,0.090739205,2.664471e-05,0,1,0,1
48556000,48476000,48476000,0,1.6607653,0.0,-0.04271722,0.09073867,0.0029748622,0,1,0,1
48628000,48546909,48548000,0,1.6286302,0.0,-0.01031363,0.09073812,0.00017341501,0,1,0,1
48700000,48620000,48620000,0,1.6042376,0.0,0.01409471,0.09073758,0.00032387578,0,1,0,1
48772000,48691636,48692000,0,1.6207812,0.0,-0.002678275,0.09073704,1.1694432e-05,0,1,0,1
48844000,48764000,48764000,0,1.6375669,0.0,-0.01947999,0.090736456,0.00061865564,0,1,0,1
48916000,48834909,48836000,0,1.6235638,0.0,-0.0053362846,0.090735905,4.6425026e-05,0,1,0,1
48988000,48908000,48908000,0,1.6166989,0.0,0.0014986992,0.09073535,3.6618942e-06,0,1,0,1
49060000,48978545,48980000,0,1.6254654,0.0,-0.0073405504,0.090734795,8.784898e-05,0,1,0,1
49132000,49052000,49052000,0,1.6433917,0.0,-0.025267005,0.09073424,0.0010408537,0,1,0,1
49204000,49123636,49124000,0,1.6181172,0.0,0.00013101101,0.09073366,2.79834e-08,0,1,0,1
49276000,49196000,49196000,0,1.6327095,0.0,-0.0144661665,0.0907331,0.0003411886,0,1,0,1
49348000,49266545,49268000,0,1.619049,0.0,-0.00076413155,0.090732545,9.5197714e-07,0,1,0,1
49420000,49340000,49340000,0,1.6076792,0.0,0.010502458,0.090731986,0.00017983525,0,1,0,1
49492000,49410545,49412000,0,1.6179291,0.0,0.00010740757,0.09073143,1.8808986e-08,0,1,0,1
49564000,49484000,49484000,0,1.6374241,0.0,-0.019501567,0.09073086,0.00062006514,0,1,0,1
49636000,49555636,49556000,0,1.6244814,0.0,-0.006498933,0.09073028,6.886288e-05,0,1,0,1
49708000,49628000,49628000,0,1.629418,0.0,-0.011481643,0.0907297,0.00021493736,0,1,0,1
49780000,49698545,49700000,0,1.6277179,0.0,-0.009765983,0.09072913,0.0001555029,0,1,0,1
49852000,49772000,49772000,0,1.6230329,0.0,-0.0050424337,0.09072856,4.1456224e-05,0,1,0,1
49924000,49841090,49844000,0,1.617954,0.0,7.164478e-05,0.09072799,8.369146e-09,0,1,0,1
49996000,49916000,49916000,0,1.6171513,0.0,0.000829339,0.09072741,1.1214477e-06,0,1,0,1
50068000,49986545,49988000,0,1.6243066,0.0,-0.0063700676,0.090726815,6.616156e-05,0,1,0,1
50140000,50060000,50060000,0,1.6236202,0.0,-0.005714655,0.090726234,5.3247655e-05,0,1,0,1
50212000,50131272,50132000,0,1.6264219,0.0,-0.008504033,0.090725675,0.000117916075,0,1,0,1
50284000,50200000,50204000,0,1.6319782,0.0,-0.014041543,0.09072515,0.000321481,0,1,0,1
50356000,50268800,50276000,0,1.6216371,0.0,-0.003727436,0.09072467,2.265418e-05,0,1,0,1
50420000,50340000,50340000,0,1.6285124,0.0,-0.0107854605,0.09072333,0.00018967572,0,1,0,1
50492000,50406666,50412000,0,1.6194878,0.0,-0.0017957687,0.090722844,5.258205e-06,0,1,0,1
50564000,50478666,50484000,0,1.6135776,0.0,0.0039857626,0.09072233,2.5903715e-05,0,1,0,1
50636000,50549777,50556000,0,1.6247258,0.0,-0.007120967,0.09072176,8.2683684e-05,0,1,0,1
50708000,50622666,50628000,0,1.6298821,0.0,-0.012202859,0.09072118,0.00024281071,0,1,0,1
50772000,50689500,50692000,0,1.6133666,0.0,0.0043951273,0.09072002,3.1498737e-05,0,1,0,1
50844000,50762000,50764000,0,1.621084,0.0,-0.0035750866,0.09071913,2.0841435e-05,0,1,0,1
50916000,50834000,50836000,0,1.6222447,0.0,-0.004778385,0.09071858,3.723226e-05,0,1,0,1
50988000,50905000,50908000,0,1.6218034,0.0,-0.0043326616,0.090718016,3.0610423e-05,0,1,0,1
51060000,50976500,50980000,0,1.6201931,0.0,-0.0025439262,0.0907174,1.0552899e-05,0,1,0,1
51132000,51047000,51052000,0,1.6356555,0.0,-0.017783403,0.09071673,0.00051569834,0,1,0,1
51196000,51114285,51116000,0,1.6166068,0.0,0.0015845299,0.09071551,4.094234e-06,0,1,0,1
51268000,51182000,51188000,0,1.6147897,0.0,0.003228426,0.09071461,1.6996433e-05,0,1,0,1
51340000,51253000,51260000,0,1.6191334,0.0,-0.0011863708,0.09071403,2.2951963e-06,0,1,0,1
51412000,51325000,51332000,0,1.6210474,0.0,-0.0030157566,0.09071341,1.48311365e-05,0,1,0,1
51484000,51397000,51404000,0,1.6191509,0.0,-0.000890851,0.09071272,1.294182e-06,0,1,0,1
51556000,51469000,51476000,0,1.6274252,0.0,-0.009173512,0.09071202,0.00013723341,0,1,0,1
51628000,51541000,51548000,0,1.6095607,0.0,0.008560538,0.090711005,0.000119507604,0,1,0,1
51692000,51608000,51612000,0,1.6340362,0.0,-0.016016483,0.09070982,0.0004183438,0,1,0,1
51764000,51679111,51684000,0,1.6089526,0.0,0.009093523,0.09070924,0.00013485472,0,1,0,1
51828000,51746000,51748000,0,1.6206878,0.0,-0.0027298927,0.090708055,1.2153425e-05,0,1,0,1
51900000,51817200,51820000,0,1.606693,0.0,0.011334419,0.0907074,0.00020951215,0,1,0,1
51964000,51884000,51884000,0,1.5896442,0.0,0.028259039,0.09070621,0.0013023602,0,1,0,1
52036000,51955272,51956000,0,1.6102897,0.0,0.007219553,0.090704985,8.500468e-05,0,1,0,1
52108000,52028000,52028000,0,1.6122468,0.0,0.0051403046,0.0907044,4.30926e-05,0,1,0,1
52180000,52098545,52100000,0,1.6096628,0.0,0.0075844526,0.09070381,9.381587e-05,0,1,0,1
52252000,52172000,52172000,0,1.5991627,0.0,0.018054962,0.090703204,0.00053164765,0,1,0,1
52324000,52242545,52244000,0,1.6092248,0.0,0.0078526735,0.09070266,0.00010056999,0,1,0,1
52396000,52316000,52316000,0,1.6046258,0.0,0.012650728,0.090702094,0.000261016,0,1,0,1
52468000,52387272,52388000,0,1.6125606,0.0,0.0045667887,0.09070051,3.401461e-05,0,1,0,1
52540000,52460000,52460000,0,1.6186352,0.0,-0.0014387369,0.090699926,3.3760525e-06,0,1,0,1
52612000,52531636,52532000,0,1.5953976,0.0,0.021918654,0.09069936,0.0007835684,0,1,0,1
52684000,52604000,52604000,0,1.6355472,0.0,-0.01811397,0.09069881,0.00053515437,0,1,0,1
52756000,52675272,52676000,0,1.6063683,0.0,0.011520743,0.09069829,0.00021647873,0,1,0,1
52828000,52748000,52748000,0,1.6038617,0.0,0.014008045,0.0906963,0.00032005075,0,1,0,1
